index,time(millisecond),timestamp,speed(mph),gpslevel,voltage(v),xSpeed(mph),ySpeed(mph),zSpeed(mph),compass_heading(degrees),pitch(degrees),roll(degrees),rc_elevator,rc_aileron,rc_throttle,rc_rudder,rc_elevator(percent),rc_aileron(percent),rc_throttle(percent),rc_rudder(percent),battery_percent,current(A),battery_temperature(f),ascent(feet),flycState,message,height_above_takeoff(meters)
730,519300,2026-01-07 12:38:40,0.0,5,7.34,0.0,0.0,0.0,22.9,7.4,-0.1,1024,1024,1024,1024,0,0,0,0,63,5.653,73.22,166.666672,P-GPS,,50.8
731,519400,2026-01-07 12:38:40,0.0,5,7.34,0.0,0.0,0.0,22.9,7.0,-0.1,1024,1024,1024,1024,0,0,0,0,63,5.653,73.22,166.666672,P-GPS,,50.8
732,519500,2026-01-07 12:38:40,0.0,5,7.34,0.0,0.0,0.0,22.9,6.7,0.1,1024,1024,1024,1024,0,0,0,0,63,5.653,73.22,166.666672,P-GPS,,50.8
733,519600,2026-01-07 12:38:40,0.0,5,7.348,0.0,0.0,0.0,22.9,6.5,0.2,1024,1024,1024,1024,0,0,0,0,63,4.498,73.22,166.666672,P-GPS,,50.8
734,519700,2026-01-07 12:38:41,0.0,5,7.348,0.0,0.0,0.0,22.9,6.5,0.2,1024,1024,1024,1024,0,0,0,0,63,4.498,73.22,166.666672,P-GPS,,50.8
735,519800,2026-01-07 12:38:41,0.0,5,7.348,0.0,0.0,0.0,22.8,6.7,0.3,1024,1024,1024,1024,0,0,0,0,63,4.498,73.22,166.666672,P-GPS,,50.8
736,519900,2026-01-07 12:38:41,0.0,5,7.348,0.0,0.0,0.0,22.8,6.8,0.4,1024,1024,1024,1024,0,0,0,0,63,4.498,73.22,166.666672,P-GPS,,50.8
737,520000,2026-01-07 12:38:41,0.0,5,7.348,0.0,0.0,0.0,22.9,7.1,0.4,1024,1024,1024,1024,0,0,0,0,63,4.498,73.22,166.666672,P-GPS,,50.8
738,520100,2026-01-07 12:38:41,0.0,5,7.348,0.0,0.0,0.0,22.9,7.2,0.6,1024,1024,1024,1024,0,0,0,0,63,4.498,73.22,166.666672,P-GPS,,50.8
739,520200,2026-01-07 12:38:41,0.0,5,7.348,0.0,0.0,0.0,22.8,7.0,0.5,1024,1024,1024,1024,0,0,0,0,63,4.498,73.22,166.666672,P-GPS,,50.8
740,520300,2026-01-07 12:38:41,0.0,5,7.348,0.0,0.0,0.0,22.7,6.9,0.5,1024,1024,1024,1024,0,0,0,0,63,4.498,73.22,166.666672,P-GPS,,50.8
741,520400,2026-01-07 12:38:41,0.0,5,7.348,0.0,0.0,0.0,22.8,6.2,0.1,1024,1024,1024,1024,0,0,0,0,63,4.498,73.22,166.666672,P-GPS,,50.8
742,520500,2026-01-07 12:38:41,0.0,5,7.348,0.0,0.0,0.0,22.8,6.2,0.1,1024,1024,1024,1024,0,0,0,0,63,4.498,73.22,166.666672,P-GPS,,50.8
743,520600,2026-01-07 12:38:41,0.0,5,7.348,0.0,0.0,0.0,22.8,5.9,1.0,1024,1024,1024,1024,0,0,0,0,63,4.498,73.22,166.666672,P-GPS,,50.8
744,520700,2026-01-07 12:38:42,0.0,5,7.348,0.0,0.0,0.0,22.9,6.5,1.2,1024,1024,1024,1024,0,0,0,0,63,4.498,73.22,166.666672,P-GPS,,50.8
745,520800,2026-01-07 12:38:42,0.0,5,7.348,0.0,0.0,0.0,22.9,6.8,0.8,1024,1024,1024,1024,0,0,0,0,63,4.498,73.22,166.338588,P-GPS,,50.7
746,520900,2026-01-07 12:38:42,0.0,5,7.348,0.0,0.0,0.0,22.9,7.1,0.3,1024,1024,1024,1024,0,0,0,0,63,4.498,73.22,166.338588,P-GPS,,50.7
747,521000,2026-01-07 12:38:42,0.0,5,7.348,0.0,0.0,0.0,22.8,7.0,0.2,1024,1024,1024,1024,0,0,0,0,63,4.498,73.22,166.338588,P-GPS,,50.7
748,521100,2026-01-07 12:38:42,0.0,5,7.348,0.0,0.0,0.0,22.9,6.9,0.3,1024,1024,1024,1024,0,0,0,0,63,4.498,73.22,166.338588,P-GPS,,50.7
749,521200,2026-01-07 12:38:42,0.0,5,7.348,0.0,0.0,0.0,22.8,6.8,0.2,1024,1024,1024,1024,0,0,0,0,63,4.498,73.22,166.010504,P-GPS,,50.6
750,521300,2026-01-07 12:38:42,0.0,5,7.348,0.0,0.0,0.0,22.9,6.6,0.1,1024,1024,1024,1024,0,0,0,0,63,4.498,73.22,166.010504,P-GPS,,50.6
751,521400,2026-01-07 12:38:42,0.0,5,7.348,0.0,0.0,0.0,22.9,6.6,0.3,1024,1024,1024,1024,0,0,0,0,63,4.498,73.22,166.010504,P-GPS,,50.6
752,521500,2026-01-07 12:38:42,0.0,5,7.348,0.0,0.0,0.0,22.9,6.3,0.5,1024,1024,1024,1024,0,0,0,0,63,4.498,73.22,166.010504,P-GPS,,50.6
753,521600,2026-01-07 12:38:42,0.0,5,7.348,0.0,0.0,0.0,22.9,6.4,0.6,1024,1024,1024,1024,0,0,0,0,63,4.498,73.22,165.68242,P-GPS,,50.5
754,521700,2026-01-07 12:38:43,0.0,5,7.348,0.0,0.0,0.0,22.8,6.4,0.8,1024,1024,1024,1024,0,0,0,0,63,4.498,73.22,165.68242,P-GPS,,50.5
755,521800,2026-01-07 12:38:43,0.0,5,7.348,0.0,0.0,0.0,22.8,6.3,0.5,1024,1024,1024,1024,0,0,0,0,63,4.498,73.22,165.68242,P-GPS,,50.5
756,521900,2026-01-07 12:38:43,0.0,5,7.361,0.0,0.0,0.0,22.7,6.6,1.2,1024,1024,1024,1024,0,0,0,0,63,4.501,73.4,165.68242,P-GPS,,50.5
757,522000,2026-01-07 12:38:43,0.0,5,7.361,0.0,0.0,0.0,22.8,6.1,1.4,1024,1024,1024,1024,0,0,0,0,63,4.501,73.4,165.68242,P-GPS,,50.5
758,522100,2026-01-07 12:38:43,0.0,5,7.361,0.0,0.0,0.0,22.8,5.8,1.3,1024,1024,1024,1024,0,0,0,0,63,4.501,73.4,165.68242,P-GPS,,50.5
759,522200,2026-01-07 12:38:43,0.0,5,7.361,0.0,0.0,0.0,22.9,5.6,1.0,1024,1024,1024,1024,0,0,0,0,63,4.501,73.4,165.68242,P-GPS,,50.5
760,522300,2026-01-07 12:38:43,0.0,5,7.361,0.0,0.0,0.0,22.8,5.3,0.7,1024,1024,1024,1024,0,0,0,0,63,4.501,73.4,165.68242,P-GPS,,50.5
761,522400,2026-01-07 12:38:43,0.0,5,7.361,0.0,0.0,0.0,22.8,5.4,0.3,1024,1024,1024,1024,0,0,0,0,63,4.501,73.4,165.68242,P-GPS,,50.5
762,522500,2026-01-07 12:38:43,0.0,5,7.361,0.0,0.0,0.0,22.8,5.5,0.2,1024,1024,1024,1024,0,0,0,0,63,4.501,73.4,165.68242,P-GPS,,50.5
763,522600,2026-01-07 12:38:43,0.0,5,7.361,0.0,0.0,0.0,22.7,5.4,0.4,1024,1024,1024,1024,0,0,0,0,63,4.501,73.4,165.68242,P-GPS,,50.5
764,522700,2026-01-07 12:38:44,0.0,5,7.361,0.0,0.0,0.0,22.7,5.2,0.6,1024,1024,1024,1024,0,0,0,0,63,4.501,73.4,165.68242,P-GPS,,50.5
765,522800,2026-01-07 12:38:44,0.0,5,7.361,0.0,0.0,0.0,22.6,5.1,0.9,1024,1024,1024,1024,0,0,0,0,63,4.501,73.4,165.68242,P-GPS,,50.5
766,522900,2026-01-07 12:38:44,0.0,5,7.361,0.0,0.0,0.0,22.7,5.0,1.6,1024,1024,1024,1024,0,0,0,0,63,4.501,73.4,165.68242,P-GPS,,50.5
767,523000,2026-01-07 12:38:44,0.0,5,7.357,0.0,0.0,0.0,22.8,4.9,1.7,1024,1024,1024,1024,0,0,0,0,63,4.647,73.4,165.68242,P-GPS,,50.5
768,523100,2026-01-07 12:38:44,0.0,5,7.357,0.0,0.0,0.0,22.8,4.6,1.9,1024,1024,1024,1024,0,0,0,0,63,4.647,73.4,165.68242,P-GPS,,50.5
769,523200,2026-01-07 12:38:44,0.0,5,7.357,0.0,0.0,0.0,22.9,4.4,1.7,1024,1024,1024,1024,0,0,0,0,63,4.647,73.4,165.68242,P-GPS,,50.5
770,523300,2026-01-07 12:38:44,0.0,5,7.357,0.0,0.0,0.0,23.0,4.7,1.2,1024,1024,1024,1024,0,0,0,0,63,4.647,73.4,165.68242,P-GPS,,50.5
771,523400,2026-01-07 12:38:44,0.0,5,7.357,0.0,0.0,0.0,23.0,4.9,0.9,1024,1024,1024,1024,0,0,0,0,63,4.647,73.4,165.68242,P-GPS,,50.5
772,523500,2026-01-07 12:38:44,0.0,5,7.357,0.0,0.0,0.0,23.0,5.0,0.6,1024,1024,1024,1024,0,0,0,0,63,4.647,73.4,165.68242,P-GPS,,50.5
773,523600,2026-01-07 12:38:44,0.0,5,7.357,0.0,0.0,0.0,22.9,5.2,0.5,1024,1024,1024,1024,0,0,0,0,63,4.647,73.4,165.68242,P-GPS,,50.5
774,523700,2026-01-07 12:38:45,0.0,5,7.357,0.0,0.0,0.0,23.0,5.1,0.5,1024,1024,1024,1024,0,0,0,0,63,4.647,73.4,165.68242,P-GPS,,50.5
775,523800,2026-01-07 12:38:45,0.0,5,7.357,0.0,0.0,0.0,22.9,4.9,0.4,1024,1024,1024,1024,0,0,0,0,63,4.647,73.4,165.68242,P-GPS,,50.5
776,523900,2026-01-07 12:38:45,0.0,5,7.357,0.0,0.0,0.0,22.9,4.7,0.1,1024,1024,1024,1024,0,0,0,0,63,4.647,73.4,165.68242,P-GPS,,50.5
777,524000,2026-01-07 12:38:45,0.0,5,7.357,0.0,0.0,0.0,22.8,4.6,0.0,1024,1024,1024,1024,0,0,0,0,63,4.647,73.4,165.68242,P-GPS,,50.5
778,524100,2026-01-07 12:38:45,0.0,5,7.351,0.0,0.0,0.0,22.7,4.2,0.3,1024,1024,1024,1024,0,0,0,0,63,4.66,73.22,165.68242,P-GPS,,50.5
779,524200,2026-01-07 12:38:45,0.0,5,7.351,0.0,0.0,0.0,22.8,4.5,0.4,1024,1024,1024,1024,0,0,0,0,63,4.66,73.22,165.68242,P-GPS,,50.5
780,524300,2026-01-07 12:38:45,0.0,5,7.351,0.0,0.0,0.0,22.9,4.7,0.2,1024,1024,1024,1024,0,0,0,0,63,4.66,73.22,165.68242,P-GPS,,50.5
781,524400,2026-01-07 12:38:45,0.0,5,7.351,0.0,0.0,0.0,22.9,4.8,0.0,1024,1024,1024,1024,0,0,0,0,63,4.66,73.22,165.68242,P-GPS,,50.5
782,524500,2026-01-07 12:38:45,0.0,5,7.351,0.0,0.0,0.0,22.9,4.8,-0.3,1024,1024,1024,1024,0,0,0,0,63,4.66,73.22,165.68242,P-GPS,,50.5
783,524600,2026-01-07 12:38:46,0.0,5,7.351,0.0,0.0,0.0,22.9,5.0,-0.3,1024,1024,1024,1024,0,0,0,0,63,4.66,73.22,165.68242,P-GPS,,50.5
784,524700,2026-01-07 12:38:46,0.0,5,7.351,0.0,0.0,0.0,22.9,5.0,-0.4,1024,1024,1024,1024,0,0,0,0,63,4.66,73.22,165.68242,P-GPS,,50.5
785,524800,2026-01-07 12:38:46,0.0,5,7.351,0.0,0.0,0.0,22.8,5.2,-0.3,1024,1024,1024,1024,0,0,0,0,63,4.66,73.22,166.010504,P-GPS,,50.6
786,524900,2026-01-07 12:38:46,0.0,5,7.351,0.0,0.0,0.0,22.8,5.2,-0.2,1024,1024,1024,1024,0,0,0,0,63,4.66,73.22,166.010504,P-GPS,,50.6
787,525000,2026-01-07 12:38:46,0.0,5,7.351,0.0,0.0,0.0,22.8,4.9,0.0,1024,1024,1024,1024,0,0,0,0,63,4.66,73.22,166.010504,P-GPS,,50.6
788,525100,2026-01-07 12:38:46,0.0,5,7.351,0.0,0.0,0.0,22.9,4.7,-0.3,1024,1024,1024,1024,0,0,0,0,63,4.66,73.22,166.010504,P-GPS,,50.6
789,525200,2026-01-07 12:38:46,0.0,5,7.352,0.0,0.0,0.0,23.0,4.6,-0.3,1024,1024,1024,1024,0,0,0,0,63,4.61,73.22,166.010504,P-GPS,,50.6
790,525300,2026-01-07 12:38:46,0.0,5,7.352,0.0,0.0,0.0,23.0,4.9,-0.6,1024,1024,1024,1024,0,0,0,0,63,4.61,73.22,166.010504,P-GPS,,50.6
791,525400,2026-01-07 12:38:46,0.0,5,7.352,0.0,0.0,0.0,22.8,5.2,-0.7,1024,1024,1024,1024,0,0,0,0,63,4.61,73.22,166.010504,P-GPS,,50.6
792,525500,2026-01-07 12:38:46,0.0,5,7.352,0.0,0.0,0.0,22.8,5.3,-0.5,1024,1024,1024,1024,0,0,0,0,63,4.61,73.22,166.010504,P-GPS,,50.6
793,525600,2026-01-07 12:38:46,0.0,5,7.352,0.0,0.0,0.0,22.8,5.5,0.1,1024,1024,1024,1024,0,0,0,0,63,4.61,73.22,166.010504,P-GPS,,50.6
794,525700,2026-01-07 12:38:47,0.0,5,7.352,0.0,0.0,0.0,22.9,5.6,0.5,1024,1024,1024,1024,0,0,0,0,63,4.61,73.22,166.010504,P-GPS,,50.6
795,525800,2026-01-07 12:38:47,0.0,5,7.352,0.0,0.0,0.0,22.9,5.5,0.7,1024,1024,1024,1024,0,0,0,0,63,4.61,73.22,166.010504,P-GPS,,50.6
796,525900,2026-01-07 12:38:47,0.0,5,7.352,0.0,0.0,0.0,22.9,5.4,0.5,1024,1024,1024,1024,0,0,0,0,63,4.61,73.22,166.010504,P-GPS,,50.6
797,526000,2026-01-07 12:38:47,0.0,5,7.352,0.0,0.0,0.0,23.0,5.4,0.3,1024,1024,1024,1024,0,0,0,0,63,4.61,73.22,166.010504,P-GPS,,50.6
798,526100,2026-01-07 12:38:47,0.0,5,7.352,0.0,0.0,0.0,23.0,5.4,-0.2,1024,1024,1024,1024,0,0,0,0,63,4.61,73.22,166.010504,P-GPS,,50.6
799,526200,2026-01-07 12:38:47,0.0,5,7.352,0.0,0.0,0.0,23.0,5.4,-0.5,1024,1024,1024,1024,0,0,0,0,63,4.61,73.22,166.010504,P-GPS,,50.6
800,526300,2026-01-07 12:38:47,0.0,5,7.365,0.0,0.0,0.0,22.9,5.5,-0.7,1024,1024,1024,1024,0,0,0,0,62,4.539,73.22,166.010504,P-GPS,,50.6
801,526400,2026-01-07 12:38:47,0.0,5,7.365,0.0,0.0,0.0,22.9,5.3,-0.7,1024,1024,1024,1024,0,0,0,0,62,4.539,73.22,166.010504,P-GPS,,50.6
802,526500,2026-01-07 12:38:47,0.0,5,7.365,0.0,0.0,0.0,23.0,5.0,0.0,1024,1024,1024,1024,0,0,0,0,62,4.539,73.22,166.010504,P-GPS,,50.6
803,526600,2026-01-07 12:38:48,0.0,5,7.365,0.0,0.0,0.0,22.9,4.9,0.0,1024,1024,1024,1024,0,0,0,0,62,4.539,73.22,166.010504,P-GPS,,50.6
804,526700,2026-01-07 12:38:48,0.0,5,7.365,0.0,0.0,0.0,22.9,4.9,-0.2,1024,1024,1024,1024,0,0,0,0,62,4.539,73.22,166.010504,P-GPS,,50.6
805,526800,2026-01-07 12:38:48,0.0,5,7.365,0.0,0.0,0.0,22.9,4.9,0.2,1024,1024,1024,1024,0,0,0,0,62,4.539,73.22,166.010504,P-GPS,,50.6
806,526900,2026-01-07 12:38:48,0.0,5,7.365,0.0,0.0,0.0,22.8,5.0,0.3,1024,1024,1024,1024,0,0,0,0,62,4.539,73.22,166.010504,P-GPS,,50.6
807,527000,2026-01-07 12:38:48,0.0,5,7.365,0.0,0.0,0.0,22.7,4.6,0.3,1024,1024,1024,1024,0,0,0,0,62,4.539,73.22,166.010504,P-GPS,,50.6
808,527100,2026-01-07 12:38:48,0.0,5,7.365,0.0,0.0,0.0,22.5,4.1,0.8,1024,1024,1024,1024,0,0,0,0,62,4.539,73.22,166.010504,P-GPS,,50.6
809,527200,2026-01-07 12:38:48,0.0,5,7.365,0.0,0.0,0.0,22.5,4.1,1.3,1024,1024,1024,1024,0,0,0,0,62,4.539,73.22,166.010504,P-GPS,,50.6
810,527300,2026-01-07 12:38:48,0.223694,5,7.365,0.0,-0.223694,0.0,22.6,4.3,2.2,1024,1024,1024,1024,0,0,0,0,62,4.539,73.22,166.010504,P-GPS,,50.6
811,527400,2026-01-07 12:38:48,0.0,5,7.354,0.0,0.0,0.0,22.7,4.6,2.4,1024,1024,1024,1024,0,0,0,0,62,4.642,73.22,166.010504,P-GPS,,50.6
812,527500,2026-01-07 12:38:48,0.0,5,7.354,0.0,0.0,0.0,22.7,4.8,2.7,1024,1024,1024,1024,0,0,0,0,62,4.642,73.22,166.010504,P-GPS,,50.6
813,527600,2026-01-07 12:38:48,0.0,5,7.354,0.0,0.0,0.0,22.7,5.0,2.7,1024,1024,1024,1024,0,0,0,0,62,4.642,73.22,166.010504,P-GPS,,50.6
814,527700,2026-01-07 12:38:49,0.0,5,7.354,0.0,0.0,0.0,22.7,5.1,2.6,1024,1024,1024,1024,0,0,0,0,62,4.642,73.22,166.010504,P-GPS,,50.6
815,527800,2026-01-07 12:38:49,0.0,5,7.354,0.0,0.0,0.0,22.7,5.2,2.7,1024,1024,1024,1024,0,0,0,0,62,4.642,73.22,166.010504,P-GPS,,50.6
816,527900,2026-01-07 12:38:49,0.0,5,7.354,0.0,0.0,0.0,22.7,5.5,2.9,1024,1024,1024,1024,0,0,0,0,62,4.642,73.22,166.010504,P-GPS,,50.6
817,528000,2026-01-07 12:38:49,0.0,5,7.354,0.0,0.0,0.0,22.7,5.4,2.8,1024,1024,1024,1024,0,0,0,0,62,4.642,73.22,166.010504,P-GPS,,50.6
818,528100,2026-01-07 12:38:49,0.0,5,7.354,0.0,0.0,0.0,22.7,5.4,2.8,1024,1024,1024,1024,0,0,0,0,62,4.642,73.22,166.010504,P-GPS,,50.6
819,528200,2026-01-07 12:38:49,0.0,5,7.354,0.0,0.0,0.0,22.7,5.5,2.8,1024,1024,1024,1024,0,0,0,0,62,4.642,73.22,166.010504,P-GPS,,50.6
820,528300,2026-01-07 12:38:49,0.0,5,7.354,0.0,0.0,0.0,22.7,5.6,3.1,1024,1024,1024,1024,0,0,0,0,62,4.642,73.22,166.010504,P-GPS,,50.6
821,528400,2026-01-07 12:38:49,0.0,5,7.354,0.0,0.0,0.0,22.7,5.5,2.8,1024,1024,1024,1024,0,0,0,0,62,4.642,73.22,166.010504,P-GPS,,50.6
822,528500,2026-01-07 12:38:49,0.0,5,7.354,0.0,0.0,0.0,22.7,5.5,2.9,1024,1024,1024,1024,0,0,0,0,62,4.642,73.22,166.010504,P-GPS,,50.6
823,528600,2026-01-07 12:38:49,0.0,5,7.362,0.0,0.0,0.0,22.7,5.2,2.8,1024,1024,1024,1024,0,0,0,0,62,4.529,73.22,166.010504,P-GPS,,50.6
824,528700,2026-01-07 12:38:50,0.0,5,7.362,0.0,0.0,0.0,22.8,5.2,2.5,1024,1024,1024,1024,0,0,0,0,62,4.529,73.22,166.010504,P-GPS,,50.6
825,528800,2026-01-07 12:38:50,0.0,5,7.362,0.0,0.0,0.0,22.8,5.2,2.5,1024,1024,1024,1024,0,0,0,0,62,4.529,73.22,166.010504,P-GPS,Gimbal stuck. SD card speed low SD card speed low. Normal use may be affected. Replace SD card (Code: 10028). Gimbal stuck. Make sure gimbal cover is removed and manually check whether gimbal can rotate freely (Code: 40002). SD card speed low. Normal use may be affected. Replace SD,50.6
826,528900,2026-01-07 12:38:50,0.0,5,7.362,0.0,0.0,0.0,22.8,5.3,2.7,1024,1024,1024,1024,0,0,0,0,62,4.529,73.22,166.010504,P-GPS,,50.6
827,529000,2026-01-07 12:38:50,0.0,5,7.362,0.0,0.0,0.0,22.8,5.3,2.8,1024,1024,1024,1024,0,0,0,0,62,4.529,73.22,166.010504,P-GPS,,50.6
828,529100,2026-01-07 12:38:50,0.0,5,7.362,0.0,0.0,0.0,22.8,5.0,2.7,1024,1024,1024,1024,0,0,0,0,62,4.529,73.22,166.010504,P-GPS,,50.6
829,529200,2026-01-07 12:38:50,0.0,5,7.362,0.0,0.0,0.0,22.7,5.1,2.7,1024,1024,1024,1024,0,0,0,0,62,4.529,73.22,166.010504,P-GPS,,50.6
830,529300,2026-01-07 12:38:50,0.0,5,7.362,0.0,0.0,0.0,22.7,5.1,2.8,1024,1024,1024,1024,0,0,0,0,62,4.529,73.22,166.010504,P-GPS,Gimbal stuck. SD card speed low SD card speed low. Normal use may be affected. Replace SD card (Code: 10028). Gimbal stuck. Make sure gimbal cover is removed and manually check whether gimbal can rotate freely (Code: 40002). SD card speed low. Normal use may be affected. Replace SD,50.6
831,529400,2026-01-07 12:38:50,0.0,5,7.362,0.0,0.0,0.0,22.8,5.2,2.8,1024,1024,1024,1024,0,0,0,0,62,4.529,73.22,166.010504,P-GPS,,50.6
832,529500,2026-01-07 12:38:50,0.0,5,7.362,0.0,0.0,0.0,22.8,5.2,2.9,1024,1024,1024,1024,0,0,0,0,62,4.529,73.22,166.010504,P-GPS,,50.6
833,529600,2026-01-07 12:38:50,0.0,5,7.362,0.0,0.0,0.0,22.7,5.3,2.8,1024,1024,1024,1024,0,0,0,0,62,4.529,73.22,166.010504,P-GPS,,50.6
834,529700,2026-01-07 12:38:51,0.0,5,7.362,0.0,0.0,0.0,22.8,6.0,2.9,1024,1024,1024,1024,0,0,0,0,62,4.529,73.22,166.010504,P-GPS,,50.6
835,529800,2026-01-07 12:38:51,0.0,5,7.362,0.0,0.0,0.0,22.8,6.2,2.7,1024,1024,1024,1024,0,0,0,0,62,4.529,73.22,166.010504,P-GPS,,50.6
836,529900,2026-01-07 12:38:51,0.0,5,7.362,0.0,0.0,0.0,22.8,6.1,2.9,1024,1024,1024,1024,0,0,0,0,62,4.529,73.22,166.010504,P-GPS,,50.6
837,530000,2026-01-07 12:38:51,0.0,5,7.362,0.0,0.0,0.0,22.8,6.3,2.7,1024,1024,1024,1024,0,0,0,0,62,4.529,73.22,165.68242,P-GPS,,50.5
838,530100,2026-01-07 12:38:51,0.0,5,7.362,0.0,0.0,0.0,22.8,6.4,2.4,1024,1024,1024,1024,0,0,0,0,62,4.529,73.22,165.68242,P-GPS,,50.5
839,530200,2026-01-07 12:38:51,0.0,5,7.362,0.0,0.0,0.0,22.8,6.8,2.3,1024,1024,1024,1024,0,0,0,0,62,4.529,73.22,165.68242,P-GPS,,50.5
840,530300,2026-01-07 12:38:51,0.0,5,7.362,0.0,0.0,0.0,22.9,6.7,2.2,1024,1024,1024,1024,0,0,0,0,62,4.529,73.22,165.68242,P-GPS,,50.5
841,530400,2026-01-07 12:38:51,0.0,5,7.362,0.0,0.0,0.0,22.9,6.2,2.0,1024,1024,1024,1024,0,0,0,0,62,4.529,73.22,165.68242,P-GPS,,50.5
842,530500,2026-01-07 12:38:51,0.0,5,7.362,0.0,0.0,0.0,23.0,6.0,1.9,1024,1024,1024,1024,0,0,0,0,62,4.529,73.22,165.68242,P-GPS,,50.5
843,530600,2026-01-07 12:38:51,0.0,5,7.362,0.0,0.0,0.0,22.9,6.2,1.8,1024,1024,1024,1024,0,0,0,0,62,4.529,73.22,165.68242,P-GPS,,50.5
844,530700,2026-01-07 12:38:52,0.0,5,7.362,0.0,0.0,0.0,22.9,6.3,2.0,1024,1024,1024,1024,0,0,0,0,62,4.529,73.22,165.68242,P-GPS,,50.5
845,530800,2026-01-07 12:38:52,0.0,5,7.359,0.0,0.0,0.0,22.9,6.3,2.6,1024,1024,1024,1024,0,0,0,0,62,4.527,73.22,165.68242,P-GPS,,50.5
846,530900,2026-01-07 12:38:52,0.0,5,7.359,0.0,0.0,0.0,22.8,6.4,2.6,1024,1024,1024,1024,0,0,0,0,62,4.527,73.22,165.68242,P-GPS,,50.5
847,531000,2026-01-07 12:38:52,0.0,5,7.359,0.0,0.0,0.0,22.8,6.0,2.9,1024,1024,1024,1024,0,0,0,0,62,4.527,73.22,165.68242,P-GPS,,50.5
848,531100,2026-01-07 12:38:52,0.0,5,7.359,0.0,0.0,0.0,22.8,5.7,3.1,1024,1024,1024,1024,0,0,0,0,62,4.527,73.22,165.68242,P-GPS,,50.5
849,531200,2026-01-07 12:38:52,0.0,5,7.359,0.0,0.0,0.0,22.8,5.6,3.3,1024,1024,1024,1024,0,0,0,0,62,4.527,73.22,165.68242,P-GPS,,50.5
850,531300,2026-01-07 12:38:52,0.0,5,7.359,0.0,0.0,0.0,22.9,5.4,3.2,1024,1024,1024,1024,0,0,0,0,62,4.527,73.22,165.68242,P-GPS,,50.5
851,531400,2026-01-07 12:38:52,0.0,5,7.359,0.0,0.0,0.0,22.9,5.6,3.0,1024,1024,1024,1024,0,0,0,0,62,4.527,73.22,165.68242,P-GPS,,50.5
852,531500,2026-01-07 12:38:52,0.0,5,7.359,0.0,0.0,0.0,22.9,5.8,3.2,1024,1024,1024,1024,0,0,0,0,62,4.527,73.22,165.68242,P-GPS,,50.5
853,531600,2026-01-07 12:38:52,0.0,5,7.359,0.0,0.0,0.0,22.9,5.9,3.3,1024,1024,1024,1024,0,0,0,0,62,4.527,73.22,165.68242,P-GPS,,50.5
854,531700,2026-01-07 12:38:52,0.0,5,7.359,0.0,0.0,0.0,22.9,6.0,3.4,1024,1024,1024,1024,0,0,0,0,62,4.527,73.22,165.68242,P-GPS,,50.5
855,531800,2026-01-07 12:38:53,0.0,5,7.359,0.0,0.0,0.0,22.9,5.9,3.3,1024,1024,1024,1024,0,0,0,0,62,4.527,73.22,165.68242,P-GPS,,50.5
856,531900,2026-01-07 12:38:53,0.0,5,7.351,0.0,0.0,0.0,22.9,5.9,3.3,1024,1024,1024,1024,0,0,0,0,62,4.661,73.22,165.68242,P-GPS,,50.5
857,532000,2026-01-07 12:38:53,0.0,5,7.351,0.0,0.0,0.0,22.9,6.0,3.1,1024,1024,1024,1024,0,0,0,0,62,4.661,73.22,165.68242,P-GPS,,50.5
858,532100,2026-01-07 12:38:53,0.0,5,7.351,0.0,0.0,0.0,22.9,6.0,3.4,1024,1024,1024,1024,0,0,0,0,62,4.661,73.22,165.68242,P-GPS,,50.5
859,532200,2026-01-07 12:38:53,0.0,5,7.351,0.0,0.0,0.0,22.9,6.0,3.4,1024,1024,1024,1024,0,0,0,0,62,4.661,73.22,165.68242,P-GPS,,50.5
860,532300,2026-01-07 12:38:53,0.0,5,7.351,0.0,0.0,0.0,22.9,6.0,3.3,1024,1024,1024,1024,0,0,0,0,62,4.661,73.22,165.68242,P-GPS,,50.5
861,532400,2026-01-07 12:38:53,0.0,5,7.351,0.0,0.0,0.0,22.9,6.0,3.1,1024,1024,1024,1024,0,0,0,0,62,4.661,73.22,165.68242,P-GPS,,50.5
862,532500,2026-01-07 12:38:53,0.0,5,7.351,0.0,0.0,0.0,22.9,6.1,3.1,1024,1024,1024,1024,0,0,0,0,62,4.661,73.22,165.68242,P-GPS,,50.5
863,532600,2026-01-07 12:38:53,0.0,5,7.351,0.0,0.0,0.0,22.9,5.9,2.9,1024,1024,1024,1024,0,0,0,0,62,4.661,73.22,165.68242,P-GPS,,50.5
864,532700,2026-01-07 12:38:54,0.0,5,7.351,0.0,0.0,0.0,22.9,5.5,3.0,1024,1024,1024,1024,0,0,0,0,62,4.661,73.22,165.68242,P-GPS,,50.5
865,532800,2026-01-07 12:38:54,0.0,5,7.351,0.0,0.0,0.0,22.9,5.6,3.0,1024,1024,1024,1024,0,0,0,0,62,4.661,73.22,165.68242,P-GPS,,50.5
866,532900,2026-01-07 12:38:54,0.0,5,7.351,0.0,0.0,0.0,22.9,5.5,3.2,1024,1024,1024,1024,0,0,0,0,62,4.661,73.22,165.68242,P-GPS,,50.5
867,533000,2026-01-07 12:38:54,0.0,5,7.349,0.0,0.0,0.0,22.9,6.1,3.2,1024,1024,1024,1024,0,0,0,0,62,4.674,73.22,165.68242,P-GPS,,50.5
868,533100,2026-01-07 12:38:54,0.0,5,7.349,0.0,0.0,0.0,23.0,6.1,3.2,1024,1024,1024,1024,0,0,0,0,62,4.674,73.22,165.68242,P-GPS,,50.5
869,533200,2026-01-07 12:38:54,0.0,5,7.349,0.0,0.0,0.0,22.9,6.3,3.1,1024,1024,1024,1024,0,0,0,0,62,4.674,73.22,165.68242,P-GPS,,50.5
870,533300,2026-01-07 12:38:54,0.0,5,7.349,0.0,0.0,0.0,23.0,6.5,2.9,1024,1024,1024,1024,0,0,0,0,62,4.674,73.22,165.68242,P-GPS,,50.5
871,533400,2026-01-07 12:38:54,0.0,5,7.349,0.0,0.0,0.0,23.0,6.2,2.8,1024,1024,1024,1024,0,0,0,0,62,4.674,73.22,165.354336,P-GPS,,50.4
872,533500,2026-01-07 12:38:54,0.0,5,7.349,0.0,0.0,0.0,22.9,5.9,2.9,1024,1024,1024,1024,0,0,0,0,62,4.674,73.22,165.68242,P-GPS,,50.5
873,533600,2026-01-07 12:38:55,0.0,5,7.349,0.0,0.0,0.0,22.9,6.1,3.0,1024,1024,1024,1024,0,0,0,0,62,4.674,73.22,165.68242,P-GPS,,50.5
874,533700,2026-01-07 12:38:55,0.0,5,7.349,0.0,0.0,0.0,22.9,5.8,3.2,1024,1024,1024,1024,0,0,0,0,62,4.674,73.22,165.68242,P-GPS,,50.5
875,533800,2026-01-07 12:38:55,0.0,5,7.349,0.0,0.0,0.0,22.9,5.7,3.2,1024,1024,1024,1024,0,0,0,0,62,4.674,73.22,165.68242,P-GPS,,50.5
876,533900,2026-01-07 12:38:55,0.0,5,7.349,0.0,0.0,0.0,22.9,5.6,3.2,1024,1024,1024,1024,0,0,0,0,62,4.674,73.22,165.68242,P-GPS,,50.5
877,534000,2026-01-07 12:38:55,0.0,5,7.349,0.0,0.0,0.0,22.8,5.6,3.3,1024,1024,1024,1024,0,0,0,0,62,4.674,73.22,165.68242,P-GPS,,50.5
878,534100,2026-01-07 12:38:55,0.0,5,7.349,0.0,0.0,0.0,22.9,5.4,3.3,1024,1024,1024,1024,0,0,0,0,62,4.674,73.22,165.68242,P-GPS,,50.5
879,534200,2026-01-07 12:38:55,0.0,5,7.351,0.0,0.0,0.0,22.9,5.4,3.3,1024,1024,1024,1024,0,0,0,0,62,4.709,73.4,165.68242,P-GPS,,50.5
880,534300,2026-01-07 12:38:55,0.0,5,7.351,0.0,0.0,0.0,22.9,5.7,3.6,1024,1024,1024,1024,0,0,0,0,62,4.709,73.4,165.68242,P-GPS,,50.5
881,534400,2026-01-07 12:38:55,0.0,5,7.351,0.0,0.0,0.0,22.9,5.5,3.5,1024,1024,1024,1024,0,0,0,0,62,4.709,73.4,165.68242,P-GPS,,50.5
882,534500,2026-01-07 12:38:55,0.0,5,7.351,0.0,0.0,0.0,22.9,5.9,3.6,1024,1024,1024,1024,0,0,0,0,62,4.709,73.4,165.68242,P-GPS,,50.5
883,534600,2026-01-07 12:38:55,0.0,5,7.351,0.0,0.0,0.0,22.9,6.1,3.7,1024,1024,1024,1024,0,0,0,0,62,4.709,73.4,165.68242,P-GPS,,50.5
884,534700,2026-01-07 12:38:56,0.0,5,7.351,0.0,0.0,0.0,23.0,6.1,3.7,1024,1024,1024,1024,0,0,0,0,62,4.709,73.4,165.68242,P-GPS,,50.5
885,534800,2026-01-07 12:38:56,0.0,5,7.351,0.0,0.0,0.0,23.0,5.9,3.5,1024,1024,1024,1024,0,0,0,0,62,4.709,73.4,165.68242,P-GPS,,50.5
886,534900,2026-01-07 12:38:56,0.0,5,7.351,0.0,0.0,0.0,23.0,6.1,3.4,1024,1024,1024,1024,0,0,0,0,62,4.709,73.4,165.68242,P-GPS,,50.5
887,535000,2026-01-07 12:38:56,0.0,5,7.351,0.0,0.0,0.0,23.0,6.0,3.6,1024,1024,1024,1024,0,0,0,0,62,4.709,73.4,165.68242,P-GPS,,50.5
888,535100,2026-01-07 12:38:56,0.0,5,7.351,0.0,0.0,0.0,23.0,5.9,3.8,1024,1024,1024,1024,0,0,0,0,62,4.709,73.4,165.68242,P-GPS,,50.5
889,535200,2026-01-07 12:38:56,0.0,5,7.351,0.0,0.0,0.0,22.9,6.1,3.8,1024,1024,1024,1024,0,0,0,0,62,4.709,73.4,165.68242,P-GPS,,50.5
890,535300,2026-01-07 12:38:56,0.0,5,7.354,0.0,0.0,0.0,22.9,6.1,3.9,1024,1024,1024,1024,0,0,0,0,62,4.455,73.4,165.68242,P-GPS,,50.5
891,535400,2026-01-07 12:38:56,0.0,5,7.354,0.0,0.0,0.0,22.9,6.1,4.0,1024,1024,1024,1024,0,0,0,0,62,4.455,73.4,165.68242,P-GPS,,50.5
892,535500,2026-01-07 12:38:56,0.0,5,7.354,0.0,0.0,0.0,23.0,6.0,3.9,1024,1024,1024,1024,0,0,0,0,62,4.455,73.4,165.68242,P-GPS,,50.5
893,535600,2026-01-07 12:38:56,0.0,5,7.354,0.0,0.0,0.0,23.0,6.0,3.7,1024,1024,1024,1024,0,0,0,0,62,4.455,73.4,165.68242,P-GPS,,50.5
894,535700,2026-01-07 12:38:57,0.0,5,7.354,0.0,0.0,0.0,23.0,5.7,3.6,1024,1024,1024,1024,0,0,0,0,62,4.455,73.4,165.68242,P-GPS,,50.5
895,535800,2026-01-07 12:38:57,0.0,5,7.354,0.0,0.0,0.0,23.0,5.8,3.4,1024,1024,1024,1024,0,0,0,0,62,4.455,73.4,165.68242,P-GPS,,50.5
896,535900,2026-01-07 12:38:57,0.0,5,7.354,0.0,0.0,0.0,22.9,5.9,3.8,1024,1024,1024,1024,0,0,0,0,62,4.455,73.4,165.68242,P-GPS,,50.5
897,536000,2026-01-07 12:38:57,0.0,5,7.354,0.0,0.0,0.0,22.8,4.9,3.9,1024,1024,1024,1024,0,0,0,0,62,4.455,73.4,165.68242,P-GPS,,50.5
898,536100,2026-01-07 12:38:57,0.0,5,7.354,0.0,0.0,0.0,22.7,5.2,3.7,1024,1024,1024,1024,0,0,0,0,62,4.455,73.4,165.354336,P-GPS,,50.4
899,536200,2026-01-07 12:38:57,0.0,5,7.354,0.0,0.0,0.0,22.8,6.3,3.6,1024,1024,1024,1024,0,0,0,0,62,4.455,73.4,165.354336,P-GPS,,50.4
900,536300,2026-01-07 12:38:57,0.0,5,7.354,0.0,0.0,0.0,22.8,6.6,3.4,1024,1024,1024,1024,0,0,0,0,62,4.455,73.4,165.026252,P-GPS,,50.3
901,536400,2026-01-07 12:38:57,0.0,5,7.354,0.0,0.0,0.0,22.9,7.2,3.2,1024,1024,1024,1024,0,0,0,0,62,4.429,73.4,165.026252,P-GPS,,50.3
902,536500,2026-01-07 12:38:57,0.0,5,7.354,0.0,0.0,0.0,22.9,7.4,2.9,1024,1024,1024,1024,0,0,0,0,62,4.429,73.4,164.698168,P-GPS,,50.2
903,536600,2026-01-07 12:38:57,0.223694,5,7.354,0.0,0.223694,0.0,22.9,7.2,2.2,1024,1024,1024,1024,0,0,0,0,62,4.429,73.4,164.370084,P-GPS,,50.1
904,536700,2026-01-07 12:38:58,0.0,5,7.354,0.0,0.0,0.0,22.9,7.4,2.2,1024,1024,1024,1024,0,0,0,0,62,4.429,73.4,164.370084,P-GPS,,50.1
905,536800,2026-01-07 12:38:58,0.0,5,7.354,0.0,0.0,0.0,22.9,7.8,2.6,1024,1024,1024,1024,0,0,0,0,62,4.429,73.4,164.370084,P-GPS,,50.1
906,536900,2026-01-07 12:38:58,0.0,5,7.354,0.0,0.0,0.0,22.8,8.1,2.7,1024,1024,1024,1024,0,0,0,0,62,4.429,73.4,164.042,P-GPS,,50.0
907,537000,2026-01-07 12:38:58,0.0,5,7.354,0.0,0.0,0.0,22.8,7.8,2.5,1024,1024,1024,1024,0,0,0,0,62,4.429,73.4,164.042,P-GPS,,50.0
908,537100,2026-01-07 12:38:58,0.0,5,7.354,0.0,0.0,0.0,22.8,7.7,3.1,1024,1024,1024,1024,0,0,0,0,62,4.429,73.4,164.042,P-GPS,,50.0
909,537200,2026-01-07 12:38:58,0.0,5,7.354,0.0,0.0,0.0,22.9,7.7,3.7,1024,1024,1024,1024,0,0,0,0,62,4.429,73.4,164.042,P-GPS,,50.0
910,537300,2026-01-07 12:38:58,0.0,5,7.354,0.0,0.0,0.0,23.0,7.7,3.8,1024,1024,1024,1024,0,0,0,0,62,4.429,73.4,164.042,P-GPS,,50.0
911,537400,2026-01-07 12:38:58,0.0,5,7.354,0.0,0.0,0.0,23.0,7.4,3.3,1024,1024,1024,1024,0,0,0,0,62,4.429,73.4,164.042,P-GPS,,50.0
912,537500,2026-01-07 12:38:58,0.0,5,7.37,0.0,0.0,0.0,23.0,7.3,2.8,1024,1024,1024,1024,0,0,0,0,62,4.265,73.4,163.713916,P-GPS,,49.9
913,537600,2026-01-07 12:38:58,0.0,5,7.37,0.0,0.0,0.0,23.0,7.4,2.8,1024,1024,1024,1024,0,0,0,0,62,4.265,73.4,163.713916,P-GPS,,49.9
914,537700,2026-01-07 12:38:59,0.0,5,7.37,0.0,0.0,0.0,23.1,7.4,2.9,1024,1024,1024,1024,0,0,0,0,62,4.265,73.4,163.713916,P-GPS,,49.9
915,537800,2026-01-07 12:38:59,0.0,5,7.37,0.0,0.0,0.0,23.1,7.8,2.9,1024,1024,1024,1024,0,0,0,0,62,4.265,73.4,163.713916,P-GPS,,49.9
916,537900,2026-01-07 12:38:59,0.0,5,7.37,0.0,0.0,0.0,23.2,7.7,2.6,1024,1024,1024,1024,0,0,0,0,62,4.265,73.4,163.713916,P-GPS,,49.9
917,538000,2026-01-07 12:38:59,0.0,5,7.37,0.0,0.0,0.0,23.1,7.5,1.9,1024,1024,1024,1024,0,0,0,0,62,4.265,73.4,163.713916,P-GPS,,49.9
918,538100,2026-01-07 12:38:59,0.0,5,7.37,0.0,0.0,0.0,23.1,6.6,2.2,1024,1024,1024,1024,0,0,0,0,62,4.265,73.4,163.713916,P-GPS,,49.9
919,538200,2026-01-07 12:38:59,0.0,5,7.37,0.0,0.0,0.0,23.0,6.4,2.3,1024,1024,1024,1024,0,0,0,0,62,4.265,73.4,163.713916,P-GPS,,49.9
920,538300,2026-01-07 12:38:59,0.0,5,7.37,0.0,0.0,0.0,22.9,6.4,2.5,1024,1024,1024,1024,0,0,0,0,62,4.265,73.4,163.713916,P-GPS,,49.9
921,538400,2026-01-07 12:38:59,0.0,5,7.37,0.0,0.0,0.0,23.0,6.3,2.6,1024,1024,1024,1024,0,0,0,0,62,4.265,73.4,163.713916,P-GPS,,49.9
922,538500,2026-01-07 12:38:59,0.0,5,7.37,0.0,0.0,0.0,23.1,6.5,2.4,1024,1024,1024,1024,0,0,0,0,62,4.265,73.4,163.713916,P-GPS,,49.9
923,538600,2026-01-07 12:38:59,0.0,5,7.365,0.0,0.0,0.0,23.1,6.6,1.8,1024,1024,1024,1024,0,0,0,0,62,4.298,73.4,163.713916,P-GPS,,49.9
924,538700,2026-01-07 12:38:59,0.0,5,7.365,0.0,0.0,0.0,23.1,7.0,1.8,1024,1024,1024,1024,0,0,0,0,62,4.298,73.4,163.713916,P-GPS,,49.9
925,538800,2026-01-07 12:39:00,0.0,5,7.365,0.0,0.0,0.0,23.1,7.6,1.6,1024,1024,1024,1024,0,0,0,0,62,4.298,73.4,163.713916,P-GPS,,49.9
926,538900,2026-01-07 12:39:00,0.0,5,7.365,0.0,0.0,0.0,23.1,7.8,1.0,1024,1024,1024,1024,0,0,0,0,62,4.298,73.4,163.713916,P-GPS,,49.9
927,539000,2026-01-07 12:39:00,0.0,5,7.365,0.0,0.0,0.0,23.1,7.1,0.9,1024,1024,1024,1024,0,0,0,0,62,4.298,73.4,163.713916,P-GPS,,49.9
928,539100,2026-01-07 12:39:00,0.0,5,7.365,0.0,0.0,0.0,23.0,6.9,1.0,1024,1024,1024,1024,0,0,0,0,62,4.298,73.4,163.713916,P-GPS,,49.9
929,539200,2026-01-07 12:39:00,0.0,5,7.365,0.0,0.0,0.0,22.9,6.8,1.3,1024,1024,1024,1024,0,0,0,0,62,4.298,73.4,164.042,P-GPS,,50.0
930,539300,2026-01-07 12:39:00,0.0,5,7.365,0.0,0.0,0.0,22.8,6.6,1.7,1024,1024,1024,1024,0,0,0,0,62,4.298,73.4,164.042,P-GPS,,50.0
931,539400,2026-01-07 12:39:00,0.0,5,7.365,0.0,0.0,0.0,23.0,6.5,2.1,1024,1024,1024,1024,0,0,0,0,62,4.298,73.4,164.042,P-GPS,,50.0
932,539500,2026-01-07 12:39:00,0.0,5,7.365,0.0,0.0,0.0,22.9,6.4,2.0,1024,1024,1024,1024,0,0,0,0,62,4.298,73.4,164.042,P-GPS,,50.0
933,539600,2026-01-07 12:39:00,0.0,5,7.365,0.0,0.0,0.0,22.8,6.5,2.2,1024,1024,1024,1024,0,0,0,0,62,4.298,73.4,164.370084,P-GPS,,50.1
934,539700,2026-01-07 12:39:01,0.0,5,7.365,0.0,0.0,0.0,22.8,6.6,2.7,1024,1024,1024,1024,0,0,0,0,62,4.298,73.4,164.370084,P-GPS,,50.1
935,539800,2026-01-07 12:39:01,0.0,5,7.365,0.0,0.0,0.0,22.8,6.5,3.3,1024,1024,1024,1024,0,0,0,0,62,4.298,73.4,164.370084,P-GPS,,50.1
936,539900,2026-01-07 12:39:01,0.0,5,7.365,0.0,0.0,0.0,23.0,6.4,3.5,1024,1024,1024,1024,0,0,0,0,62,4.298,73.4,164.370084,P-GPS,,50.1
937,540000,2026-01-07 12:39:01,0.0,5,7.365,0.0,0.0,0.0,22.9,6.2,2.9,1024,1024,1024,1024,0,0,0,0,62,4.298,73.4,164.370084,P-GPS,,50.1
938,540100,2026-01-07 12:39:01,0.0,5,7.365,0.0,0.0,0.0,22.9,6.1,2.7,1024,1024,1024,1024,0,0,0,0,62,4.298,73.4,164.698168,P-GPS,,50.2
939,540200,2026-01-07 12:39:01,0.0,5,7.365,0.0,0.0,0.0,23.0,5.9,2.6,1024,1024,1024,1024,0,0,0,0,62,4.298,73.4,164.698168,P-GPS,,50.2
940,540300,2026-01-07 12:39:01,0.0,5,7.365,0.0,0.0,0.0,23.0,6.1,2.4,1024,1024,1024,1024,0,0,0,0,62,4.298,73.4,164.698168,P-GPS,,50.2
941,540400,2026-01-07 12:39:01,0.0,5,7.365,0.0,0.0,0.0,23.1,6.2,2.2,1024,1024,1024,1024,0,0,0,0,62,4.298,73.4,164.698168,P-GPS,,50.2
942,540500,2026-01-07 12:39:01,0.0,5,7.365,0.0,0.0,0.0,23.1,6.1,2.2,1024,1024,1024,1024,0,0,0,0,62,4.298,73.4,164.698168,P-GPS,,50.2
943,540600,2026-01-07 12:39:02,0.0,5,7.365,0.0,0.0,0.0,23.1,6.2,2.0,1024,1024,1024,1024,0,0,0,0,62,4.298,73.4,164.698168,P-GPS,,50.2
944,540700,2026-01-07 12:39:02,0.0,5,7.365,0.0,0.0,0.0,23.2,6.5,1.7,1024,1024,1024,1024,0,0,0,0,62,4.298,73.4,164.698168,P-GPS,,50.2
945,540800,2026-01-07 12:39:02,0.0,5,7.365,0.0,0.0,0.0,23.0,6.3,1.0,1024,1024,1024,1024,0,0,0,0,62,4.298,73.4,164.698168,P-GPS,,50.2
946,540900,2026-01-07 12:39:02,0.0,5,7.362,0.0,0.0,0.0,22.9,6.2,1.0,1024,1024,1024,1024,0,0,0,0,62,4.262,73.4,164.698168,P-GPS,,50.2
947,541000,2026-01-07 12:39:02,0.0,5,7.362,0.0,0.0,0.0,22.9,6.3,1.3,1024,1024,1024,1024,0,0,0,0,62,4.262,73.4,164.698168,P-GPS,,50.2
948,541100,2026-01-07 12:39:02,0.0,5,7.362,0.0,0.0,0.0,22.9,6.5,1.9,1024,1024,1024,1024,0,0,0,0,62,4.262,73.4,164.698168,P-GPS,,50.2
949,541200,2026-01-07 12:39:02,0.0,5,7.362,0.0,0.0,0.0,23.0,6.6,2.1,1024,1024,1024,1024,0,0,0,0,62,4.262,73.4,164.698168,P-GPS,,50.2
950,541300,2026-01-07 12:39:02,0.0,5,7.362,0.0,0.0,0.0,23.2,6.6,2.5,1024,1024,1024,1024,0,0,0,0,62,4.262,73.4,164.698168,P-GPS,,50.2
951,541400,2026-01-07 12:39:02,0.0,5,7.362,0.0,0.0,0.0,23.2,7.2,1.4,1024,1024,1024,1024,0,0,0,0,62,4.262,73.4,164.698168,P-GPS,,50.2
952,541500,2026-01-07 12:39:02,0.0,5,7.362,0.0,0.0,0.0,23.1,7.3,0.9,1024,1024,1024,1024,0,0,0,0,62,4.262,73.4,165.026252,P-GPS,,50.3
953,541600,2026-01-07 12:39:02,0.0,5,7.362,0.0,0.0,0.0,23.2,7.5,0.7,1024,1024,1024,1024,0,0,0,0,62,4.262,73.4,165.026252,P-GPS,,50.3
954,541700,2026-01-07 12:39:03,0.0,5,7.362,0.0,0.0,0.0,23.1,7.3,0.0,1024,1024,1024,1024,0,0,0,0,62,4.262,73.4,165.026252,P-GPS,,50.3
955,541800,2026-01-07 12:39:03,0.0,5,7.362,0.0,0.0,0.0,23.2,7.2,0.2,1024,1024,1024,1024,0,0,0,0,62,4.262,73.4,165.026252,P-GPS,,50.3
956,541900,2026-01-07 12:39:03,0.0,5,7.362,0.0,0.0,0.0,23.2,7.0,0.3,1024,1024,1024,1024,0,0,0,0,62,4.262,73.4,165.026252,P-GPS,,50.3
957,542000,2026-01-07 12:39:03,0.0,5,7.362,0.0,0.0,0.0,23.1,6.3,0.8,1024,1024,1024,1024,0,0,0,0,62,4.257,73.4,165.354336,P-GPS,,50.4
958,542100,2026-01-07 12:39:03,0.0,5,7.362,0.0,0.0,0.0,23.2,5.7,1.1,1024,1024,1024,1024,0,0,0,0,62,4.257,73.4,165.354336,P-GPS,,50.4
959,542200,2026-01-07 12:39:03,0.0,5,7.362,0.0,0.0,0.0,23.3,6.1,0.8,1024,1024,1024,1024,0,0,0,0,62,4.257,73.4,165.354336,P-GPS,,50.4
960,542300,2026-01-07 12:39:03,0.0,5,7.362,0.0,0.0,0.0,23.4,6.6,0.3,1024,1024,1024,1024,0,0,0,0,62,4.257,73.4,165.354336,P-GPS,,50.4
961,542400,2026-01-07 12:39:03,0.0,5,7.362,0.0,0.0,0.0,23.4,6.3,0.0,1024,1024,1024,1024,0,0,0,0,62,4.257,73.4,165.354336,P-GPS,,50.4
962,542500,2026-01-07 12:39:03,0.0,5,7.362,0.0,0.0,0.0,23.2,6.0,-0.1,1024,1024,1024,1024,0,0,0,0,62,4.257,73.4,165.354336,P-GPS,,50.4
963,542600,2026-01-07 12:39:03,0.0,5,7.362,0.0,0.0,0.0,23.0,6.2,-0.3,1024,1024,1024,1024,0,0,0,0,62,4.257,73.4,165.68242,P-GPS,,50.5
964,542700,2026-01-07 12:39:04,0.0,5,7.362,0.0,0.0,0.0,23.0,6.0,0.0,1024,1024,1024,1024,0,0,0,0,62,4.257,73.4,165.68242,P-GPS,,50.5
965,542800,2026-01-07 12:39:04,0.0,5,7.362,0.0,0.0,0.0,23.0,5.6,0.3,1024,1024,1024,1024,0,0,0,0,62,4.257,73.4,165.68242,P-GPS,,50.5
