index,time(millisecond),timestamp,speed(mph),gpslevel,voltage(v),xSpeed(mph),ySpeed(mph),zSpeed(mph),compass_heading(degrees),pitch(degrees),roll(degrees),rc_elevator,rc_aileron,rc_throttle,rc_rudder,rc_elevator(percent),rc_aileron(percent),rc_throttle(percent),rc_rudder(percent),battery_percent,current(A),battery_temperature(f),ascent(feet),flycState,message,height_above_takeoff(meters)
816,504400,2026-01-09 12:45:53,0.0,5,7.453,0.0,0.0,0.0,38.3,-3.8,-4.1,1024,1024,1024,1024,0,0,0,0,66,4.759,77.36,165.354336,P-GPS,,50.4
817,504500,2026-01-09 12:45:54,0.0,5,7.453,0.0,0.0,0.0,38.2,-3.7,-4.3,1024,1024,1024,1024,0,0,0,0,66,4.759,77.36,165.354336,P-GPS,,50.4
818,504600,2026-01-09 12:45:54,0.0,5,7.453,0.0,0.0,0.0,38.3,-4.2,-4.1,1024,1024,1024,1024,0,0,0,0,66,4.759,77.36,165.68242,P-GPS,,50.5
819,504700,2026-01-09 12:45:54,0.0,5,7.453,0.0,0.0,0.0,38.3,-4.5,-3.8,1024,1024,1024,1024,0,0,0,0,66,4.759,77.36,165.68242,P-GPS,,50.5
820,504800,2026-01-09 12:45:54,0.0,5,7.453,0.0,0.0,0.0,38.4,-4.5,-3.6,1024,1024,1024,1024,0,0,0,0,66,4.759,77.36,165.68242,P-GPS,,50.5
821,504900,2026-01-09 12:45:54,0.0,5,7.453,0.0,0.0,0.0,38.5,-5.0,-3.2,1024,1024,1024,1024,0,0,0,0,66,4.759,77.36,166.010504,P-GPS,,50.6
822,505000,2026-01-09 12:45:54,0.0,5,7.453,0.0,0.0,0.0,38.5,-5.0,-3.1,1024,1024,1024,1024,0,0,0,0,66,4.759,77.36,166.010504,P-GPS,,50.6
823,505100,2026-01-09 12:45:54,0.0,5,7.453,0.0,0.0,0.0,38.5,-4.9,-3.0,1024,1024,1024,1024,0,0,0,0,66,4.759,77.36,166.010504,P-GPS,,50.6
824,505200,2026-01-09 12:45:54,0.0,5,7.453,0.0,0.0,0.0,38.5,-4.9,-3.2,1024,1024,1024,1024,0,0,0,0,66,4.759,77.36,166.010504,P-GPS,,50.6
825,505300,2026-01-09 12:45:54,0.0,5,7.453,0.0,0.0,0.0,38.5,-4.3,-3.3,1024,1024,1024,1024,0,0,0,0,65,4.759,77.36,166.010504,P-GPS,,50.6
826,505400,2026-01-09 12:45:54,0.0,5,7.453,0.0,0.0,0.0,38.5,-4.0,-3.3,1024,1024,1024,1024,0,0,0,0,65,4.759,77.36,166.010504,P-GPS,,50.6
827,505500,2026-01-09 12:45:55,0.0,5,7.453,0.0,0.0,0.0,38.5,-4.2,-3.2,1024,1024,1024,1024,0,0,0,0,65,4.759,77.36,166.010504,P-GPS,,50.6
828,505600,2026-01-09 12:45:55,0.0,5,7.453,0.0,0.0,0.0,38.5,-4.2,-3.1,1024,1024,1024,1024,0,0,0,0,65,4.759,77.36,166.010504,P-GPS,,50.6
829,505700,2026-01-09 12:45:55,0.0,5,7.453,0.0,0.0,0.0,38.4,-3.9,-3.0,1024,1024,1024,1024,0,0,0,0,65,4.759,77.36,166.010504,P-GPS,,50.6
830,505800,2026-01-09 12:45:55,0.0,5,7.453,0.0,0.0,0.0,38.4,-3.9,-2.7,1024,1024,1024,1024,0,0,0,0,65,4.759,77.36,166.010504,P-GPS,,50.6
831,505900,2026-01-09 12:45:55,0.0,5,7.453,0.0,0.0,0.0,38.4,-4.1,-2.5,1024,1024,1024,1024,0,0,0,0,65,4.759,77.36,166.338588,P-GPS,,50.7
832,506000,2026-01-09 12:45:55,0.0,5,7.453,0.0,0.0,0.0,38.4,-4.3,-2.5,1024,1024,1024,1024,0,0,0,0,65,4.759,77.36,166.338588,P-GPS,,50.7
833,506100,2026-01-09 12:45:55,0.0,5,7.453,0.0,0.0,0.0,38.4,-4.5,-2.6,1024,1024,1024,1024,0,0,0,0,65,4.759,77.36,166.338588,P-GPS,,50.7
834,506200,2026-01-09 12:45:55,0.0,5,7.453,0.0,0.0,0.0,38.4,-4.4,-2.5,1024,1024,1024,1024,0,0,0,0,65,4.759,77.36,166.338588,P-GPS,,50.7
835,506300,2026-01-09 12:45:55,0.0,5,7.42,0.0,0.0,0.0,38.4,-4.4,-2.5,1024,1024,1024,1024,0,0,0,0,65,4.752,77.54,166.338588,P-GPS,,50.7
836,506400,2026-01-09 12:45:55,0.0,5,7.42,0.0,0.0,0.0,38.4,-4.5,-2.5,1024,1024,1024,1024,0,0,0,0,65,4.752,77.54,166.338588,P-GPS,,50.7
837,506500,2026-01-09 12:45:56,0.0,5,7.42,0.0,0.0,0.0,38.3,-4.4,-2.6,1024,1024,1024,1024,0,0,0,0,65,4.752,77.54,166.338588,P-GPS,,50.7
838,506600,2026-01-09 12:45:56,0.0,5,7.42,0.0,0.0,0.0,38.3,-4.2,-2.6,1024,1024,1024,1024,0,0,0,0,65,4.752,77.54,166.338588,P-GPS,,50.7
839,506700,2026-01-09 12:45:56,0.0,5,7.42,0.0,0.0,0.0,38.2,-3.5,-2.8,1024,1024,1024,1024,0,0,0,0,65,4.752,77.54,166.338588,P-GPS,,50.7
840,506800,2026-01-09 12:45:56,0.0,5,7.42,0.0,0.0,0.0,38.2,-3.3,-3.0,1024,1024,1024,1024,0,0,0,0,65,4.752,77.54,166.338588,P-GPS,,50.7
841,506900,2026-01-09 12:45:56,0.0,5,7.42,0.0,0.0,0.0,38.2,-2.7,-3.4,1024,1024,1024,1024,0,0,0,0,65,4.752,77.54,166.338588,P-GPS,,50.7
842,507000,2026-01-09 12:45:56,0.0,5,7.42,0.0,0.0,0.0,38.3,-2.7,-3.4,1024,1024,1024,1024,0,0,0,0,65,4.752,77.54,166.338588,P-GPS,,50.7
843,507100,2026-01-09 12:45:56,0.0,5,7.42,0.0,0.0,0.0,38.4,-2.4,-3.7,1024,1024,1024,1024,0,0,0,0,65,4.752,77.54,166.338588,P-GPS,,50.7
844,507200,2026-01-09 12:45:56,0.0,5,7.42,0.0,0.0,0.0,38.4,-2.7,-3.7,1024,1024,1024,1024,0,0,0,0,65,4.752,77.54,166.338588,P-GPS,,50.7
845,507300,2026-01-09 12:45:56,0.0,5,7.42,0.0,0.0,0.0,38.5,-2.7,-3.7,1024,1024,1024,1024,0,0,0,0,65,4.752,77.54,166.338588,P-GPS,,50.7
846,507400,2026-01-09 12:45:57,0.0,5,7.421,0.0,0.0,0.0,38.4,-2.3,-4.1,1024,1024,1024,1024,0,0,0,0,65,4.845,77.54,166.338588,P-GPS,,50.7
847,507500,2026-01-09 12:45:57,0.0,5,7.421,0.0,0.0,0.0,38.4,-1.9,-4.6,1024,1024,1024,1024,0,0,0,0,65,4.845,77.54,166.010504,P-GPS,,50.6
848,507600,2026-01-09 12:45:57,0.0,5,7.421,0.0,0.0,0.223694,38.3,-1.5,-4.8,1024,1024,1024,1024,0,0,0,0,65,4.845,77.54,166.010504,P-GPS,,50.6
849,507700,2026-01-09 12:45:57,0.0,5,7.421,0.0,0.0,0.223694,38.2,-1.6,-4.9,1024,1024,1024,1024,0,0,0,0,65,4.845,77.54,166.010504,P-GPS,,50.6
850,507800,2026-01-09 12:45:57,0.0,5,7.421,0.0,0.0,0.223694,38.3,-1.4,-4.7,1024,1024,1024,1024,0,0,0,0,65,4.845,77.54,166.010504,P-GPS,,50.6
851,507900,2026-01-09 12:45:57,0.0,5,7.421,0.0,0.0,0.0,38.4,-1.0,-4.4,1024,1024,1024,1024,0,0,0,0,65,4.845,77.54,166.010504,P-GPS,,50.6
852,508000,2026-01-09 12:45:57,0.0,5,7.421,0.0,0.0,0.0,38.4,-1.6,-4.3,1024,1024,1024,1024,0,0,0,0,65,4.845,77.54,166.010504,P-GPS,,50.6
853,508100,2026-01-09 12:45:57,0.0,5,7.421,0.0,0.0,0.0,38.4,-1.1,-5.1,1024,1024,1024,1024,0,0,0,0,65,4.845,77.54,166.010504,P-GPS,,50.6
854,508200,2026-01-09 12:45:57,0.0,5,7.421,0.0,0.0,0.0,38.4,-0.5,-5.3,1024,1024,1024,1024,0,0,0,0,65,4.845,77.54,166.010504,P-GPS,,50.6
855,508300,2026-01-09 12:45:57,0.0,5,7.421,0.0,0.0,0.0,38.5,-0.4,-4.4,1024,1024,1024,1024,0,0,0,0,65,4.845,77.54,166.010504,P-GPS,,50.6
856,508400,2026-01-09 12:45:57,0.0,5,7.421,0.0,0.0,0.0,38.5,-1.3,-4.1,1024,1024,1024,1024,0,0,0,0,65,4.845,77.54,166.010504,P-GPS,,50.6
857,508500,2026-01-09 12:45:58,0.0,5,7.424,0.0,0.0,0.0,38.4,-0.4,-4.2,1024,1024,1024,1024,0,0,0,0,65,4.801,77.54,166.010504,P-GPS,,50.6
858,508600,2026-01-09 12:45:58,0.0,5,7.424,0.0,0.0,0.0,38.3,0.0,-4.8,1024,1024,1024,1024,0,0,0,0,65,4.801,77.54,166.010504,P-GPS,,50.6
859,508700,2026-01-09 12:45:58,0.0,5,7.424,0.0,0.0,0.0,38.4,0.0,-5.1,1024,1024,1024,1024,0,0,0,0,65,4.801,77.54,166.010504,P-GPS,,50.6
860,508800,2026-01-09 12:45:58,0.0,5,7.424,0.0,0.0,0.0,38.3,0.3,-5.0,1024,1024,1024,1024,0,0,0,0,65,4.801,77.54,166.010504,P-GPS,,50.6
861,508900,2026-01-09 12:45:58,0.0,5,7.424,0.0,0.0,0.0,38.3,0.1,-5.5,1024,1024,1024,1024,0,0,0,0,65,4.801,77.54,166.338588,P-GPS,,50.7
862,509000,2026-01-09 12:45:58,0.0,5,7.424,0.0,0.0,0.0,38.2,0.0,-5.5,1024,1024,1024,1024,0,0,0,0,65,4.801,77.54,166.338588,P-GPS,,50.7
863,509100,2026-01-09 12:45:58,0.0,5,7.424,0.0,0.0,0.0,38.3,-0.2,-5.1,1024,1024,1024,1024,0,0,0,0,65,4.801,77.54,166.338588,P-GPS,,50.7
864,509200,2026-01-09 12:45:58,0.0,5,7.424,0.0,0.0,0.0,38.3,-0.6,-5.8,1024,1024,1024,1024,0,0,0,0,65,4.801,77.54,166.010504,P-GPS,,50.6
865,509300,2026-01-09 12:45:58,0.0,5,7.424,0.0,0.0,0.0,38.2,-0.6,-6.0,1024,1024,1024,1024,0,0,0,0,65,4.801,77.54,166.010504,P-GPS,,50.6
866,509400,2026-01-09 12:45:59,0.0,5,7.424,0.0,0.0,0.223694,38.2,-0.9,-5.6,1024,1024,1024,1024,0,0,0,0,65,4.801,77.54,166.010504,P-GPS,,50.6
867,509500,2026-01-09 12:45:59,0.0,5,7.424,0.0,0.0,0.223694,38.3,-1.6,-4.8,1024,1024,1024,1024,0,0,0,0,65,4.801,77.54,166.010504,P-GPS,,50.6
868,509600,2026-01-09 12:45:59,0.0,5,7.411,0.0,0.0,0.0,38.7,-2.6,-4.3,1024,1024,1024,1024,0,0,0,0,65,4.81,77.54,166.010504,P-GPS,,50.6
869,509700,2026-01-09 12:45:59,0.0,5,7.411,0.0,0.0,0.0,38.5,-1.2,-4.3,1024,1024,1024,1024,0,0,0,0,65,4.81,77.54,165.68242,P-GPS,,50.5
870,509800,2026-01-09 12:45:59,0.0,5,7.411,0.0,0.0,0.0,38.6,-1.6,-4.1,1024,1024,1024,1024,0,0,0,0,65,4.81,77.54,165.68242,P-GPS,,50.5
871,509900,2026-01-09 12:45:59,0.0,5,7.411,0.0,0.0,0.0,38.5,-1.3,-3.6,1024,1024,1024,1024,0,0,0,0,65,4.81,77.54,165.68242,P-GPS,,50.5
872,510000,2026-01-09 12:45:59,0.0,5,7.411,0.0,0.0,0.0,38.5,-1.2,-3.5,1024,1024,1024,1024,0,0,0,0,65,4.81,77.54,165.68242,P-GPS,,50.5
873,510100,2026-01-09 12:45:59,0.0,5,7.411,0.0,0.0,0.0,38.4,-0.6,-4.1,1024,1024,1024,1024,0,0,0,0,65,4.81,77.54,165.68242,P-GPS,,50.5
874,510200,2026-01-09 12:45:59,0.0,5,7.411,0.0,0.0,0.0,38.1,0.0,-4.4,1024,1024,1024,1024,0,0,0,0,65,4.81,77.54,165.354336,P-GPS,,50.4
875,510300,2026-01-09 12:45:59,0.0,5,7.411,0.0,0.0,0.0,38.1,-1.3,-4.1,1024,1024,1024,1024,0,0,0,0,65,4.81,77.54,165.354336,P-GPS,,50.4
876,510400,2026-01-09 12:45:59,0.0,5,7.411,0.0,0.0,0.0,38.3,-2.3,-3.5,1024,1024,1024,1024,0,0,0,0,65,4.81,77.54,165.354336,P-GPS,,50.4
877,510500,2026-01-09 12:46:00,0.0,5,7.411,0.0,0.0,0.0,38.3,-1.4,-3.4,1024,1024,1024,1024,0,0,0,0,65,4.81,77.54,165.354336,P-GPS,,50.4
878,510600,2026-01-09 12:46:00,0.0,5,7.411,0.0,0.0,0.0,38.4,-1.3,-3.5,1024,1024,1024,1024,0,0,0,0,65,4.81,77.54,165.354336,P-GPS,,50.4
879,510700,2026-01-09 12:46:00,0.0,5,7.422,0.0,0.0,0.0,38.4,-0.9,-3.7,1024,1024,1024,1024,0,0,0,0,65,5.0,77.54,165.354336,P-GPS,,50.4
880,510800,2026-01-09 12:46:00,0.0,5,7.422,0.0,0.0,0.0,38.5,-1.5,-3.9,1024,1024,1024,1024,0,0,0,0,65,5.0,77.54,165.354336,P-GPS,,50.4
881,510900,2026-01-09 12:46:00,0.0,5,7.422,0.0,0.0,0.0,38.5,-1.6,-3.9,1024,1024,1024,1024,0,0,0,0,65,5.0,77.54,165.354336,P-GPS,,50.4
882,511000,2026-01-09 12:46:00,0.0,5,7.422,0.0,0.0,0.0,38.6,-1.0,-4.4,1024,1024,1024,1024,0,0,0,0,65,5.0,77.54,165.354336,P-GPS,,50.4
883,511100,2026-01-09 12:46:00,0.0,5,7.422,0.0,0.0,0.0,38.6,-1.3,-5.1,1024,1024,1024,1024,0,0,0,0,65,5.0,77.54,165.354336,P-GPS,,50.4
884,511200,2026-01-09 12:46:00,0.0,5,7.422,0.0,0.0,0.0,38.6,-1.0,-5.3,1024,1024,1024,1024,0,0,0,0,65,5.0,77.54,165.354336,P-GPS,,50.4
885,511300,2026-01-09 12:46:00,0.0,5,7.422,0.0,0.0,0.0,38.7,-1.7,-5.7,1024,1024,1024,1024,0,0,0,0,65,5.0,77.54,165.354336,P-GPS,,50.4
886,511400,2026-01-09 12:46:01,0.0,5,7.422,0.0,0.0,0.0,38.7,-1.8,-5.4,1024,1024,1024,1024,0,0,0,0,65,5.0,77.54,165.354336,P-GPS,,50.4
887,511500,2026-01-09 12:46:01,0.0,5,7.422,0.0,0.0,0.0,38.4,-0.9,-5.6,1024,1024,1024,1024,0,0,0,0,65,5.0,77.54,165.354336,P-GPS,,50.4
888,511600,2026-01-09 12:46:01,0.0,5,7.422,0.0,0.0,0.0,38.5,-1.2,-5.0,1024,1024,1024,1024,0,0,0,0,65,5.0,77.54,165.354336,P-GPS,,50.4
889,511700,2026-01-09 12:46:01,0.0,5,7.422,0.0,0.0,0.0,38.7,-1.7,-4.7,1024,1024,1024,1024,0,0,0,0,65,5.0,77.54,165.354336,P-GPS,,50.4
890,511800,2026-01-09 12:46:01,0.0,5,7.423,0.0,0.0,0.0,38.6,-1.5,-4.7,1024,1024,1024,1024,0,0,0,0,65,4.712,77.54,165.354336,P-GPS,,50.4
891,511900,2026-01-09 12:46:01,0.0,5,7.423,0.0,0.0,0.0,38.6,-1.6,-5.0,1024,1024,1024,1024,0,0,0,0,65,4.712,77.54,165.354336,P-GPS,,50.4
892,512000,2026-01-09 12:46:01,0.0,5,7.423,0.0,0.0,0.0,38.6,-2.0,-4.9,1024,1024,1024,1024,0,0,0,0,65,4.712,77.54,165.354336,P-GPS,,50.4
893,512100,2026-01-09 12:46:01,0.0,5,7.423,0.0,0.0,0.0,38.6,-2.1,-4.8,1024,1024,1024,1024,0,0,0,0,65,4.712,77.54,165.354336,P-GPS,,50.4
894,512200,2026-01-09 12:46:01,0.0,5,7.423,0.0,0.0,0.0,38.5,-1.8,-5.0,1024,1024,1024,1024,0,0,0,0,65,4.712,77.54,165.354336,P-GPS,,50.4
895,512300,2026-01-09 12:46:01,0.0,5,7.423,0.0,0.0,0.0,38.7,-2.2,-4.8,1024,1024,1024,1024,0,0,0,0,65,4.712,77.54,165.354336,P-GPS,,50.4
896,512400,2026-01-09 12:46:01,0.0,5,7.423,0.0,0.0,0.0,38.8,-2.3,-5.0,1024,1024,1024,1024,0,0,0,0,65,4.712,77.54,165.354336,P-GPS,,50.4
897,512500,2026-01-09 12:46:02,0.0,5,7.423,0.0,0.0,0.0,38.7,-2.2,-5.7,1024,1024,1024,1024,0,0,0,0,65,4.712,77.54,165.354336,P-GPS,,50.4
898,512600,2026-01-09 12:46:02,0.0,5,7.423,0.0,0.0,0.0,38.7,-1.3,-5.9,1024,1024,1024,1024,0,0,0,0,65,4.712,77.54,165.354336,P-GPS,,50.4
899,512700,2026-01-09 12:46:02,0.0,5,7.423,0.0,0.0,0.0,38.7,-1.5,-6.3,1024,1024,1024,1024,0,0,0,0,65,4.712,77.54,165.354336,P-GPS,,50.4
900,512800,2026-01-09 12:46:02,0.0,5,7.423,0.0,0.0,0.0,38.6,-1.0,-6.5,1024,1024,1024,1024,0,0,0,0,65,4.712,77.54,165.354336,P-GPS,,50.4
901,512900,2026-01-09 12:46:02,0.0,5,7.42,0.0,0.0,0.0,38.5,-0.6,-6.6,1024,1024,1024,1024,0,0,0,0,65,4.798,77.54,165.354336,P-GPS,,50.4
902,513000,2026-01-09 12:46:02,0.0,5,7.42,0.0,0.0,0.0,38.4,-0.5,-6.6,1024,1024,1024,1024,0,0,0,0,65,4.798,77.54,165.354336,P-GPS,,50.4
903,513100,2026-01-09 12:46:02,0.0,5,7.42,0.0,0.0,0.0,38.4,-0.8,-6.5,1024,1024,1024,1024,0,0,0,0,65,4.798,77.54,165.354336,P-GPS,,50.4
904,513200,2026-01-09 12:46:02,0.0,5,7.42,0.0,0.0,0.0,38.4,-0.8,-5.7,1024,1024,1024,1024,0,0,0,0,65,4.798,77.54,165.354336,P-GPS,,50.4
905,513300,2026-01-09 12:46:02,0.0,5,7.42,0.0,0.0,0.0,38.6,-1.9,-4.9,1024,1024,1024,1024,0,0,0,0,65,4.798,77.54,165.354336,P-GPS,,50.4
906,513400,2026-01-09 12:46:02,0.0,5,7.42,0.0,0.0,0.0,38.6,-2.1,-4.7,1024,1024,1024,1024,0,0,0,0,65,4.798,77.54,165.354336,P-GPS,,50.4
907,513500,2026-01-09 12:46:03,0.0,5,7.42,0.0,0.0,0.0,38.7,-2.6,-5.0,1024,1024,1024,1024,0,0,0,0,65,4.798,77.54,165.354336,P-GPS,,50.4
908,513600,2026-01-09 12:46:03,0.0,5,7.42,0.0,0.0,0.0,38.5,-2.5,-5.0,1024,1024,1024,1024,0,0,0,0,65,4.798,77.54,165.026252,P-GPS,,50.3
909,513700,2026-01-09 12:46:03,0.0,5,7.42,0.0,0.0,0.0,38.3,-2.1,-5.6,1024,1024,1024,1024,0,0,0,0,65,4.798,77.54,165.026252,P-GPS,,50.3
910,513800,2026-01-09 12:46:03,0.0,5,7.42,0.0,0.0,0.0,38.3,-2.3,-5.5,1024,1024,1024,1024,0,0,0,0,65,4.798,77.54,165.026252,P-GPS,,50.3
911,513900,2026-01-09 12:46:03,0.0,5,7.42,0.0,0.0,0.0,38.4,-2.5,-5.1,1024,1024,1024,1024,0,0,0,0,65,4.798,77.54,165.026252,P-GPS,,50.3
912,514000,2026-01-09 12:46:03,0.0,5,7.414,0.0,0.0,0.0,38.4,-2.7,-4.9,1024,1024,1024,1024,0,0,0,0,65,4.762,77.72,165.026252,P-GPS,,50.3
913,514100,2026-01-09 12:46:03,0.0,5,7.414,0.0,0.0,0.0,38.5,-2.7,-4.7,1024,1024,1024,1024,0,0,0,0,65,4.762,77.72,165.026252,P-GPS,,50.3
914,514200,2026-01-09 12:46:03,0.0,5,7.414,0.0,0.0,0.0,38.4,-2.8,-4.9,1024,1024,1024,1024,0,0,0,0,65,4.762,77.72,165.026252,P-GPS,,50.3
915,514300,2026-01-09 12:46:03,0.0,5,7.414,0.0,0.0,0.0,38.4,-2.9,-4.9,1024,1024,1024,1024,0,0,0,0,65,4.762,77.72,164.698168,P-GPS,,50.2
916,514400,2026-01-09 12:46:03,0.0,5,7.414,0.0,0.0,0.0,38.4,-2.8,-4.6,1024,1024,1024,1024,0,0,0,0,65,4.762,77.72,164.698168,P-GPS,,50.2
917,514500,2026-01-09 12:46:04,0.0,5,7.414,0.0,0.0,0.0,38.5,-2.7,-4.6,1024,1024,1024,1024,0,0,0,0,65,4.762,77.72,164.698168,P-GPS,,50.2
918,514600,2026-01-09 12:46:04,0.0,5,7.414,0.0,0.0,0.0,38.6,-3.0,-4.3,1024,1024,1024,1024,0,0,0,0,65,4.762,77.72,164.698168,P-GPS,,50.2
919,514700,2026-01-09 12:46:04,0.0,5,7.414,0.0,0.0,0.0,38.5,-2.9,-4.4,1024,1024,1024,1024,0,0,0,0,65,4.762,77.72,164.698168,P-GPS,,50.2
920,514800,2026-01-09 12:46:04,0.0,5,7.414,0.0,0.0,0.0,38.5,-2.8,-4.3,1024,1024,1024,1024,0,0,0,0,65,4.762,77.72,164.698168,P-GPS,,50.2
921,514900,2026-01-09 12:46:04,0.0,5,7.414,0.0,0.0,0.0,38.4,-2.7,-4.6,1024,1024,1024,1024,0,0,0,0,65,4.762,77.72,164.698168,P-GPS,,50.2
922,515000,2026-01-09 12:46:04,0.0,5,7.414,0.0,0.0,0.0,38.5,-2.7,-4.5,1024,1024,1024,1024,0,0,0,0,65,4.762,77.72,164.698168,P-GPS,,50.2
923,515100,2026-01-09 12:46:04,0.0,5,7.417,0.0,0.0,0.0,38.6,-3.3,-4.2,1024,1024,1024,1024,0,0,0,0,65,4.813,77.72,164.698168,P-GPS,,50.2
924,515200,2026-01-09 12:46:04,0.0,5,7.417,0.0,0.0,0.0,38.6,-4.0,-3.6,1024,1024,1024,1024,0,0,0,0,65,4.813,77.72,164.698168,P-GPS,,50.2
925,515300,2026-01-09 12:46:04,0.0,5,7.417,0.0,0.0,0.0,38.6,-4.3,-3.7,1024,1024,1024,1024,0,0,0,0,65,4.813,77.72,164.698168,P-GPS,,50.2
926,515400,2026-01-09 12:46:04,0.0,5,7.417,0.0,0.0,0.0,38.6,-4.5,-3.5,1024,1024,1024,1024,0,0,0,0,65,4.813,77.72,164.698168,P-GPS,,50.2
927,515500,2026-01-09 12:46:05,0.0,5,7.417,0.0,0.0,0.0,38.6,-5.0,-3.1,1024,1024,1024,1024,0,0,0,0,65,4.813,77.72,165.026252,P-GPS,,50.3
928,515600,2026-01-09 12:46:05,0.0,5,7.417,0.0,0.0,0.0,38.5,-4.4,-3.1,1024,1024,1024,1024,0,0,0,0,65,4.813,77.72,165.026252,P-GPS,,50.3
929,515700,2026-01-09 12:46:05,0.0,5,7.417,0.0,0.0,0.0,38.6,-3.9,-3.4,1024,1024,1024,1024,0,0,0,0,65,4.813,77.72,165.026252,P-GPS,,50.3
930,515800,2026-01-09 12:46:05,0.0,5,7.417,0.0,0.0,-0.223694,38.6,-3.8,-3.2,1024,1024,1024,1024,0,0,0,0,65,4.813,77.72,165.026252,P-GPS,,50.3
931,515900,2026-01-09 12:46:05,0.0,5,7.417,0.0,0.0,-0.223694,38.5,-3.9,-3.2,1024,1024,1024,1024,0,0,0,0,65,4.813,77.72,165.026252,P-GPS,,50.3
932,516000,2026-01-09 12:46:05,0.0,5,7.417,0.0,0.0,0.0,38.4,-4.1,-2.9,1024,1024,1024,1024,0,0,0,0,65,4.813,77.72,165.026252,P-GPS,,50.3
933,516100,2026-01-09 12:46:05,0.0,5,7.417,0.0,0.0,0.0,38.4,-5.2,-2.6,1024,1024,1024,1024,0,0,0,0,65,4.813,77.72,165.026252,P-GPS,,50.3
934,516200,2026-01-09 12:46:05,0.0,5,7.417,0.0,0.0,0.0,38.3,-5.1,-2.4,1024,1024,1024,1024,0,0,0,0,65,4.813,77.72,165.026252,P-GPS,,50.3
935,516300,2026-01-09 12:46:05,0.0,5,7.417,0.0,0.0,0.0,38.2,-4.3,-2.2,1024,1024,1024,1024,0,0,0,0,65,4.813,77.72,165.026252,P-GPS,,50.3
936,516400,2026-01-09 12:46:05,0.0,5,7.417,0.0,0.0,0.0,38.2,-4.2,-1.7,1024,1024,1024,1024,0,0,0,0,65,4.813,77.72,165.026252,P-GPS,,50.3
937,516500,2026-01-09 12:46:06,0.0,5,7.417,0.0,0.0,0.0,38.1,-3.3,-1.5,1024,1024,1024,1024,0,0,0,0,65,4.813,77.72,165.354336,P-GPS,,50.4
938,516600,2026-01-09 12:46:06,0.0,5,7.417,0.0,0.0,0.0,38.2,-4.2,-0.4,1024,1024,1024,1024,0,0,0,0,65,4.813,77.72,165.354336,P-GPS,,50.4
939,516700,2026-01-09 12:46:06,0.3131716,5,7.417,0.223694,0.223694,0.0,38.2,-2.0,-2.0,1024,1024,1024,1024,0,0,0,0,65,4.813,77.72,165.354336,P-GPS,,50.4
940,516800,2026-01-09 12:46:06,0.3131716,5,7.417,0.223694,0.223694,0.0,38.2,-0.5,-3.5,1024,1024,1024,1024,0,0,0,0,65,4.813,77.72,165.354336,P-GPS,,50.4
941,516900,2026-01-09 12:46:06,0.223694,5,7.417,0.0,0.223694,-0.223694,38.2,0.3,-4.2,1024,1024,1024,1024,0,0,0,0,65,4.813,77.72,165.354336,P-GPS,,50.4
942,517000,2026-01-09 12:46:06,0.223694,5,7.417,0.0,0.447388,0.0,38.3,0.6,-5.0,1024,1024,1024,1024,0,0,0,0,65,4.813,77.72,165.354336,P-GPS,,50.4
943,517100,2026-01-09 12:46:06,0.223694,5,7.417,0.0,0.223694,0.0,38.5,0.8,-5.6,1024,1024,1024,1024,0,0,0,0,65,4.813,77.72,165.354336,P-GPS,,50.4
944,517200,2026-01-09 12:46:06,0.223694,5,7.417,0.0,0.223694,0.0,38.6,0.5,-5.2,1024,1024,1024,1024,0,0,0,0,65,4.813,77.72,165.354336,P-GPS,,50.4
945,517300,2026-01-09 12:46:06,0.223694,5,7.452,0.0,0.223694,0.0,38.6,0.6,-5.3,1024,1024,1024,1024,0,0,0,0,64,4.339,77.72,165.354336,P-GPS,,50.4
946,517400,2026-01-09 12:46:06,0.223694,5,7.452,0.0,0.223694,0.0,38.4,1.0,-5.0,1024,1024,1024,1024,0,0,0,0,64,4.339,77.72,165.354336,P-GPS,,50.4
947,517500,2026-01-09 12:46:07,0.0,5,7.452,0.0,0.0,0.0,38.4,0.0,-5.3,1024,1024,1024,1024,0,0,0,0,64,4.339,77.72,165.354336,P-GPS,,50.4
948,517600,2026-01-09 12:46:07,0.0,5,7.452,0.0,0.0,0.0,38.3,0.5,-5.1,1024,1024,1024,1024,0,0,0,0,64,4.339,77.72,165.354336,P-GPS,,50.4
949,517700,2026-01-09 12:46:07,0.0,5,7.452,0.0,0.0,0.0,38.3,0.3,-4.7,1024,1024,1024,1024,0,0,0,0,64,4.339,77.72,165.354336,P-GPS,,50.4
950,517800,2026-01-09 12:46:07,0.0,5,7.452,0.0,0.0,0.0,38.4,-0.4,-4.5,1024,1024,1024,1024,0,0,0,0,64,4.339,77.72,165.354336,P-GPS,,50.4
951,517900,2026-01-09 12:46:07,0.0,5,7.452,0.0,0.0,0.0,38.5,-0.8,-4.4,1024,1024,1024,1024,0,0,0,0,64,4.339,77.72,165.354336,P-GPS,,50.4
952,518000,2026-01-09 12:46:07,0.0,5,7.452,0.0,0.0,0.0,38.6,-1.3,-4.2,1024,1024,1024,1024,0,0,0,0,64,4.339,77.72,165.354336,P-GPS,,50.4
953,518100,2026-01-09 12:46:07,0.0,5,7.452,0.0,0.0,0.0,38.7,-0.1,-3.7,1024,1024,1024,1024,0,0,0,0,64,4.339,77.72,165.354336,P-GPS,,50.4
954,518200,2026-01-09 12:46:07,0.0,5,7.452,0.0,0.0,0.0,38.6,-0.2,-4.1,1024,1024,1024,1024,0,0,0,0,64,4.339,77.72,165.68242,P-GPS,,50.5
955,518300,2026-01-09 12:46:07,0.0,5,7.452,0.0,0.0,0.0,38.6,-0.6,-4.7,1024,1024,1024,1024,0,0,0,0,64,4.339,77.72,165.68242,P-GPS,,50.5
956,518400,2026-01-09 12:46:07,0.0,5,7.427,0.0,0.0,0.0,38.8,-0.8,-4.6,1024,1024,1024,1024,0,0,0,0,64,4.293,77.72,165.68242,P-GPS,,50.5
957,518500,2026-01-09 12:46:08,0.0,5,7.427,0.0,0.0,0.0,38.9,-0.7,-5.2,1024,1024,1024,1024,0,0,0,0,64,4.293,77.72,165.68242,P-GPS,,50.5
958,518600,2026-01-09 12:46:08,0.0,5,7.427,0.0,0.0,0.0,38.9,-0.8,-5.7,1024,1024,1024,1024,0,0,0,0,64,4.293,77.72,165.68242,P-GPS,,50.5
959,518700,2026-01-09 12:46:08,0.0,5,7.427,0.0,0.0,0.0,38.9,-1.1,-5.9,1024,1024,1024,1024,0,0,0,0,64,4.293,77.72,165.68242,P-GPS,,50.5
960,518800,2026-01-09 12:46:08,0.0,5,7.427,0.0,0.0,0.0,38.9,-1.5,-6.3,1024,1024,1024,1024,0,0,0,0,64,4.293,77.72,165.68242,P-GPS,,50.5
961,518900,2026-01-09 12:46:08,0.0,5,7.427,0.0,0.0,0.0,38.8,-1.4,-6.3,1024,1024,1024,1024,0,0,0,0,64,4.293,77.72,166.010504,P-GPS,,50.6
962,519000,2026-01-09 12:46:08,0.0,5,7.427,0.0,0.0,0.0,38.6,-1.4,-6.6,1024,1024,1024,1024,0,0,0,0,64,4.293,77.72,166.010504,P-GPS,,50.6
963,519100,2026-01-09 12:46:08,0.0,5,7.427,0.0,0.0,0.0,38.6,-1.5,-6.5,1024,1024,1024,1024,0,0,0,0,64,4.293,77.72,166.010504,P-GPS,,50.6
964,519200,2026-01-09 12:46:08,0.0,5,7.427,0.0,0.0,0.0,38.5,-1.0,-6.4,1024,1024,1024,1024,0,0,0,0,64,4.293,77.72,166.010504,P-GPS,,50.6
965,519300,2026-01-09 12:46:08,0.0,5,7.427,0.0,0.0,0.0,38.6,-1.2,-6.1,1024,1024,1024,1024,0,0,0,0,64,4.293,77.72,166.010504,P-GPS,,50.6
966,519400,2026-01-09 12:46:08,0.0,5,7.427,0.0,0.0,0.0,38.4,-0.9,-6.2,1024,1024,1024,1024,0,0,0,0,64,4.293,77.72,166.010504,P-GPS,,50.6
967,519500,2026-01-09 12:46:09,0.0,5,7.424,0.0,0.0,0.0,38.4,-0.6,-6.0,1024,1024,1024,1024,0,0,0,0,64,4.592,77.72,166.010504,P-GPS,,50.6
968,519600,2026-01-09 12:46:09,0.0,5,7.424,0.0,0.0,0.0,38.5,-0.4,-5.8,1024,1024,1024,1024,0,0,0,0,64,4.592,77.72,166.010504,P-GPS,,50.6
969,519700,2026-01-09 12:46:09,0.0,5,7.424,0.0,0.0,0.0,38.7,-0.9,-5.8,1024,1024,1024,1024,0,0,0,0,64,4.592,77.72,166.010504,P-GPS,,50.6
970,519800,2026-01-09 12:46:09,0.0,5,7.424,0.0,0.0,0.0,38.7,-0.7,-5.5,1024,1024,1024,1024,0,0,0,0,64,4.592,77.72,166.010504,P-GPS,,50.6
971,519900,2026-01-09 12:46:09,0.0,5,7.424,0.0,0.0,0.0,38.6,-1.1,-5.8,1024,1024,1024,1024,0,0,0,0,64,4.592,77.72,165.68242,P-GPS,,50.5
972,520000,2026-01-09 12:46:09,0.0,5,7.424,0.0,0.0,0.0,38.6,-1.4,-5.9,1024,1024,1024,1024,0,0,0,0,64,4.592,77.72,165.68242,P-GPS,,50.5
973,520100,2026-01-09 12:46:09,0.0,5,7.424,0.0,0.0,0.0,38.6,-1.5,-5.4,1024,1024,1024,1024,0,0,0,0,64,4.592,77.72,165.68242,P-GPS,,50.5
974,520200,2026-01-09 12:46:09,0.0,5,7.424,0.0,0.0,0.0,38.5,-0.2,-5.8,1024,1024,1024,1024,0,0,0,0,64,4.592,77.72,165.68242,P-GPS,,50.5
975,520300,2026-01-09 12:46:09,0.0,5,7.424,0.0,0.0,0.0,38.7,-1.0,-5.6,1024,1024,1024,1024,0,0,0,0,64,4.592,77.72,165.68242,P-GPS,,50.5
976,520400,2026-01-09 12:46:10,0.0,5,7.424,0.0,0.0,0.0,38.7,-1.0,-5.5,1024,1024,1024,1024,0,0,0,0,64,4.592,77.72,165.354336,P-GPS,,50.4
977,520500,2026-01-09 12:46:10,0.0,5,7.424,0.0,0.0,0.0,38.6,-1.3,-5.8,1024,1024,1024,1024,0,0,0,0,64,4.592,77.72,165.354336,P-GPS,,50.4
978,520600,2026-01-09 12:46:10,0.223694,5,7.454,0.0,-0.223694,0.0,38.5,-1.3,-5.3,1024,1024,1024,1024,0,0,0,0,64,4.108,77.72,165.354336,P-GPS,,50.4
979,520700,2026-01-09 12:46:10,0.223694,5,7.454,0.0,-0.223694,0.0,38.4,-1.7,-5.5,1024,1024,1024,1024,0,0,0,0,64,4.108,77.72,165.026252,P-GPS,,50.3
980,520800,2026-01-09 12:46:10,0.223694,5,7.454,0.0,-0.223694,0.0,38.4,-2.8,-4.3,1024,1024,1024,1024,0,0,0,0,64,4.108,77.72,165.026252,P-GPS,,50.3
981,520900,2026-01-09 12:46:10,0.223694,5,7.454,0.0,-0.223694,0.0,38.3,-2.4,-4.6,1024,1024,1024,1024,0,0,0,0,64,4.108,77.72,164.698168,P-GPS,,50.2
982,521000,2026-01-09 12:46:10,0.0,5,7.454,0.0,0.0,0.0,38.5,-4.0,-3.1,1024,1024,1024,1024,0,0,0,0,64,4.108,77.72,164.698168,P-GPS,,50.2
983,521100,2026-01-09 12:46:10,0.0,5,7.454,0.0,0.0,0.223694,38.5,-2.4,-2.4,1024,1024,1024,1024,0,0,0,0,64,4.108,77.72,164.698168,P-GPS,,50.2
984,521200,2026-01-09 12:46:10,0.0,5,7.454,0.0,0.0,0.223694,38.4,-2.3,-3.2,1024,1024,1024,1024,0,0,0,0,64,4.108,77.72,164.698168,P-GPS,,50.2
985,521300,2026-01-09 12:46:10,0.0,5,7.454,0.0,0.0,0.0,38.4,-2.5,-4.2,1024,1024,1024,1024,0,0,0,0,64,4.108,77.72,164.698168,P-GPS,,50.2
986,521400,2026-01-09 12:46:10,0.223694,5,7.454,0.0,0.223694,0.0,38.2,-0.4,-4.6,1024,1024,1024,1024,0,0,0,0,64,4.108,77.72,164.698168,P-GPS,,50.2
987,521500,2026-01-09 12:46:11,0.223694,5,7.454,0.0,0.223694,0.0,38.0,1.9,-5.3,1024,1024,1024,1024,0,0,0,0,64,4.108,77.72,164.698168,P-GPS,,50.2
988,521600,2026-01-09 12:46:11,0.223694,5,7.454,0.0,0.223694,0.0,37.9,1.5,-5.6,1024,1024,1024,1024,0,0,0,0,64,4.108,77.72,164.698168,P-GPS,,50.2
989,521700,2026-01-09 12:46:11,0.0,5,7.399,0.0,0.0,0.0,37.7,1.2,-5.8,1024,1024,1024,1024,0,0,0,0,64,4.724,77.72,165.026252,P-GPS,,50.3
990,521800,2026-01-09 12:46:11,0.0,5,7.399,0.0,0.0,0.0,37.8,1.1,-5.8,1024,1024,1024,1024,0,0,0,0,64,4.724,77.72,165.026252,P-GPS,,50.3
991,521900,2026-01-09 12:46:11,0.0,5,7.399,0.0,0.0,0.0,37.9,0.8,-5.6,1024,1024,1024,1024,0,0,0,0,64,4.724,77.72,165.026252,P-GPS,,50.3
992,522000,2026-01-09 12:46:11,0.0,5,7.399,0.0,0.0,0.0,38.0,2.0,-4.7,1024,1024,1024,1024,0,0,0,0,64,4.724,77.72,165.026252,P-GPS,,50.3
993,522100,2026-01-09 12:46:11,0.0,5,7.399,0.0,0.0,0.0,38.0,1.0,-5.0,1024,1024,1024,1024,0,0,0,0,64,4.724,77.72,165.026252,P-GPS,,50.3
994,522200,2026-01-09 12:46:11,0.0,5,7.399,0.0,0.0,0.0,37.8,1.7,-5.3,1024,1024,1024,1024,0,0,0,0,64,4.724,77.72,165.026252,P-GPS,,50.3
995,522300,2026-01-09 12:46:11,0.0,5,7.399,0.0,0.0,0.0,37.8,2.7,-4.8,1024,1024,1024,1024,0,0,0,0,64,4.724,77.72,165.026252,P-GPS,,50.3
996,522400,2026-01-09 12:46:11,0.0,5,7.399,0.0,0.0,0.0,38.0,3.1,-4.3,1024,1024,1024,1024,0,0,0,0,64,4.724,77.72,165.026252,P-GPS,,50.3
997,522500,2026-01-09 12:46:12,0.0,5,7.399,0.0,0.0,0.0,38.1,2.2,-4.4,1024,1024,1024,1024,0,0,0,0,64,4.724,77.72,165.026252,P-GPS,,50.3
998,522600,2026-01-09 12:46:12,0.0,5,7.399,0.0,0.0,0.0,38.3,0.7,-4.4,1024,1024,1024,1024,0,0,0,0,64,4.724,77.72,165.026252,P-GPS,,50.3
999,522700,2026-01-09 12:46:12,0.0,5,7.399,0.0,0.0,0.0,38.3,-0.4,-4.9,1024,1024,1024,1024,0,0,0,0,64,4.724,77.72,165.026252,P-GPS,,50.3
1000,522800,2026-01-09 12:46:12,0.0,5,7.393,0.0,0.0,0.0,38.4,-0.8,-5.1,1024,1024,1024,1024,0,0,0,0,64,5.094,77.72,165.026252,P-GPS,,50.3
1001,522900,2026-01-09 12:46:12,0.0,5,7.393,0.0,0.0,0.0,38.5,-1.3,-5.3,1024,1024,1024,1024,0,0,0,0,64,5.094,77.72,165.026252,P-GPS,,50.3
1002,523000,2026-01-09 12:46:12,0.0,5,7.393,0.0,0.0,0.0,38.5,-1.0,-5.4,1024,1024,1024,1024,0,0,0,0,64,5.094,77.72,165.026252,P-GPS,,50.3
1003,523100,2026-01-09 12:46:12,0.0,5,7.393,0.0,0.0,0.0,38.4,-0.6,-5.6,1024,1024,1024,1024,0,0,0,0,64,5.094,77.72,165.026252,P-GPS,,50.3
1004,523200,2026-01-09 12:46:12,0.0,5,7.393,0.0,0.0,0.0,38.4,-0.2,-5.7,1024,1024,1024,1024,0,0,0,0,64,5.094,77.72,165.026252,P-GPS,,50.3
1005,523300,2026-01-09 12:46:12,0.0,5,7.393,0.0,0.0,0.0,38.2,0.5,-5.5,1024,1024,1024,1024,0,0,0,0,64,5.094,77.72,164.698168,P-GPS,,50.2
1006,523400,2026-01-09 12:46:12,0.0,5,7.393,0.0,0.0,0.0,38.2,2.6,-4.2,1024,1024,1024,1024,0,0,0,0,64,5.094,77.72,164.698168,P-GPS,,50.2
1007,523500,2026-01-09 12:46:13,0.0,5,7.393,0.0,0.0,0.0,38.3,-0.4,-4.8,1024,1024,1024,1024,0,0,0,0,64,5.094,77.72,164.698168,P-GPS,,50.2
1008,523600,2026-01-09 12:46:13,0.0,5,7.393,0.0,0.0,0.0,38.1,1.4,-5.2,1024,1024,1024,1024,0,0,0,0,64,5.094,77.72,164.698168,P-GPS,,50.2
1009,523700,2026-01-09 12:46:13,0.0,5,7.393,0.0,0.0,0.0,37.9,2.2,-4.9,1024,1024,1024,1024,0,0,0,0,64,5.094,77.72,164.698168,P-GPS,,50.2
1010,523800,2026-01-09 12:46:13,0.0,5,7.393,0.0,0.0,0.0,38.2,0.6,-5.0,1024,1024,1024,1024,0,0,0,0,64,5.094,77.72,164.698168,P-GPS,,50.2
1011,523900,2026-01-09 12:46:13,0.0,5,7.403,0.0,0.0,0.0,38.4,1.1,-4.9,1024,1024,1024,1024,0,0,0,0,64,5.058,77.72,164.370084,P-GPS,,50.1
1012,524000,2026-01-09 12:46:13,0.0,5,7.403,0.0,0.0,0.0,38.5,1.5,-4.6,1024,1024,1024,1024,0,0,0,0,64,5.058,77.72,164.370084,P-GPS,,50.1
1013,524100,2026-01-09 12:46:13,0.0,5,7.403,0.0,0.0,0.0,38.3,2.1,-4.6,1024,1024,1024,1024,0,0,0,0,64,5.058,77.72,164.370084,P-GPS,,50.1
1014,524200,2026-01-09 12:46:13,0.0,5,7.403,0.0,0.0,0.0,38.3,1.8,-5.2,1024,1024,1024,1024,0,0,0,0,64,5.058,77.72,164.370084,P-GPS,,50.1
1015,524300,2026-01-09 12:46:13,0.0,5,7.403,0.0,0.0,0.0,38.3,1.6,-5.1,1024,1024,1024,1024,0,0,0,0,64,5.058,77.72,164.370084,P-GPS,,50.1
1016,524400,2026-01-09 12:46:13,0.0,5,7.403,0.0,0.0,0.0,38.2,1.5,-5.4,1024,1024,1024,1024,0,0,0,0,64,5.058,77.72,164.370084,P-GPS,,50.1
1017,524500,2026-01-09 12:46:14,0.0,5,7.403,0.0,0.0,0.0,38.2,2.4,-5.4,1024,1024,1024,1024,0,0,0,0,64,5.058,77.72,164.370084,P-GPS,,50.1
1018,524600,2026-01-09 12:46:14,0.0,5,7.403,0.0,0.0,0.0,38.3,1.6,-5.1,1024,1024,1024,1024,0,0,0,0,64,5.058,77.72,164.370084,P-GPS,,50.1
1019,524700,2026-01-09 12:46:14,0.0,5,7.403,0.0,0.0,0.0,38.3,1.2,-5.2,1024,1024,1024,1024,0,0,0,0,64,5.058,77.72,164.370084,P-GPS,,50.1
1020,524800,2026-01-09 12:46:14,0.0,5,7.403,0.0,0.0,0.0,38.2,1.9,-4.7,1024,1024,1024,1024,0,0,0,0,64,5.058,77.72,164.370084,P-GPS,,50.1
1021,524900,2026-01-09 12:46:14,0.0,5,7.403,0.0,0.0,0.0,38.3,1.0,-4.6,1024,1024,1024,1024,0,0,0,0,64,5.058,77.72,164.370084,P-GPS,,50.1
1022,525000,2026-01-09 12:46:14,0.0,5,7.428,0.0,0.0,0.0,38.5,0.6,-4.7,1024,1024,1024,1024,0,0,0,0,64,4.544,77.72,164.370084,P-GPS,,50.1
1023,525100,2026-01-09 12:46:14,0.0,5,7.428,0.0,0.0,0.0,38.5,-0.1,-4.4,1024,1024,1024,1024,0,0,0,0,64,4.544,77.72,164.370084,P-GPS,,50.1
1024,525200,2026-01-09 12:46:14,0.0,5,7.428,0.0,0.0,0.0,38.5,0.1,-4.6,1024,1024,1024,1024,0,0,0,0,64,4.544,77.72,164.370084,P-GPS,,50.1
1025,525300,2026-01-09 12:46:14,0.0,5,7.428,0.0,0.0,0.0,38.3,1.3,-5.2,1024,1024,1024,1024,0,0,0,0,64,4.544,77.72,164.370084,P-GPS,,50.1
1026,525400,2026-01-09 12:46:14,0.0,5,7.428,0.0,0.0,0.0,38.3,0.9,-5.4,1024,1024,1024,1024,0,0,0,0,64,4.544,77.72,164.370084,P-GPS,,50.1
1027,525500,2026-01-09 12:46:15,0.0,5,7.428,0.0,0.0,0.0,38.2,1.4,-5.7,1024,1024,1024,1024,0,0,0,0,64,4.544,77.72,164.370084,P-GPS,,50.1
1028,525600,2026-01-09 12:46:15,0.0,5,7.428,0.0,0.0,0.0,38.3,1.6,-5.6,1024,1024,1024,1024,0,0,0,0,64,4.544,77.72,164.370084,P-GPS,,50.1
1029,525700,2026-01-09 12:46:15,0.0,5,7.428,0.0,0.0,0.0,38.3,1.1,-5.5,1024,1024,1024,1024,0,0,0,0,64,4.544,77.72,164.370084,P-GPS,,50.1
1030,525800,2026-01-09 12:46:15,0.0,5,7.428,0.0,0.0,0.0,38.3,0.2,-5.5,1024,1024,1024,1024,0,0,0,0,64,4.544,77.72,164.370084,P-GPS,,50.1
1031,525900,2026-01-09 12:46:15,0.0,5,7.428,0.0,0.0,0.0,38.1,1.2,-5.0,1024,1024,1024,1024,0,0,0,0,64,4.544,77.72,164.370084,P-GPS,,50.1
1032,526000,2026-01-09 12:46:15,0.0,5,7.428,0.0,0.0,0.0,38.1,-0.4,-4.2,1024,1024,1024,1024,0,0,0,0,64,4.544,77.72,164.370084,P-GPS,,50.1
1033,526100,2026-01-09 12:46:15,0.0,5,7.428,0.0,0.0,0.0,38.2,0.0,-5.5,1024,1024,1024,1024,0,0,0,0,64,4.544,77.72,164.370084,P-GPS,,50.1
1034,526200,2026-01-09 12:46:15,0.0,5,7.428,0.0,0.0,0.0,38.3,-0.6,-5.1,1024,1024,1024,1024,0,0,0,0,64,4.544,77.72,164.370084,P-GPS,,50.1
1035,526300,2026-01-09 12:46:15,0.0,5,7.428,0.0,0.0,0.0,38.4,-1.0,-5.0,1024,1024,1024,1024,0,0,0,0,64,4.544,77.72,164.370084,P-GPS,,50.1
1036,526400,2026-01-09 12:46:15,0.0,5,7.428,0.0,0.0,0.0,38.5,-1.2,-4.6,1024,1024,1024,1024,0,0,0,0,64,4.544,77.72,164.370084,P-GPS,,50.1
1037,526500,2026-01-09 12:46:16,0.0,5,7.428,0.0,0.0,0.0,38.6,-1.8,-4.5,1024,1024,1024,1024,0,0,0,0,64,4.544,77.72,164.370084,P-GPS,,50.1
1038,526600,2026-01-09 12:46:16,0.0,5,7.428,0.0,0.0,0.0,38.3,-0.6,-5.0,1024,1024,1024,1024,0,0,0,0,64,4.544,77.72,164.370084,P-GPS,,50.1
1039,526700,2026-01-09 12:46:16,0.0,5,7.428,0.0,0.0,0.0,38.2,-0.2,-5.3,1024,1024,1024,1024,0,0,0,0,64,4.544,77.72,164.370084,P-GPS,,50.1
1040,526800,2026-01-09 12:46:16,0.0,5,7.428,0.0,0.0,0.0,38.2,0.0,-5.2,1024,1024,1024,1024,0,0,0,0,64,4.544,77.72,164.370084,P-GPS,,50.1
1041,526900,2026-01-09 12:46:16,0.0,5,7.428,0.0,0.0,0.0,38.4,-0.2,-5.1,1024,1024,1024,1024,0,0,0,0,64,4.544,77.72,164.370084,P-GPS,,50.1
1042,527000,2026-01-09 12:46:16,0.0,5,7.428,0.0,0.0,0.0,38.4,-0.2,-5.2,1024,1024,1024,1024,0,0,0,0,64,4.544,77.72,164.370084,P-GPS,,50.1
1043,527100,2026-01-09 12:46:16,0.0,5,7.428,0.0,0.0,0.0,38.4,0.6,-4.9,1024,1024,1024,1024,0,0,0,0,64,4.544,77.72,164.370084,P-GPS,,50.1
1044,527200,2026-01-09 12:46:16,0.0,5,7.403,0.0,0.0,0.0,38.4,-0.6,-5.0,1024,1024,1024,1024,0,0,0,0,64,4.934,77.9,164.370084,P-GPS,,50.1
1045,527300,2026-01-09 12:46:16,0.0,5,7.403,0.0,0.0,0.0,38.5,-0.3,-4.8,1024,1024,1024,1024,0,0,0,0,64,4.934,77.9,164.370084,P-GPS,,50.1
1046,527400,2026-01-09 12:46:16,0.0,5,7.403,0.0,0.0,0.0,38.4,0.4,-4.8,1024,1024,1024,1024,0,0,0,0,64,4.934,77.9,164.698168,P-GPS,,50.2
1047,527500,2026-01-09 12:46:17,0.0,5,7.403,0.0,0.0,0.0,38.5,0.3,-4.6,1024,1024,1024,1024,0,0,0,0,64,4.934,77.9,164.698168,P-GPS,,50.2
1048,527600,2026-01-09 12:46:17,0.0,5,7.403,0.0,0.0,0.0,38.2,0.7,-5.0,1024,1024,1024,1024,0,0,0,0,64,4.934,77.9,164.698168,P-GPS,,50.2
1049,527700,2026-01-09 12:46:17,0.0,5,7.403,0.0,0.0,0.0,38.2,1.2,-4.9,1024,1024,1024,1024,0,0,0,0,64,4.934,77.9,164.698168,P-GPS,,50.2
1050,527800,2026-01-09 12:46:17,0.0,5,7.403,0.0,0.0,0.0,38.1,1.4,-4.7,1024,1024,1024,1024,0,0,0,0,64,4.934,77.9,164.698168,P-GPS,,50.2
1051,527900,2026-01-09 12:46:17,0.0,5,7.403,0.0,0.0,0.0,38.2,1.0,-4.8,1024,1024,1024,1024,0,0,0,0,64,4.934,77.9,164.698168,P-GPS,,50.2
1052,528000,2026-01-09 12:46:17,0.0,5,7.403,0.0,0.0,0.0,38.2,1.6,-5.1,1024,1024,1024,1024,0,0,0,0,64,4.934,77.9,164.698168,P-GPS,,50.2
1053,528100,2026-01-09 12:46:17,0.0,5,7.403,0.0,0.0,0.0,38.3,1.5,-5.1,1024,1024,1024,1024,0,0,0,0,64,4.934,77.9,164.698168,P-GPS,,50.2
1054,528200,2026-01-09 12:46:17,0.0,5,7.403,0.0,0.0,0.0,38.3,1.7,-5.0,1024,1024,1024,1024,0,0,0,0,64,4.934,77.9,164.698168,P-GPS,,50.2
1055,528300,2026-01-09 12:46:17,0.0,5,7.414,0.0,0.0,0.0,38.5,1.1,-5.2,1024,1024,1024,1024,0,0,0,0,64,4.853,77.9,164.698168,P-GPS,,50.2
1056,528400,2026-01-09 12:46:18,0.0,5,7.414,0.0,0.0,0.0,38.3,1.7,-5.6,1024,1024,1024,1024,0,0,0,0,64,4.853,77.9,164.370084,P-GPS,,50.1
1057,528500,2026-01-09 12:46:18,0.0,5,7.414,0.0,0.0,0.0,38.3,2.0,-5.7,1024,1024,1024,1024,0,0,0,0,64,4.853,77.9,164.370084,P-GPS,,50.1
1058,528600,2026-01-09 12:46:18,0.0,5,7.414,0.0,0.0,0.0,38.4,2.8,-5.4,1024,1024,1024,1024,0,0,0,0,64,4.853,77.9,164.370084,P-GPS,,50.1
1059,528700,2026-01-09 12:46:18,0.0,5,7.414,0.0,0.0,0.0,38.5,1.4,-5.6,1024,1024,1024,1024,0,0,0,0,64,4.853,77.9,164.370084,P-GPS,,50.1
1060,528800,2026-01-09 12:46:18,0.0,5,7.414,0.0,0.0,0.0,38.5,0.8,-5.9,1024,1024,1024,1024,0,0,0,0,64,4.853,77.9,164.370084,P-GPS,,50.1
1061,528900,2026-01-09 12:46:18,0.0,5,7.414,0.0,0.0,0.0,38.4,0.8,-5.7,1024,1024,1024,1024,0,0,0,0,64,4.853,77.9,164.370084,P-GPS,,50.1
1062,529000,2026-01-09 12:46:18,0.0,5,7.414,0.0,0.0,0.0,38.4,0.7,-5.9,1024,1024,1024,1024,0,0,0,0,64,4.853,77.9,164.370084,P-GPS,,50.1
1063,529100,2026-01-09 12:46:18,0.0,5,7.414,0.0,0.0,0.0,38.4,0.6,-5.8,1024,1024,1024,1024,0,0,0,0,64,4.853,77.9,164.042,P-GPS,,50.0
