index,time(millisecond),timestamp,speed(mph),gpslevel,voltage(v),xSpeed(mph),ySpeed(mph),zSpeed(mph),compass_heading(degrees),pitch(degrees),roll(degrees),rc_elevator,rc_aileron,rc_throttle,rc_rudder,rc_elevator(percent),rc_aileron(percent),rc_throttle(percent),rc_rudder(percent),battery_percent,current(A),battery_temperature(f),ascent(feet),flycState,message,height_above_takeoff(meters)
504,212200,2026-01-08 12:31:26,0.0,5,7.642,0.0,0.0,0.0,12.8,14.8,5.6,1024,1024,1024,1024,0,0,0,0,85,5.804,70.88,100.393704,P-GPS,,30.6
505,212300,2026-01-08 12:31:27,0.0,5,7.642,0.0,0.0,0.0,12.8,14.3,5.1,1024,1024,1024,1024,0,0,0,0,85,5.804,70.88,100.393704,P-GPS,,30.6
506,212400,2026-01-08 12:31:27,0.0,5,7.642,0.0,0.0,0.0,12.6,13.8,4.6,1024,1024,1024,1024,0,0,0,0,85,5.804,70.88,100.06562,P-GPS,,30.5
507,212500,2026-01-08 12:31:27,0.0,5,7.642,0.0,0.0,0.0,12.5,13.5,4.6,1024,1024,1024,1024,0,0,0,0,85,5.804,70.88,100.06562,P-GPS,,30.5
508,212600,2026-01-08 12:31:27,0.0,5,7.642,0.0,0.0,0.0,12.6,13.3,4.6,1024,1024,1024,1024,0,0,0,0,85,5.804,70.88,100.06562,P-GPS,,30.5
509,212700,2026-01-08 12:31:27,0.0,5,7.642,0.0,0.0,0.0,12.6,13.1,4.3,1024,1024,1024,1024,0,0,0,0,85,5.804,70.88,99.737536,P-GPS,,30.4
510,212800,2026-01-08 12:31:27,0.0,5,7.642,0.0,0.0,0.0,12.6,14.8,3.3,1024,1024,1024,1024,0,0,0,0,85,5.804,70.88,99.737536,P-GPS,,30.4
511,212900,2026-01-08 12:31:27,0.0,5,7.642,0.0,0.0,0.0,12.5,13.9,3.3,1024,1024,1024,1024,0,0,0,0,85,5.804,70.88,99.737536,P-GPS,,30.4
512,213000,2026-01-08 12:31:27,0.0,5,7.642,0.0,0.0,0.0,12.2,13.3,2.8,1024,1024,1024,1024,0,0,0,0,85,5.804,70.88,99.737536,P-GPS,,30.4
513,213100,2026-01-08 12:31:27,0.0,5,7.642,0.0,0.0,0.0,12.4,12.8,3.1,1024,1024,1024,1024,0,0,0,0,85,5.804,70.88,99.737536,P-GPS,,30.4
514,213200,2026-01-08 12:31:28,0.0,5,7.601,0.0,0.0,0.0,12.3,12.5,3.1,1024,1024,1024,1024,0,0,0,0,85,6.277,71.06,99.737536,P-GPS,,30.4
515,213300,2026-01-08 12:31:28,0.0,5,7.601,0.0,0.0,-0.223694,12.4,12.7,3.6,1024,1024,1024,1024,0,0,0,0,85,6.277,71.06,99.737536,P-GPS,,30.4
516,213400,2026-01-08 12:31:28,0.0,5,7.601,0.0,0.0,-0.223694,12.4,12.7,3.4,1024,1024,1024,1024,0,0,0,0,85,6.277,71.06,99.737536,P-GPS,,30.4
517,213500,2026-01-08 12:31:28,0.0,5,7.601,0.0,0.0,-0.223694,12.3,13.2,2.6,1024,1024,1024,1024,0,0,0,0,85,6.277,71.06,99.409452,P-GPS,,30.3
518,213600,2026-01-08 12:31:28,0.0,5,7.601,0.0,0.0,-0.223694,12.3,13.0,2.8,1024,1024,1024,1024,0,0,0,0,85,6.277,71.06,99.737536,P-GPS,,30.4
519,213700,2026-01-08 12:31:28,0.0,5,7.601,0.0,0.0,-0.223694,12.3,13.8,3.1,1024,1024,1024,1024,0,0,0,0,85,6.277,71.06,99.737536,P-GPS,,30.4
520,213800,2026-01-08 12:31:28,0.0,5,7.601,0.0,0.0,0.0,12.2,13.3,3.1,1024,1024,1024,1024,0,0,0,0,85,6.277,71.06,99.737536,P-GPS,,30.4
521,213900,2026-01-08 12:31:28,0.0,5,7.601,0.0,0.0,0.0,12.2,13.1,3.3,1024,1024,1024,1024,0,0,0,0,85,6.277,71.06,99.737536,P-GPS,,30.4
522,214000,2026-01-08 12:31:28,0.0,5,7.601,0.0,0.0,0.0,12.3,13.9,3.6,1024,1024,1024,1024,0,0,0,0,85,6.277,71.06,99.737536,P-GPS,,30.4
523,214100,2026-01-08 12:31:28,0.0,5,7.601,0.0,0.0,0.0,12.3,13.2,3.7,1024,1024,1024,1024,0,0,0,0,85,6.277,71.06,99.737536,P-GPS,,30.4
524,214200,2026-01-08 12:31:28,0.0,5,7.601,0.0,0.0,-0.223694,12.2,11.8,4.0,1024,1024,1024,1024,0,0,0,0,85,6.277,71.06,99.737536,P-GPS,,30.4
525,214300,2026-01-08 12:31:29,0.0,5,7.601,0.0,0.0,-0.223694,12.1,12.1,3.9,1024,1024,1024,1024,0,0,0,0,85,6.277,71.06,99.737536,P-GPS,,30.4
526,214400,2026-01-08 12:31:29,0.0,5,7.601,0.0,0.0,0.0,12.2,12.5,2.9,1024,1024,1024,1024,0,0,0,0,85,6.277,71.06,99.737536,P-GPS,,30.4
527,214500,2026-01-08 12:31:29,0.0,5,7.601,0.0,0.0,0.0,12.2,12.1,3.6,1024,1024,1024,1024,0,0,0,0,85,6.277,71.06,99.737536,P-GPS,,30.4
528,214600,2026-01-08 12:31:29,0.0,5,7.601,0.0,0.0,0.0,12.3,11.1,4.4,1024,1024,1024,1024,0,0,0,0,85,6.277,71.06,100.06562,P-GPS,,30.5
529,214700,2026-01-08 12:31:29,0.0,5,7.601,0.0,0.0,0.0,12.5,12.1,4.9,1024,1024,1024,1024,0,0,0,0,85,6.277,71.06,100.06562,P-GPS,,30.5
530,214800,2026-01-08 12:31:29,0.0,5,7.601,0.0,0.0,0.0,12.5,12.9,4.3,1024,1024,1024,1024,0,0,0,0,85,6.277,71.06,100.06562,P-GPS,,30.5
531,214900,2026-01-08 12:31:29,0.0,5,7.601,0.0,0.0,0.0,12.4,13.2,4.4,1024,1024,1024,1024,0,0,0,0,85,6.277,71.06,100.06562,P-GPS,,30.5
532,215000,2026-01-08 12:31:29,0.0,5,7.601,0.0,0.0,0.0,12.6,14.2,4.7,1024,1024,1024,1024,0,0,0,0,85,6.277,71.06,100.06562,P-GPS,,30.5
533,215100,2026-01-08 12:31:29,0.223694,5,7.601,0.0,-0.223694,0.223694,12.6,13.9,5.3,1024,1024,1024,1024,0,0,0,0,85,6.277,71.06,100.06562,P-GPS,,30.5
534,215200,2026-01-08 12:31:30,0.223694,5,7.601,0.0,-0.223694,0.223694,12.6,14.2,5.7,1024,1024,1024,1024,0,0,0,0,85,6.277,71.06,100.06562,P-GPS,,30.5
535,215300,2026-01-08 12:31:30,0.0,5,7.601,0.0,0.0,0.0,12.7,14.1,5.5,1024,1024,1024,1024,0,0,0,0,85,6.277,71.06,100.393704,P-GPS,,30.6
536,215400,2026-01-08 12:31:30,0.223694,5,7.601,0.0,-0.223694,0.0,12.7,13.5,5.2,1024,1024,1024,1024,0,0,0,0,85,6.277,71.06,100.393704,P-GPS,,30.6
537,215500,2026-01-08 12:31:30,0.223694,5,7.616,0.0,-0.223694,-0.223694,12.5,13.1,6.6,1024,1024,1024,1024,0,0,0,0,85,5.744,71.06,100.393704,P-GPS,,30.6
538,215600,2026-01-08 12:31:30,0.223694,5,7.616,0.0,-0.223694,-0.223694,12.6,12.9,6.9,1024,1024,1024,1024,0,0,0,0,85,5.744,71.06,100.393704,P-GPS,,30.6
539,215700,2026-01-08 12:31:30,0.223694,5,7.616,0.0,-0.223694,0.0,12.6,13.1,7.2,1024,1024,1024,1024,0,0,0,0,85,5.744,71.06,100.393704,P-GPS,,30.6
540,215800,2026-01-08 12:31:30,0.223694,5,7.616,0.0,-0.223694,0.0,12.6,12.6,8.0,1024,1024,1024,1024,0,0,0,0,85,5.744,71.06,100.393704,P-GPS,,30.6
541,215900,2026-01-08 12:31:30,0.223694,5,7.616,0.0,-0.223694,0.0,12.7,12.0,8.4,1024,1024,1024,1024,0,0,0,0,85,5.744,71.06,100.393704,P-GPS,,30.6
542,216000,2026-01-08 12:31:30,0.223694,5,7.616,0.0,-0.223694,0.0,12.8,11.7,9.3,1024,1024,1024,1024,0,0,0,0,85,5.744,71.06,100.393704,P-GPS,,30.6
543,216100,2026-01-08 12:31:30,0.223694,5,7.616,0.0,-0.223694,0.0,12.8,12.4,9.3,1024,1024,1024,1024,0,0,0,0,85,5.744,71.06,100.393704,P-GPS,,30.6
544,216200,2026-01-08 12:31:30,0.223694,5,7.616,0.0,-0.223694,0.0,12.7,12.0,9.6,1024,1024,1024,1024,0,0,0,0,85,5.744,71.06,100.393704,P-GPS,,30.6
545,216300,2026-01-08 12:31:31,0.223694,5,7.616,0.0,-0.223694,0.0,12.8,11.5,10.0,1024,1024,1024,1024,0,0,0,0,85,5.744,71.06,100.393704,P-GPS,,30.6
546,216400,2026-01-08 12:31:31,0.447388,5,7.616,0.0,-0.447388,0.223694,13.1,11.9,11.9,1024,1024,1024,1024,0,0,0,0,85,5.744,71.06,100.393704,P-GPS,,30.6
547,216500,2026-01-08 12:31:31,0.447388,5,7.616,0.0,-0.447388,0.447388,13.4,11.8,12.0,1024,1024,1024,1024,0,0,0,0,85,5.744,71.06,100.721788,P-GPS,,30.7
548,216600,2026-01-08 12:31:31,0.4921268,5,7.708,-0.223694,-0.447388,0.447388,13.1,9.6,10.6,1024,1024,1024,1024,0,0,0,0,85,4.495,71.24,100.393704,P-GPS,,30.6
549,216700,2026-01-08 12:31:31,0.3131716,5,7.708,-0.223694,-0.223694,0.223694,12.8,8.6,10.6,1024,1024,1024,1024,0,0,0,0,85,4.495,71.24,100.393704,P-GPS,,30.6
550,216800,2026-01-08 12:31:31,0.223694,5,7.708,-0.223694,0.0,0.0,12.5,7.8,10.0,1024,1024,1024,1024,0,0,0,0,85,4.495,71.24,100.393704,P-GPS,,30.6
551,216900,2026-01-08 12:31:31,0.223694,5,7.708,-0.223694,0.0,0.0,12.5,7.9,9.9,1024,1024,1024,1024,0,0,0,0,85,4.495,71.24,100.393704,P-GPS,,30.6
552,217000,2026-01-08 12:31:31,0.223694,5,7.708,-0.223694,0.0,0.0,12.4,8.3,9.5,1024,1024,1024,1024,0,0,0,0,85,4.495,71.24,100.393704,P-GPS,,30.6
553,217100,2026-01-08 12:31:31,0.0,5,7.708,0.0,0.0,0.0,12.6,9.8,9.2,1024,1024,1024,1024,0,0,0,0,85,4.495,71.24,100.06562,P-GPS,,30.5
554,217200,2026-01-08 12:31:31,0.0,5,7.708,0.0,0.0,0.223694,12.6,10.3,8.1,1024,1024,1024,1024,0,0,0,0,85,4.495,71.24,100.06562,P-GPS,,30.5
555,217300,2026-01-08 12:31:32,0.223694,5,7.708,0.0,0.223694,0.223694,12.4,10.0,6.4,1024,1024,1024,1024,0,0,0,0,85,4.495,71.24,99.737536,P-GPS,,30.4
556,217400,2026-01-08 12:31:32,0.223694,5,7.708,0.0,0.223694,0.0,12.3,9.8,5.7,1024,1024,1024,1024,0,0,0,0,85,4.495,71.24,99.737536,P-GPS,,30.4
557,217500,2026-01-08 12:31:32,0.0,5,7.708,0.0,0.0,0.0,12.3,9.6,5.9,1024,1024,1024,1024,0,0,0,0,85,4.495,71.24,99.409452,P-GPS,,30.3
558,217600,2026-01-08 12:31:32,0.0,5,7.708,0.0,0.0,0.0,12.4,9.6,6.1,1024,1024,1024,1024,0,0,0,0,85,4.495,71.24,99.409452,P-GPS,,30.3
559,217700,2026-01-08 12:31:32,0.0,5,7.615,0.0,0.0,0.0,12.3,9.1,5.8,1024,1024,1024,1024,0,0,0,0,85,5.952,71.06,99.081368,P-GPS,,30.2
560,217800,2026-01-08 12:31:32,0.0,5,7.615,0.0,0.0,0.0,12.3,9.0,5.6,1024,1024,1024,1024,0,0,0,0,85,5.952,71.06,99.081368,P-GPS,,30.2
561,217900,2026-01-08 12:31:32,0.0,5,7.615,0.0,0.0,0.0,12.3,8.6,5.7,1024,1024,1024,1024,0,0,0,0,85,5.952,71.06,99.081368,P-GPS,,30.2
562,218000,2026-01-08 12:31:32,0.0,5,7.615,0.0,0.0,0.0,12.3,8.1,6.1,1024,1024,1024,1024,0,0,0,0,85,5.952,71.06,98.753284,P-GPS,,30.1
563,218100,2026-01-08 12:31:32,0.0,5,7.615,0.0,0.0,-0.223694,12.4,8.5,6.3,1024,1024,1024,1024,0,0,0,0,85,5.952,71.06,98.753284,P-GPS,,30.1
564,218200,2026-01-08 12:31:33,0.0,5,7.615,0.0,0.0,-0.223694,12.4,9.0,6.8,1024,1024,1024,1024,0,0,0,0,85,5.952,71.06,98.753284,P-GPS,,30.1
565,218300,2026-01-08 12:31:33,0.0,5,7.615,0.0,0.0,-0.223694,12.4,8.6,6.4,1024,1024,1024,1024,0,0,0,0,85,5.952,71.06,98.4252,P-GPS,,30.0
566,218400,2026-01-08 12:31:33,0.0,5,7.615,0.0,0.0,-0.223694,12.3,8.1,6.1,1024,1024,1024,1024,0,0,0,0,85,5.952,71.06,98.4252,P-GPS,,30.0
567,218500,2026-01-08 12:31:33,0.0,5,7.615,0.0,0.0,-0.223694,12.2,7.9,6.0,1024,1024,1024,1024,0,0,0,0,85,5.952,71.06,98.4252,P-GPS,,30.0
568,218600,2026-01-08 12:31:33,0.0,5,7.615,0.0,0.0,0.0,12.4,9.4,4.3,1024,1024,1024,1024,0,0,0,0,85,5.952,71.06,98.097116,P-GPS,,29.9
569,218700,2026-01-08 12:31:33,0.0,5,7.615,0.0,0.0,-0.223694,12.3,7.7,4.6,1024,1024,1024,1024,0,0,0,0,85,5.952,71.06,98.097116,P-GPS,,29.9
570,218800,2026-01-08 12:31:33,0.0,5,7.676,0.0,0.0,-0.447388,12.4,7.5,5.6,1024,1024,1024,1024,0,0,0,0,85,5.414,71.24,98.097116,P-GPS,,29.9
571,218900,2026-01-08 12:31:33,0.0,5,7.676,0.0,0.0,-0.223694,12.5,8.0,6.2,1024,1024,1024,1024,0,0,0,0,85,5.414,71.24,98.097116,P-GPS,,29.9
572,219000,2026-01-08 12:31:33,0.0,5,7.676,0.0,0.0,0.0,12.4,8.7,5.9,1024,1024,1024,1024,0,0,0,0,85,5.414,71.24,98.097116,P-GPS,,29.9
573,219100,2026-01-08 12:31:33,0.0,5,7.676,0.0,0.0,0.0,12.4,9.1,5.6,1024,1024,1024,1024,0,0,0,0,85,5.414,71.24,98.097116,P-GPS,,29.9
574,219200,2026-01-08 12:31:33,0.0,5,7.676,0.0,0.0,0.0,12.3,7.8,6.6,1024,1024,1024,1024,0,0,0,0,85,5.414,71.24,98.097116,P-GPS,,29.9
575,219300,2026-01-08 12:31:34,0.0,5,7.676,0.0,0.0,0.0,12.5,9.4,5.9,1024,1024,1024,1024,0,0,0,0,85,5.414,71.24,98.097116,P-GPS,,29.9
576,219400,2026-01-08 12:31:34,0.0,5,7.676,0.0,0.0,0.0,12.5,8.6,5.4,1024,1024,1024,1024,0,0,0,0,85,5.414,71.24,98.097116,P-GPS,,29.9
577,219500,2026-01-08 12:31:34,0.0,5,7.676,0.0,0.0,0.0,12.5,7.7,6.4,1024,1024,1024,1024,0,0,0,0,85,5.414,71.24,98.097116,P-GPS,,29.9
578,219600,2026-01-08 12:31:34,0.0,5,7.676,0.0,0.0,0.0,12.4,6.6,6.3,1024,1024,1024,1024,0,0,0,0,85,5.414,71.24,98.097116,P-GPS,,29.9
579,219700,2026-01-08 12:31:34,0.0,5,7.676,0.0,0.0,0.0,12.3,5.8,6.2,1024,1024,1024,1024,0,0,0,0,85,5.414,71.24,97.769032,P-GPS,,29.8
580,219800,2026-01-08 12:31:34,0.0,5,7.676,0.0,0.0,-0.223694,12.4,5.5,5.9,1024,1024,1024,1024,0,0,0,0,85,5.414,71.24,98.097116,P-GPS,,29.9
581,219900,2026-01-08 12:31:34,0.0,5,7.674,0.0,0.0,-0.223694,12.3,5.1,5.7,1024,1024,1024,1024,0,0,0,0,85,4.898,71.42,98.097116,P-GPS,,29.9
582,220000,2026-01-08 12:31:34,0.0,5,7.674,0.0,0.0,-0.223694,12.3,5.8,5.7,1024,1024,1024,1024,0,0,0,0,85,4.898,71.42,98.097116,P-GPS,,29.9
583,220100,2026-01-08 12:31:34,0.0,5,7.674,0.0,0.0,0.0,12.2,6.2,5.5,1024,1024,1024,1024,0,0,0,0,85,4.898,71.42,98.097116,P-GPS,,29.9
584,220200,2026-01-08 12:31:35,0.223694,5,7.674,0.0,0.223694,0.0,12.1,6.5,5.1,1024,1024,1024,1024,0,0,0,0,85,4.898,71.42,98.097116,P-GPS,,29.9
585,220300,2026-01-08 12:31:35,0.223694,5,7.674,0.0,0.223694,0.0,12.1,7.7,3.7,1024,1024,1024,1024,0,0,0,0,85,4.898,71.42,97.769032,P-GPS,,29.8
586,220400,2026-01-08 12:31:35,0.223694,5,7.674,0.0,0.223694,0.0,12.1,8.3,2.8,1024,1024,1024,1024,0,0,0,0,85,4.898,71.42,97.769032,P-GPS,,29.8
587,220500,2026-01-08 12:31:35,0.223694,5,7.674,0.0,0.223694,0.0,12.0,8.3,2.8,1024,1024,1024,1024,0,0,0,0,85,4.898,71.42,97.769032,P-GPS,,29.8
588,220600,2026-01-08 12:31:35,0.223694,5,7.674,0.0,0.223694,0.0,12.0,9.4,2.2,1024,1024,1024,1024,0,0,0,0,85,4.898,71.42,97.769032,P-GPS,,29.8
589,220700,2026-01-08 12:31:35,0.223694,5,7.674,0.0,0.223694,0.0,12.1,9.8,2.0,1024,1024,1024,1024,0,0,0,0,85,4.898,71.42,97.769032,P-GPS,,29.8
590,220800,2026-01-08 12:31:35,0.223694,5,7.674,0.0,0.223694,0.0,12.2,9.4,1.0,1024,1024,1024,1024,0,0,0,0,85,4.898,71.42,97.769032,P-GPS,,29.8
591,220900,2026-01-08 12:31:35,0.0,5,7.674,0.0,0.0,0.0,12.2,9.7,0.9,1024,1024,1024,1024,0,0,0,0,85,4.898,71.42,98.097116,P-GPS,,29.9
592,221000,2026-01-08 12:31:35,0.0,5,7.673,0.0,0.0,0.0,12.1,9.1,2.1,1024,1024,1024,1024,0,0,0,0,84,4.93,71.42,98.097116,P-GPS,,29.9
593,221100,2026-01-08 12:31:35,0.0,5,7.673,0.0,0.0,-0.223694,12.2,9.4,3.2,1024,1024,1024,1024,0,0,0,0,84,4.93,71.42,98.4252,P-GPS,,30.0
594,221200,2026-01-08 12:31:36,0.0,5,7.673,0.0,0.0,-0.223694,12.2,9.9,4.0,1024,1024,1024,1024,0,0,0,0,84,4.93,71.42,98.4252,P-GPS,,30.0
595,221300,2026-01-08 12:31:36,0.0,5,7.673,0.0,0.0,0.0,12.3,10.0,4.5,1024,1024,1024,1024,0,0,0,0,84,4.93,71.42,98.4252,P-GPS,,30.0
596,221400,2026-01-08 12:31:36,0.223694,5,7.673,0.223694,0.0,0.0,12.4,10.1,5.0,1024,1024,1024,1024,0,0,0,0,84,4.93,71.42,98.753284,P-GPS,,30.1
597,221500,2026-01-08 12:31:36,0.223694,5,7.673,0.223694,0.0,0.0,12.3,9.9,5.5,1024,1024,1024,1024,0,0,0,0,84,4.93,71.42,98.753284,P-GPS,,30.1
598,221600,2026-01-08 12:31:36,0.0,5,7.673,0.0,0.0,0.0,12.3,10.3,5.3,1024,1024,1024,1024,0,0,0,0,84,4.93,71.42,98.753284,P-GPS,,30.1
599,221700,2026-01-08 12:31:36,0.0,5,7.673,0.0,0.0,0.0,12.2,9.5,5.0,1024,1024,1024,1024,0,0,0,0,84,4.93,71.42,98.753284,P-GPS,,30.1
600,221800,2026-01-08 12:31:36,0.223694,5,7.673,0.0,-0.223694,0.0,12.3,9.7,5.3,1024,1024,1024,1024,0,0,0,0,84,4.93,71.42,99.081368,P-GPS,,30.2
601,221900,2026-01-08 12:31:36,0.223694,5,7.673,0.0,-0.223694,0.0,12.5,10.1,5.9,1024,1024,1024,1024,0,0,0,0,84,4.93,71.42,99.081368,P-GPS,,30.2
602,222000,2026-01-08 12:31:36,0.223694,5,7.673,0.0,-0.223694,0.0,12.5,9.7,6.5,1024,1024,1024,1024,0,0,0,0,84,4.93,71.42,99.409452,P-GPS,,30.3
603,222100,2026-01-08 12:31:36,0.223694,5,7.71,0.0,-0.223694,0.0,12.5,9.3,6.8,1024,1024,1024,1024,0,0,0,0,84,4.81,71.42,99.409452,P-GPS,,30.3
604,222200,2026-01-08 12:31:37,0.223694,5,7.71,0.0,-0.223694,0.0,12.4,9.3,6.8,1024,1024,1024,1024,0,0,0,0,84,4.81,71.42,99.409452,P-GPS,,30.3
605,222300,2026-01-08 12:31:37,0.0,5,7.71,0.0,0.0,0.0,12.4,9.5,5.7,1024,1024,1024,1024,0,0,0,0,84,4.81,71.42,99.409452,P-GPS,,30.3
606,222400,2026-01-08 12:31:37,0.0,5,7.71,0.0,0.0,0.0,12.3,8.1,5.9,1024,1024,1024,1024,0,0,0,0,84,4.81,71.42,99.409452,P-GPS,,30.3
607,222500,2026-01-08 12:31:37,0.0,5,7.71,0.0,0.0,0.0,12.4,8.3,6.1,1024,1024,1024,1024,0,0,0,0,84,4.81,71.42,99.409452,P-GPS,,30.3
608,222600,2026-01-08 12:31:37,0.0,5,7.71,0.0,0.0,0.0,12.2,7.3,5.8,1024,1024,1024,1024,0,0,0,0,84,4.81,71.42,99.081368,P-GPS,,30.2
609,222700,2026-01-08 12:31:37,0.0,5,7.71,0.0,0.0,0.0,12.4,6.8,4.6,1024,1024,1024,1024,0,0,0,0,84,4.81,71.42,99.081368,P-GPS,,30.2
610,222800,2026-01-08 12:31:37,0.0,5,7.71,0.0,0.0,0.0,12.3,8.3,3.9,1024,1024,1024,1024,0,0,0,0,84,4.81,71.42,99.081368,P-GPS,,30.2
611,222900,2026-01-08 12:31:37,0.0,5,7.71,0.0,0.0,0.0,12.1,6.8,3.6,1024,1024,1024,1024,0,0,0,0,84,4.81,71.42,99.081368,P-GPS,,30.2
612,223000,2026-01-08 12:31:37,0.0,5,7.71,0.0,0.0,0.0,12.1,6.7,3.4,1024,1024,1024,1024,0,0,0,0,84,4.81,71.42,99.081368,P-GPS,,30.2
613,223100,2026-01-08 12:31:37,0.0,5,7.71,0.0,0.0,0.0,12.3,7.4,3.2,1024,1024,1024,1024,0,0,0,0,84,4.81,71.42,99.081368,P-GPS,,30.2
614,223200,2026-01-08 12:31:37,0.0,5,7.642,0.0,0.0,0.0,12.3,7.8,2.7,1024,1024,1024,1024,0,0,0,0,84,5.734,71.6,99.081368,P-GPS,,30.2
615,223300,2026-01-08 12:31:38,0.0,5,7.642,0.0,0.0,0.0,12.3,8.4,2.6,1024,1024,1024,1024,0,0,0,0,84,5.734,71.6,98.753284,P-GPS,,30.1
616,223400,2026-01-08 12:31:38,0.0,5,7.642,0.0,0.0,0.0,12.2,8.8,2.2,1024,1024,1024,1024,0,0,0,0,84,5.734,71.6,98.753284,P-GPS,,30.1
617,223500,2026-01-08 12:31:38,0.0,5,7.642,0.0,0.0,0.0,12.1,8.3,1.3,1024,1024,1024,1024,0,0,0,0,84,5.734,71.6,99.081368,P-GPS,,30.2
618,223600,2026-01-08 12:31:38,0.0,5,7.642,0.0,0.0,-0.223694,12.1,8.5,2.8,1024,1024,1024,1024,0,0,0,0,84,5.734,71.6,99.081368,P-GPS,,30.2
619,223700,2026-01-08 12:31:38,0.0,5,7.642,0.0,0.0,0.0,12.1,7.8,3.9,1024,1024,1024,1024,0,0,0,0,84,5.734,71.6,99.081368,P-GPS,,30.2
620,223800,2026-01-08 12:31:38,0.0,5,7.642,0.0,0.0,-0.223694,12.2,7.9,4.1,1024,1024,1024,1024,0,0,0,0,84,5.734,71.6,99.081368,P-GPS,,30.2
621,223900,2026-01-08 12:31:38,0.0,5,7.642,0.0,0.0,-0.223694,12.3,8.8,3.8,1024,1024,1024,1024,0,0,0,0,84,5.734,71.6,99.409452,P-GPS,,30.3
622,224000,2026-01-08 12:31:38,0.0,5,7.642,0.0,0.0,-0.223694,12.4,9.7,4.5,1024,1024,1024,1024,0,0,0,0,84,5.734,71.6,99.409452,P-GPS,,30.3
623,224100,2026-01-08 12:31:38,0.0,5,7.642,0.0,0.0,0.0,12.4,9.8,5.0,1024,1024,1024,1024,0,0,0,0,84,5.734,71.6,99.409452,P-GPS,,30.3
624,224200,2026-01-08 12:31:39,0.0,5,7.642,0.0,0.0,0.0,12.2,9.6,4.4,1024,1024,1024,1024,0,0,0,0,84,5.734,71.6,99.409452,P-GPS,,30.3
625,224300,2026-01-08 12:31:39,0.0,5,7.727,0.0,0.0,0.0,12.1,9.6,4.4,1024,1024,1024,1024,0,0,0,0,84,4.876,71.6,99.409452,P-GPS,,30.3
626,224400,2026-01-08 12:31:39,0.0,5,7.727,0.0,0.0,0.0,12.2,9.1,4.7,1024,1024,1024,1024,0,0,0,0,84,4.876,71.6,99.409452,P-GPS,,30.3
627,224500,2026-01-08 12:31:39,0.0,5,7.727,0.0,0.0,0.0,12.3,8.8,5.4,1024,1024,1024,1024,0,0,0,0,84,4.876,71.6,99.737536,P-GPS,,30.4
628,224600,2026-01-08 12:31:39,0.0,5,7.727,0.0,0.0,-0.223694,12.4,9.8,5.9,1024,1024,1024,1024,0,0,0,0,84,4.876,71.6,99.737536,P-GPS,,30.4
629,224700,2026-01-08 12:31:39,0.0,5,7.727,0.0,0.0,0.0,12.6,10.6,6.0,1024,1024,1024,1024,0,0,0,0,84,4.876,71.6,99.737536,P-GPS,,30.4
630,224800,2026-01-08 12:31:39,0.0,5,7.727,0.0,0.0,0.0,12.5,9.4,6.1,1024,1024,1024,1024,0,0,0,0,84,4.876,71.6,99.409452,P-GPS,,30.3
631,224900,2026-01-08 12:31:39,0.0,5,7.727,0.0,0.0,0.0,12.5,9.6,6.1,1024,1024,1024,1024,0,0,0,0,84,4.876,71.6,99.409452,P-GPS,,30.3
632,225000,2026-01-08 12:31:39,0.0,5,7.727,0.0,0.0,0.0,12.6,10.7,5.8,1024,1024,1024,1024,0,0,0,0,84,4.876,71.6,99.409452,P-GPS,,30.3
633,225100,2026-01-08 12:31:39,0.0,5,7.727,0.0,0.0,0.223694,12.5,10.0,6.5,1024,1024,1024,1024,0,0,0,0,84,4.876,71.6,99.409452,P-GPS,,30.3
634,225200,2026-01-08 12:31:39,0.0,5,7.727,0.0,0.0,0.223694,12.6,10.7,5.8,1024,1024,1024,1024,0,0,0,0,84,4.876,71.6,99.409452,P-GPS,,30.3
635,225300,2026-01-08 12:31:40,0.0,5,7.727,0.0,0.0,0.223694,12.5,10.3,5.0,1024,1024,1024,1024,0,0,0,0,84,4.876,71.6,99.409452,P-GPS,,30.3
636,225400,2026-01-08 12:31:40,0.0,5,7.661,0.0,0.0,0.0,12.3,9.2,4.4,1024,1024,1024,1024,0,0,0,0,84,4.773,71.6,99.737536,P-GPS,,30.4
637,225500,2026-01-08 12:31:40,0.0,5,7.661,0.0,0.0,0.0,12.2,9.2,5.0,1024,1024,1024,1024,0,0,0,0,84,4.773,71.6,99.737536,P-GPS,,30.4
638,225600,2026-01-08 12:31:40,0.0,5,7.661,0.0,0.0,-0.223694,12.2,9.2,5.2,1024,1024,1024,1024,0,0,0,0,84,4.773,71.6,99.737536,P-GPS,,30.4
639,225700,2026-01-08 12:31:40,0.0,5,7.661,0.0,0.0,-0.223694,12.4,9.3,4.8,1024,1024,1024,1024,0,0,0,0,84,4.773,71.6,99.737536,P-GPS,,30.4
640,225800,2026-01-08 12:31:40,0.0,5,7.661,0.0,0.0,0.0,12.3,9.1,5.0,1024,1024,1024,1024,0,0,0,0,84,4.773,71.6,99.737536,P-GPS,,30.4
641,225900,2026-01-08 12:31:40,0.0,5,7.661,0.0,0.0,0.0,12.2,8.9,4.8,1024,1024,1024,1024,0,0,0,0,84,4.773,71.6,99.737536,P-GPS,,30.4
642,226000,2026-01-08 12:31:40,0.0,5,7.661,0.0,0.0,0.0,12.2,8.6,4.9,1024,1024,1024,1024,0,0,0,0,84,4.773,71.6,99.737536,P-GPS,,30.4
643,226100,2026-01-08 12:31:40,0.0,5,7.661,0.0,0.0,0.0,12.2,8.7,5.2,1024,1024,1024,1024,0,0,0,0,84,4.773,71.6,99.737536,P-GPS,,30.4
644,226200,2026-01-08 12:31:41,0.0,5,7.661,0.0,0.0,0.0,12.3,8.7,5.0,1024,1024,1024,1024,0,0,0,0,84,4.773,71.6,99.737536,P-GPS,,30.4
645,226300,2026-01-08 12:31:41,0.0,5,7.661,0.0,0.0,0.0,12.2,8.0,5.4,1024,1024,1024,1024,0,0,0,0,84,4.773,71.6,99.737536,P-GPS,,30.4
646,226400,2026-01-08 12:31:41,0.0,5,7.661,0.0,0.0,0.0,12.2,6.4,5.5,1024,1024,1024,1024,0,0,0,0,84,4.773,71.6,99.737536,P-GPS,,30.4
647,226500,2026-01-08 12:31:41,0.0,5,7.661,0.0,0.0,0.0,12.4,7.7,5.7,1024,1024,1024,1024,0,0,0,0,84,4.773,71.6,99.737536,P-GPS,,30.4
648,226600,2026-01-08 12:31:41,0.0,5,7.661,0.0,0.0,0.0,12.4,7.3,5.4,1024,1024,1024,1024,0,0,0,0,84,4.773,71.6,99.737536,P-GPS,,30.4
649,226700,2026-01-08 12:31:41,0.0,5,7.661,0.0,0.0,-0.223694,12.6,7.6,5.6,1024,1024,1024,1024,0,0,0,0,84,4.773,71.6,99.737536,P-GPS,,30.4
650,226800,2026-01-08 12:31:41,0.0,5,7.661,0.0,0.0,0.0,12.5,7.4,6.1,1024,1024,1024,1024,0,0,0,0,84,4.773,71.6,99.409452,P-GPS,,30.3
651,226900,2026-01-08 12:31:41,0.0,5,7.661,0.0,0.0,0.0,12.6,8.3,5.8,1024,1024,1024,1024,0,0,0,0,84,4.773,71.6,99.409452,P-GPS,,30.3
652,227000,2026-01-08 12:31:41,0.0,5,7.661,0.0,0.0,0.0,12.5,8.3,5.7,1024,1024,1024,1024,0,0,0,0,84,4.773,71.6,99.409452,P-GPS,,30.3
653,227100,2026-01-08 12:31:41,0.0,5,7.661,0.0,0.0,0.0,12.5,7.5,5.1,1024,1024,1024,1024,0,0,0,0,84,4.773,71.6,99.409452,P-GPS,,30.3
654,227200,2026-01-08 12:31:42,0.0,5,7.704,0.0,0.0,0.0,12.4,7.6,5.4,1024,1024,1024,1024,0,0,0,0,84,4.498,71.78,99.737536,P-GPS,,30.4
655,227300,2026-01-08 12:31:42,0.0,5,7.704,0.0,0.0,0.0,12.3,7.3,5.3,1024,1024,1024,1024,0,0,0,0,84,4.498,71.78,99.737536,P-GPS,,30.4
656,227400,2026-01-08 12:31:42,0.0,5,7.704,0.0,0.0,0.0,12.3,7.2,5.2,1024,1024,1024,1024,0,0,0,0,84,4.498,71.78,99.737536,P-GPS,,30.4
657,227500,2026-01-08 12:31:42,0.0,5,7.704,0.0,0.0,0.0,12.2,7.1,5.0,1024,1024,1024,1024,0,0,0,0,84,4.498,71.78,99.737536,P-GPS,,30.4
658,227600,2026-01-08 12:31:42,0.0,5,7.704,0.0,0.0,0.0,12.2,7.2,4.8,1024,1024,1024,1024,0,0,0,0,84,4.498,71.78,99.737536,P-GPS,SD card speed low SD card speed low. Normal use may be affected. Replace SD card (Code: 10028). Gimbal stuck. Make sure gimbal cover is removed and manually check whether gimbal can rotate freely (Code: 40002),30.4
659,227700,2026-01-08 12:31:42,0.0,5,7.704,0.0,0.0,0.0,12.1,6.8,4.5,1024,1024,1024,1024,0,0,0,0,84,4.498,71.78,99.737536,P-GPS,,30.4
660,227800,2026-01-08 12:31:42,0.0,5,7.704,0.0,0.0,0.0,12.0,6.3,4.3,1024,1024,1024,1024,0,0,0,0,84,4.498,71.78,99.737536,P-GPS,,30.4
661,227900,2026-01-08 12:31:42,0.0,5,7.704,0.0,0.0,0.0,12.2,7.0,3.9,1024,1024,1024,1024,0,0,0,0,84,4.498,71.78,99.737536,P-GPS,,30.4
662,228000,2026-01-08 12:31:42,0.0,5,7.704,0.0,0.0,0.0,12.2,8.3,3.3,1024,1024,1024,1024,0,0,0,0,84,4.498,71.78,99.737536,P-GPS,,30.4
663,228100,2026-01-08 12:31:42,0.0,5,7.704,0.0,0.0,0.0,12.1,8.2,3.2,1024,1024,1024,1024,0,0,0,0,84,4.498,71.78,99.737536,P-GPS,,30.4
664,228200,2026-01-08 12:31:42,0.0,5,7.704,0.0,0.0,0.0,12.1,8.4,3.5,1024,1024,1024,1024,0,0,0,0,84,4.245,71.78,99.737536,P-GPS,,30.4
665,228300,2026-01-08 12:31:43,0.0,5,7.704,0.0,0.0,0.0,12.1,8.9,3.7,1024,1024,1024,1024,0,0,0,0,84,4.245,71.78,99.737536,P-GPS,,30.4
666,228400,2026-01-08 12:31:43,0.0,5,7.704,0.0,0.0,0.0,12.2,8.7,3.5,1024,1024,1024,1024,0,0,0,0,84,4.245,71.78,99.737536,P-GPS,,30.4
667,228500,2026-01-08 12:31:43,0.0,5,7.704,0.0,0.0,0.0,12.1,8.0,3.5,1024,1024,1024,1024,0,0,0,0,84,4.245,71.78,99.737536,P-GPS,,30.4
668,228600,2026-01-08 12:31:43,0.0,5,7.704,0.0,0.0,0.0,12.1,8.5,3.5,1024,1024,1024,1024,0,0,0,0,84,4.245,71.78,99.737536,P-GPS,,30.4
669,228700,2026-01-08 12:31:43,0.0,5,7.704,0.0,0.0,0.0,12.2,8.9,3.4,1024,1024,1024,1024,0,0,0,0,84,4.245,71.78,99.737536,P-GPS,,30.4
670,228800,2026-01-08 12:31:43,0.0,5,7.704,0.0,0.0,0.0,12.1,8.0,3.5,1024,1024,1024,1024,0,0,0,0,84,4.245,71.78,99.737536,P-GPS,,30.4
671,228900,2026-01-08 12:31:43,0.0,5,7.704,0.0,0.0,0.0,12.1,8.3,3.4,1024,1024,1024,1024,0,0,0,0,84,4.245,71.78,100.06562,P-GPS,,30.5
672,229000,2026-01-08 12:31:43,0.0,5,7.704,0.0,0.0,0.0,12.1,8.3,4.1,1024,1024,1024,1024,0,0,0,0,84,4.245,71.78,100.06562,P-GPS,,30.5
673,229100,2026-01-08 12:31:43,0.0,5,7.704,0.0,0.0,0.0,12.2,8.1,4.0,1024,1024,1024,1024,0,0,0,0,84,4.245,71.78,100.06562,P-GPS,,30.5
674,229200,2026-01-08 12:31:44,0.0,5,7.69,0.0,0.0,0.0,12.2,8.6,4.0,1024,1024,1024,1024,0,0,0,0,84,4.736,71.78,100.06562,P-GPS,,30.5
675,229300,2026-01-08 12:31:44,0.0,5,7.69,0.0,0.0,0.0,12.2,8.6,3.9,1024,1024,1024,1024,0,0,0,0,84,4.736,71.78,100.06562,P-GPS,,30.5
676,229400,2026-01-08 12:31:44,0.0,5,7.69,0.0,0.0,0.0,12.2,8.7,3.9,1024,1024,1024,1024,0,0,0,0,84,4.736,71.78,100.06562,P-GPS,,30.5
677,229500,2026-01-08 12:31:44,0.0,5,7.69,0.0,0.0,0.0,12.2,8.6,3.8,1024,1024,1024,1024,0,0,0,0,84,4.736,71.78,100.06562,P-GPS,,30.5
678,229600,2026-01-08 12:31:44,0.0,5,7.69,0.0,0.0,0.0,12.1,8.1,3.8,1024,1024,1024,1024,0,0,0,0,84,4.736,71.78,100.06562,P-GPS,,30.5
679,229700,2026-01-08 12:31:44,0.0,5,7.69,0.0,0.0,0.0,12.3,8.4,3.7,1024,1024,1024,1024,0,0,0,0,84,4.736,71.78,100.06562,P-GPS,,30.5
680,229800,2026-01-08 12:31:44,0.0,5,7.69,0.0,0.0,0.0,12.4,8.5,4.2,1024,1024,1024,1024,0,0,0,0,84,4.736,71.78,100.06562,P-GPS,,30.5
681,229900,2026-01-08 12:31:44,0.0,5,7.69,0.0,0.0,0.0,12.4,8.9,4.7,1024,1024,1024,1024,0,0,0,0,84,4.736,71.78,100.06562,P-GPS,,30.5
682,230000,2026-01-08 12:31:44,0.0,5,7.69,0.0,0.0,0.0,12.3,8.4,4.5,1024,1024,1024,1024,0,0,0,0,84,4.736,71.78,100.06562,P-GPS,,30.5
683,230100,2026-01-08 12:31:44,0.0,5,7.69,0.0,0.0,0.0,12.4,9.0,4.3,1024,1024,1024,1024,0,0,0,0,84,4.736,71.78,100.06562,P-GPS,,30.5
684,230200,2026-01-08 12:31:44,0.0,5,7.7,0.0,0.0,0.0,12.3,8.8,4.3,1024,1024,1024,1024,0,0,0,0,84,4.778,71.78,100.06562,P-GPS,,30.5
685,230300,2026-01-08 12:31:45,0.0,5,7.7,0.0,0.0,0.0,12.4,9.2,4.3,1024,1024,1024,1024,0,0,0,0,84,4.778,71.78,100.393704,P-GPS,,30.6
686,230400,2026-01-08 12:31:45,0.0,5,7.7,0.0,0.0,0.0,12.3,9.2,4.5,1024,1024,1024,1024,0,0,0,0,84,4.778,71.78,100.393704,P-GPS,,30.6
687,230500,2026-01-08 12:31:45,0.0,5,7.7,0.0,0.0,0.0,12.3,9.0,4.2,1024,1024,1024,1024,0,0,0,0,84,4.778,71.78,100.393704,P-GPS,,30.6
688,230600,2026-01-08 12:31:45,0.0,5,7.7,0.0,0.0,0.0,12.3,9.3,3.8,1024,1024,1024,1024,0,0,0,0,84,4.778,71.78,100.06562,P-GPS,,30.5
689,230700,2026-01-08 12:31:45,0.0,5,7.7,0.0,0.0,0.0,12.3,8.9,3.8,1024,1024,1024,1024,0,0,0,0,84,4.778,71.78,100.06562,P-GPS,,30.5
690,230800,2026-01-08 12:31:45,0.0,5,7.7,0.0,0.0,0.0,12.4,9.2,3.9,1024,1024,1024,1024,0,0,0,0,84,4.778,71.78,100.06562,P-GPS,,30.5
691,230900,2026-01-08 12:31:45,0.0,5,7.7,0.0,0.0,0.0,12.4,9.1,3.8,1024,1024,1024,1024,0,0,0,0,84,4.778,71.78,100.06562,P-GPS,,30.5
692,231000,2026-01-08 12:31:45,0.0,5,7.7,0.0,0.0,0.0,12.3,9.1,3.5,1024,1024,1024,1024,0,0,0,0,84,4.778,71.78,100.06562,P-GPS,,30.5
693,231100,2026-01-08 12:31:45,0.0,5,7.7,0.0,0.0,0.0,12.3,8.9,2.9,1024,1024,1024,1024,0,0,0,0,84,4.778,71.78,100.06562,P-GPS,,30.5
694,231200,2026-01-08 12:31:46,0.0,5,7.689,0.0,0.0,0.0,12.2,8.9,2.6,1024,1024,1024,1024,0,0,0,0,84,4.934,71.78,100.06562,P-GPS,,30.5
695,231300,2026-01-08 12:31:46,0.0,5,7.689,0.0,0.0,0.0,12.2,9.3,2.6,1024,1024,1024,1024,0,0,0,0,84,4.934,71.78,100.06562,P-GPS,,30.5
696,231400,2026-01-08 12:31:46,0.0,5,7.689,0.0,0.0,0.0,12.2,8.9,2.9,1024,1024,1024,1024,0,0,0,0,84,4.934,71.78,100.06562,P-GPS,,30.5
697,231500,2026-01-08 12:31:46,0.0,5,7.689,0.0,0.0,0.0,12.2,8.9,3.3,1024,1024,1024,1024,0,0,0,0,84,4.934,71.78,100.06562,P-GPS,,30.5
698,231600,2026-01-08 12:31:46,0.0,5,7.689,0.0,0.0,0.0,12.1,8.8,3.5,1024,1024,1024,1024,0,0,0,0,84,4.934,71.78,100.06562,P-GPS,,30.5
699,231700,2026-01-08 12:31:46,0.0,5,7.689,0.0,0.0,0.0,12.3,8.2,3.5,1024,1024,1024,1024,0,0,0,0,84,4.934,71.78,100.06562,P-GPS,,30.5
700,231800,2026-01-08 12:31:46,0.0,5,7.689,0.0,0.0,0.0,12.4,8.6,3.0,1024,1024,1024,1024,0,0,0,0,84,4.934,71.78,100.06562,P-GPS,,30.5
701,231900,2026-01-08 12:31:46,0.0,5,7.689,0.0,0.0,0.0,12.1,7.7,3.5,1024,1024,1024,1024,0,0,0,0,84,4.934,71.78,100.393704,P-GPS,,30.6
702,232000,2026-01-08 12:31:46,0.0,5,7.689,0.0,0.0,0.0,12.2,6.4,3.9,1024,1024,1024,1024,0,0,0,0,84,4.934,71.78,100.393704,P-GPS,,30.6
703,232100,2026-01-08 12:31:46,0.0,5,7.689,0.0,0.0,0.0,12.2,6.9,4.7,1024,1024,1024,1024,0,0,0,0,84,4.934,71.78,100.393704,P-GPS,,30.6
704,232200,2026-01-08 12:31:47,0.223694,5,7.7,0.0,-0.223694,0.0,12.1,6.3,5.8,1024,1024,1024,1024,0,0,0,0,84,4.902,71.96,100.393704,P-GPS,,30.6
705,232300,2026-01-08 12:31:47,0.223694,5,7.7,0.0,-0.223694,0.0,12.3,6.6,5.8,1024,1024,1024,1024,0,0,0,0,84,4.902,71.96,100.721788,P-GPS,,30.7
706,232400,2026-01-08 12:31:47,0.223694,5,7.7,0.0,-0.223694,0.0,12.4,6.7,5.7,1024,1024,1024,1024,0,0,0,0,84,4.902,71.96,100.721788,P-GPS,,30.7
707,232500,2026-01-08 12:31:47,0.0,5,7.7,0.0,0.0,0.0,12.6,7.0,6.3,1024,1024,1024,1024,0,0,0,0,84,4.902,71.96,100.721788,P-GPS,,30.7
708,232600,2026-01-08 12:31:47,0.0,5,7.7,0.0,0.0,0.0,12.6,7.1,5.8,1024,1024,1024,1024,0,0,0,0,84,4.902,71.96,101.049872,P-GPS,,30.8
709,232700,2026-01-08 12:31:47,0.0,5,7.7,0.0,0.0,0.0,12.6,7.0,6.1,1024,1024,1024,1024,0,0,0,0,84,4.902,71.96,101.049872,P-GPS,,30.8
710,232800,2026-01-08 12:31:47,0.0,5,7.7,0.0,0.0,0.0,12.4,6.3,5.8,1024,1024,1024,1024,0,0,0,0,84,4.902,71.96,101.049872,P-GPS,,30.8
711,232900,2026-01-08 12:31:47,0.0,5,7.7,0.0,0.0,0.0,12.3,5.9,6.2,1024,1024,1024,1024,0,0,0,0,84,4.902,71.96,101.049872,P-GPS,,30.8
712,233000,2026-01-08 12:31:47,0.0,5,7.7,0.0,0.0,0.0,12.4,6.6,5.8,1024,1024,1024,1024,0,0,0,0,84,4.902,71.96,101.049872,P-GPS,,30.8
713,233100,2026-01-08 12:31:47,0.0,5,7.7,0.0,0.0,0.0,12.4,6.6,5.6,1024,1024,1024,1024,0,0,0,0,84,4.902,71.96,101.049872,P-GPS,,30.8
714,233200,2026-01-08 12:31:47,0.0,5,7.72,0.0,0.0,0.0,12.4,6.8,5.4,1024,1024,1024,1024,0,0,0,0,84,4.474,71.96,101.049872,P-GPS,,30.8
715,233300,2026-01-08 12:31:48,0.0,5,7.72,0.0,0.0,0.0,12.3,6.3,5.1,1024,1024,1024,1024,0,0,0,0,84,4.474,71.96,101.049872,P-GPS,,30.8
716,233400,2026-01-08 12:31:48,0.0,5,7.72,0.0,0.0,0.0,12.4,5.2,5.3,1024,1024,1024,1024,0,0,0,0,84,4.474,71.96,101.049872,P-GPS,,30.8
717,233500,2026-01-08 12:31:48,0.0,5,7.72,0.0,0.0,0.0,12.4,5.7,5.1,1024,1024,1024,1024,0,0,0,0,84,4.474,71.96,101.049872,P-GPS,,30.8
718,233600,2026-01-08 12:31:48,0.0,5,7.72,0.0,0.0,0.0,12.4,4.3,4.6,1024,1024,1024,1024,0,0,0,0,84,4.474,71.96,101.049872,P-GPS,,30.8
719,233700,2026-01-08 12:31:48,0.0,5,7.72,0.0,0.0,0.0,12.5,3.8,4.9,1024,1024,1024,1024,0,0,0,0,84,4.474,71.96,100.721788,P-GPS,,30.7
720,233800,2026-01-08 12:31:48,0.0,5,7.72,0.0,0.0,0.0,12.3,3.7,5.7,1024,1024,1024,1024,0,0,0,0,84,4.474,71.96,100.721788,P-GPS,,30.7
721,233900,2026-01-08 12:31:48,0.0,5,7.72,0.0,0.0,0.0,12.3,4.9,4.4,1024,1024,1024,1024,0,0,0,0,84,4.474,71.96,100.393704,P-GPS,,30.6
722,234000,2026-01-08 12:31:48,0.0,5,7.72,0.0,0.0,0.0,12.3,5.0,4.8,1024,1024,1024,1024,0,0,0,0,84,4.474,71.96,100.393704,P-GPS,,30.6
723,234100,2026-01-08 12:31:48,0.0,5,7.72,0.0,0.0,0.0,12.2,5.2,4.5,1024,1024,1024,1024,0,0,0,0,84,4.474,71.96,100.06562,P-GPS,,30.5
724,234200,2026-01-08 12:31:48,0.0,5,7.72,0.0,0.0,0.0,12.3,5.8,3.9,1024,1024,1024,1024,0,0,0,0,84,4.474,71.96,100.06562,P-GPS,,30.5
725,234300,2026-01-08 12:31:49,0.0,5,7.72,0.0,0.0,0.0,12.4,5.7,3.8,1024,1024,1024,1024,0,0,0,0,84,4.474,71.96,99.737536,P-GPS,,30.4
726,234400,2026-01-08 12:31:49,0.0,5,7.72,0.0,0.0,0.0,12.2,5.0,4.5,1024,1024,1024,1024,0,0,0,0,84,4.474,71.96,99.409452,P-GPS,,30.3
727,234500,2026-01-08 12:31:49,0.0,5,7.72,0.0,0.0,0.0,11.9,5.5,4.1,1024,1024,1024,1024,0,0,0,0,84,4.474,71.96,99.409452,P-GPS,,30.3
728,234600,2026-01-08 12:31:49,0.0,5,7.72,0.0,0.0,0.0,11.8,5.6,4.3,1024,1024,1024,1024,0,0,0,0,84,4.474,71.96,99.081368,P-GPS,,30.2
729,234700,2026-01-08 12:31:49,0.0,5,7.72,0.0,0.0,0.0,11.9,6.0,4.9,1024,1024,1024,1024,0,0,0,0,84,4.474,71.96,99.081368,P-GPS,,30.2
730,234800,2026-01-08 12:31:49,0.0,5,7.72,0.0,0.0,0.0,12.0,6.1,5.0,1024,1024,1024,1024,0,0,0,0,84,4.474,71.96,99.081368,P-GPS,,30.2
731,234900,2026-01-08 12:31:49,0.0,5,7.72,0.0,0.0,0.0,12.2,6.5,4.9,1024,1024,1024,1024,0,0,0,0,84,4.474,71.96,99.081368,P-GPS,,30.2
732,235000,2026-01-08 12:31:49,0.0,5,7.72,0.0,0.0,0.0,12.1,6.6,4.9,1024,1024,1024,1024,0,0,0,0,84,4.474,71.96,99.081368,P-GPS,,30.2
733,235100,2026-01-08 12:31:49,0.0,5,7.72,0.0,0.0,0.0,12.1,7.1,4.6,1024,1024,1024,1024,0,0,0,0,84,4.474,71.96,99.409452,P-GPS,,30.3
734,235200,2026-01-08 12:31:50,0.0,5,7.72,0.0,0.0,0.0,12.1,7.1,4.0,1024,1024,1024,1024,0,0,0,0,84,4.474,71.96,99.409452,P-GPS,,30.3
735,235300,2026-01-08 12:31:50,0.0,5,7.748,0.0,0.0,0.0,12.1,7.3,4.1,1024,1024,1024,1024,0,0,0,0,84,3.95,71.96,99.737536,P-GPS,,30.4
736,235400,2026-01-08 12:31:50,0.0,5,7.748,0.0,0.0,0.0,12.0,6.9,3.7,1024,1024,1024,1024,0,0,0,0,84,3.95,71.96,99.737536,P-GPS,,30.4
737,235500,2026-01-08 12:31:50,0.0,5,7.748,0.0,0.0,0.0,12.0,6.7,3.6,1024,1024,1024,1024,0,0,0,0,84,3.95,71.96,99.737536,P-GPS,,30.4
738,235600,2026-01-08 12:31:50,0.0,5,7.748,0.0,0.0,0.0,11.9,5.3,3.6,1024,1024,1024,1024,0,0,0,0,84,3.95,71.96,99.737536,P-GPS,,30.4
739,235700,2026-01-08 12:31:50,0.0,5,7.748,0.0,0.0,-0.223694,11.9,4.6,4.0,1024,1024,1024,1024,0,0,0,0,84,3.95,71.96,99.737536,P-GPS,,30.4
740,235800,2026-01-08 12:31:50,0.223694,5,7.748,0.0,0.223694,-0.223694,11.8,4.3,2.4,1024,1024,1024,1024,0,0,0,0,84,3.95,71.96,99.409452,P-GPS,,30.3
741,235900,2026-01-08 12:31:50,0.223694,5,7.748,0.0,0.223694,0.0,11.8,6.2,1.6,1024,1024,1024,1024,0,0,0,0,84,3.95,71.96,99.409452,P-GPS,,30.3
742,236000,2026-01-08 12:31:50,0.223694,5,7.748,0.0,0.0,0.0,11.7,6.4,1.8,1024,1024,1024,1024,0,0,0,0,84,3.95,71.96,99.409452,P-GPS,,30.3
743,236100,2026-01-08 12:31:50,0.0,5,7.748,0.0,0.0,0.0,11.8,7.6,2.5,1024,1024,1024,1024,0,0,0,0,84,3.95,71.96,99.081368,P-GPS,,30.2
744,236200,2026-01-08 12:31:50,0.0,5,7.748,0.0,0.0,0.0,11.9,7.6,3.1,1024,1024,1024,1024,0,0,0,0,84,3.95,71.96,99.081368,P-GPS,,30.2
745,236300,2026-01-08 12:31:51,0.0,5,7.748,0.0,0.0,0.0,11.8,7.7,3.4,1024,1024,1024,1024,0,0,0,0,84,3.95,71.96,98.753284,P-GPS,,30.1
746,236400,2026-01-08 12:31:51,0.0,5,7.748,0.0,0.0,0.0,11.9,7.6,3.5,1024,1024,1024,1024,0,0,0,0,84,3.95,71.96,98.753284,P-GPS,,30.1
747,236500,2026-01-08 12:31:51,0.0,5,7.752,0.0,0.0,0.0,11.9,7.7,4.0,1024,1024,1024,1024,0,0,0,0,84,3.773,71.96,98.753284,P-GPS,,30.1
748,236600,2026-01-08 12:31:51,0.0,5,7.752,0.0,0.0,0.0,11.9,7.4,4.0,1024,1024,1024,1024,0,0,0,0,84,3.773,71.96,98.753284,P-GPS,,30.1
749,236700,2026-01-08 12:31:51,0.0,5,7.752,0.0,0.0,0.0,12.0,7.6,4.4,1024,1024,1024,1024,0,0,0,0,84,3.773,71.96,98.753284,P-GPS,,30.1
750,236800,2026-01-08 12:31:51,0.0,5,7.752,0.0,0.0,0.0,12.2,6.9,4.5,1024,1024,1024,1024,0,0,0,0,84,3.773,71.96,98.753284,P-GPS,,30.1
751,236900,2026-01-08 12:31:51,0.0,5,7.752,0.0,0.0,0.0,12.4,7.3,5.0,1024,1024,1024,1024,0,0,0,0,84,3.773,71.96,99.081368,P-GPS,,30.2
752,237000,2026-01-08 12:31:51,0.0,5,7.752,0.0,0.0,0.0,12.5,7.4,5.6,1024,1024,1024,1024,0,0,0,0,84,3.773,71.96,99.081368,P-GPS,,30.2
753,237100,2026-01-08 12:31:51,0.0,5,7.752,0.0,0.0,0.0,12.4,7.0,4.9,1024,1024,1024,1024,0,0,0,0,84,3.773,71.96,99.409452,P-GPS,,30.3
754,237200,2026-01-08 12:31:52,0.0,5,7.752,0.0,0.0,0.0,12.4,6.7,4.2,1024,1024,1024,1024,0,0,0,0,84,3.773,71.96,99.409452,P-GPS,,30.3
755,237300,2026-01-08 12:31:52,0.0,5,7.752,0.0,0.0,0.0,12.4,7.1,3.9,1024,1024,1024,1024,0,0,0,0,84,3.773,71.96,99.737536,P-GPS,,30.4
756,237400,2026-01-08 12:31:52,0.0,5,7.752,0.0,0.0,0.0,12.4,6.9,3.9,1024,1024,1024,1024,0,0,0,0,84,3.773,71.96,99.737536,P-GPS,,30.4
757,237500,2026-01-08 12:31:52,0.0,5,7.752,0.0,0.0,0.0,12.3,6.6,3.9,1024,1024,1024,1024,0,0,0,0,84,3.773,71.96,100.06562,P-GPS,,30.5
758,237600,2026-01-08 12:31:52,0.0,5,7.717,0.0,0.0,0.0,12.3,5.3,4.2,1024,1024,1024,1024,0,0,0,0,83,4.329,72.14,100.06562,P-GPS,,30.5
759,237700,2026-01-08 12:31:52,0.0,5,7.717,0.0,0.0,0.0,12.3,4.9,4.7,1024,1024,1024,1024,0,0,0,0,83,4.329,72.14,100.393704,P-GPS,,30.6
760,237800,2026-01-08 12:31:52,0.0,5,7.717,0.0,0.0,0.0,12.3,5.4,5.0,1024,1024,1024,1024,0,0,0,0,83,4.329,72.14,100.393704,P-GPS,,30.6
761,237900,2026-01-08 12:31:52,0.0,5,7.717,0.0,0.0,0.0,12.2,6.5,5.0,1024,1024,1024,1024,0,0,0,0,83,4.329,72.14,100.721788,P-GPS,,30.7
762,238000,2026-01-08 12:31:52,0.0,5,7.717,0.0,0.0,0.0,12.1,6.9,5.0,1024,1024,1024,1024,0,0,0,0,83,4.329,72.14,100.721788,P-GPS,,30.7
763,238100,2026-01-08 12:31:52,0.0,5,7.717,0.0,0.0,0.0,12.1,7.2,5.0,1024,1024,1024,1024,0,0,0,0,83,4.329,72.14,100.721788,P-GPS,,30.7
764,238200,2026-01-08 12:31:53,0.0,5,7.717,0.0,0.0,0.0,12.1,7.1,5.3,1024,1024,1024,1024,0,0,0,0,83,4.329,72.14,100.721788,P-GPS,,30.7
765,238300,2026-01-08 12:31:53,0.0,5,7.717,0.0,0.0,0.0,12.2,7.5,5.3,1024,1024,1024,1024,0,0,0,0,83,4.329,72.14,100.721788,P-GPS,,30.7
766,238400,2026-01-08 12:31:53,0.0,5,7.717,0.0,0.0,0.0,12.3,7.1,4.9,1024,1024,1024,1024,0,0,0,0,83,4.329,72.14,100.721788,P-GPS,,30.7
767,238500,2026-01-08 12:31:53,0.0,5,7.717,0.0,0.0,0.0,12.3,7.2,5.0,1024,1024,1024,1024,0,0,0,0,83,4.329,72.14,100.721788,P-GPS,,30.7
768,238600,2026-01-08 12:31:53,0.0,5,7.717,0.0,0.0,0.0,12.3,6.9,4.9,1024,1024,1024,1024,0,0,0,0,83,4.329,72.14,100.721788,P-GPS,,30.7
769,238700,2026-01-08 12:31:53,0.0,5,7.728,0.0,0.0,0.0,12.3,7.6,4.9,1024,1024,1024,1024,0,0,0,0,83,4.315,72.14,100.721788,P-GPS,,30.7
770,238800,2026-01-08 12:31:53,0.0,5,7.728,0.0,0.0,0.0,12.3,7.4,4.8,1024,1024,1024,1024,0,0,0,0,83,4.315,72.14,100.721788,P-GPS,,30.7
771,238900,2026-01-08 12:31:53,0.0,5,7.728,0.0,0.0,0.0,12.4,8.2,5.1,1024,1024,1024,1024,0,0,0,0,83,4.315,72.14,100.393704,P-GPS,,30.6
772,239000,2026-01-08 12:31:53,0.0,5,7.728,0.0,0.0,0.0,12.4,8.5,5.1,1024,1024,1024,1024,0,0,0,0,83,4.315,72.14,100.393704,P-GPS,,30.6
773,239100,2026-01-08 12:31:53,0.0,5,7.728,0.0,0.0,0.0,12.3,8.6,4.6,1024,1024,1024,1024,0,0,0,0,83,4.315,72.14,100.393704,P-GPS,,30.6
774,239200,2026-01-08 12:31:53,0.0,5,7.728,0.0,0.0,0.0,12.2,8.1,4.6,1024,1024,1024,1024,0,0,0,0,83,4.315,72.14,100.393704,P-GPS,,30.6
775,239300,2026-01-08 12:31:54,0.0,5,7.728,0.0,0.0,0.0,12.3,7.9,4.5,1024,1024,1024,1024,0,0,0,0,83,4.315,72.14,100.393704,P-GPS,,30.6
776,239400,2026-01-08 12:31:54,0.0,5,7.728,0.0,0.0,0.0,12.3,7.5,4.3,1024,1024,1024,1024,0,0,0,0,83,4.315,72.14,100.393704,P-GPS,,30.6
777,239500,2026-01-08 12:31:54,0.0,5,7.728,0.0,0.0,0.0,12.4,7.3,4.4,1024,1024,1024,1024,0,0,0,0,83,4.315,72.14,100.393704,P-GPS,,30.6
778,239600,2026-01-08 12:31:54,0.0,5,7.728,0.0,0.0,0.0,12.4,7.5,4.4,1024,1024,1024,1024,0,0,0,0,83,4.315,72.14,100.721788,P-GPS,,30.7
779,239700,2026-01-08 12:31:54,0.0,5,7.728,0.0,0.0,0.0,12.4,7.1,4.7,1024,1024,1024,1024,0,0,0,0,83,4.315,72.14,100.721788,P-GPS,,30.7
