index,time(millisecond),timestamp,speed(mph),gpslevel,voltage(v),xSpeed(mph),ySpeed(mph),zSpeed(mph),compass_heading(degrees),pitch(degrees),roll(degrees),rc_elevator,rc_aileron,rc_throttle,rc_rudder,rc_elevator(percent),rc_aileron(percent),rc_throttle(percent),rc_rudder(percent),battery_percent,current(A),battery_temperature(f),ascent(feet),flycState,message,height_above_takeoff(meters)
494,199200,2026-01-07 15:36:22,0.0,5,7.335,0.0,0.0,0.0,35.6,3.7,1.6,1024,1024,1024,1024,0,0,0,0,66,5.933,68.72,101.049872,P-GPS,,30.8
495,199300,2026-01-07 15:36:22,0.0,5,7.335,0.0,0.0,0.0,35.6,3.6,1.7,1024,1024,1024,1024,0,0,0,0,66,5.933,68.72,101.049872,P-GPS,,30.8
496,199400,2026-01-07 15:36:22,0.0,5,7.399,0.0,0.0,0.0,35.5,3.7,2.0,1024,1024,1024,1024,0,0,0,0,66,4.143,68.72,101.049872,P-GPS,,30.8
497,199500,2026-01-07 15:36:23,0.0,5,7.399,0.0,0.0,0.0,35.5,3.6,2.1,1024,1024,1024,1024,0,0,0,0,66,4.143,68.72,101.049872,P-GPS,,30.8
498,199600,2026-01-07 15:36:23,0.0,5,7.399,0.0,0.0,0.0,35.6,3.6,2.2,1024,1024,1024,1024,0,0,0,0,66,4.143,68.72,101.049872,P-GPS,,30.8
499,199700,2026-01-07 15:36:23,0.0,5,7.399,0.0,0.0,0.0,35.5,3.5,2.0,1024,1024,1024,1024,0,0,0,0,66,4.143,68.72,101.049872,P-GPS,,30.8
500,199800,2026-01-07 15:36:23,0.0,5,7.399,0.0,0.0,0.0,35.6,3.5,2.6,1024,1024,1024,1024,0,0,0,0,66,4.143,68.72,101.049872,P-GPS,,30.8
501,199900,2026-01-07 15:36:23,0.0,5,7.399,0.0,0.0,0.0,35.6,3.2,2.6,1024,1024,1024,1024,0,0,0,0,66,4.143,68.72,101.049872,P-GPS,,30.8
502,200000,2026-01-07 15:36:23,0.0,5,7.399,0.0,0.0,0.0,35.7,3.7,2.6,1024,1024,1024,1024,0,0,0,0,66,4.143,68.72,101.049872,P-GPS,,30.8
503,200100,2026-01-07 15:36:23,0.0,5,7.399,0.0,0.0,0.0,35.6,4.2,2.7,1024,1024,1024,1024,0,0,0,0,66,4.143,68.72,101.049872,P-GPS,,30.8
504,200200,2026-01-07 15:36:23,0.0,5,7.399,0.0,0.0,0.0,35.6,4.2,2.9,1024,1024,1024,1024,0,0,0,0,66,4.143,68.72,101.049872,P-GPS,,30.8
505,200300,2026-01-07 15:36:23,0.0,5,7.399,0.0,0.0,0.0,35.7,4.2,2.8,1024,1024,1024,1024,0,0,0,0,66,4.143,68.72,101.049872,P-GPS,,30.8
506,200400,2026-01-07 15:36:24,0.0,5,7.399,0.0,0.0,0.0,35.8,3.6,3.1,1024,1024,1024,1024,0,0,0,0,66,4.143,68.72,101.049872,P-GPS,,30.8
507,200500,2026-01-07 15:36:24,0.0,5,7.389,0.0,0.0,0.0,35.7,3.3,3.2,1024,1024,1024,1024,0,0,0,0,66,4.927,68.72,101.049872,P-GPS,,30.8
508,200600,2026-01-07 15:36:24,0.0,5,7.389,0.0,0.0,0.0,35.7,2.8,3.2,1024,1024,1024,1024,0,0,0,0,66,4.927,68.72,101.049872,P-GPS,,30.8
509,200700,2026-01-07 15:36:24,0.0,5,7.389,0.0,0.0,0.0,35.7,3.0,3.4,1024,1024,1024,1024,0,0,0,0,66,4.927,68.72,101.049872,P-GPS,,30.8
510,200800,2026-01-07 15:36:24,0.0,5,7.389,0.0,0.0,0.0,35.7,3.1,3.4,1024,1024,1024,1024,0,0,0,0,66,4.927,68.72,101.049872,P-GPS,,30.8
511,200900,2026-01-07 15:36:24,0.0,5,7.389,0.0,0.0,0.0,35.7,2.5,3.5,1024,1024,1024,1024,0,0,0,0,66,4.927,68.72,101.049872,P-GPS,,30.8
512,201000,2026-01-07 15:36:24,0.0,5,7.389,0.0,0.0,0.0,35.6,2.5,3.3,1024,1024,1024,1024,0,0,0,0,66,4.927,68.72,101.049872,P-GPS,,30.8
513,201100,2026-01-07 15:36:24,0.0,5,7.389,0.0,0.0,0.0,35.6,3.3,2.9,1024,1024,1024,1024,0,0,0,0,66,4.927,68.72,101.049872,P-GPS,,30.8
514,201200,2026-01-07 15:36:24,0.0,5,7.389,0.0,0.0,0.0,35.6,3.4,2.9,1024,1024,1024,1024,0,0,0,0,66,4.927,68.72,101.049872,P-GPS,,30.8
515,201300,2026-01-07 15:36:24,0.0,5,7.389,0.0,0.0,0.0,35.7,3.5,2.8,1024,1024,1024,1024,0,0,0,0,66,4.927,68.72,101.049872,P-GPS,,30.8
516,201400,2026-01-07 15:36:24,0.0,5,7.389,0.0,0.0,0.0,35.6,3.5,2.7,1024,1024,1024,1024,0,0,0,0,66,4.927,68.72,100.721788,P-GPS,,30.7
517,201500,2026-01-07 15:36:25,0.0,5,7.389,0.0,0.0,0.0,35.5,3.7,2.8,1024,1024,1024,1024,0,0,0,0,66,4.927,68.72,100.721788,P-GPS,,30.7
518,201600,2026-01-07 15:36:25,0.0,5,7.381,0.0,0.0,0.0,35.4,3.5,2.8,1024,1024,1024,1024,0,0,0,0,66,4.989,68.72,100.721788,P-GPS,,30.7
519,201700,2026-01-07 15:36:25,0.0,5,7.381,0.0,0.0,0.0,35.5,4.0,2.9,1024,1024,1024,1024,0,0,0,0,66,4.989,68.72,100.721788,P-GPS,,30.7
520,201800,2026-01-07 15:36:25,0.0,5,7.381,0.0,0.0,0.0,35.7,5.2,2.6,1024,1024,1024,1024,0,0,0,0,66,4.989,68.72,101.049872,P-GPS,,30.8
521,201900,2026-01-07 15:36:25,0.0,5,7.381,0.0,0.0,0.0,35.6,5.1,2.6,1024,1024,1024,1024,0,0,0,0,66,4.989,68.72,100.721788,P-GPS,,30.7
522,202000,2026-01-07 15:36:25,0.0,5,7.381,0.0,0.0,0.0,35.6,4.8,2.5,1024,1024,1024,1024,0,0,0,0,66,4.989,68.72,100.721788,P-GPS,,30.7
523,202100,2026-01-07 15:36:25,0.0,5,7.381,0.0,0.0,0.0,35.6,4.6,2.6,1024,1024,1024,1024,0,0,0,0,66,4.989,68.72,100.721788,P-GPS,,30.7
524,202200,2026-01-07 15:36:25,0.0,5,7.381,0.0,0.0,0.0,35.6,4.1,3.0,1024,1024,1024,1024,0,0,0,0,66,4.989,68.72,100.721788,P-GPS,,30.7
525,202300,2026-01-07 15:36:25,0.0,5,7.381,0.0,0.0,0.0,35.7,3.8,3.0,1024,1024,1024,1024,0,0,0,0,66,4.989,68.72,100.721788,P-GPS,,30.7
526,202400,2026-01-07 15:36:26,0.0,5,7.381,0.0,0.0,0.0,35.8,3.6,2.9,1024,1024,1024,1024,0,0,0,0,66,4.989,68.72,100.721788,P-GPS,,30.7
527,202500,2026-01-07 15:36:26,0.0,5,7.381,0.0,0.0,0.0,35.8,3.1,3.3,1024,1024,1024,1024,0,0,0,0,66,4.989,68.72,100.721788,P-GPS,,30.7
528,202600,2026-01-07 15:36:26,0.0,5,7.381,0.0,0.0,0.0,35.8,3.1,3.4,1024,1024,1024,1024,0,0,0,0,66,4.989,68.72,100.721788,P-GPS,,30.7
529,202700,2026-01-07 15:36:26,0.0,5,7.381,0.0,0.0,0.0,35.7,2.6,3.0,1024,1024,1024,1024,0,0,0,0,66,4.989,68.72,100.721788,P-GPS,,30.7
530,202800,2026-01-07 15:36:26,0.0,5,7.381,0.0,0.0,0.0,35.6,2.5,3.1,1024,1024,1024,1024,0,0,0,0,66,4.989,68.72,100.721788,P-GPS,,30.7
531,202900,2026-01-07 15:36:26,0.0,5,7.381,0.0,0.0,0.0,35.6,2.7,3.2,1024,1024,1024,1024,0,0,0,0,66,4.989,68.72,100.721788,P-GPS,,30.7
532,203000,2026-01-07 15:36:26,0.0,5,7.381,0.0,0.0,0.0,35.7,3.2,3.2,1024,1024,1024,1024,0,0,0,0,66,4.989,68.72,100.721788,P-GPS,,30.7
533,203100,2026-01-07 15:36:26,0.0,5,7.381,0.0,0.0,0.0,35.6,3.6,2.8,1024,1024,1024,1024,0,0,0,0,66,4.989,68.72,100.721788,P-GPS,,30.7
534,203200,2026-01-07 15:36:26,0.0,5,7.381,0.0,0.0,0.0,35.6,3.4,2.8,1024,1024,1024,1024,0,0,0,0,66,4.989,68.72,100.721788,P-GPS,,30.7
535,203300,2026-01-07 15:36:26,0.0,5,7.381,0.0,0.0,0.0,35.6,3.5,3.2,1024,1024,1024,1024,0,0,0,0,65,4.989,68.72,100.721788,P-GPS,,30.7
536,203400,2026-01-07 15:36:26,0.0,5,7.381,0.0,0.0,0.0,35.7,3.5,3.4,1024,1024,1024,1024,0,0,0,0,65,4.989,68.72,100.721788,P-GPS,,30.7
537,203500,2026-01-07 15:36:27,0.0,5,7.381,0.0,0.0,0.0,35.6,3.9,3.5,1024,1024,1024,1024,0,0,0,0,65,4.989,68.72,100.721788,P-GPS,,30.7
538,203600,2026-01-07 15:36:27,0.0,5,7.381,0.0,0.0,0.0,35.6,4.0,3.7,1024,1024,1024,1024,0,0,0,0,65,4.989,68.72,100.721788,P-GPS,,30.7
539,203700,2026-01-07 15:36:27,0.0,5,7.381,0.0,0.0,0.0,35.6,4.0,3.7,1024,1024,1024,1024,0,0,0,0,65,4.989,68.72,100.721788,P-GPS,,30.7
540,203800,2026-01-07 15:36:27,0.0,5,7.39,0.0,0.0,0.0,35.5,4.2,3.8,1024,1024,1024,1024,0,0,0,0,65,4.864,68.9,100.721788,P-GPS,,30.7
541,203900,2026-01-07 15:36:27,0.0,5,7.39,0.0,0.0,0.0,35.7,3.9,3.9,1024,1024,1024,1024,0,0,0,0,65,4.864,68.9,100.393704,P-GPS,,30.6
542,204000,2026-01-07 15:36:27,0.0,5,7.39,0.0,0.0,0.0,35.9,4.2,3.5,1024,1024,1024,1024,0,0,0,0,65,4.864,68.9,100.393704,P-GPS,,30.6
543,204100,2026-01-07 15:36:27,0.0,5,7.39,0.0,0.0,0.0,35.9,4.2,3.2,1024,1024,1024,1024,0,0,0,0,65,4.864,68.9,100.393704,P-GPS,,30.6
544,204200,2026-01-07 15:36:27,0.0,5,7.39,0.0,0.0,0.0,35.8,3.8,3.3,1024,1024,1024,1024,0,0,0,0,65,4.864,68.9,100.393704,P-GPS,,30.6
545,204300,2026-01-07 15:36:27,0.0,5,7.39,0.0,0.0,0.0,35.8,3.6,3.2,1024,1024,1024,1024,0,0,0,0,65,4.864,68.9,100.393704,P-GPS,,30.6
546,204400,2026-01-07 15:36:28,0.0,5,7.39,0.0,0.0,0.0,35.8,3.0,3.1,1024,1024,1024,1024,0,0,0,0,65,4.864,68.9,100.393704,P-GPS,,30.6
547,204500,2026-01-07 15:36:28,0.0,5,7.39,0.0,0.0,0.0,35.8,2.6,3.2,1024,1024,1024,1024,0,0,0,0,65,4.864,68.9,100.393704,P-GPS,,30.6
548,204600,2026-01-07 15:36:28,0.0,5,7.39,0.0,0.0,0.0,35.7,2.8,3.3,1024,1024,1024,1024,0,0,0,0,65,4.864,68.9,100.393704,P-GPS,,30.6
549,204700,2026-01-07 15:36:28,0.0,5,7.39,0.0,0.0,0.0,35.7,2.7,3.1,1024,1024,1024,1024,0,0,0,0,65,4.864,68.9,100.393704,P-GPS,,30.6
550,204800,2026-01-07 15:36:28,0.0,5,7.39,0.0,0.0,0.0,35.7,2.7,3.1,1024,1024,1024,1024,0,0,0,0,65,4.864,68.9,100.393704,P-GPS,,30.6
551,204900,2026-01-07 15:36:28,0.0,5,7.382,0.0,0.0,0.0,35.8,2.9,3.3,1024,1024,1024,1024,0,0,0,0,65,4.952,68.9,100.393704,P-GPS,,30.6
552,205000,2026-01-07 15:36:28,0.0,5,7.382,0.0,0.0,0.0,35.7,3.4,3.3,1024,1024,1024,1024,0,0,0,0,65,4.952,68.9,100.393704,P-GPS,,30.6
553,205100,2026-01-07 15:36:28,0.0,5,7.382,0.0,0.0,0.0,35.8,3.1,3.5,1024,1024,1024,1024,0,0,0,0,65,4.952,68.9,100.06562,P-GPS,,30.5
554,205200,2026-01-07 15:36:28,0.0,5,7.382,0.0,0.0,0.0,35.7,3.0,3.8,1024,1024,1024,1024,0,0,0,0,65,4.952,68.9,100.393704,P-GPS,,30.6
555,205300,2026-01-07 15:36:28,0.0,5,7.382,0.0,0.0,0.0,35.5,2.6,3.6,1024,1024,1024,1024,0,0,0,0,65,4.952,68.9,100.06562,P-GPS,,30.5
556,205400,2026-01-07 15:36:28,0.0,5,7.382,0.0,0.0,0.0,35.6,3.2,3.6,1024,1024,1024,1024,0,0,0,0,65,4.952,68.9,100.06562,P-GPS,,30.5
557,205500,2026-01-07 15:36:29,0.0,5,7.382,0.0,0.0,0.0,35.8,3.4,4.1,1024,1024,1024,1024,0,0,0,0,65,4.952,68.9,100.06562,P-GPS,,30.5
558,205600,2026-01-07 15:36:29,0.0,5,7.382,0.0,0.0,0.0,35.8,3.5,4.3,1024,1024,1024,1024,0,0,0,0,65,4.952,68.9,100.06562,P-GPS,,30.5
559,205700,2026-01-07 15:36:29,0.0,5,7.382,0.0,0.0,0.0,35.7,3.1,4.3,1024,1024,1024,1024,0,0,0,0,65,4.952,68.9,100.393704,P-GPS,,30.6
560,205800,2026-01-07 15:36:29,0.0,5,7.382,0.0,0.0,0.0,35.7,3.3,4.3,1024,1024,1024,1024,0,0,0,0,65,4.952,68.9,100.393704,P-GPS,,30.6
561,205900,2026-01-07 15:36:29,0.0,5,7.382,0.0,0.0,0.0,35.6,3.5,4.3,1024,1024,1024,1024,0,0,0,0,65,4.952,68.9,100.393704,P-GPS,,30.6
562,206000,2026-01-07 15:36:29,0.0,5,7.382,0.0,0.0,0.0,35.6,3.7,4.3,1024,1024,1024,1024,0,0,0,0,65,4.916,68.9,100.393704,P-GPS,,30.6
563,206100,2026-01-07 15:36:29,0.0,5,7.382,0.0,0.0,0.0,35.6,4.0,4.2,1024,1024,1024,1024,0,0,0,0,65,4.916,68.9,100.393704,P-GPS,,30.6
564,206200,2026-01-07 15:36:29,0.0,5,7.382,0.0,0.0,0.0,35.5,3.9,4.2,1024,1024,1024,1024,0,0,0,0,65,4.916,68.9,100.393704,P-GPS,,30.6
565,206300,2026-01-07 15:36:29,0.0,5,7.382,0.0,0.0,0.0,35.5,3.6,4.3,1024,1024,1024,1024,0,0,0,0,65,4.916,68.9,100.393704,P-GPS,,30.6
566,206400,2026-01-07 15:36:29,0.0,5,7.382,0.0,0.0,0.0,35.4,4.1,4.0,1024,1024,1024,1024,0,0,0,0,65,4.916,68.9,100.393704,P-GPS,,30.6
567,206500,2026-01-07 15:36:30,0.0,5,7.382,0.0,0.0,0.0,35.5,4.7,4.3,1024,1024,1024,1024,0,0,0,0,65,4.916,68.9,100.393704,P-GPS,,30.6
568,206600,2026-01-07 15:36:30,0.0,5,7.382,0.0,0.0,0.0,35.6,5.1,4.4,1024,1024,1024,1024,0,0,0,0,65,4.916,68.9,100.721788,P-GPS,,30.7
569,206700,2026-01-07 15:36:30,0.0,5,7.382,0.0,0.0,0.0,35.6,4.8,4.7,1024,1024,1024,1024,0,0,0,0,65,4.916,68.9,100.721788,P-GPS,,30.7
570,206800,2026-01-07 15:36:30,0.0,5,7.382,0.0,0.0,0.0,35.6,5.0,4.7,1024,1024,1024,1024,0,0,0,0,65,4.916,68.9,100.721788,P-GPS,,30.7
571,206900,2026-01-07 15:36:30,0.0,5,7.382,0.0,0.0,0.0,35.7,4.9,4.6,1024,1024,1024,1024,0,0,0,0,65,4.916,68.9,100.721788,P-GPS,,30.7
572,207000,2026-01-07 15:36:30,0.0,5,7.382,0.0,0.0,0.0,35.7,5.1,4.5,1024,1024,1024,1024,0,0,0,0,65,4.916,68.9,100.721788,P-GPS,,30.7
573,207100,2026-01-07 15:36:30,0.0,5,7.397,0.0,0.0,0.0,35.7,5.3,4.3,1024,1024,1024,1024,0,0,0,0,65,4.716,69.08,100.721788,P-GPS,,30.7
574,207200,2026-01-07 15:36:30,0.0,5,7.397,0.0,0.0,0.0,35.7,5.0,4.3,1024,1024,1024,1024,0,0,0,0,65,4.716,69.08,100.721788,P-GPS,,30.7
575,207300,2026-01-07 15:36:30,0.0,5,7.397,0.0,0.0,0.0,35.7,5.4,4.1,1024,1024,1024,1024,0,0,0,0,65,4.716,69.08,100.721788,P-GPS,,30.7
576,207400,2026-01-07 15:36:31,0.0,5,7.397,0.0,0.0,0.0,35.7,5.3,3.8,1024,1024,1024,1024,0,0,0,0,65,4.716,69.08,100.721788,P-GPS,,30.7
577,207500,2026-01-07 15:36:31,0.0,5,7.397,0.0,0.0,0.0,35.7,5.3,3.7,1024,1024,1024,1024,0,0,0,0,65,4.716,69.08,100.721788,P-GPS,,30.7
578,207600,2026-01-07 15:36:31,0.0,5,7.397,0.0,0.0,0.0,35.7,5.1,3.9,1024,1024,1024,1024,0,0,0,0,65,4.716,69.08,100.721788,P-GPS,,30.7
579,207700,2026-01-07 15:36:31,0.0,5,7.397,0.0,0.0,0.0,35.7,4.4,3.8,1024,1024,1024,1024,0,0,0,0,65,4.716,69.08,100.393704,P-GPS,,30.6
580,207800,2026-01-07 15:36:31,0.0,5,7.397,0.0,0.0,0.0,35.7,4.4,3.9,1024,1024,1024,1024,0,0,0,0,65,4.716,69.08,100.393704,P-GPS,,30.6
581,207900,2026-01-07 15:36:31,0.0,5,7.397,0.0,0.0,0.0,35.6,4.5,4.2,1024,1024,1024,1024,0,0,0,0,65,4.716,69.08,100.393704,P-GPS,,30.6
582,208000,2026-01-07 15:36:31,0.0,5,7.397,0.0,0.0,0.0,35.6,4.3,3.9,1024,1024,1024,1024,0,0,0,0,65,4.716,69.08,100.393704,P-GPS,,30.6
583,208100,2026-01-07 15:36:31,0.0,5,7.397,0.0,0.0,0.0,35.5,4.1,3.8,1024,1024,1024,1024,0,0,0,0,65,4.716,69.08,100.393704,P-GPS,,30.6
584,208200,2026-01-07 15:36:31,0.0,5,7.39,0.0,0.0,0.0,35.5,4.0,3.7,1024,1024,1024,1024,0,0,0,0,65,4.679,69.08,100.393704,P-GPS,,30.6
585,208300,2026-01-07 15:36:31,0.0,5,7.39,0.0,0.0,0.0,35.6,4.0,3.8,1024,1024,1024,1024,0,0,0,0,65,4.679,69.08,100.393704,P-GPS,,30.6
586,208400,2026-01-07 15:36:31,0.0,5,7.39,0.0,0.0,0.0,35.6,4.1,3.9,1024,1024,1024,1024,0,0,0,0,65,4.679,69.08,100.393704,P-GPS,,30.6
587,208500,2026-01-07 15:36:32,0.0,5,7.39,0.0,0.0,0.0,35.7,4.7,3.8,1024,1024,1024,1024,0,0,0,0,65,4.679,69.08,100.06562,P-GPS,,30.5
588,208600,2026-01-07 15:36:32,0.0,5,7.39,0.0,0.0,0.0,35.7,4.9,3.9,1024,1024,1024,1024,0,0,0,0,65,4.679,69.08,100.06562,P-GPS,,30.5
589,208700,2026-01-07 15:36:32,0.0,5,7.39,0.0,0.0,0.0,35.7,4.8,3.8,1024,1024,1024,1024,0,0,0,0,65,4.679,69.08,100.06562,P-GPS,,30.5
590,208800,2026-01-07 15:36:32,0.0,5,7.39,0.0,0.0,0.0,35.6,5.0,3.8,1024,1024,1024,1024,0,0,0,0,65,4.679,69.08,100.06562,P-GPS,,30.5
591,208900,2026-01-07 15:36:32,0.0,5,7.39,0.0,0.0,0.0,35.6,4.7,4.0,1024,1024,1024,1024,0,0,0,0,65,4.679,69.08,100.06562,P-GPS,,30.5
592,209000,2026-01-07 15:36:32,0.0,5,7.39,0.0,0.0,0.0,35.6,4.4,3.9,1024,1024,1024,1024,0,0,0,0,65,4.679,69.08,100.06562,P-GPS,,30.5
593,209100,2026-01-07 15:36:32,0.0,5,7.39,0.0,0.0,0.0,35.7,4.9,3.8,1024,1024,1024,1024,0,0,0,0,65,4.679,69.08,100.06562,P-GPS,,30.5
594,209200,2026-01-07 15:36:32,0.0,5,7.39,0.0,0.0,0.0,35.8,5.1,3.6,1024,1024,1024,1024,0,0,0,0,65,4.679,69.08,99.737536,P-GPS,,30.4
595,209300,2026-01-07 15:36:32,0.0,5,7.393,0.0,0.0,0.0,35.7,5.0,3.6,1024,1024,1024,1024,0,0,0,0,65,4.835,69.08,99.737536,P-GPS,,30.4
596,209400,2026-01-07 15:36:33,0.0,5,7.393,0.0,0.0,0.0,35.8,5.2,3.5,1024,1024,1024,1024,0,0,0,0,65,4.835,69.08,99.737536,P-GPS,,30.4
597,209500,2026-01-07 15:36:33,0.0,5,7.393,0.0,0.0,0.0,35.8,5.1,3.5,1024,1024,1024,1024,0,0,0,0,65,4.835,69.08,99.737536,P-GPS,,30.4
598,209600,2026-01-07 15:36:33,0.0,5,7.393,0.0,0.0,0.0,35.8,5.0,3.7,1024,1024,1024,1024,0,0,0,0,65,4.835,69.08,99.737536,P-GPS,,30.4
599,209700,2026-01-07 15:36:33,0.0,5,7.393,0.0,0.0,0.0,35.8,5.4,3.8,1024,1024,1024,1024,0,0,0,0,65,4.835,69.08,99.737536,P-GPS,,30.4
600,209800,2026-01-07 15:36:33,0.0,5,7.393,0.0,0.0,0.0,35.8,5.4,3.9,1024,1024,1024,1024,0,0,0,0,65,4.835,69.08,99.737536,P-GPS,,30.4
601,209900,2026-01-07 15:36:33,0.0,5,7.393,0.0,0.0,0.0,35.8,5.7,3.9,1024,1024,1024,1024,0,0,0,0,65,4.835,69.08,99.737536,P-GPS,,30.4
602,210000,2026-01-07 15:36:33,0.0,5,7.393,0.0,0.0,0.0,35.8,5.9,3.7,1024,1024,1024,1024,0,0,0,0,65,4.835,69.08,99.737536,P-GPS,,30.4
603,210100,2026-01-07 15:36:33,0.0,5,7.393,0.0,0.0,0.0,35.8,5.4,3.7,1024,1024,1024,1024,0,0,0,0,65,4.835,69.08,99.737536,P-GPS,,30.4
604,210200,2026-01-07 15:36:33,0.0,5,7.393,0.0,0.0,0.0,35.7,5.4,3.9,1024,1024,1024,1024,0,0,0,0,65,4.835,69.08,99.737536,P-GPS,,30.4
605,210300,2026-01-07 15:36:33,0.0,5,7.393,0.0,0.0,0.0,35.6,4.9,3.3,1024,1024,1024,1024,0,0,0,0,65,4.835,69.08,99.737536,P-GPS,,30.4
606,210400,2026-01-07 15:36:33,0.0,5,7.395,0.0,0.0,0.0,35.7,5.0,3.7,1024,1024,1024,1024,0,0,0,0,65,4.702,69.08,99.737536,P-GPS,,30.4
607,210500,2026-01-07 15:36:34,0.0,5,7.395,0.0,0.0,0.0,35.8,5.5,3.6,1024,1024,1024,1024,0,0,0,0,65,4.702,69.08,99.737536,P-GPS,,30.4
608,210600,2026-01-07 15:36:34,0.0,5,7.395,0.0,0.0,0.0,35.8,5.5,3.3,1024,1024,1024,1024,0,0,0,0,65,4.702,69.08,99.737536,P-GPS,,30.4
609,210700,2026-01-07 15:36:34,0.0,5,7.395,0.0,0.0,0.0,35.8,5.0,3.7,1024,1024,1024,1024,0,0,0,0,65,4.702,69.08,99.737536,P-GPS,,30.4
610,210800,2026-01-07 15:36:34,0.0,5,7.395,0.0,0.0,0.0,35.8,5.1,3.8,1024,1024,1024,1024,0,0,0,0,65,4.702,69.08,99.737536,P-GPS,,30.4
611,210900,2026-01-07 15:36:34,0.0,5,7.395,0.0,0.0,0.0,35.8,5.4,3.8,1024,1024,1024,1024,0,0,0,0,65,4.702,69.08,99.737536,P-GPS,,30.4
612,211000,2026-01-07 15:36:34,0.0,5,7.395,0.0,0.0,0.0,35.8,5.3,3.9,1024,1024,1024,1024,0,0,0,0,65,4.702,69.08,99.737536,P-GPS,,30.4
613,211100,2026-01-07 15:36:34,0.0,5,7.395,0.0,0.0,0.0,35.7,5.2,3.8,1024,1024,1024,1024,0,0,0,0,65,4.702,69.08,99.737536,P-GPS,,30.4
614,211200,2026-01-07 15:36:34,0.0,5,7.395,0.0,0.0,0.0,35.7,5.0,4.0,1024,1024,1024,1024,0,0,0,0,65,4.702,69.08,99.737536,P-GPS,,30.4
615,211300,2026-01-07 15:36:34,0.0,5,7.395,0.0,0.0,0.0,35.8,5.2,3.9,1024,1024,1024,1024,0,0,0,0,65,4.702,69.08,99.409452,P-GPS,,30.3
616,211400,2026-01-07 15:36:34,0.0,5,7.395,0.0,0.0,0.0,35.7,5.5,3.5,1024,1024,1024,1024,0,0,0,0,65,4.702,69.08,99.409452,P-GPS,,30.3
617,211500,2026-01-07 15:36:35,0.0,5,7.396,0.0,0.0,0.0,35.7,5.5,3.3,1024,1024,1024,1024,0,0,0,0,65,4.647,69.08,99.409452,P-GPS,,30.3
618,211600,2026-01-07 15:36:35,0.0,5,7.396,0.0,0.0,0.0,35.6,5.4,3.2,1024,1024,1024,1024,0,0,0,0,65,4.647,69.08,99.409452,P-GPS,,30.3
619,211700,2026-01-07 15:36:35,0.0,5,7.396,0.0,0.0,0.0,35.8,5.6,3.4,1024,1024,1024,1024,0,0,0,0,65,4.647,69.08,99.409452,P-GPS,,30.3
620,211800,2026-01-07 15:36:35,0.0,5,7.396,0.0,0.0,0.0,35.9,5.7,3.3,1024,1024,1024,1024,0,0,0,0,65,4.647,69.08,99.409452,P-GPS,,30.3
621,211900,2026-01-07 15:36:35,0.0,5,7.396,0.0,0.0,0.0,35.9,5.4,3.6,1024,1024,1024,1024,0,0,0,0,65,4.647,69.08,99.409452,P-GPS,,30.3
622,212000,2026-01-07 15:36:35,0.0,5,7.396,0.0,0.0,0.0,36.0,5.1,3.4,1024,1024,1024,1024,0,0,0,0,65,4.647,69.08,99.737536,P-GPS,,30.4
623,212100,2026-01-07 15:36:35,0.0,5,7.396,0.0,0.0,0.0,36.1,4.6,4.0,1024,1024,1024,1024,0,0,0,0,65,4.647,69.08,99.737536,P-GPS,,30.4
624,212200,2026-01-07 15:36:35,0.0,5,7.396,0.0,0.0,0.0,36.2,5.0,3.7,1024,1024,1024,1024,0,0,0,0,65,4.647,69.08,99.737536,P-GPS,,30.4
625,212300,2026-01-07 15:36:35,0.223694,5,7.396,0.0,-0.223694,0.0,36.0,2.1,4.7,1024,1024,1024,1024,0,0,0,0,65,4.647,69.08,99.737536,P-GPS,,30.4
626,212400,2026-01-07 15:36:35,0.0,5,7.396,0.0,0.0,0.0,35.7,2.0,5.2,1024,1024,1024,1024,0,0,0,0,65,4.647,69.08,99.737536,P-GPS,,30.4
627,212500,2026-01-07 15:36:36,0.0,5,7.396,0.0,0.0,0.0,35.6,2.5,5.2,1024,1024,1024,1024,0,0,0,0,65,4.647,69.08,99.737536,P-GPS,,30.4
628,212600,2026-01-07 15:36:36,0.0,5,7.398,0.0,0.0,0.0,35.6,3.3,4.7,1024,1024,1024,1024,0,0,0,0,65,4.629,69.26,99.737536,P-GPS,,30.4
629,212700,2026-01-07 15:36:36,0.0,5,7.398,0.0,0.0,0.0,35.6,3.5,4.5,1024,1024,1024,1024,0,0,0,0,65,4.629,69.26,99.737536,P-GPS,,30.4
630,212800,2026-01-07 15:36:36,0.0,5,7.398,0.0,0.0,0.0,35.7,3.9,4.2,1024,1024,1024,1024,0,0,0,0,65,4.629,69.26,99.737536,P-GPS,,30.4
631,212900,2026-01-07 15:36:36,0.0,5,7.398,0.0,0.0,0.0,35.7,4.4,4.1,1024,1024,1024,1024,0,0,0,0,65,4.629,69.26,99.737536,P-GPS,,30.4
632,213000,2026-01-07 15:36:36,0.0,5,7.398,0.0,0.0,0.0,35.7,4.5,4.1,1024,1024,1024,1024,0,0,0,0,65,4.629,69.26,99.737536,P-GPS,,30.4
633,213100,2026-01-07 15:36:36,0.0,5,7.398,0.0,0.0,0.0,35.7,4.4,4.0,1024,1024,1024,1024,0,0,0,0,65,4.629,69.26,99.737536,P-GPS,,30.4
634,213200,2026-01-07 15:36:36,0.0,5,7.398,0.0,0.0,0.0,35.7,4.2,3.8,1024,1024,1024,1024,0,0,0,0,65,4.629,69.26,99.409452,P-GPS,,30.3
635,213300,2026-01-07 15:36:36,0.0,5,7.398,0.0,0.0,0.0,35.7,3.5,4.0,1024,1024,1024,1024,0,0,0,0,65,4.629,69.26,99.409452,P-GPS,,30.3
636,213400,2026-01-07 15:36:36,0.0,5,7.398,0.0,0.0,0.0,35.7,3.6,3.8,1024,1024,1024,1024,0,0,0,0,65,4.629,69.26,99.409452,P-GPS,,30.3
637,213500,2026-01-07 15:36:37,0.0,5,7.398,0.0,0.0,0.0,36.1,5.4,3.0,1024,1024,1024,1024,0,0,0,0,65,4.629,69.26,99.409452,P-GPS,,30.3
638,213600,2026-01-07 15:36:37,0.0,5,7.398,0.0,0.0,0.0,36.2,3.3,3.4,1024,1024,1024,1024,0,0,0,0,65,4.629,69.26,99.409452,P-GPS,,30.3
639,213700,2026-01-07 15:36:37,0.0,5,7.398,0.0,0.0,0.0,35.8,0.0,4.1,1024,1024,1024,1024,0,0,0,0,65,4.629,69.26,99.409452,P-GPS,,30.3
640,213800,2026-01-07 15:36:37,0.0,5,7.398,0.0,0.0,0.0,35.4,0.3,4.0,1024,1024,1024,1024,0,0,0,0,65,4.629,69.26,99.409452,P-GPS,,30.3
641,213900,2026-01-07 15:36:37,0.0,5,7.398,0.0,0.0,0.0,35.4,1.5,4.3,1024,1024,1024,1024,0,0,0,0,65,4.629,69.26,99.409452,P-GPS,,30.3
642,214000,2026-01-07 15:36:37,0.0,5,7.398,0.0,0.0,0.0,35.6,2.7,3.9,1024,1024,1024,1024,0,0,0,0,65,4.629,69.26,99.409452,P-GPS,,30.3
643,214100,2026-01-07 15:36:37,0.0,5,7.398,0.0,0.0,0.0,35.9,3.9,3.8,1024,1024,1024,1024,0,0,0,0,65,4.629,69.26,99.409452,P-GPS,,30.3
644,214200,2026-01-07 15:36:37,0.0,5,7.398,0.0,0.0,0.0,35.8,3.0,3.7,1024,1024,1024,1024,0,0,0,0,65,4.629,69.26,99.409452,P-GPS,,30.3
645,214300,2026-01-07 15:36:37,0.0,5,7.398,0.0,0.0,0.0,35.9,3.9,3.4,1024,1024,1024,1024,0,0,0,0,65,4.629,69.26,99.737536,P-GPS,,30.4
646,214400,2026-01-07 15:36:38,0.0,5,7.398,0.0,0.0,0.0,35.9,4.2,3.6,1024,1024,1024,1024,0,0,0,0,65,4.629,69.26,99.737536,P-GPS,,30.4
647,214500,2026-01-07 15:36:38,0.0,5,7.398,0.0,0.0,0.0,35.8,2.0,4.2,1024,1024,1024,1024,0,0,0,0,65,4.629,69.26,99.737536,P-GPS,,30.4
648,214600,2026-01-07 15:36:38,0.0,5,7.398,0.0,0.0,0.0,35.6,1.0,4.5,1024,1024,1024,1024,0,0,0,0,65,4.629,69.26,99.737536,P-GPS,,30.4
649,214700,2026-01-07 15:36:38,0.0,5,7.398,0.0,0.0,0.0,35.5,1.2,4.0,1024,1024,1024,1024,0,0,0,0,65,4.629,69.26,99.737536,P-GPS,,30.4
650,214800,2026-01-07 15:36:38,0.0,5,7.397,0.0,0.0,0.0,35.5,2.3,3.9,1024,1024,1024,1024,0,0,0,0,65,4.723,69.26,99.737536,P-GPS,,30.4
651,214900,2026-01-07 15:36:38,0.0,5,7.397,0.0,0.0,0.0,35.6,2.6,4.0,1024,1024,1024,1024,0,0,0,0,65,4.723,69.26,100.06562,P-GPS,,30.5
652,215000,2026-01-07 15:36:38,0.0,5,7.397,0.0,0.0,0.0,35.8,3.3,4.1,1024,1024,1024,1024,0,0,0,0,65,4.723,69.26,100.06562,P-GPS,,30.5
653,215100,2026-01-07 15:36:38,0.0,5,7.397,0.0,0.0,0.0,35.8,3.1,4.1,1024,1024,1024,1024,0,0,0,0,65,4.723,69.26,100.06562,P-GPS,,30.5
654,215200,2026-01-07 15:36:38,0.0,5,7.397,0.0,0.0,0.0,35.8,3.5,3.8,1024,1024,1024,1024,0,0,0,0,65,4.723,69.26,100.06562,P-GPS,,30.5
655,215300,2026-01-07 15:36:38,0.0,5,7.397,0.0,0.0,0.0,35.7,3.0,3.9,1024,1024,1024,1024,0,0,0,0,65,4.723,69.26,100.06562,P-GPS,,30.5
656,215400,2026-01-07 15:36:38,0.0,5,7.397,0.0,0.0,0.0,35.7,4.0,3.8,1024,1024,1024,1024,0,0,0,0,65,4.723,69.26,100.06562,P-GPS,,30.5
657,215500,2026-01-07 15:36:39,0.0,5,7.397,0.0,0.0,0.0,35.7,4.8,3.5,1024,1024,1024,1024,0,0,0,0,65,4.723,69.26,100.06562,P-GPS,,30.5
658,215600,2026-01-07 15:36:39,0.0,5,7.397,0.0,0.0,0.0,35.8,3.9,3.2,1024,1024,1024,1024,0,0,0,0,65,4.723,69.26,100.06562,P-GPS,,30.5
659,215700,2026-01-07 15:36:39,0.0,5,7.397,0.0,0.0,0.0,35.6,3.4,3.8,1024,1024,1024,1024,0,0,0,0,65,4.723,69.26,100.06562,P-GPS,,30.5
660,215800,2026-01-07 15:36:39,0.0,5,7.397,0.0,0.0,0.0,35.6,2.2,3.8,1024,1024,1024,1024,0,0,0,0,65,4.723,69.26,100.06562,P-GPS,,30.5
661,215900,2026-01-07 15:36:39,0.0,5,7.386,0.0,0.0,0.0,35.6,2.7,3.3,1024,1024,1024,1024,0,0,0,0,64,4.613,69.26,100.06562,P-GPS,,30.5
662,216000,2026-01-07 15:36:39,0.0,5,7.386,0.0,0.0,0.0,35.6,3.3,3.2,1024,1024,1024,1024,0,0,0,0,64,4.613,69.26,100.06562,P-GPS,,30.5
663,216100,2026-01-07 15:36:39,0.0,5,7.386,0.0,0.0,0.0,35.8,3.7,2.9,1024,1024,1024,1024,0,0,0,0,64,4.613,69.26,100.06562,P-GPS,,30.5
664,216200,2026-01-07 15:36:39,0.0,5,7.386,0.0,0.0,0.0,35.8,4.4,2.7,1024,1024,1024,1024,0,0,0,0,64,4.613,69.26,100.06562,P-GPS,,30.5
665,216300,2026-01-07 15:36:39,0.0,5,7.386,0.0,0.0,0.0,35.7,3.6,2.9,1024,1024,1024,1024,0,0,0,0,64,4.613,69.26,100.06562,P-GPS,,30.5
666,216400,2026-01-07 15:36:40,0.0,5,7.386,0.0,0.0,0.0,35.7,2.6,3.5,1024,1024,1024,1024,0,0,0,0,64,4.613,69.26,100.06562,P-GPS,,30.5
667,216500,2026-01-07 15:36:40,0.0,5,7.386,0.0,0.0,0.0,35.8,2.3,3.6,1024,1024,1024,1024,0,0,0,0,64,4.613,69.26,100.06562,P-GPS,,30.5
668,216600,2026-01-07 15:36:40,0.0,5,7.386,0.0,0.0,0.0,35.7,3.2,3.2,1024,1024,1024,1024,0,0,0,0,64,4.613,69.26,100.06562,P-GPS,,30.5
669,216700,2026-01-07 15:36:40,0.0,5,7.386,0.0,0.0,0.0,35.5,2.5,3.2,1024,1024,1024,1024,0,0,0,0,64,4.613,69.26,100.06562,P-GPS,,30.5
670,216800,2026-01-07 15:36:40,0.0,5,7.386,0.0,0.0,0.0,35.4,1.0,3.8,1024,1024,1024,1024,0,0,0,0,64,4.613,69.26,100.06562,P-GPS,,30.5
671,216900,2026-01-07 15:36:40,0.0,5,7.386,0.0,0.0,0.0,35.5,3.1,3.0,1024,1024,1024,1024,0,0,0,0,64,4.613,69.26,100.06562,P-GPS,,30.5
672,217000,2026-01-07 15:36:40,0.0,5,7.392,0.0,0.0,0.0,35.5,2.5,4.0,1024,1024,1024,1024,0,0,0,0,64,4.736,69.26,100.06562,P-GPS,,30.5
673,217100,2026-01-07 15:36:40,0.0,5,7.392,0.0,0.0,0.0,35.7,3.1,3.9,1024,1024,1024,1024,0,0,0,0,64,4.736,69.26,100.06562,P-GPS,,30.5
674,217200,2026-01-07 15:36:40,0.0,5,7.392,0.0,0.0,0.0,35.8,3.8,3.4,1024,1024,1024,1024,0,0,0,0,64,4.736,69.26,100.06562,P-GPS,,30.5
675,217300,2026-01-07 15:36:40,0.0,5,7.392,0.0,0.0,0.0,35.7,2.7,3.7,1024,1024,1024,1024,0,0,0,0,64,4.736,69.26,100.06562,P-GPS,,30.5
676,217400,2026-01-07 15:36:40,0.0,5,7.392,0.0,0.0,0.0,35.6,3.0,3.5,1024,1024,1024,1024,0,0,0,0,64,4.736,69.26,100.06562,P-GPS,,30.5
677,217500,2026-01-07 15:36:41,0.0,5,7.392,0.0,0.0,0.0,35.7,2.6,3.5,1024,1024,1024,1024,0,0,0,0,64,4.736,69.26,100.06562,P-GPS,,30.5
678,217600,2026-01-07 15:36:41,0.0,5,7.392,0.0,0.0,0.0,35.6,2.7,3.3,1024,1024,1024,1024,0,0,0,0,64,4.736,69.26,100.06562,P-GPS,,30.5
679,217700,2026-01-07 15:36:41,0.0,5,7.392,0.0,0.0,0.0,35.8,2.1,3.7,1024,1024,1024,1024,0,0,0,0,64,4.736,69.26,100.06562,P-GPS,,30.5
680,217800,2026-01-07 15:36:41,0.0,5,7.392,0.0,0.0,0.0,35.8,2.6,3.8,1024,1024,1024,1024,0,0,0,0,64,4.736,69.26,100.06562,P-GPS,,30.5
681,217900,2026-01-07 15:36:41,0.0,5,7.392,0.0,0.0,0.0,35.7,2.5,3.9,1024,1024,1024,1024,0,0,0,0,64,4.736,69.26,100.393704,P-GPS,,30.6
682,218000,2026-01-07 15:36:41,0.0,5,7.392,0.0,0.0,0.0,35.7,3.0,4.4,1024,1024,1024,1024,0,0,0,0,64,4.736,69.26,100.06562,P-GPS,,30.5
683,218100,2026-01-07 15:36:41,0.0,5,7.376,0.0,0.0,0.0,36.0,3.2,4.6,1024,1024,1024,1024,0,0,0,0,64,4.828,69.26,100.06562,P-GPS,,30.5
684,218200,2026-01-07 15:36:41,0.0,5,7.376,0.0,0.0,0.0,35.9,2.9,4.7,1024,1024,1024,1024,0,0,0,0,64,4.828,69.26,100.06562,P-GPS,,30.5
685,218300,2026-01-07 15:36:41,0.0,5,7.376,0.0,0.0,0.0,35.8,3.0,4.9,1024,1024,1024,1024,0,0,0,0,64,4.828,69.26,100.06562,P-GPS,,30.5
686,218400,2026-01-07 15:36:41,0.0,5,7.376,0.0,0.0,0.0,35.9,3.4,5.0,1024,1024,1024,1024,0,0,0,0,64,4.828,69.26,100.06562,P-GPS,,30.5
687,218500,2026-01-07 15:36:42,0.0,5,7.376,0.0,0.0,0.0,36.1,3.4,4.1,1024,1024,1024,1024,0,0,0,0,64,4.828,69.26,100.06562,P-GPS,,30.5
688,218600,2026-01-07 15:36:42,0.0,5,7.376,0.0,0.0,0.0,35.8,2.0,3.7,1024,1024,1024,1024,0,0,0,0,64,4.828,69.26,100.06562,P-GPS,,30.5
689,218700,2026-01-07 15:36:42,0.0,5,7.376,0.0,0.0,0.0,35.6,0.8,3.2,1024,1024,1024,1024,0,0,0,0,64,4.828,69.26,99.737536,P-GPS,,30.4
690,218800,2026-01-07 15:36:42,0.0,5,7.376,0.0,0.0,0.0,35.5,0.4,3.6,1024,1024,1024,1024,0,0,0,0,64,4.828,69.26,99.737536,P-GPS,,30.4
691,218900,2026-01-07 15:36:42,0.0,5,7.376,0.0,0.0,0.0,35.4,1.9,2.9,1024,1024,1024,1024,0,0,0,0,64,4.828,69.26,99.737536,P-GPS,,30.4
692,219000,2026-01-07 15:36:42,0.0,5,7.376,0.0,0.0,0.0,35.5,0.8,3.4,1024,1024,1024,1024,0,0,0,0,64,4.828,69.26,99.737536,P-GPS,,30.4
693,219100,2026-01-07 15:36:42,0.0,5,7.376,0.0,0.0,0.0,35.6,1.6,3.2,1024,1024,1024,1024,0,0,0,0,64,4.828,69.26,99.737536,P-GPS,,30.4
694,219200,2026-01-07 15:36:42,0.0,5,7.379,0.0,0.0,0.0,35.6,2.6,3.3,1024,1024,1024,1024,0,0,0,0,64,4.949,69.26,99.737536,P-GPS,,30.4
695,219300,2026-01-07 15:36:42,0.0,5,7.379,0.0,0.0,0.0,35.7,2.5,3.5,1024,1024,1024,1024,0,0,0,0,64,4.949,69.26,99.737536,P-GPS,,30.4
696,219400,2026-01-07 15:36:42,0.0,5,7.379,0.0,0.0,0.0,35.7,2.6,3.6,1024,1024,1024,1024,0,0,0,0,64,4.949,69.26,99.737536,P-GPS,,30.4
697,219500,2026-01-07 15:36:43,0.0,5,7.379,0.0,0.0,0.0,35.6,2.5,3.8,1024,1024,1024,1024,0,0,0,0,64,4.949,69.26,99.737536,P-GPS,,30.4
698,219600,2026-01-07 15:36:43,0.0,5,7.379,0.0,0.0,0.0,35.8,2.3,4.1,1024,1024,1024,1024,0,0,0,0,64,4.949,69.26,99.737536,P-GPS,,30.4
699,219700,2026-01-07 15:36:43,0.0,5,7.379,0.0,0.0,0.0,35.7,2.7,3.6,1024,1024,1024,1024,0,0,0,0,64,4.949,69.26,100.06562,P-GPS,,30.5
700,219800,2026-01-07 15:36:43,0.0,5,7.379,0.0,0.0,0.0,35.7,2.2,3.8,1024,1024,1024,1024,0,0,0,0,64,4.949,69.26,100.06562,P-GPS,,30.5
701,219900,2026-01-07 15:36:43,0.0,5,7.379,0.0,0.0,0.0,35.5,1.9,3.3,1024,1024,1024,1024,0,0,0,0,64,4.949,69.26,100.06562,P-GPS,,30.5
702,220000,2026-01-07 15:36:43,0.0,5,7.379,0.0,0.0,0.0,35.6,1.3,3.9,1024,1024,1024,1024,0,0,0,0,64,4.949,69.26,100.06562,P-GPS,,30.5
703,220100,2026-01-07 15:36:43,0.0,5,7.379,0.0,0.0,0.0,35.5,2.5,4.0,1024,1024,1024,1024,0,0,0,0,64,4.949,69.26,100.06562,P-GPS,,30.5
704,220200,2026-01-07 15:36:43,0.223694,5,7.379,0.223694,0.0,0.0,35.5,3.5,4.1,1024,1024,1024,1024,0,0,0,0,64,4.949,69.26,100.06562,P-GPS,,30.5
705,220300,2026-01-07 15:36:43,0.223694,5,7.395,0.223694,0.0,0.0,35.5,3.7,4.0,1024,1024,1024,1024,0,0,0,0,64,4.785,69.26,100.06562,P-GPS,,30.5
706,220400,2026-01-07 15:36:43,0.223694,5,7.395,0.223694,0.0,0.0,35.5,4.0,4.2,1024,1024,1024,1024,0,0,0,0,64,4.785,69.26,100.06562,P-GPS,,30.5
707,220500,2026-01-07 15:36:44,0.0,5,7.395,0.0,0.0,0.0,35.5,4.4,4.2,1024,1024,1024,1024,0,0,0,0,64,4.785,69.26,99.737536,P-GPS,,30.4
708,220600,2026-01-07 15:36:44,0.0,5,7.395,0.0,0.0,0.0,35.6,4.5,4.3,1024,1024,1024,1024,0,0,0,0,64,4.785,69.26,99.737536,P-GPS,,30.4
709,220700,2026-01-07 15:36:44,0.0,5,7.395,0.0,0.0,0.0,35.6,4.5,4.1,1024,1024,1024,1024,0,0,0,0,64,4.785,69.26,99.737536,P-GPS,,30.4
710,220800,2026-01-07 15:36:44,0.0,5,7.395,0.0,0.0,0.0,35.6,4.3,4.2,1024,1024,1024,1024,0,0,0,0,64,4.785,69.26,99.737536,P-GPS,,30.4
711,220900,2026-01-07 15:36:44,0.0,5,7.395,0.0,0.0,0.0,35.6,4.1,4.1,1024,1024,1024,1024,0,0,0,0,64,4.785,69.26,99.737536,P-GPS,,30.4
712,221000,2026-01-07 15:36:44,0.0,5,7.395,0.0,0.0,0.0,35.5,3.7,3.9,1024,1024,1024,1024,0,0,0,0,64,4.785,69.26,99.737536,P-GPS,,30.4
713,221100,2026-01-07 15:36:44,0.0,5,7.395,0.0,0.0,0.0,35.6,3.8,4.1,1024,1024,1024,1024,0,0,0,0,64,4.785,69.26,99.409452,P-GPS,,30.3
714,221200,2026-01-07 15:36:44,0.0,5,7.395,0.0,0.0,0.0,35.6,3.7,3.9,1024,1024,1024,1024,0,0,0,0,64,4.785,69.26,99.409452,P-GPS,,30.3
715,221300,2026-01-07 15:36:44,0.0,5,7.395,0.0,0.0,0.0,35.7,4.0,3.8,1024,1024,1024,1024,0,0,0,0,64,4.785,69.26,99.409452,P-GPS,,30.3
716,221400,2026-01-07 15:36:44,0.0,5,7.391,0.0,0.0,0.0,35.8,4.3,3.6,1024,1024,1024,1024,0,0,0,0,64,4.739,69.44,99.409452,P-GPS,,30.3
717,221500,2026-01-07 15:36:45,0.0,5,7.391,0.0,0.0,0.0,35.9,4.2,4.0,1024,1024,1024,1024,0,0,0,0,64,4.739,69.44,99.409452,P-GPS,,30.3
718,221600,2026-01-07 15:36:45,0.0,5,7.391,0.0,0.0,0.0,35.8,4.0,3.9,1024,1024,1024,1024,0,0,0,0,64,4.739,69.44,99.409452,P-GPS,,30.3
719,221700,2026-01-07 15:36:45,0.0,5,7.391,0.0,0.0,0.0,35.8,3.6,3.7,1024,1024,1024,1024,0,0,0,0,64,4.739,69.44,99.409452,P-GPS,,30.3
720,221800,2026-01-07 15:36:45,0.0,5,7.391,0.0,0.0,0.0,35.7,3.2,3.6,1024,1024,1024,1024,0,0,0,0,64,4.739,69.44,99.409452,P-GPS,,30.3
721,221900,2026-01-07 15:36:45,0.0,5,7.391,0.0,0.0,0.0,35.6,3.1,3.1,1024,1024,1024,1024,0,0,0,0,64,4.739,69.44,99.409452,P-GPS,,30.3
722,222000,2026-01-07 15:36:45,0.0,5,7.391,0.0,0.0,0.0,35.6,3.2,3.0,1024,1024,1024,1024,0,0,0,0,64,4.739,69.44,99.409452,P-GPS,,30.3
723,222100,2026-01-07 15:36:45,0.0,5,7.391,0.0,0.0,0.0,35.6,3.4,3.2,1024,1024,1024,1024,0,0,0,0,64,4.739,69.44,99.081368,P-GPS,,30.2
724,222200,2026-01-07 15:36:45,0.0,5,7.391,0.0,0.0,0.0,35.7,3.2,3.4,1024,1024,1024,1024,0,0,0,0,64,4.739,69.44,99.081368,P-GPS,,30.2
725,222300,2026-01-07 15:36:45,0.0,5,7.391,0.0,0.0,0.0,35.6,3.6,3.1,1024,1024,1024,1024,0,0,0,0,64,4.739,69.44,99.081368,P-GPS,,30.2
726,222400,2026-01-07 15:36:45,0.0,5,7.391,0.0,0.0,0.0,35.7,3.4,3.3,1024,1024,1024,1024,0,0,0,0,64,4.739,69.44,99.081368,P-GPS,,30.2
727,222500,2026-01-07 15:36:46,0.0,5,7.379,0.0,0.0,0.0,35.6,3.4,3.2,1024,1024,1024,1024,0,0,0,0,64,4.835,69.44,99.081368,P-GPS,,30.2
728,222600,2026-01-07 15:36:46,0.0,5,7.379,0.0,0.0,0.0,35.6,3.7,3.0,1024,1024,1024,1024,0,0,0,0,64,4.835,69.44,99.081368,P-GPS,,30.2
729,222700,2026-01-07 15:36:46,0.0,5,7.379,0.0,0.0,0.0,35.6,3.4,2.8,1024,1024,1024,1024,0,0,0,0,64,4.835,69.44,99.081368,P-GPS,,30.2
730,222800,2026-01-07 15:36:46,0.0,5,7.379,0.0,0.0,0.0,35.7,2.9,2.9,1024,1024,1024,1024,0,0,0,0,64,4.835,69.44,99.081368,P-GPS,,30.2
731,222900,2026-01-07 15:36:46,0.0,5,7.379,0.0,0.0,0.0,35.6,3.2,2.9,1024,1024,1024,1024,0,0,0,0,64,4.835,69.44,99.081368,P-GPS,,30.2
732,223000,2026-01-07 15:36:46,0.0,5,7.379,0.0,0.0,0.0,35.5,3.3,2.9,1024,1024,1024,1024,0,0,0,0,64,4.835,69.44,99.081368,P-GPS,,30.2
733,223100,2026-01-07 15:36:46,0.0,5,7.379,0.0,0.0,0.0,35.6,3.0,3.1,1024,1024,1024,1024,0,0,0,0,64,4.835,69.44,99.409452,P-GPS,,30.3
734,223200,2026-01-07 15:36:46,0.0,5,7.379,0.0,0.0,0.0,35.6,3.3,3.5,1024,1024,1024,1024,0,0,0,0,64,4.835,69.44,99.409452,P-GPS,,30.3
735,223300,2026-01-07 15:36:46,0.0,5,7.379,0.0,0.0,0.0,35.5,3.5,3.7,1024,1024,1024,1024,0,0,0,0,64,4.835,69.44,99.409452,P-GPS,,30.3
736,223400,2026-01-07 15:36:46,0.0,5,7.379,0.0,0.0,0.0,35.6,3.4,3.8,1024,1024,1024,1024,0,0,0,0,64,4.835,69.44,99.409452,P-GPS,,30.3
737,223500,2026-01-07 15:36:47,0.0,5,7.379,0.0,0.0,0.0,35.6,3.4,3.7,1024,1024,1024,1024,0,0,0,0,64,4.835,69.44,99.409452,P-GPS,,30.3
738,223600,2026-01-07 15:36:47,0.0,5,7.39,0.0,0.0,0.0,35.5,3.2,3.6,1024,1024,1024,1024,0,0,0,0,64,4.713,69.44,99.409452,P-GPS,,30.3
739,223700,2026-01-07 15:36:47,0.0,5,7.39,0.0,0.0,0.0,35.6,3.1,3.7,1024,1024,1024,1024,0,0,0,0,64,4.713,69.44,99.409452,P-GPS,,30.3
740,223800,2026-01-07 15:36:47,0.0,5,7.39,0.0,0.0,0.0,35.6,3.3,3.6,1024,1024,1024,1024,0,0,0,0,64,4.713,69.44,99.409452,P-GPS,,30.3
741,223900,2026-01-07 15:36:47,0.0,5,7.39,0.0,0.0,0.0,35.6,3.4,3.4,1024,1024,1024,1024,0,0,0,0,64,4.713,69.44,99.409452,P-GPS,,30.3
742,224000,2026-01-07 15:36:47,0.0,5,7.39,0.0,0.0,0.0,35.6,3.4,3.4,1024,1024,1024,1024,0,0,0,0,64,4.713,69.44,99.409452,P-GPS,,30.3
743,224100,2026-01-07 15:36:47,0.0,5,7.39,0.0,0.0,0.0,35.6,3.2,3.3,1024,1024,1024,1024,0,0,0,0,64,4.713,69.44,99.409452,P-GPS,,30.3
744,224200,2026-01-07 15:36:47,0.0,5,7.39,0.0,0.0,0.0,35.6,3.4,3.3,1024,1024,1024,1024,0,0,0,0,64,4.713,69.44,99.409452,P-GPS,,30.3
745,224300,2026-01-07 15:36:47,0.0,5,7.39,0.0,0.0,0.0,35.6,3.2,3.3,1024,1024,1024,1024,0,0,0,0,64,4.713,69.44,99.409452,P-GPS,,30.3
746,224400,2026-01-07 15:36:47,0.0,5,7.39,0.0,0.0,0.0,35.6,3.1,3.3,1024,1024,1024,1024,0,0,0,0,64,4.713,69.44,99.409452,P-GPS,,30.3
747,224500,2026-01-07 15:36:48,0.0,5,7.39,0.0,0.0,0.0,35.6,3.2,3.3,1024,1024,1024,1024,0,0,0,0,64,4.713,69.44,99.409452,P-GPS,,30.3
748,224600,2026-01-07 15:36:48,0.0,5,7.39,0.0,0.0,0.0,35.5,3.2,3.3,1024,1024,1024,1024,0,0,0,0,64,4.713,69.44,99.409452,P-GPS,,30.3
749,224700,2026-01-07 15:36:48,0.0,5,7.39,0.0,0.0,0.0,35.6,3.2,3.4,1024,1024,1024,1024,0,0,0,0,64,4.713,69.44,99.409452,P-GPS,,30.3
750,224800,2026-01-07 15:36:48,0.0,5,7.39,0.0,0.0,0.0,35.6,3.5,3.4,1024,1024,1024,1024,0,0,0,0,64,4.713,69.44,99.409452,P-GPS,,30.3
751,224900,2026-01-07 15:36:48,0.0,5,7.39,0.0,0.0,0.0,35.6,3.7,3.5,1024,1024,1024,1024,0,0,0,0,64,4.713,69.44,99.409452,P-GPS,,30.3
752,225000,2026-01-07 15:36:48,0.0,5,7.39,0.0,0.0,0.0,35.5,3.6,3.4,1024,1024,1024,1024,0,0,0,0,64,4.713,69.44,99.409452,P-GPS,,30.3
753,225100,2026-01-07 15:36:48,0.0,5,7.39,0.0,0.0,0.0,35.6,3.4,3.3,1024,1024,1024,1024,0,0,0,0,64,4.713,69.44,99.409452,P-GPS,,30.3
754,225200,2026-01-07 15:36:48,0.0,5,7.39,0.0,0.0,0.0,35.6,3.4,3.1,1024,1024,1024,1024,0,0,0,0,64,4.713,69.44,99.737536,P-GPS,,30.4
755,225300,2026-01-07 15:36:48,0.0,5,7.39,0.0,0.0,0.0,35.6,3.6,3.2,1024,1024,1024,1024,0,0,0,0,64,4.713,69.44,99.737536,P-GPS,,30.4
756,225400,2026-01-07 15:36:49,0.0,5,7.39,0.0,0.0,0.0,35.6,3.4,3.1,1024,1024,1024,1024,0,0,0,0,64,4.713,69.44,99.737536,P-GPS,,30.4
757,225500,2026-01-07 15:36:49,0.0,5,7.39,0.0,0.0,0.0,35.6,3.6,3.1,1024,1024,1024,1024,0,0,0,0,64,4.713,69.44,99.737536,P-GPS,,30.4
758,225600,2026-01-07 15:36:49,0.0,5,7.39,0.0,0.0,0.0,35.6,3.7,3.3,1024,1024,1024,1024,0,0,0,0,64,4.713,69.44,99.737536,P-GPS,,30.4
759,225700,2026-01-07 15:36:49,0.0,5,7.39,0.0,0.0,0.0,35.7,3.9,3.3,1024,1024,1024,1024,0,0,0,0,64,4.713,69.44,99.737536,P-GPS,,30.4
760,225800,2026-01-07 15:36:49,0.0,5,7.393,0.0,0.0,0.0,35.7,4.0,3.2,1024,1024,1024,1024,0,0,0,0,64,4.676,69.44,99.737536,P-GPS,,30.4
761,225900,2026-01-07 15:36:49,0.0,5,7.393,0.0,0.0,0.0,35.7,3.9,3.0,1024,1024,1024,1024,0,0,0,0,64,4.676,69.44,99.737536,P-GPS,,30.4
762,226000,2026-01-07 15:36:49,0.0,5,7.393,0.0,0.0,0.0,35.7,3.9,2.8,1024,1024,1024,1024,0,0,0,0,64,4.676,69.44,99.737536,P-GPS,,30.4
763,226100,2026-01-07 15:36:49,0.0,5,7.393,0.0,0.0,0.0,35.7,3.9,2.6,1024,1024,1024,1024,0,0,0,0,64,4.676,69.44,99.737536,P-GPS,,30.4
764,226200,2026-01-07 15:36:49,0.0,5,7.393,0.0,0.0,0.0,35.7,4.0,2.6,1024,1024,1024,1024,0,0,0,0,64,4.676,69.44,99.737536,P-GPS,,30.4
765,226300,2026-01-07 15:36:49,0.0,5,7.393,0.0,0.0,0.0,35.7,3.9,2.6,1024,1024,1024,1024,0,0,0,0,64,4.676,69.44,99.737536,P-GPS,,30.4
766,226400,2026-01-07 15:36:49,0.0,5,7.393,0.0,0.0,0.0,35.7,3.9,2.6,1024,1024,1024,1024,0,0,0,0,64,4.676,69.44,99.737536,P-GPS,,30.4
767,226500,2026-01-07 15:36:50,0.0,5,7.393,0.0,0.0,0.0,35.7,4.0,2.7,1024,1024,1024,1024,0,0,0,0,64,4.676,69.44,99.737536,P-GPS,,30.4
768,226600,2026-01-07 15:36:50,0.0,5,7.393,0.0,0.0,0.0,35.7,4.1,2.7,1024,1024,1024,1024,0,0,0,0,64,4.676,69.44,99.737536,P-GPS,,30.4
769,226700,2026-01-07 15:36:50,0.0,5,7.393,0.0,0.0,0.0,35.7,4.0,2.7,1024,1024,1024,1024,0,0,0,0,64,4.676,69.44,99.737536,P-GPS,,30.4
770,226800,2026-01-07 15:36:50,0.0,5,7.393,0.0,0.0,0.0,35.8,3.7,2.6,1024,1024,1024,1024,0,0,0,0,64,4.676,69.44,99.737536,P-GPS,,30.4
771,226900,2026-01-07 15:36:50,0.0,5,7.382,0.0,0.0,0.0,35.7,3.4,2.4,1024,1024,1024,1024,0,0,0,0,64,4.663,69.62,99.737536,P-GPS,,30.4
772,227000,2026-01-07 15:36:50,0.0,5,7.382,0.0,0.0,0.0,35.7,3.4,2.3,1024,1024,1024,1024,0,0,0,0,64,4.663,69.62,99.737536,P-GPS,,30.4
773,227100,2026-01-07 15:36:50,0.0,5,7.382,0.0,0.0,0.0,35.7,3.1,2.1,1024,1024,1024,1024,0,0,0,0,64,4.663,69.62,99.737536,P-GPS,,30.4
774,227200,2026-01-07 15:36:50,0.0,5,7.382,0.0,0.0,0.0,35.7,3.0,2.1,1024,1024,1024,1024,0,0,0,0,64,4.663,69.62,99.737536,P-GPS,,30.4
