index,time(millisecond),timestamp,speed(mph),gpslevel,voltage(v),xSpeed(mph),ySpeed(mph),zSpeed(mph),compass_heading(degrees),pitch(degrees),roll(degrees),rc_elevator,rc_aileron,rc_throttle,rc_rudder,rc_elevator(percent),rc_aileron(percent),rc_throttle(percent),rc_rudder(percent),battery_percent,current(A),battery_temperature(f),ascent(feet),flycState,message,height_above_takeoff(meters)
889,238700,2026-01-07 15:37:02,0.0,5,7.345,0.0,0.0,0.0,35.5,5.3,3.0,1024,1024,1024,1024,0,0,0,0,63,4.934,69.98,167.32284,P-GPS,,51.0
890,238800,2026-01-07 15:37:02,0.0,5,7.345,0.0,0.0,0.0,35.5,5.2,2.9,1024,1024,1024,1024,0,0,0,0,63,4.934,69.98,167.32284,P-GPS,,51.0
891,238900,2026-01-07 15:37:02,0.0,5,7.345,0.0,0.0,0.0,35.5,5.4,2.9,1024,1024,1024,1024,0,0,0,0,63,4.934,69.98,167.650924,P-GPS,,51.1
892,239000,2026-01-07 15:37:02,0.0,5,7.391,0.0,0.0,0.0,35.6,5.5,2.8,1024,1024,1024,1024,0,0,0,0,63,4.149,69.98,167.650924,P-GPS,,51.1
893,239100,2026-01-07 15:37:02,0.0,5,7.391,0.0,0.0,0.0,35.6,5.6,2.7,1024,1024,1024,1024,0,0,0,0,63,4.149,69.98,167.650924,P-GPS,,51.1
894,239200,2026-01-07 15:37:02,0.0,5,7.391,0.0,0.0,0.0,35.5,5.3,2.4,1024,1024,1024,1024,0,0,0,0,63,4.149,69.98,167.979008,P-GPS,,51.2
895,239300,2026-01-07 15:37:02,0.0,5,7.391,0.0,0.0,0.0,35.5,5.2,2.6,1024,1024,1024,1024,0,0,0,0,63,4.149,69.98,167.979008,P-GPS,,51.2
896,239400,2026-01-07 15:37:02,0.0,5,7.391,0.0,0.0,0.0,35.5,5.1,2.9,1024,1024,1024,1024,0,0,0,0,63,4.149,69.98,167.979008,P-GPS,,51.2
897,239500,2026-01-07 15:37:03,0.0,5,7.391,0.0,0.0,0.0,35.6,4.9,3.0,1024,1024,1024,1024,0,0,0,0,63,4.149,69.98,167.979008,P-GPS,,51.2
898,239600,2026-01-07 15:37:03,0.0,5,7.391,0.0,0.0,0.0,35.7,4.8,3.2,1024,1024,1024,1024,0,0,0,0,63,4.149,69.98,167.979008,P-GPS,,51.2
899,239700,2026-01-07 15:37:03,0.0,5,7.391,0.0,0.0,0.0,35.7,4.9,3.1,1024,1024,1024,1024,0,0,0,0,63,4.149,69.98,167.979008,P-GPS,,51.2
900,239800,2026-01-07 15:37:03,0.0,5,7.391,0.0,0.0,0.0,35.7,4.9,3.5,1024,1024,1024,1024,0,0,0,0,63,4.149,69.98,167.979008,P-GPS,,51.2
901,239900,2026-01-07 15:37:03,0.0,5,7.391,0.0,0.0,0.0,35.8,4.5,3.7,1024,1024,1024,1024,0,0,0,0,63,4.149,69.98,167.979008,P-GPS,,51.2
902,240000,2026-01-07 15:37:03,0.0,5,7.391,0.0,0.0,0.0,35.7,4.3,3.5,1024,1024,1024,1024,0,0,0,0,63,4.149,69.98,167.979008,P-GPS,,51.2
903,240100,2026-01-07 15:37:03,0.0,5,7.385,0.0,0.0,0.0,35.7,4.2,3.5,1024,1024,1024,1024,0,0,0,0,63,4.451,69.98,167.979008,P-GPS,,51.2
904,240200,2026-01-07 15:37:03,0.0,5,7.385,0.0,0.0,0.0,35.7,4.1,3.6,1024,1024,1024,1024,0,0,0,0,63,4.451,69.98,167.979008,P-GPS,,51.2
905,240300,2026-01-07 15:37:03,0.0,5,7.385,0.0,0.0,0.0,35.6,4.1,3.2,1024,1024,1024,1024,0,0,0,0,63,4.451,69.98,167.979008,P-GPS,,51.2
906,240400,2026-01-07 15:37:03,0.0,5,7.385,0.0,0.0,0.0,35.6,4.4,3.0,1024,1024,1024,1024,0,0,0,0,63,4.451,69.98,167.979008,P-GPS,,51.2
907,240500,2026-01-07 15:37:04,0.0,5,7.385,0.0,0.0,0.0,35.6,4.7,3.2,1024,1024,1024,1024,0,0,0,0,63,4.451,69.98,167.979008,P-GPS,,51.2
908,240600,2026-01-07 15:37:04,0.0,5,7.385,0.0,0.0,0.0,35.5,4.5,3.1,1024,1024,1024,1024,0,0,0,0,63,4.451,69.98,167.979008,P-GPS,,51.2
909,240700,2026-01-07 15:37:04,0.0,5,7.385,0.0,0.0,0.0,35.6,4.3,3.0,1024,1024,1024,1024,0,0,0,0,63,4.451,69.98,167.979008,P-GPS,,51.2
910,240800,2026-01-07 15:37:04,0.0,5,7.385,0.0,0.0,0.0,35.6,4.0,3.2,1024,1024,1024,1024,0,0,0,0,63,4.451,69.98,167.979008,P-GPS,,51.2
911,240900,2026-01-07 15:37:04,0.0,5,7.385,0.0,0.0,0.0,35.6,3.4,3.7,1024,1024,1024,1024,0,0,0,0,63,4.451,69.98,167.650924,P-GPS,,51.1
912,241000,2026-01-07 15:37:04,0.0,5,7.385,0.0,0.0,0.0,35.6,3.7,3.6,1024,1024,1024,1024,0,0,0,0,63,4.451,69.98,167.650924,P-GPS,,51.1
913,241100,2026-01-07 15:37:04,0.0,5,7.385,0.0,0.0,0.0,35.7,4.2,3.4,1024,1024,1024,1024,0,0,0,0,63,4.451,69.98,167.650924,P-GPS,,51.1
914,241200,2026-01-07 15:37:04,0.0,5,7.381,0.0,0.0,0.0,35.7,4.4,3.1,1024,1024,1024,1024,0,0,0,0,63,4.525,69.98,167.650924,P-GPS,,51.1
915,241300,2026-01-07 15:37:04,0.0,5,7.381,0.0,0.0,0.0,35.8,5.2,3.5,1024,1024,1024,1024,0,0,0,0,63,4.525,69.98,167.650924,P-GPS,,51.1
916,241400,2026-01-07 15:37:04,0.0,5,7.381,0.0,0.0,0.0,35.7,5.1,3.3,1024,1024,1024,1024,0,0,0,0,63,4.525,69.98,167.650924,P-GPS,,51.1
917,241500,2026-01-07 15:37:05,0.0,5,7.381,0.0,0.0,0.0,35.5,5.2,2.8,1024,1024,1024,1024,0,0,0,0,63,4.525,69.98,167.650924,P-GPS,,51.1
918,241600,2026-01-07 15:37:05,0.0,5,7.381,0.0,0.0,0.0,35.6,5.8,2.7,1024,1024,1024,1024,0,0,0,0,63,4.525,69.98,167.650924,P-GPS,,51.1
919,241700,2026-01-07 15:37:05,0.0,5,7.381,0.0,0.0,0.0,35.6,5.9,2.5,1024,1024,1024,1024,0,0,0,0,63,4.525,69.98,167.650924,P-GPS,,51.1
920,241800,2026-01-07 15:37:05,0.0,5,7.381,0.0,0.0,0.0,35.6,5.9,2.9,1024,1024,1024,1024,0,0,0,0,63,4.525,69.98,167.650924,P-GPS,,51.1
921,241900,2026-01-07 15:37:05,0.0,5,7.381,0.0,0.0,0.0,35.7,5.9,3.1,1024,1024,1024,1024,0,0,0,0,63,4.525,69.98,167.32284,P-GPS,,51.0
922,242000,2026-01-07 15:37:05,0.0,5,7.381,0.0,0.0,0.0,35.7,6.0,3.1,1024,1024,1024,1024,0,0,0,0,63,4.525,69.98,167.32284,P-GPS,,51.0
923,242100,2026-01-07 15:37:05,0.0,5,7.381,0.0,0.0,0.0,35.8,6.3,3.3,1024,1024,1024,1024,0,0,0,0,63,4.525,69.98,167.32284,P-GPS,,51.0
924,242200,2026-01-07 15:37:05,0.0,5,7.381,0.0,0.0,0.0,35.8,6.1,3.3,1024,1024,1024,1024,0,0,0,0,63,4.525,69.98,167.32284,P-GPS,,51.0
925,242300,2026-01-07 15:37:05,0.0,5,7.379,0.0,0.0,0.0,35.7,5.7,3.1,1024,1024,1024,1024,0,0,0,0,63,4.612,69.98,167.32284,P-GPS,,51.0
926,242400,2026-01-07 15:37:06,0.0,5,7.379,0.0,0.0,0.0,35.7,5.2,3.1,1024,1024,1024,1024,0,0,0,0,63,4.612,69.98,167.32284,P-GPS,,51.0
927,242500,2026-01-07 15:37:06,0.0,5,7.379,0.0,0.0,0.0,35.8,5.1,3.0,1024,1024,1024,1024,0,0,0,0,63,4.612,69.98,166.994756,P-GPS,,50.9
928,242600,2026-01-07 15:37:06,0.0,5,7.379,0.0,0.0,0.0,35.8,5.6,3.1,1024,1024,1024,1024,0,0,0,0,63,4.612,69.98,166.994756,P-GPS,,50.9
929,242700,2026-01-07 15:37:06,0.0,5,7.379,0.0,0.0,0.0,35.7,5.0,3.0,1024,1024,1024,1024,0,0,0,0,63,4.612,69.98,166.994756,P-GPS,,50.9
930,242800,2026-01-07 15:37:06,0.0,5,7.379,0.0,0.0,0.0,35.5,4.3,3.1,1024,1024,1024,1024,0,0,0,0,63,4.612,69.98,166.994756,P-GPS,,50.9
931,242900,2026-01-07 15:37:06,0.0,5,7.379,0.0,0.0,0.0,35.6,3.9,3.3,1024,1024,1024,1024,0,0,0,0,63,4.612,69.98,166.994756,P-GPS,,50.9
932,243000,2026-01-07 15:37:06,0.0,5,7.379,0.0,0.0,0.0,35.7,3.6,3.4,1024,1024,1024,1024,0,0,0,0,63,4.612,69.98,166.994756,P-GPS,,50.9
933,243100,2026-01-07 15:37:06,0.0,5,7.379,0.0,0.0,0.0,35.6,4.1,3.3,1024,1024,1024,1024,0,0,0,0,63,4.612,69.98,166.994756,P-GPS,,50.9
934,243200,2026-01-07 15:37:06,0.0,5,7.379,0.0,0.0,0.0,35.6,3.6,3.2,1024,1024,1024,1024,0,0,0,0,63,4.612,69.98,166.994756,P-GPS,,50.9
935,243300,2026-01-07 15:37:06,0.0,5,7.379,0.0,0.0,0.0,35.6,3.6,3.5,1024,1024,1024,1024,0,0,0,0,63,4.612,69.98,166.994756,P-GPS,,50.9
936,243400,2026-01-07 15:37:06,0.0,5,7.366,0.0,0.0,0.0,35.7,4.1,3.5,1024,1024,1024,1024,0,0,0,0,63,4.801,69.98,166.994756,P-GPS,,50.9
937,243500,2026-01-07 15:37:07,0.0,5,7.366,0.0,0.0,0.0,35.7,4.2,3.7,1024,1024,1024,1024,0,0,0,0,63,4.801,69.98,166.994756,P-GPS,,50.9
938,243600,2026-01-07 15:37:07,0.0,5,7.366,0.0,0.0,0.0,35.7,4.5,3.7,1024,1024,1024,1024,0,0,0,0,63,4.801,69.98,166.994756,P-GPS,,50.9
939,243700,2026-01-07 15:37:07,0.0,5,7.366,0.0,0.0,0.0,35.7,4.5,3.3,1024,1024,1024,1024,0,0,0,0,63,4.801,69.98,167.32284,P-GPS,,51.0
940,243800,2026-01-07 15:37:07,0.0,5,7.366,0.0,0.0,0.0,35.7,4.5,3.6,1024,1024,1024,1024,0,0,0,0,63,4.801,69.98,167.32284,P-GPS,,51.0
941,243900,2026-01-07 15:37:07,0.0,5,7.366,0.0,0.0,0.0,35.7,4.6,3.6,1024,1024,1024,1024,0,0,0,0,63,4.801,69.98,167.32284,P-GPS,,51.0
942,244000,2026-01-07 15:37:07,0.0,5,7.366,0.0,0.0,0.0,35.7,4.5,3.7,1024,1024,1024,1024,0,0,0,0,63,4.801,69.98,167.32284,P-GPS,,51.0
943,244100,2026-01-07 15:37:07,0.0,5,7.366,0.0,0.0,0.0,35.7,4.0,3.3,1024,1024,1024,1024,0,0,0,0,63,4.801,69.98,167.32284,P-GPS,,51.0
944,244200,2026-01-07 15:37:07,0.0,5,7.366,0.0,0.0,0.0,35.8,4.5,3.4,1024,1024,1024,1024,0,0,0,0,63,4.801,69.98,167.32284,P-GPS,,51.0
945,244300,2026-01-07 15:37:07,0.0,5,7.366,0.0,0.0,0.0,35.7,4.8,3.5,1024,1024,1024,1024,0,0,0,0,63,4.801,69.98,167.32284,P-GPS,,51.0
946,244400,2026-01-07 15:37:08,0.0,5,7.366,0.0,0.0,0.0,35.8,4.7,3.2,1024,1024,1024,1024,0,0,0,0,63,4.801,69.98,167.32284,P-GPS,,51.0
947,244500,2026-01-07 15:37:08,0.0,5,7.376,0.0,0.0,0.0,35.6,4.8,3.5,1024,1024,1024,1024,0,0,0,0,63,4.639,69.98,167.32284,P-GPS,,51.0
948,244600,2026-01-07 15:37:08,0.0,5,7.376,0.0,0.0,0.0,35.6,4.5,3.8,1024,1024,1024,1024,0,0,0,0,63,4.639,69.98,167.32284,P-GPS,,51.0
949,244700,2026-01-07 15:37:08,0.0,5,7.376,0.0,0.0,0.0,35.7,4.3,3.7,1024,1024,1024,1024,0,0,0,0,63,4.639,69.98,167.32284,P-GPS,,51.0
950,244800,2026-01-07 15:37:08,0.0,5,7.376,0.0,0.0,0.0,35.8,4.5,3.6,1024,1024,1024,1024,0,0,0,0,63,4.639,69.98,167.32284,P-GPS,,51.0
951,244900,2026-01-07 15:37:08,0.0,5,7.376,0.0,0.0,0.0,35.7,4.3,3.0,1024,1024,1024,1024,0,0,0,0,63,4.639,69.98,166.994756,P-GPS,,50.9
952,245000,2026-01-07 15:37:08,0.0,5,7.376,0.0,0.0,0.0,35.7,4.4,2.9,1024,1024,1024,1024,0,0,0,0,63,4.639,69.98,166.994756,P-GPS,,50.9
953,245100,2026-01-07 15:37:08,0.0,5,7.376,0.0,0.0,0.0,35.7,4.8,3.2,1024,1024,1024,1024,0,0,0,0,63,4.639,69.98,166.994756,P-GPS,,50.9
954,245200,2026-01-07 15:37:08,0.0,5,7.376,0.0,0.0,0.0,35.8,4.9,3.1,1024,1024,1024,1024,0,0,0,0,63,4.639,69.98,166.994756,P-GPS,,50.9
955,245300,2026-01-07 15:37:08,0.0,5,7.376,0.0,0.0,0.0,35.7,5.0,2.6,1024,1024,1024,1024,0,0,0,0,63,4.639,69.98,166.994756,P-GPS,,50.9
956,245400,2026-01-07 15:37:08,0.0,5,7.376,0.0,0.0,0.0,35.7,4.9,2.5,1024,1024,1024,1024,0,0,0,0,63,4.639,69.98,166.994756,P-GPS,,50.9
957,245500,2026-01-07 15:37:09,0.0,5,7.376,0.0,0.0,0.0,35.7,5.3,2.6,1024,1024,1024,1024,0,0,0,0,63,4.639,69.98,166.994756,P-GPS,,50.9
958,245600,2026-01-07 15:37:09,0.0,5,7.372,0.0,0.0,0.0,35.7,5.5,2.8,1024,1024,1024,1024,0,0,0,0,63,4.607,70.16,166.994756,P-GPS,,50.9
959,245700,2026-01-07 15:37:09,0.0,5,7.372,0.0,0.0,0.0,35.7,5.5,3.3,1024,1024,1024,1024,0,0,0,0,63,4.607,70.16,166.994756,P-GPS,,50.9
960,245800,2026-01-07 15:37:09,0.0,5,7.372,0.0,0.0,0.0,35.7,5.3,3.1,1024,1024,1024,1024,0,0,0,0,63,4.607,70.16,166.994756,P-GPS,,50.9
961,245900,2026-01-07 15:37:09,0.0,5,7.372,0.0,0.0,0.0,35.7,4.9,3.5,1024,1024,1024,1024,0,0,0,0,63,4.607,70.16,166.994756,P-GPS,,50.9
962,246000,2026-01-07 15:37:09,0.0,5,7.372,0.0,0.0,0.0,35.6,4.4,3.6,1024,1024,1024,1024,0,0,0,0,63,4.607,70.16,166.994756,P-GPS,,50.9
963,246100,2026-01-07 15:37:09,0.0,5,7.372,0.0,0.0,0.0,35.7,4.0,3.4,1024,1024,1024,1024,0,0,0,0,63,4.607,70.16,166.994756,P-GPS,,50.9
964,246200,2026-01-07 15:37:09,0.0,5,7.372,0.0,0.0,0.0,35.8,3.9,3.3,1024,1024,1024,1024,0,0,0,0,63,4.607,70.16,166.666672,P-GPS,,50.8
965,246300,2026-01-07 15:37:09,0.0,5,7.372,0.0,0.0,0.0,35.8,3.4,3.8,1024,1024,1024,1024,0,0,0,0,63,4.607,70.16,166.666672,P-GPS,,50.8
966,246400,2026-01-07 15:37:09,0.0,5,7.372,0.0,0.0,0.0,35.7,3.0,3.8,1024,1024,1024,1024,0,0,0,0,63,4.607,70.16,166.666672,P-GPS,,50.8
967,246500,2026-01-07 15:37:10,0.0,5,7.372,0.0,0.0,0.0,35.7,3.2,3.6,1024,1024,1024,1024,0,0,0,0,63,4.607,70.16,166.666672,P-GPS,,50.8
968,246600,2026-01-07 15:37:10,0.0,5,7.372,0.0,0.0,0.0,35.7,3.5,3.5,1024,1024,1024,1024,0,0,0,0,63,4.607,70.16,166.666672,P-GPS,,50.8
969,246700,2026-01-07 15:37:10,0.0,5,7.372,0.0,0.0,0.0,35.7,3.5,3.6,1024,1024,1024,1024,0,0,0,0,63,4.607,70.16,166.666672,P-GPS,,50.8
970,246800,2026-01-07 15:37:10,0.0,5,7.372,0.0,0.0,0.0,35.7,3.8,3.7,1024,1024,1024,1024,0,0,0,0,63,4.607,70.16,166.666672,P-GPS,,50.8
971,246900,2026-01-07 15:37:10,0.0,5,7.372,0.0,0.0,0.0,35.7,4.0,3.9,1024,1024,1024,1024,0,0,0,0,63,4.607,70.16,166.666672,P-GPS,,50.8
972,247000,2026-01-07 15:37:10,0.0,5,7.372,0.0,0.0,0.0,35.8,3.7,3.9,1024,1024,1024,1024,0,0,0,0,63,4.607,70.16,166.994756,P-GPS,,50.9
973,247100,2026-01-07 15:37:10,0.0,5,7.372,0.0,0.0,0.0,35.8,3.9,4.2,1024,1024,1024,1024,0,0,0,0,63,4.607,70.16,166.994756,P-GPS,,50.9
974,247200,2026-01-07 15:37:10,0.0,5,7.372,0.0,0.0,0.0,35.8,4.1,4.2,1024,1024,1024,1024,0,0,0,0,63,4.607,70.16,166.994756,P-GPS,,50.9
975,247300,2026-01-07 15:37:10,0.0,5,7.372,0.0,0.0,0.0,35.9,4.5,4.0,1024,1024,1024,1024,0,0,0,0,62,4.607,70.16,166.994756,P-GPS,,50.9
976,247400,2026-01-07 15:37:10,0.0,5,7.372,0.0,0.0,0.0,35.8,5.2,4.1,1024,1024,1024,1024,0,0,0,0,62,4.607,70.16,166.994756,P-GPS,,50.9
977,247500,2026-01-07 15:37:11,0.0,5,7.372,0.0,0.0,0.0,35.8,5.0,4.1,1024,1024,1024,1024,0,0,0,0,62,4.607,70.16,166.994756,P-GPS,,50.9
978,247600,2026-01-07 15:37:11,0.0,5,7.372,0.0,0.0,0.0,35.7,4.9,3.8,1024,1024,1024,1024,0,0,0,0,62,4.607,70.16,166.994756,P-GPS,,50.9
979,247700,2026-01-07 15:37:11,0.0,5,7.372,0.0,0.0,0.0,35.6,4.6,4.3,1024,1024,1024,1024,0,0,0,0,62,4.607,70.16,166.994756,P-GPS,,50.9
980,247800,2026-01-07 15:37:11,0.0,5,7.374,0.0,0.0,0.0,35.6,4.1,3.9,1024,1024,1024,1024,0,0,0,0,62,4.669,70.16,166.666672,P-GPS,,50.8
981,247900,2026-01-07 15:37:11,0.0,5,7.374,0.0,0.0,0.0,35.7,4.2,3.8,1024,1024,1024,1024,0,0,0,0,62,4.669,70.16,166.666672,P-GPS,,50.8
982,248000,2026-01-07 15:37:11,0.0,5,7.374,0.0,0.0,0.0,35.6,4.4,3.7,1024,1024,1024,1024,0,0,0,0,62,4.669,70.16,166.666672,P-GPS,,50.8
983,248100,2026-01-07 15:37:11,0.0,5,7.374,0.0,0.0,0.0,35.6,4.5,3.9,1024,1024,1024,1024,0,0,0,0,62,4.669,70.16,166.666672,P-GPS,,50.8
984,248200,2026-01-07 15:37:11,0.0,5,7.374,0.0,0.0,0.0,35.6,4.5,4.0,1024,1024,1024,1024,0,0,0,0,62,4.669,70.16,166.666672,P-GPS,,50.8
985,248300,2026-01-07 15:37:11,0.0,5,7.374,0.0,0.0,0.0,35.7,4.5,4.1,1024,1024,1024,1024,0,0,0,0,62,4.669,70.16,166.666672,P-GPS,,50.8
986,248400,2026-01-07 15:37:11,0.0,5,7.374,0.0,0.0,0.0,35.7,3.9,4.0,1024,1024,1024,1024,0,0,0,0,62,4.669,70.16,166.666672,P-GPS,,50.8
987,248500,2026-01-07 15:37:12,0.0,5,7.374,0.0,0.0,0.0,35.6,4.2,3.8,1024,1024,1024,1024,0,0,0,0,62,4.669,70.16,166.666672,P-GPS,,50.8
988,248600,2026-01-07 15:37:12,0.0,5,7.374,0.0,0.0,0.0,35.6,4.0,3.4,1024,1024,1024,1024,0,0,0,0,62,4.669,70.16,166.338588,P-GPS,,50.7
989,248700,2026-01-07 15:37:12,0.0,5,7.374,0.0,0.0,0.0,35.5,4.1,3.5,1024,1024,1024,1024,0,0,0,0,62,4.669,70.16,166.338588,P-GPS,,50.7
990,248800,2026-01-07 15:37:12,0.0,5,7.374,0.0,0.0,0.0,35.5,4.2,3.3,1024,1024,1024,1024,0,0,0,0,62,4.669,70.16,166.338588,P-GPS,,50.7
991,248900,2026-01-07 15:37:12,0.0,5,7.372,0.0,0.0,0.0,35.4,4.4,3.2,1024,1024,1024,1024,0,0,0,0,62,4.659,70.16,166.338588,P-GPS,,50.7
992,249000,2026-01-07 15:37:12,0.0,5,7.372,0.0,0.0,0.0,35.3,4.3,2.7,1024,1024,1024,1024,0,0,0,0,62,4.659,70.16,166.338588,P-GPS,,50.7
993,249100,2026-01-07 15:37:12,0.0,5,7.372,0.0,0.0,0.0,35.3,4.6,2.8,1024,1024,1024,1024,0,0,0,0,62,4.659,70.16,166.010504,P-GPS,,50.6
994,249200,2026-01-07 15:37:12,0.0,5,7.372,0.0,0.0,0.0,35.4,5.0,2.9,1024,1024,1024,1024,0,0,0,0,62,4.659,70.16,166.010504,P-GPS,,50.6
995,249300,2026-01-07 15:37:12,0.0,5,7.372,0.0,0.0,0.0,35.6,5.5,2.6,1024,1024,1024,1024,0,0,0,0,62,4.659,70.16,166.010504,P-GPS,,50.6
996,249400,2026-01-07 15:37:13,0.0,5,7.372,0.0,0.0,0.0,35.7,5.7,1.9,1024,1024,1024,1024,0,0,0,0,62,4.659,70.16,166.010504,P-GPS,,50.6
997,249500,2026-01-07 15:37:13,0.0,5,7.372,0.0,0.0,0.0,35.7,5.1,2.0,1024,1024,1024,1024,0,0,0,0,62,4.659,70.16,166.010504,P-GPS,,50.6
998,249600,2026-01-07 15:37:13,0.0,5,7.372,0.0,0.0,0.0,35.6,4.3,2.1,1024,1024,1024,1024,0,0,0,0,62,4.659,70.16,166.010504,P-GPS,,50.6
999,249700,2026-01-07 15:37:13,0.0,5,7.372,0.0,0.0,0.0,35.6,4.6,2.4,1024,1024,1024,1024,0,0,0,0,62,4.659,70.16,166.010504,P-GPS,,50.6
1000,249800,2026-01-07 15:37:13,0.0,5,7.372,0.0,0.0,0.0,35.7,5.4,2.2,1024,1024,1024,1024,0,0,0,0,62,4.659,70.16,166.010504,P-GPS,,50.6
1001,249900,2026-01-07 15:37:13,0.0,5,7.372,0.0,0.0,0.0,35.7,5.6,2.5,1024,1024,1024,1024,0,0,0,0,62,4.659,70.16,166.010504,P-GPS,,50.6
1002,250000,2026-01-07 15:37:13,0.0,5,7.372,0.0,0.0,0.0,35.8,5.9,2.9,1024,1024,1024,1024,0,0,0,0,62,4.659,70.16,166.010504,P-GPS,,50.6
1003,250100,2026-01-07 15:37:13,0.0,5,7.372,0.0,0.0,0.0,35.8,6.2,2.9,1024,1024,1024,1024,0,0,0,0,62,4.617,70.16,166.010504,P-GPS,,50.6
1004,250200,2026-01-07 15:37:13,0.0,5,7.372,0.0,0.0,0.0,35.8,6.3,3.1,1024,1024,1024,1024,0,0,0,0,62,4.617,70.16,166.010504,P-GPS,,50.6
1005,250300,2026-01-07 15:37:13,0.0,5,7.372,0.0,0.0,0.0,35.8,5.9,3.3,1024,1024,1024,1024,0,0,0,0,62,4.617,70.16,166.010504,P-GPS,,50.6
1006,250400,2026-01-07 15:37:13,0.0,5,7.372,0.0,0.0,0.0,35.8,5.4,3.4,1024,1024,1024,1024,0,0,0,0,62,4.617,70.16,166.010504,P-GPS,,50.6
1007,250500,2026-01-07 15:37:14,0.0,5,7.372,0.0,0.0,0.0,35.7,5.0,3.7,1024,1024,1024,1024,0,0,0,0,62,4.617,70.16,166.010504,P-GPS,,50.6
1008,250600,2026-01-07 15:37:14,0.0,5,7.372,0.0,0.0,0.0,35.7,4.9,3.5,1024,1024,1024,1024,0,0,0,0,62,4.617,70.16,166.010504,P-GPS,,50.6
1009,250700,2026-01-07 15:37:14,0.0,5,7.372,0.0,0.0,0.0,35.7,5.0,3.7,1024,1024,1024,1024,0,0,0,0,62,4.617,70.16,166.010504,P-GPS,,50.6
1010,250800,2026-01-07 15:37:14,0.0,5,7.372,0.0,0.0,0.0,35.7,5.3,3.1,1024,1024,1024,1024,0,0,0,0,62,4.617,70.16,166.010504,P-GPS,,50.6
1011,250900,2026-01-07 15:37:14,0.0,5,7.372,0.0,0.0,0.0,35.7,5.2,3.1,1024,1024,1024,1024,0,0,0,0,62,4.617,70.16,166.010504,P-GPS,,50.6
1012,251000,2026-01-07 15:37:14,0.0,5,7.372,0.0,0.0,0.0,35.6,5.0,2.9,1024,1024,1024,1024,0,0,0,0,62,4.617,70.16,166.010504,P-GPS,,50.6
1013,251100,2026-01-07 15:37:14,0.0,5,7.372,0.0,0.0,0.0,35.7,5.0,2.3,1024,1024,1024,1024,0,0,0,0,62,4.617,70.16,166.010504,P-GPS,,50.6
1014,251200,2026-01-07 15:37:14,0.0,5,7.375,0.0,0.0,0.0,35.6,5.0,2.4,1024,1024,1024,1024,0,0,0,0,62,4.552,70.16,166.010504,P-GPS,,50.6
1015,251300,2026-01-07 15:37:14,0.0,5,7.375,0.0,0.0,0.0,35.7,5.1,2.4,1024,1024,1024,1024,0,0,0,0,62,4.552,70.16,166.010504,P-GPS,,50.6
1016,251400,2026-01-07 15:37:14,0.0,5,7.375,0.0,0.0,0.0,35.5,5.3,2.4,1024,1024,1024,1024,0,0,0,0,62,4.552,70.16,166.010504,P-GPS,,50.6
1017,251500,2026-01-07 15:37:15,0.0,5,7.375,0.0,0.0,0.0,35.6,5.3,2.7,1024,1024,1024,1024,0,0,0,0,62,4.552,70.16,166.010504,P-GPS,,50.6
1018,251600,2026-01-07 15:37:15,0.0,5,7.375,0.0,0.0,0.0,35.6,4.8,2.5,1024,1024,1024,1024,0,0,0,0,62,4.552,70.16,166.010504,P-GPS,,50.6
1019,251700,2026-01-07 15:37:15,0.0,5,7.375,0.0,0.0,0.0,35.7,4.8,2.7,1024,1024,1024,1024,0,0,0,0,62,4.552,70.16,166.010504,P-GPS,,50.6
1020,251800,2026-01-07 15:37:15,0.0,5,7.375,0.0,0.0,0.0,35.9,4.4,3.0,1024,1024,1024,1024,0,0,0,0,62,4.552,70.16,166.338588,P-GPS,,50.7
1021,251900,2026-01-07 15:37:15,0.0,5,7.375,0.0,0.0,0.0,35.7,3.5,2.9,1024,1024,1024,1024,0,0,0,0,62,4.552,70.16,166.338588,P-GPS,,50.7
1022,252000,2026-01-07 15:37:15,0.0,5,7.375,0.0,0.0,0.0,35.9,3.7,3.3,1024,1024,1024,1024,0,0,0,0,62,4.552,70.16,166.338588,P-GPS,,50.7
1023,252100,2026-01-07 15:37:15,0.0,5,7.375,0.0,0.0,0.0,35.9,3.3,2.8,1024,1024,1024,1024,0,0,0,0,62,4.552,70.16,166.338588,P-GPS,,50.7
1024,252200,2026-01-07 15:37:15,0.0,5,7.375,0.0,0.0,0.0,35.9,3.7,2.8,1024,1024,1024,1024,0,0,0,0,62,4.552,70.16,166.010504,P-GPS,,50.6
1025,252300,2026-01-07 15:37:15,0.0,5,7.369,0.0,0.0,0.0,35.8,4.2,2.9,1024,1024,1024,1024,0,0,0,0,62,4.574,70.16,166.010504,P-GPS,,50.6
1026,252400,2026-01-07 15:37:15,0.0,5,7.369,0.0,0.0,0.0,35.8,4.4,2.8,1024,1024,1024,1024,0,0,0,0,62,4.574,70.16,166.010504,P-GPS,,50.6
1027,252500,2026-01-07 15:37:16,0.0,5,7.369,0.0,0.0,0.0,35.9,4.6,2.7,1024,1024,1024,1024,0,0,0,0,62,4.574,70.16,166.010504,P-GPS,,50.6
1028,252600,2026-01-07 15:37:16,0.0,5,7.369,0.0,0.0,0.0,35.8,4.8,2.1,1024,1024,1024,1024,0,0,0,0,62,4.574,70.16,166.010504,P-GPS,,50.6
1029,252700,2026-01-07 15:37:16,0.0,5,7.369,0.0,0.0,0.0,35.9,4.6,2.0,1024,1024,1024,1024,0,0,0,0,62,4.574,70.16,166.338588,P-GPS,,50.7
1030,252800,2026-01-07 15:37:16,0.0,5,7.369,0.0,0.0,0.0,35.9,4.3,2.1,1024,1024,1024,1024,0,0,0,0,62,4.574,70.16,166.338588,P-GPS,,50.7
1031,252900,2026-01-07 15:37:16,0.0,5,7.369,0.0,0.0,0.0,35.9,3.7,1.8,1024,1024,1024,1024,0,0,0,0,62,4.574,70.16,166.338588,P-GPS,,50.7
1032,253000,2026-01-07 15:37:16,0.0,5,7.369,0.0,0.0,0.0,35.9,2.7,1.6,1024,1024,1024,1024,0,0,0,0,62,4.574,70.16,166.338588,P-GPS,,50.7
1033,253100,2026-01-07 15:37:16,0.0,5,7.369,0.0,0.0,0.0,35.9,2.3,2.3,1024,1024,1024,1024,0,0,0,0,62,4.574,70.16,166.338588,P-GPS,,50.7
1034,253200,2026-01-07 15:37:16,0.0,5,7.369,0.0,0.0,0.0,35.9,2.0,2.1,1024,1024,1024,1024,0,0,0,0,62,4.574,70.16,166.338588,P-GPS,,50.7
1035,253300,2026-01-07 15:37:16,0.0,5,7.369,0.0,0.0,0.0,35.7,1.6,2.5,1024,1024,1024,1024,0,0,0,0,62,4.574,70.16,166.338588,P-GPS,,50.7
1036,253400,2026-01-07 15:37:16,0.0,5,7.368,0.0,0.0,0.0,35.7,1.1,2.8,1024,1062,1024,1024,0,6,0,0,62,4.616,70.16,166.338588,P-GPS,,50.7
1037,253500,2026-01-07 15:37:17,0.0,5,7.368,0.0,0.0,0.0,35.6,0.9,2.8,1024,1204,1024,1024,0,27,0,0,62,4.616,70.16,166.338588,P-GPS,,50.7
1038,253600,2026-01-07 15:37:17,0.0,5,7.368,0.0,0.0,0.0,35.5,1.2,2.8,1024,1238,1024,1024,0,32,0,0,62,4.616,70.16,166.338588,P-GPS,,50.7
1039,253700,2026-01-07 15:37:17,0.0,5,7.368,0.0,0.0,0.0,35.6,1.1,3.2,1024,1223,1024,1024,0,30,0,0,62,4.616,70.16,166.338588,P-GPS,,50.7
1040,253800,2026-01-07 15:37:17,0.0,5,7.368,0.0,0.0,0.0,35.8,2.5,4.5,1024,1201,1024,1024,0,27,0,0,62,4.616,70.16,166.338588,P-GPS,,50.7
1041,253900,2026-01-07 15:37:17,0.0,5,7.368,0.0,0.0,0.0,35.8,2.9,5.6,1024,1201,1024,1024,0,27,0,0,62,4.616,70.16,166.666672,P-GPS,,50.8
1042,254000,2026-01-07 15:37:17,0.0,5,7.368,0.0,0.0,0.0,35.6,1.5,6.3,1024,1188,1024,1024,0,25,0,0,62,4.616,70.16,166.666672,P-GPS,,50.8
1043,254100,2026-01-07 15:37:17,0.0,5,7.368,0.0,0.0,0.0,35.6,2.4,6.3,1024,1024,1024,1024,0,0,0,0,62,4.616,70.16,166.666672,P-GPS,,50.8
1044,254200,2026-01-07 15:37:17,0.3131716,5,7.368,-0.223694,0.223694,0.0,35.7,2.1,5.8,1024,1024,1024,1024,0,0,0,0,62,4.616,70.16,166.666672,P-GPS,,50.8
1045,254300,2026-01-07 15:37:17,0.3131716,5,7.368,-0.223694,0.223694,0.0,35.6,3.1,3.5,1024,1024,1024,1024,0,0,0,0,62,4.616,70.16,166.666672,P-GPS,,50.8
1046,254400,2026-01-07 15:37:18,0.3131716,5,7.368,-0.223694,0.223694,0.0,35.5,2.4,1.1,1024,1024,1024,1024,0,0,0,0,62,4.616,70.16,166.666672,P-GPS,,50.8
1047,254500,2026-01-07 15:37:18,0.3131716,5,7.37,-0.223694,0.223694,0.0,35.5,2.7,1.3,1024,1024,1024,1024,0,0,0,0,62,4.605,70.16,166.666672,P-GPS,,50.8
1048,254600,2026-01-07 15:37:18,0.223694,5,7.37,0.0,0.223694,0.0,35.5,2.5,1.3,1024,1024,1024,1024,0,0,0,0,62,4.605,70.16,166.666672,P-GPS,,50.8
1049,254700,2026-01-07 15:37:18,0.0,5,7.37,0.0,0.0,0.0,35.4,2.7,1.4,1024,1024,1024,1024,0,0,0,0,62,4.605,70.16,166.666672,P-GPS,,50.8
1050,254800,2026-01-07 15:37:18,0.0,5,7.37,0.0,0.0,0.0,35.5,2.7,1.5,1024,1024,1024,1024,0,0,0,0,62,4.605,70.16,166.666672,P-GPS,,50.8
1051,254900,2026-01-07 15:37:18,0.0,5,7.37,0.0,0.0,0.0,35.5,4.2,1.1,1024,1024,1024,1024,0,0,0,0,62,4.605,70.16,166.666672,P-GPS,,50.8
1052,255000,2026-01-07 15:37:18,0.0,5,7.37,0.0,0.0,0.0,35.7,4.0,2.2,1024,1024,1024,1024,0,0,0,0,62,4.605,70.16,166.666672,P-GPS,,50.8
1053,255100,2026-01-07 15:37:18,0.0,5,7.37,0.0,0.0,0.0,35.7,4.3,1.7,1024,1024,1024,1024,0,0,0,0,62,4.605,70.16,166.338588,P-GPS,,50.7
1054,255200,2026-01-07 15:37:18,0.0,5,7.37,0.0,0.0,0.0,35.9,2.1,2.7,1024,1024,1024,1024,0,0,0,0,62,4.605,70.16,166.338588,P-GPS,,50.7
1055,255300,2026-01-07 15:37:18,0.0,5,7.37,0.0,0.0,0.0,35.9,2.7,2.1,1024,1024,1024,1024,0,0,0,0,62,4.605,70.16,166.338588,P-GPS,,50.7
1056,255400,2026-01-07 15:37:18,0.0,5,7.37,0.0,0.0,0.0,36.0,1.8,2.9,1024,1024,1024,1024,0,0,0,0,62,4.605,70.16,166.338588,P-GPS,,50.7
1057,255500,2026-01-07 15:37:19,0.0,5,7.37,0.0,0.0,0.0,35.9,1.7,2.8,1024,1024,1024,1024,0,0,0,0,62,4.605,70.16,166.338588,P-GPS,,50.7
1058,255600,2026-01-07 15:37:19,0.0,5,7.37,0.0,0.0,0.0,35.8,1.6,2.2,1024,1024,1024,1024,0,0,0,0,62,4.636,70.16,166.338588,P-GPS,,50.7
1059,255700,2026-01-07 15:37:19,0.0,5,7.37,0.0,0.0,0.0,35.8,1.1,2.1,1024,1024,1024,1024,0,0,0,0,62,4.636,70.16,166.666672,P-GPS,,50.8
1060,255800,2026-01-07 15:37:19,0.0,5,7.37,0.0,0.0,0.0,35.7,1.2,2.4,1024,1024,1024,1024,0,0,0,0,62,4.636,70.16,166.666672,P-GPS,,50.8
1061,255900,2026-01-07 15:37:19,0.0,5,7.37,0.0,0.0,0.0,35.7,1.5,2.3,1024,1024,1024,1024,0,0,0,0,62,4.636,70.16,166.666672,P-GPS,,50.8
1062,256000,2026-01-07 15:37:19,0.0,5,7.37,0.0,0.0,0.0,35.7,1.9,2.0,1024,1024,1024,1024,0,0,0,0,62,4.636,70.16,166.666672,P-GPS,,50.8
1063,256100,2026-01-07 15:37:19,0.0,5,7.37,0.0,0.0,0.0,35.7,2.0,2.3,1024,1024,1024,1024,0,0,0,0,62,4.636,70.16,166.666672,P-GPS,,50.8
1064,256200,2026-01-07 15:37:19,0.0,5,7.37,0.0,0.0,0.0,35.7,2.0,2.8,1024,1024,1024,1024,0,0,0,0,62,4.636,70.16,166.666672,P-GPS,,50.8
1065,256300,2026-01-07 15:37:19,0.0,5,7.37,0.0,0.0,0.0,35.6,2.4,2.8,1024,1024,1024,1024,0,0,0,0,62,4.636,70.16,166.666672,P-GPS,,50.8
1066,256400,2026-01-07 15:37:20,0.0,5,7.37,0.0,0.0,0.0,35.5,2.5,2.8,1024,1024,1024,1024,0,0,0,0,62,4.636,70.16,166.666672,P-GPS,,50.8
1067,256500,2026-01-07 15:37:20,0.0,5,7.37,0.0,0.0,0.0,35.6,2.3,3.1,1024,1024,1024,1024,0,0,0,0,62,4.636,70.16,166.666672,P-GPS,,50.8
1068,256600,2026-01-07 15:37:20,0.0,5,7.37,0.0,0.0,0.0,35.5,2.3,3.2,1024,1024,1024,1024,0,0,0,0,62,4.636,70.16,166.666672,P-GPS,,50.8
1069,256700,2026-01-07 15:37:20,0.0,5,7.362,0.0,0.0,0.0,35.6,2.7,3.3,1024,1024,1024,1024,0,0,0,0,62,4.69,70.16,166.666672,P-GPS,,50.8
1070,256800,2026-01-07 15:37:20,0.0,5,7.362,0.0,0.0,0.0,35.6,2.9,3.7,1024,1024,1024,1024,0,0,0,0,62,4.69,70.16,166.666672,P-GPS,,50.8
1071,256900,2026-01-07 15:37:20,0.0,5,7.362,0.0,0.0,0.0,35.5,2.9,3.6,1024,1024,1024,1024,0,0,0,0,62,4.69,70.16,166.666672,P-GPS,,50.8
1072,257000,2026-01-07 15:37:20,0.0,5,7.362,0.0,0.0,0.0,35.6,3.3,3.4,1024,1024,1024,1024,0,0,0,0,62,4.69,70.16,166.666672,P-GPS,,50.8
1073,257100,2026-01-07 15:37:20,0.0,5,7.362,0.0,0.0,0.0,35.6,3.7,3.6,1024,1024,1024,1024,0,0,0,0,62,4.69,70.16,166.666672,P-GPS,,50.8
1074,257200,2026-01-07 15:37:20,0.0,5,7.362,0.0,0.0,0.0,35.5,3.7,3.4,1024,1024,1024,1024,0,0,0,0,62,4.69,70.16,166.666672,P-GPS,,50.8
1075,257300,2026-01-07 15:37:20,0.0,5,7.362,0.0,0.0,0.0,35.6,3.6,3.4,1024,1024,1024,1024,0,0,0,0,62,4.69,70.16,166.666672,P-GPS,,50.8
1076,257400,2026-01-07 15:37:20,0.0,5,7.362,0.0,0.0,0.0,35.6,3.6,3.6,1024,1024,1024,1024,0,0,0,0,62,4.69,70.16,166.666672,P-GPS,,50.8
1077,257500,2026-01-07 15:37:21,0.0,5,7.362,0.0,0.0,0.0,35.6,3.8,3.8,1024,1024,1024,1024,0,0,0,0,62,4.69,70.16,166.666672,P-GPS,,50.8
1078,257600,2026-01-07 15:37:21,0.0,5,7.362,0.0,0.0,0.0,35.6,3.7,3.8,1024,1024,1024,1024,0,0,0,0,62,4.69,70.16,166.666672,P-GPS,,50.8
1079,257700,2026-01-07 15:37:21,0.0,5,7.362,0.0,0.0,0.0,35.6,3.5,4.0,1024,1024,1024,1024,0,0,0,0,62,4.69,70.16,166.666672,P-GPS,,50.8
1080,257800,2026-01-07 15:37:21,0.0,5,7.362,0.0,0.0,0.0,35.7,4.2,4.0,1024,1024,1024,1024,0,0,0,0,62,4.69,70.16,166.666672,P-GPS,,50.8
1081,257900,2026-01-07 15:37:21,0.0,5,7.362,0.0,0.0,0.0,35.6,4.6,4.2,1024,1024,1024,1024,0,0,0,0,62,4.69,70.16,166.666672,P-GPS,,50.8
1082,258000,2026-01-07 15:37:21,0.0,5,7.362,0.0,0.0,0.0,35.6,4.2,3.7,1024,1024,1024,1024,0,0,0,0,62,4.69,70.16,166.666672,P-GPS,,50.8
1083,258100,2026-01-07 15:37:21,0.0,5,7.362,0.0,0.0,0.0,35.7,4.3,4.0,1024,1024,1024,1024,0,0,0,0,62,4.69,70.16,166.666672,P-GPS,,50.8
1084,258200,2026-01-07 15:37:21,0.0,5,7.362,0.0,0.0,0.0,35.8,4.5,3.9,1024,1024,1024,1024,0,0,0,0,62,4.69,70.16,166.994756,P-GPS,,50.9
1085,258300,2026-01-07 15:37:21,0.0,5,7.362,0.0,0.0,0.0,35.8,4.4,3.7,1024,1024,1024,1024,0,0,0,0,62,4.69,70.16,166.994756,P-GPS,,50.9
1086,258400,2026-01-07 15:37:21,0.0,5,7.362,0.0,0.0,0.0,35.7,4.6,3.9,1024,1024,1024,1024,0,0,0,0,62,4.69,70.16,166.994756,P-GPS,,50.9
1087,258500,2026-01-07 15:37:22,0.0,5,7.362,0.0,0.0,0.0,35.7,4.9,3.8,1024,1024,1024,1024,0,0,0,0,62,4.69,70.16,166.994756,P-GPS,,50.9
1088,258600,2026-01-07 15:37:22,0.0,5,7.362,0.0,0.0,0.0,35.7,5.1,3.6,1024,1024,1024,1024,0,0,0,0,62,4.69,70.16,166.994756,P-GPS,,50.9
1089,258700,2026-01-07 15:37:22,0.0,5,7.362,0.0,0.0,0.0,35.7,5.6,3.2,1024,1024,1024,1024,0,0,0,0,62,4.69,70.16,166.994756,P-GPS,,50.9
1090,258800,2026-01-07 15:37:22,0.0,5,7.363,0.0,0.0,0.0,35.7,5.9,3.2,1024,1024,1024,1024,0,0,0,0,62,4.764,70.34,166.994756,P-GPS,,50.9
1091,258900,2026-01-07 15:37:22,0.0,5,7.363,0.0,0.0,0.0,35.8,5.9,3.4,1024,1024,1024,1024,0,0,0,0,62,4.764,70.34,166.994756,P-GPS,,50.9
1092,259000,2026-01-07 15:37:22,0.0,5,7.363,0.0,0.0,0.0,35.7,5.8,3.3,1024,1024,1024,1024,0,0,0,0,62,4.764,70.34,166.666672,P-GPS,,50.8
1093,259100,2026-01-07 15:37:22,0.0,5,7.363,0.0,0.0,0.0,35.7,5.5,3.3,1024,1024,1024,1024,0,0,0,0,62,4.764,70.34,166.666672,P-GPS,,50.8
1094,259200,2026-01-07 15:37:22,0.0,5,7.363,0.0,0.0,0.0,35.6,5.4,3.1,1024,1024,1024,1024,0,0,0,0,62,4.764,70.34,166.666672,P-GPS,,50.8
1095,259300,2026-01-07 15:37:22,0.0,5,7.363,0.0,0.0,0.0,35.7,5.4,3.0,1024,1024,1024,1024,0,0,0,0,62,4.764,70.34,166.666672,P-GPS,,50.8
1096,259400,2026-01-07 15:37:22,0.0,5,7.363,0.0,0.0,0.0,35.6,5.4,3.0,1024,1024,1024,1024,0,0,0,0,62,4.764,70.34,166.666672,P-GPS,,50.8
1097,259500,2026-01-07 15:37:23,0.0,5,7.363,0.0,0.0,0.0,35.6,5.0,2.8,1024,1024,1024,1024,0,0,0,0,62,4.764,70.34,166.666672,P-GPS,,50.8
1098,259600,2026-01-07 15:37:23,0.0,5,7.363,0.0,0.0,0.0,35.6,5.0,3.0,1024,1024,1024,1024,0,0,0,0,62,4.764,70.34,166.338588,P-GPS,,50.7
1099,259700,2026-01-07 15:37:23,0.0,5,7.363,0.0,0.0,0.0,35.7,4.9,3.2,1024,1024,1024,1024,0,0,0,0,62,4.764,70.34,166.338588,P-GPS,,50.7
1100,259800,2026-01-07 15:37:23,0.0,5,7.363,0.0,0.0,0.0,35.7,4.8,3.3,1024,1024,1024,1024,0,0,0,0,62,4.764,70.34,166.338588,P-GPS,,50.7
1101,259900,2026-01-07 15:37:23,0.0,5,7.363,0.0,0.0,0.0,35.7,4.7,3.3,1024,1024,1024,1024,0,0,0,0,62,4.764,70.34,166.338588,P-GPS,,50.7
1102,260000,2026-01-07 15:37:23,0.0,5,7.361,0.0,0.0,0.0,35.6,4.9,3.3,1024,1024,1024,1024,0,0,0,0,62,4.667,70.34,166.338588,P-GPS,,50.7
1103,260100,2026-01-07 15:37:23,0.0,5,7.361,0.0,0.0,0.0,35.6,4.9,3.4,1024,1024,1024,1024,0,0,0,0,62,4.667,70.34,166.338588,P-GPS,,50.7
1104,260200,2026-01-07 15:37:23,0.0,5,7.361,0.0,0.0,0.0,35.7,5.1,3.4,1024,1024,1024,1024,0,0,0,0,62,4.667,70.34,166.338588,P-GPS,,50.7
1105,260300,2026-01-07 15:37:23,0.0,5,7.361,0.0,0.0,0.0,35.7,5.1,3.2,1024,1024,1024,1024,0,0,0,0,62,4.667,70.34,166.338588,P-GPS,,50.7
1106,260400,2026-01-07 15:37:23,0.0,5,7.361,0.0,0.0,0.0,35.7,5.2,3.0,1024,1024,1024,1024,0,0,0,0,62,4.667,70.34,166.338588,P-GPS,,50.7
1107,260500,2026-01-07 15:37:24,0.0,5,7.361,0.0,0.0,0.0,35.7,5.2,3.1,1024,1024,1024,1024,0,0,0,0,62,4.667,70.34,166.338588,P-GPS,,50.7
1108,260600,2026-01-07 15:37:24,0.0,5,7.361,0.0,0.0,0.0,35.7,4.9,2.9,1024,1024,1024,1024,0,0,0,0,62,4.667,70.34,166.338588,P-GPS,,50.7
1109,260700,2026-01-07 15:37:24,0.0,5,7.361,0.0,0.0,0.0,35.7,5.0,3.1,1024,1024,1024,1024,0,0,0,0,62,4.667,70.34,166.338588,P-GPS,,50.7
1110,260800,2026-01-07 15:37:24,0.0,5,7.361,0.0,0.0,0.0,35.7,4.8,3.2,1024,1024,1024,1024,0,0,0,0,62,4.667,70.34,166.338588,P-GPS,,50.7
1111,260900,2026-01-07 15:37:24,0.0,5,7.361,0.0,0.0,0.0,35.7,4.6,3.3,1024,1024,1024,1024,0,0,0,0,62,4.667,70.34,166.338588,P-GPS,,50.7
1112,261000,2026-01-07 15:37:24,0.0,5,7.362,0.0,0.0,0.0,35.7,4.4,3.1,1024,1024,1024,1024,0,0,0,0,62,4.621,70.34,166.338588,P-GPS,,50.7
1113,261100,2026-01-07 15:37:24,0.0,5,7.362,0.0,0.0,0.0,35.7,4.3,3.2,1024,1024,1024,1024,0,0,0,0,62,4.621,70.34,166.338588,P-GPS,,50.7
1114,261200,2026-01-07 15:37:24,0.0,5,7.362,0.0,0.0,0.0,35.7,4.4,3.3,1024,1024,1024,1024,0,0,0,0,62,4.621,70.34,166.338588,P-GPS,,50.7
1115,261300,2026-01-07 15:37:24,0.0,5,7.362,0.0,0.0,0.0,35.7,4.4,3.0,1024,1024,1024,1024,0,0,0,0,62,4.621,70.34,166.338588,P-GPS,,50.7
1116,261400,2026-01-07 15:37:25,0.0,5,7.362,0.0,0.0,0.0,35.7,4.5,3.2,1024,1024,1024,1024,0,0,0,0,62,4.621,70.34,166.338588,P-GPS,,50.7
1117,261500,2026-01-07 15:37:25,0.0,5,7.362,0.0,0.0,0.0,35.6,4.9,3.2,1024,1024,1024,1024,0,0,0,0,62,4.621,70.34,166.338588,P-GPS,,50.7
1118,261600,2026-01-07 15:37:25,0.0,5,7.362,0.0,0.0,0.0,35.6,5.0,3.3,1024,1024,1024,1024,0,0,0,0,62,4.621,70.34,166.338588,P-GPS,,50.7
1119,261700,2026-01-07 15:37:25,0.0,5,7.362,0.0,0.0,0.0,35.7,5.2,3.3,1024,1024,1024,1024,0,0,0,0,62,4.621,70.34,166.338588,P-GPS,,50.7
1120,261800,2026-01-07 15:37:25,0.0,5,7.362,0.0,0.0,0.0,35.7,5.1,3.5,1024,1024,1024,1024,0,0,0,0,62,4.621,70.34,166.338588,P-GPS,,50.7
1121,261900,2026-01-07 15:37:25,0.0,5,7.362,0.0,0.0,0.0,35.7,4.9,3.3,1024,1024,1024,1024,0,0,0,0,62,4.621,70.34,166.010504,P-GPS,,50.6
1122,262000,2026-01-07 15:37:25,0.0,5,7.362,0.0,0.0,0.0,35.7,5.1,3.3,1024,1024,1024,1024,0,0,0,0,62,4.621,70.34,166.010504,P-GPS,,50.6
1123,262100,2026-01-07 15:37:25,0.0,5,7.362,0.0,0.0,0.0,35.7,5.3,3.1,1024,1024,1024,1024,0,0,0,0,62,4.621,70.34,166.010504,P-GPS,,50.6
1124,262200,2026-01-07 15:37:25,0.0,5,7.361,0.0,0.0,0.0,35.7,5.4,3.0,1024,1024,1024,1024,0,0,0,0,61,4.645,70.34,166.010504,P-GPS,,50.6
1125,262300,2026-01-07 15:37:25,0.0,5,7.361,0.0,0.0,0.0,35.7,5.2,2.8,1024,1024,1024,1024,0,0,0,0,61,4.645,70.34,165.68242,P-GPS,,50.5
1126,262400,2026-01-07 15:37:25,0.0,5,7.361,0.0,0.0,0.0,35.7,4.9,2.7,1024,1024,1024,1024,0,0,0,0,61,4.645,70.34,165.68242,P-GPS,,50.5
1127,262500,2026-01-07 15:37:26,0.0,5,7.361,0.0,0.0,0.0,35.7,4.6,2.8,1024,1024,1024,1024,0,0,0,0,61,4.645,70.34,165.68242,P-GPS,,50.5
1128,262600,2026-01-07 15:37:26,0.0,5,7.361,0.0,0.0,0.0,35.6,4.6,2.7,1024,1024,1024,1024,0,0,0,0,61,4.645,70.34,165.68242,P-GPS,,50.5
1129,262700,2026-01-07 15:37:26,0.0,5,7.361,0.0,0.0,0.0,35.7,4.9,2.9,1024,1024,1024,1024,0,0,0,0,61,4.645,70.34,165.68242,P-GPS,,50.5
1130,262800,2026-01-07 15:37:26,0.0,5,7.361,0.0,0.0,0.0,35.7,5.1,2.8,1024,1024,1024,1024,0,0,0,0,61,4.645,70.34,165.68242,P-GPS,,50.5
1131,262900,2026-01-07 15:37:26,0.0,5,7.361,0.0,0.0,0.0,35.7,5.1,3.0,1024,1024,1024,1024,0,0,0,0,61,4.645,70.34,165.354336,P-GPS,,50.4
1132,263000,2026-01-07 15:37:26,0.0,5,7.361,0.0,0.0,0.0,35.7,5.3,3.3,1024,1024,1024,1024,0,0,0,0,61,4.645,70.34,165.354336,P-GPS,,50.4
1133,263100,2026-01-07 15:37:26,0.0,5,7.361,0.0,0.0,0.0,35.8,5.3,3.2,1024,1024,1024,1024,0,0,0,0,61,4.645,70.34,165.354336,P-GPS,,50.4
1134,263200,2026-01-07 15:37:26,0.0,5,7.361,0.0,0.0,0.0,35.8,5.2,3.1,1024,1024,1024,1024,0,0,0,0,61,4.645,70.34,165.354336,P-GPS,,50.4
1135,263300,2026-01-07 15:37:26,0.0,5,7.358,0.0,0.0,0.0,35.9,5.1,2.8,1024,1024,1024,1024,0,0,0,0,61,4.739,70.34,165.354336,P-GPS,,50.4
1136,263400,2026-01-07 15:37:26,0.0,5,7.358,0.0,0.0,0.0,35.9,5.0,2.5,1024,1024,1024,1024,0,0,0,0,61,4.739,70.34,165.354336,P-GPS,,50.4
1137,263500,2026-01-07 15:37:27,0.0,5,7.358,0.0,0.0,0.0,35.8,4.8,2.4,1024,1024,1024,1024,0,0,0,0,61,4.739,70.34,165.354336,P-GPS,,50.4
1138,263600,2026-01-07 15:37:27,0.0,5,7.358,0.0,0.0,0.0,35.8,4.7,2.4,1024,1024,1024,1024,0,0,0,0,61,4.739,70.34,165.354336,P-GPS,,50.4
1139,263700,2026-01-07 15:37:27,0.0,5,7.358,0.0,0.0,0.0,35.8,4.5,2.4,1024,1024,1024,1024,0,0,0,0,61,4.739,70.34,165.354336,P-GPS,,50.4
1140,263800,2026-01-07 15:37:27,0.0,5,7.358,0.0,0.0,0.0,35.8,4.5,2.5,1024,1024,1024,1024,0,0,0,0,61,4.739,70.34,165.354336,P-GPS,,50.4
1141,263900,2026-01-07 15:37:27,0.0,5,7.358,0.0,0.0,0.0,35.8,4.3,2.6,1024,1024,1024,1024,0,0,0,0,61,4.739,70.34,165.354336,P-GPS,,50.4
1142,264000,2026-01-07 15:37:27,0.0,5,7.358,0.0,0.0,0.0,35.8,4.2,2.8,1024,1024,1024,1024,0,0,0,0,61,4.739,70.34,165.354336,P-GPS,,50.4
1143,264100,2026-01-07 15:37:27,0.0,5,7.358,0.0,0.0,0.0,35.7,4.2,2.9,1024,1024,1024,1024,0,0,0,0,61,4.739,70.34,165.354336,P-GPS,,50.4
1144,264200,2026-01-07 15:37:27,0.0,5,7.358,0.0,0.0,0.0,35.7,4.2,3.0,1024,1024,1024,1024,0,0,0,0,61,4.739,70.34,165.354336,P-GPS,,50.4
1145,264300,2026-01-07 15:37:27,0.0,5,7.358,0.0,0.0,0.0,35.8,4.4,2.9,1024,1024,1024,1024,0,0,0,0,61,4.739,70.34,165.354336,P-GPS,,50.4
1146,264400,2026-01-07 15:37:27,0.0,5,7.352,0.0,0.0,0.0,35.8,4.5,2.8,1024,1024,1024,1024,0,0,0,0,61,4.832,70.34,165.354336,P-GPS,,50.4
1147,264500,2026-01-07 15:37:28,0.0,5,7.352,0.0,0.0,0.0,35.8,4.3,2.7,1024,1024,1024,1024,0,0,0,0,61,4.832,70.34,165.354336,P-GPS,,50.4
1148,264600,2026-01-07 15:37:28,0.0,5,7.352,0.0,0.0,0.0,35.7,4.1,2.6,1024,1024,1024,1024,0,0,0,0,61,4.832,70.34,165.354336,P-GPS,,50.4
1149,264700,2026-01-07 15:37:28,0.0,5,7.352,0.0,0.0,0.0,35.6,4.0,2.7,1024,1024,1024,1024,0,0,0,0,61,4.832,70.34,165.354336,P-GPS,,50.4
1150,264800,2026-01-07 15:37:28,0.0,5,7.352,0.0,0.0,0.0,35.7,3.9,2.9,1024,1024,1024,1024,0,0,0,0,61,4.832,70.34,165.354336,P-GPS,,50.4
1151,264900,2026-01-07 15:37:28,0.0,5,7.352,0.0,0.0,0.0,35.6,3.7,2.8,1024,1024,1024,1024,0,0,0,0,61,4.832,70.34,165.68242,P-GPS,,50.5
1152,265000,2026-01-07 15:37:28,0.0,5,7.352,0.0,0.0,0.0,35.6,3.6,2.8,1024,1024,1024,1024,0,0,0,0,61,4.832,70.34,165.68242,P-GPS,,50.5
1153,265100,2026-01-07 15:37:28,0.0,5,7.352,0.0,0.0,0.0,35.6,3.5,2.7,1024,1024,1024,1024,0,0,0,0,61,4.832,70.34,165.68242,P-GPS,,50.5
1154,265200,2026-01-07 15:37:28,0.0,5,7.352,0.0,0.0,0.0,35.7,3.7,2.7,1024,1024,1024,1024,0,0,0,0,61,4.832,70.34,165.68242,P-GPS,,50.5
1155,265300,2026-01-07 15:37:28,0.0,5,7.352,0.0,0.0,0.0,35.7,4.0,2.7,1024,1024,1024,1024,0,0,0,0,61,4.832,70.34,165.68242,P-GPS,,50.5
1156,265400,2026-01-07 15:37:29,0.0,5,7.352,0.0,0.0,0.0,35.7,4.3,2.8,1024,1024,1024,1024,0,0,0,0,61,4.832,70.34,165.68242,P-GPS,,50.5
1157,265500,2026-01-07 15:37:29,0.0,5,7.36,0.0,0.0,0.0,35.7,4.3,3.1,1024,1024,1024,1024,0,0,0,0,61,4.836,70.16,165.68242,P-GPS,,50.5
1158,265600,2026-01-07 15:37:29,0.0,5,7.36,0.0,0.0,0.0,35.7,4.5,3.1,1024,1024,1024,1024,0,0,0,0,61,4.836,70.16,165.68242,P-GPS,,50.5
1159,265700,2026-01-07 15:37:29,0.0,5,7.36,0.0,0.0,0.0,35.7,4.7,3.0,1024,1024,1024,1024,0,0,0,0,61,4.836,70.16,165.68242,P-GPS,,50.5
1160,265800,2026-01-07 15:37:29,0.0,5,7.36,0.0,0.0,0.0,35.7,4.6,3.0,1024,1024,1024,1024,0,0,0,0,61,4.836,70.16,165.68242,P-GPS,,50.5
