index,time(millisecond),timestamp,speed(mph),gpslevel,voltage(v),xSpeed(mph),ySpeed(mph),zSpeed(mph),compass_heading(degrees),pitch(degrees),roll(degrees),rc_elevator,rc_aileron,rc_throttle,rc_rudder,rc_elevator(percent),rc_aileron(percent),rc_throttle(percent),rc_rudder(percent),battery_percent,current(A),battery_temperature(f),ascent(feet),flycState,message,height_above_takeoff(meters)
496,49600,2026-01-08 12:28:35,0.223694,5,7.664,0.0,-0.223694,0.0,206.3,11.4,3.8,1024,1024,1024,1024,0,0,0,0,96,6.345,63.86,100.06562,P-GPS,,30.5
497,49700,2026-01-08 12:28:35,0.223694,5,7.664,0.0,-0.223694,0.0,206.2,10.6,3.5,1024,1024,1024,1024,0,0,0,0,96,6.345,63.86,100.06562,P-GPS,,30.5
498,49800,2026-01-08 12:28:35,0.223694,5,7.664,0.0,0.0,0.0,206.2,10.4,4.0,1024,1024,1024,1024,0,0,0,0,96,6.345,63.86,100.06562,P-GPS,,30.5
499,49900,2026-01-08 12:28:35,0.0,5,7.664,0.0,0.0,0.0,206.4,11.3,4.7,1024,1024,1024,1024,0,0,0,0,96,6.345,63.86,99.737536,P-GPS,,30.4
500,50000,2026-01-08 12:28:35,0.0,5,7.754,0.0,0.0,0.0,206.5,11.5,5.1,1024,1024,1024,1024,0,0,0,0,96,4.276,64.04,99.737536,P-GPS,,30.4
501,50100,2026-01-08 12:28:35,0.0,5,7.754,0.0,0.0,0.0,206.6,11.5,5.1,1024,1024,1024,1024,0,0,0,0,96,4.276,64.04,99.737536,P-GPS,,30.4
502,50200,2026-01-08 12:28:35,0.0,5,7.754,0.0,0.0,0.0,206.6,10.2,5.2,1024,1024,1024,1024,0,0,0,0,96,4.276,64.04,99.737536,P-GPS,,30.4
503,50300,2026-01-08 12:28:35,0.0,5,7.754,0.0,0.0,0.0,206.5,9.8,5.6,1024,1024,1024,1024,0,0,0,0,96,4.276,64.04,99.409452,P-GPS,,30.3
504,50400,2026-01-08 12:28:35,0.0,5,7.754,0.0,0.0,0.0,206.5,10.6,5.1,1024,1024,1024,1024,0,0,0,0,96,4.276,64.04,99.409452,P-GPS,,30.3
505,50500,2026-01-08 12:28:36,0.0,5,7.754,0.0,0.0,0.0,206.5,10.5,4.6,1024,1024,1024,1024,0,0,0,0,96,4.276,64.04,99.409452,P-GPS,,30.3
506,50600,2026-01-08 12:28:36,0.0,5,7.754,0.0,0.0,0.0,206.4,9.6,4.7,1024,1024,1024,1024,0,0,0,0,96,4.276,64.04,99.409452,P-GPS,,30.3
507,50700,2026-01-08 12:28:36,0.0,5,7.754,0.0,0.0,0.0,206.5,9.3,6.9,1024,1024,1024,1024,0,0,0,0,96,4.276,64.04,99.409452,P-GPS,,30.3
508,50800,2026-01-08 12:28:36,0.223694,5,7.754,-0.223694,0.0,0.0,206.9,10.6,9.0,1024,1024,1024,1024,0,0,0,0,96,4.276,64.04,99.409452,P-GPS,,30.3
509,50900,2026-01-08 12:28:36,0.0,5,7.754,0.0,0.0,0.0,207.1,11.8,8.5,1024,1024,1024,1024,0,0,0,0,96,4.276,64.04,99.081368,P-GPS,,30.2
510,51000,2026-01-08 12:28:36,0.0,5,7.754,0.0,0.0,0.0,207.0,11.7,8.4,1024,1024,1024,1024,0,0,0,0,96,4.276,64.04,99.081368,P-GPS,,30.2
511,51100,2026-01-08 12:28:36,0.3131716,5,7.755,0.223694,-0.223694,0.0,207.4,12.5,10.8,1024,1024,1024,1024,0,0,0,0,95,5.098,64.04,99.081368,P-GPS,,30.2
512,51200,2026-01-08 12:28:36,0.8052984,5,7.755,0.671082,-0.447388,0.0,207.0,10.8,7.5,1024,1024,1024,1024,0,0,0,0,95,5.098,64.04,99.081368,P-GPS,,30.2
513,51300,2026-01-08 12:28:36,0.8052984,5,7.755,0.671082,-0.671082,-0.223694,206.5,9.5,5.4,1024,1024,1024,1024,0,0,0,0,95,5.098,64.04,99.081368,P-GPS,,30.2
514,51400,2026-01-08 12:28:36,0.0,5,7.755,0.0,0.0,0.0,206.9,10.7,6.9,1024,1024,1024,1024,0,0,0,0,95,5.098,64.04,99.081368,P-GPS,,30.2
515,51500,2026-01-08 12:28:37,0.223694,5,7.755,0.0,0.223694,0.0,207.0,10.9,9.5,1024,1024,1024,1024,0,0,0,0,95,5.098,64.04,99.081368,P-GPS,,30.2
516,51600,2026-01-08 12:28:37,0.223694,5,7.755,-0.447388,0.671082,0.0,207.5,11.5,13.2,1024,1024,1024,1024,0,0,0,0,95,5.098,64.04,99.081368,P-GPS,,30.2
517,51700,2026-01-08 12:28:37,0.4921268,5,7.755,-0.223694,0.447388,0.0,207.8,12.3,14.7,1024,1024,1024,1024,0,0,0,0,95,5.098,64.04,99.081368,P-GPS,,30.2
518,51800,2026-01-08 12:28:37,0.8052984,5,7.755,-0.671082,0.447388,0.0,208.0,12.3,16.2,1024,1024,1024,1024,0,0,0,0,95,5.098,64.04,99.081368,P-GPS,,30.2
519,51900,2026-01-08 12:28:37,0.223694,5,7.755,-0.223694,0.0,0.0,208.1,12.6,16.4,1024,1024,1024,1024,0,0,0,0,95,5.098,64.04,99.081368,P-GPS,,30.2
520,52000,2026-01-08 12:28:37,0.7158208,5,7.755,-0.671082,0.223694,-0.223694,208.3,12.6,18.4,1024,1024,1024,1024,0,0,0,0,95,5.098,64.04,98.753284,P-GPS,,30.1
521,52100,2026-01-08 12:28:37,0.223694,5,7.755,-0.223694,0.0,-0.223694,209.3,15.4,19.6,1024,1024,1024,1024,0,0,0,0,95,5.098,64.04,98.753284,P-GPS,,30.1
522,52200,2026-01-08 12:28:37,0.4921268,5,7.638,-0.447388,0.223694,0.0,208.7,14.3,16.9,1024,1024,1024,1024,0,0,0,0,95,6.457,64.04,98.753284,P-GPS,,30.1
523,52300,2026-01-08 12:28:37,0.4921268,5,7.638,0.0,-0.223694,0.0,209.0,14.5,19.5,1024,1024,1024,1024,0,0,0,0,95,6.457,64.04,98.753284,P-GPS,,30.1
524,52400,2026-01-08 12:28:37,0.8052984,5,7.638,0.447388,-0.671082,0.0,208.1,13.5,20.8,1024,1024,1024,1024,0,0,0,0,95,6.457,64.04,98.753284,P-GPS,,30.1
525,52500,2026-01-08 12:28:38,1.2974252,5,7.638,-0.671082,-1.11847,0.0,203.5,14.6,19.8,1024,1024,1024,1024,0,0,0,0,95,6.457,64.04,98.753284,P-GPS,,30.1
526,52600,2026-01-08 12:28:38,1.6105968,5,7.638,-0.894776,-1.342164,0.0,197.7,11.1,16.2,1024,1024,1024,1024,0,0,0,0,95,6.457,64.04,98.4252,P-GPS,,30.0
527,52700,2026-01-08 12:28:38,1.901399,5,7.638,-1.789552,-0.671082,-0.223694,193.0,13.1,14.4,1024,1024,1024,1024,0,0,0,0,95,6.457,64.04,98.753284,P-GPS,,30.1
528,52800,2026-01-08 12:28:38,9.0148682,5,7.638,-6.487126,6.263432,-0.223694,187.0,22.4,-1.9,1024,1024,1024,1024,0,0,0,0,95,6.457,64.04,98.753284,P-GPS,,30.1
529,52900,2026-01-08 12:28:38,8.3214168,5,7.638,-4.250186,7.158208,-0.447388,179.3,22.0,-7.0,1024,1024,1024,1024,0,0,0,0,95,6.457,64.04,98.753284,P-GPS,,30.1
530,53000,2026-01-08 12:28:38,8.7464354,5,7.638,-5.59235,6.71082,-0.671082,172.4,21.7,-9.9,1024,1024,1024,1024,0,0,0,0,95,6.457,64.04,98.753284,P-GPS,,30.1
531,53100,2026-01-08 12:28:38,7.82929,5,7.638,-4.026492,6.71082,-0.447388,165.6,21.9,-10.8,1024,1024,1024,1024,0,0,0,0,95,6.457,64.04,98.753284,P-GPS,,30.1
532,53200,2026-01-08 12:28:38,7.9635064,5,7.638,-4.921268,6.263432,-0.223694,159.5,20.2,-13.4,1024,1024,1024,1024,0,0,0,0,95,6.457,64.04,99.081368,P-GPS,,30.2
533,53300,2026-01-08 12:28:38,7.1134692,5,7.638,-3.35541,6.263432,-0.223694,153.4,18.0,-15.7,1024,1024,1024,1024,0,0,0,0,95,6.457,64.04,99.081368,P-GPS,,30.2
534,53400,2026-01-08 12:28:38,7.4266408,5,7.767,-5.144962,5.368656,-0.223694,147.8,16.5,-17.1,1024,1024,1024,1024,0,0,0,0,95,6.522,64.22,99.081368,P-GPS,,30.2
535,53500,2026-01-08 12:28:39,6.3305402,5,7.767,-3.35541,5.368656,0.0,141.9,15.9,-18.0,1024,1024,1024,1024,0,0,0,0,95,6.522,64.22,99.081368,P-GPS,,30.2
536,53600,2026-01-08 12:28:39,6.3305402,5,7.767,-5.816044,4.026492,0.0,136.6,14.3,-20.6,1024,1024,1024,1024,0,0,0,0,95,6.522,64.22,99.081368,P-GPS,,30.2
537,53700,2026-01-08 12:28:39,5.8607828,5,7.767,-4.250186,4.026492,-0.223694,132.6,8.0,-23.1,1024,1024,1024,1024,0,0,0,0,95,6.522,64.22,98.753284,P-GPS,,30.1
538,53800,2026-01-08 12:28:39,6.4423872,5,7.767,-6.039738,2.23694,-0.223694,128.1,4.7,-25.0,1024,1024,1024,1024,0,0,0,0,95,6.522,64.22,98.753284,P-GPS,Strong wind warning Strong wind warning. Aircraft unable to return to home automatically. Lower altitude immediately and return to home manually (Code: 30149). SD card speed low. Normal use may be affected. Replace SD card (Code: 10028). Gimbal stuck. Make sure gimbal c,30.1
539,53900,2026-01-08 12:28:39,7.381902,5,7.767,-7.381902,-0.223694,-0.223694,31.4,1.7,-25.6,1024,1024,1024,1024,0,0,0,0,95,6.522,64.22,98.4252,P-GPS,,30.0
540,54000,2026-01-08 12:28:39,7.381902,5,7.767,-6.487126,-0.223694,0.0,28.5,-0.5,-26.6,1024,1024,1024,1024,0,0,0,0,95,6.522,64.22,98.4252,P-GPS,,30.0
541,54100,2026-01-08 12:28:39,5.8607828,5,7.767,-5.816044,-0.671082,0.0,29.9,-10.9,-26.5,1024,1024,1024,1024,0,0,0,0,95,6.522,64.22,98.097116,P-GPS,,29.9
542,54200,2026-01-08 12:28:39,4.7870516,5,7.767,-4.697574,-0.894776,-0.223694,28.5,-12.1,-26.8,1024,1024,1024,1024,0,0,0,0,95,6.522,64.22,98.097116,P-GPS,,29.9
543,54300,2026-01-08 12:28:39,3.6014734,5,7.767,-3.131716,-1.789552,-0.223694,27.7,-13.3,-27.2,1024,1024,1024,1024,0,0,0,0,95,6.522,64.22,98.097116,P-GPS,,29.9
544,54400,2026-01-08 12:28:39,3.019869,5,7.767,-2.013246,-2.23694,-0.223694,27.8,-14.7,-26.6,1024,1024,1024,1024,0,0,0,0,95,6.522,64.22,98.097116,P-GPS,,29.9
545,54500,2026-01-08 12:28:40,2.9751302,5,7.777,-0.671082,-2.908022,-0.447388,26.6,-12.7,-21.3,1024,1024,1024,1024,0,0,0,0,95,4.729,64.22,98.097116,P-GPS,,29.9
546,54600,2026-01-08 12:28:40,3.131716,5,7.777,0.0,-3.131716,-0.223694,25.6,-9.9,-15.4,1024,1024,1024,1024,0,0,0,0,95,4.729,64.22,98.097116,P-GPS,,29.9
547,54700,2026-01-08 12:28:40,3.1540854,5,7.777,0.447388,-3.131716,-0.223694,24.9,-7.5,-12.0,1024,1024,1024,1024,0,0,0,0,95,4.729,64.22,98.4252,P-GPS,,30.0
548,54800,2026-01-08 12:28:40,3.3330406,5,7.777,1.11847,-3.131716,0.0,24.7,-5.5,-9.5,1024,1024,1024,1024,0,0,0,0,95,4.729,64.22,98.753284,P-GPS,,30.1
549,54900,2026-01-08 12:28:40,3.1988242,5,7.777,1.342164,-2.908022,0.0,24.4,-4.1,-8.2,1024,1024,1024,1024,0,0,0,0,95,4.729,64.22,99.081368,P-GPS,,30.2
550,55000,2026-01-08 12:28:40,3.1093466,5,7.777,1.565858,-2.684328,0.0,24.2,-3.0,-7.8,1024,1024,1024,1024,0,0,0,0,95,4.729,64.22,99.409452,P-GPS,,30.3
551,55100,2026-01-08 12:28:40,3.5343652,5,7.777,2.013246,-2.908022,0.0,24.1,-2.2,-8.4,1024,1024,1024,1024,0,0,0,0,95,4.729,64.22,99.737536,P-GPS,,30.4
552,55200,2026-01-08 12:28:40,3.5343652,5,7.777,2.460634,-3.131716,0.0,24.0,-1.5,-8.1,1024,1024,1024,1024,0,0,0,0,95,4.729,64.22,100.393704,P-GPS,,30.6
553,55300,2026-01-08 12:28:40,4.4291412,5,7.777,2.908022,-3.35541,0.0,23.9,-0.3,-7.1,1024,1024,1024,1024,0,0,0,0,95,4.729,64.22,100.721788,P-GPS,,30.7
554,55400,2026-01-08 12:28:40,4.4291412,5,7.777,2.908022,-3.35541,0.0,24.0,0.2,-5.9,1024,1024,1024,1024,0,0,0,0,95,4.729,64.22,101.049872,P-GPS,,30.8
555,55500,2026-01-08 12:28:40,4.4291412,5,7.777,3.35541,-3.579104,0.0,24.0,0.3,-5.5,1024,1024,1024,1024,0,0,0,0,95,4.729,64.22,101.377956,P-GPS,,30.9
556,55600,2026-01-08 12:28:41,4.8988986,5,7.777,3.35541,-3.579104,0.0,24.0,0.5,-4.3,1024,1024,1024,1024,0,0,0,0,95,4.729,64.22,102.034124,P-GPS,,31.1
557,55700,2026-01-08 12:28:41,5.0554844,5,7.777,3.579104,-3.579104,0.0,24.0,0.0,-3.0,1024,1024,1024,1024,0,0,0,0,95,4.729,64.22,102.362208,P-GPS,,31.2
558,55800,2026-01-08 12:28:41,5.0554844,5,7.777,3.579104,-3.35541,0.0,24.0,0.9,-3.4,1024,1024,1024,1024,0,0,0,0,95,4.729,64.22,102.690292,P-GPS,,31.3
559,55900,2026-01-08 12:28:41,5.2120702,5,7.777,3.802798,-3.579104,0.223694,24.0,1.2,-3.7,1024,1024,1024,1024,0,0,0,0,95,4.729,64.22,102.690292,P-GPS,,31.3
560,56000,2026-01-08 12:28:41,4.8988986,5,7.777,3.579104,-3.35541,0.223694,24.1,1.5,-3.9,1024,1024,1024,1024,0,0,0,0,95,4.729,64.22,103.018376,P-GPS,,31.4
561,56100,2026-01-08 12:28:41,5.2344396,5,7.777,4.026492,-3.35541,0.223694,24.1,1.9,-3.9,1024,1024,1024,1024,0,0,0,0,95,4.729,64.22,103.34646,P-GPS,,31.5
562,56200,2026-01-08 12:28:41,5.0778538,5,7.777,3.802798,-3.35541,0.447388,24.0,2.3,-3.5,1024,1024,1024,1024,0,0,0,0,95,4.729,64.22,103.674544,P-GPS,,31.6
563,56300,2026-01-08 12:28:41,5.2344396,5,7.777,4.026492,-3.35541,0.671082,24.0,2.4,-3.1,1024,1024,1024,1024,0,0,0,0,95,4.729,64.22,104.002628,P-GPS,,31.7
564,56400,2026-01-08 12:28:41,5.0778538,5,7.777,3.802798,-3.35541,0.671082,24.2,2.7,-2.9,1024,1024,1024,1024,0,0,0,0,95,4.729,64.22,104.002628,P-GPS,,31.7
565,56500,2026-01-08 12:28:42,5.3910254,5,7.777,4.026492,-3.579104,0.671082,24.3,3.0,-2.3,1024,1024,1024,1024,0,0,0,0,95,4.729,64.22,104.330712,P-GPS,,31.8
566,56600,2026-01-08 12:28:42,4.921268,5,7.775,3.802798,-3.131716,0.894776,24.3,2.8,-2.7,1024,1024,1024,1024,0,0,0,0,95,4.464,64.22,104.330712,P-GPS,,31.8
567,56700,2026-01-08 12:28:42,5.2344396,5,7.775,4.026492,-3.35541,0.894776,24.3,2.5,-2.9,1024,1024,1024,1024,0,0,0,0,95,4.464,64.22,104.658796,P-GPS,,31.9
568,56800,2026-01-08 12:28:42,5.0778538,5,7.775,3.802798,-3.35541,0.894776,24.4,1.5,-2.8,1024,1024,1024,1024,0,0,0,0,95,4.464,64.22,104.658796,P-GPS,,31.9
569,56900,2026-01-08 12:28:42,5.2344396,5,7.775,4.026492,-3.35541,0.894776,24.3,2.0,-2.7,1024,1024,1024,1024,0,0,0,0,95,4.464,64.22,104.98688,P-GPS,,32.0
570,57000,2026-01-08 12:28:42,4.921268,5,7.775,3.802798,-3.131716,1.11847,24.3,1.8,-2.8,1024,1024,1024,1024,0,0,0,0,95,4.464,64.22,104.98688,P-GPS,,32.0
571,57100,2026-01-08 12:28:42,5.0778538,5,7.775,3.802798,-3.35541,1.11847,24.2,1.8,-3.2,1024,1024,1024,1024,0,0,0,0,95,4.464,64.22,104.98688,P-GPS,,32.0
572,57200,2026-01-08 12:28:42,5.0778538,5,7.775,3.579104,-3.131716,1.342164,24.1,1.9,-3.3,1024,1024,1024,1024,0,0,0,0,95,4.464,64.22,105.314964,P-GPS,,32.1
573,57300,2026-01-08 12:28:42,5.2344396,5,7.775,4.026492,-3.35541,1.342164,24.2,1.8,-3.2,1024,1024,1024,1024,0,0,0,0,95,4.464,64.22,105.314964,P-GPS,,32.1
574,57400,2026-01-08 12:28:42,4.921268,5,7.775,3.802798,-3.131716,1.342164,24.1,2.6,-2.2,1024,1024,1024,1024,0,0,0,0,95,4.464,64.22,105.314964,P-GPS,,32.1
575,57500,2026-01-08 12:28:42,4.921268,5,7.775,3.802798,-3.35541,1.342164,24.1,1.9,-2.9,1024,1024,1024,1024,0,0,0,0,95,4.464,64.22,105.643048,P-GPS,,32.2
576,57600,2026-01-08 12:28:43,3.802798,5,7.775,2.908022,-2.460634,1.342164,23.9,1.5,-4.0,1024,1024,1024,1024,0,0,0,0,95,4.464,64.22,105.643048,P-GPS,,32.2
577,57700,2026-01-08 12:28:43,4.1159696,5,7.775,3.131716,-2.684328,1.342164,24.0,0.2,-5.4,1024,1024,1024,1024,0,0,0,0,95,4.464,64.22,105.643048,P-GPS,,32.2
578,57800,2026-01-08 12:28:43,3.9593838,5,7.807,2.908022,-2.684328,1.342164,24.2,-0.1,-4.8,1024,1024,1024,1024,0,0,0,0,95,4.037,64.58,105.643048,P-GPS,,32.2
579,57900,2026-01-08 12:28:43,4.1159696,5,7.807,3.131716,-2.684328,1.11847,24.2,-0.2,-5.6,1024,1024,1024,1024,0,0,0,0,95,4.037,64.58,105.643048,P-GPS,,32.2
580,58000,2026-01-08 12:28:43,4.1159696,5,7.807,3.131716,-2.684328,1.342164,24.3,-0.3,-5.7,1024,1024,1024,1024,0,0,0,0,95,4.037,64.58,105.643048,P-GPS,,32.2
581,58100,2026-01-08 12:28:43,4.4291412,5,7.807,3.35541,-2.908022,1.342164,24.2,-0.4,-5.7,1024,1024,1024,1024,0,0,0,0,95,4.037,64.58,105.643048,P-GPS,,32.2
582,58200,2026-01-08 12:28:43,4.6080964,5,7.807,3.579104,-2.908022,1.342164,24.1,0.2,-4.8,1024,1024,1024,1024,0,0,0,0,95,4.037,64.58,105.314964,P-GPS,,32.1
583,58300,2026-01-08 12:28:43,4.7646822,5,7.807,3.579104,-3.131716,1.342164,24.0,0.3,-5.0,1024,1024,1024,1024,0,0,0,0,95,4.037,64.58,105.314964,P-GPS,,32.1
584,58400,2026-01-08 12:28:43,4.7646822,5,7.807,3.579104,-3.131716,1.342164,24.1,0.9,-4.9,1024,1024,1024,1024,0,0,0,0,95,4.037,64.58,104.98688,P-GPS,,32.0
585,58500,2026-01-08 12:28:44,5.0778538,5,7.807,3.802798,-3.35541,1.342164,23.9,1.2,-4.6,1024,1024,1024,1024,0,0,0,0,95,4.037,64.58,104.98688,P-GPS,,32.0
586,58600,2026-01-08 12:28:44,5.2344396,5,7.807,4.026492,-3.35541,1.342164,23.7,2.0,-2.9,1024,1024,1024,1024,0,0,0,0,95,4.037,64.58,104.658796,P-GPS,,31.9
587,58700,2026-01-08 12:28:44,5.5476112,5,7.807,4.250186,-3.579104,1.342164,23.7,4.4,1.3,1024,1024,1024,1024,0,0,0,0,95,4.037,64.58,104.330712,P-GPS,,31.8
588,58800,2026-01-08 12:28:44,5.2344396,5,7.807,4.026492,-3.35541,1.342164,23.9,4.3,1.5,1024,1024,1024,1024,0,0,0,0,95,4.037,64.58,104.330712,P-GPS,,31.8
589,58900,2026-01-08 12:28:44,5.2344396,5,7.82,4.026492,-3.35541,1.11847,23.9,6.4,4.2,1024,1024,1024,1024,0,0,0,0,95,4.123,64.58,104.330712,P-GPS,,31.8
590,59000,2026-01-08 12:28:44,4.921268,5,7.82,3.802798,-3.131716,1.11847,23.9,7.2,4.9,1024,1024,1024,1024,0,0,0,0,95,4.123,64.58,104.330712,P-GPS,,31.8
591,59100,2026-01-08 12:28:44,4.7646822,5,7.82,3.579104,-3.131716,0.894776,24.0,7.6,6.0,1024,1024,1024,1024,0,0,0,0,95,4.123,64.58,104.330712,P-GPS,,31.8
592,59200,2026-01-08 12:28:44,4.4291412,5,7.82,3.35541,-2.908022,0.894776,24.0,7.8,4.0,1024,1024,1024,1024,0,0,0,0,95,4.123,64.58,104.330712,P-GPS,,31.8
593,59300,2026-01-08 12:28:44,4.2725554,5,7.82,3.131716,-2.908022,0.894776,24.0,7.0,5.2,1024,1024,1024,1024,0,0,0,0,95,4.123,64.58,104.330712,P-GPS,,31.8
594,59400,2026-01-08 12:28:44,3.9593838,5,7.82,2.908022,-2.684328,0.671082,24.2,7.1,6.8,1024,1024,1024,1024,0,0,0,0,95,4.123,64.58,104.330712,P-GPS,,31.8
595,59500,2026-01-08 12:28:44,3.802798,5,7.82,2.684328,-2.684328,0.671082,24.4,7.3,7.6,1024,1024,1024,1024,0,0,0,0,95,4.123,64.58,104.330712,P-GPS,,31.8
596,59600,2026-01-08 12:28:45,3.4896264,5,7.82,2.460634,-2.460634,0.671082,24.4,6.9,6.9,1024,1024,1024,1024,0,0,0,0,95,4.123,64.58,104.330712,P-GPS,,31.8
597,59700,2026-01-08 12:28:45,3.3330406,5,7.82,2.460634,-2.23694,0.671082,24.3,7.3,7.5,1024,1024,1024,1024,0,0,0,0,95,4.123,64.58,104.658796,P-GPS,,31.9
598,59800,2026-01-08 12:28:45,3.1540854,5,7.82,2.23694,-2.23694,0.671082,24.0,7.3,8.0,1024,1024,1024,1024,0,0,0,0,95,4.123,64.58,104.658796,P-GPS,,31.9
599,59900,2026-01-08 12:28:45,2.684328,5,7.82,2.013246,-1.789552,0.671082,24.1,7.4,7.8,1024,1024,1024,1024,0,0,0,0,95,4.123,64.58,104.658796,P-GPS,,31.9
600,60000,2026-01-08 12:28:45,2.684328,5,7.801,2.013246,-1.789552,0.671082,24.5,7.4,7.8,1024,1024,1024,1024,0,0,0,0,95,4.467,64.76,104.658796,P-GPS,,31.9
601,60100,2026-01-08 12:28:45,2.3711564,5,7.801,1.789552,-1.565858,0.671082,24.4,7.1,6.8,1024,1024,1024,1024,0,0,0,0,95,4.467,64.76,104.658796,P-GPS,,31.9
602,60200,2026-01-08 12:28:45,2.0579848,5,7.801,1.565858,-1.342164,0.671082,24.1,6.0,6.0,1024,1024,1024,1024,0,0,0,0,95,4.467,64.76,104.658796,P-GPS,,31.9
603,60300,2026-01-08 12:28:45,1.901399,5,7.801,1.342164,-1.342164,0.671082,24.1,6.2,6.3,1024,1024,1024,1024,0,0,0,0,95,4.467,64.76,104.658796,P-GPS,,31.9
604,60400,2026-01-08 12:28:45,1.901399,5,7.801,1.342164,-1.342164,0.671082,24.0,6.0,6.2,1024,1024,1024,1024,0,0,0,0,95,4.467,64.76,104.658796,P-GPS,,31.9
605,60500,2026-01-08 12:28:45,1.901399,5,7.801,1.11847,-1.11847,0.671082,24.0,3.9,5.9,1024,1024,1024,1024,0,0,0,0,95,4.467,64.76,104.658796,P-GPS,,31.9
606,60600,2026-01-08 12:28:46,1.5882274,5,7.801,1.11847,-1.11847,0.447388,24.3,4.9,6.2,1024,1024,1024,1024,0,0,0,0,95,4.467,64.76,104.330712,P-GPS,,31.8
607,60700,2026-01-08 12:28:46,1.4316416,5,7.801,1.11847,-0.894776,0.671082,24.4,5.3,6.7,1024,1024,1024,1024,0,0,0,0,95,4.467,64.76,104.330712,P-GPS,,31.8
608,60800,2026-01-08 12:28:46,1.4316416,5,7.801,0.894776,-0.894776,0.447388,24.5,5.4,6.1,1024,1024,1024,1024,0,0,0,0,95,4.467,64.76,104.002628,P-GPS,SD card speed low SD card speed low. Normal use may be affected. Replace SD card (Code: 10028). Gimbal stuck. Make sure gimbal cover is removed and manually check whether gimbal can rotate freely (Code: 40002),31.7
609,60900,2026-01-08 12:28:46,1.2750558,5,7.801,0.894776,-0.894776,0.671082,24.3,5.3,4.8,1024,1024,1024,1024,0,0,0,0,95,4.467,64.76,104.002628,P-GPS,,31.7
610,61000,2026-01-08 12:28:46,1.11847,5,7.801,0.671082,-0.894776,0.671082,24.4,4.6,5.4,1024,1024,1024,1024,0,0,0,0,95,4.467,64.76,103.674544,P-GPS,,31.6
611,61100,2026-01-08 12:28:46,1.11847,5,7.82,0.671082,-0.894776,0.671082,24.5,4.7,4.9,1024,1024,1024,1024,0,0,0,0,95,4.211,64.76,103.674544,P-GPS,,31.6
612,61200,2026-01-08 12:28:46,0.9395148,5,7.82,0.671082,-0.671082,0.447388,24.3,4.7,6.2,1024,1024,1024,1024,0,0,0,0,95,4.211,64.76,103.34646,P-GPS,,31.5
613,61300,2026-01-08 12:28:46,0.9395148,5,7.82,0.671082,-0.671082,0.447388,24.5,4.6,5.8,1024,1024,1024,1024,0,0,0,0,95,4.211,64.76,103.34646,P-GPS,,31.5
614,61400,2026-01-08 12:28:46,0.6263432,5,7.82,0.447388,-0.447388,0.447388,24.5,5.2,5.5,1024,1024,1024,1024,0,0,0,0,95,4.211,64.76,103.34646,P-GPS,,31.5
615,61500,2026-01-08 12:28:46,0.4921268,5,7.82,0.447388,-0.223694,0.447388,24.2,5.7,4.8,1024,1024,1024,1024,0,0,0,0,95,4.211,64.76,103.34646,P-GPS,,31.5
616,61600,2026-01-08 12:28:47,0.4921268,5,7.82,0.447388,-0.223694,0.447388,24.0,5.3,3.3,1024,1024,1024,1024,0,0,0,0,95,4.211,64.76,103.018376,P-GPS,,31.4
617,61700,2026-01-08 12:28:47,0.3131716,5,7.82,0.223694,-0.223694,0.223694,23.8,5.4,2.5,1024,1024,1024,1024,0,0,0,0,95,4.211,64.76,103.018376,P-GPS,,31.4
618,61800,2026-01-08 12:28:47,0.3131716,5,7.82,0.223694,-0.223694,0.223694,23.6,4.9,1.6,1024,1024,1024,1024,0,0,0,0,95,4.211,64.76,103.018376,P-GPS,,31.4
619,61900,2026-01-08 12:28:47,0.3131716,5,7.82,0.223694,-0.223694,0.223694,23.8,4.8,2.4,1024,1024,1024,1024,0,0,0,0,95,4.211,64.76,102.690292,P-GPS,,31.3
620,62000,2026-01-08 12:28:47,0.4921268,5,7.82,0.447388,-0.223694,0.223694,23.9,5.5,2.7,1024,1024,1024,1024,0,0,0,0,95,4.211,64.76,102.690292,P-GPS,,31.3
621,62100,2026-01-08 12:28:47,0.4921268,5,7.82,0.447388,-0.223694,0.223694,23.9,5.6,3.5,1024,1024,1024,1024,0,0,0,0,95,4.211,64.76,102.362208,P-GPS,,31.2
622,62200,2026-01-08 12:28:47,0.3131716,5,7.804,0.223694,-0.223694,0.223694,23.9,4.8,3.6,1024,1024,1024,1024,0,0,0,0,95,4.384,64.76,102.362208,P-GPS,,31.2
623,62300,2026-01-08 12:28:47,0.3131716,5,7.804,0.223694,-0.223694,0.223694,24.1,5.7,4.0,1024,1024,1024,1024,0,0,0,0,95,4.384,64.76,102.034124,P-GPS,,31.1
624,62400,2026-01-08 12:28:47,0.4921268,5,7.804,0.447388,-0.223694,0.223694,24.0,6.3,3.8,1024,1024,1024,1024,0,0,0,0,95,4.384,64.76,102.034124,P-GPS,,31.1
625,62500,2026-01-08 12:28:48,0.3131716,5,7.804,0.223694,-0.223694,0.0,24.0,6.2,4.0,1024,1024,1024,1024,0,0,0,0,95,4.384,64.76,102.034124,P-GPS,,31.1
626,62600,2026-01-08 12:28:48,0.3131716,5,7.804,0.223694,-0.223694,0.0,24.1,6.4,4.8,1024,1024,1024,1024,0,0,0,0,95,4.384,64.76,101.70604,P-GPS,,31.0
627,62700,2026-01-08 12:28:48,0.3131716,5,7.804,0.223694,-0.223694,0.0,24.1,6.6,4.7,1024,1024,1024,1024,0,0,0,0,95,4.384,64.76,101.70604,P-GPS,,31.0
628,62800,2026-01-08 12:28:48,0.3131716,5,7.804,0.223694,-0.223694,0.0,24.0,6.5,4.5,1024,1024,1024,1024,0,0,0,0,95,4.384,64.76,101.70604,P-GPS,,31.0
629,62900,2026-01-08 12:28:48,0.223694,5,7.804,0.223694,0.0,0.0,24.0,6.1,4.5,1024,1024,1024,1024,0,0,0,0,95,4.384,64.76,101.70604,P-GPS,,31.0
630,63000,2026-01-08 12:28:48,0.223694,5,7.804,0.223694,0.0,0.0,24.0,5.7,4.3,1024,1024,1024,1024,0,0,0,0,95,4.384,64.76,101.377956,P-GPS,,30.9
631,63100,2026-01-08 12:28:48,0.223694,5,7.804,0.0,0.0,0.0,24.0,6.0,4.3,1024,1024,1024,1024,0,0,0,0,95,4.384,64.76,101.377956,P-GPS,,30.9
632,63200,2026-01-08 12:28:48,0.0,5,7.804,0.0,0.0,0.0,24.0,5.8,4.2,1024,1024,1024,1024,0,0,0,0,95,4.384,64.76,101.049872,P-GPS,,30.8
633,63300,2026-01-08 12:28:48,0.0,5,7.792,0.0,0.0,0.0,24.0,6.4,3.5,1024,1024,1024,1024,0,0,0,0,95,4.51,64.94,101.049872,P-GPS,,30.8
634,63400,2026-01-08 12:28:48,0.223694,5,7.792,0.0,-0.223694,0.0,24.1,5.8,4.2,1024,1024,1024,1024,0,0,0,0,95,4.51,64.94,100.721788,P-GPS,,30.7
635,63500,2026-01-08 12:28:48,0.223694,5,7.792,0.0,-0.223694,0.0,24.2,5.2,4.3,1024,1024,1024,1024,0,0,0,0,95,4.51,64.94,100.721788,P-GPS,,30.7
636,63600,2026-01-08 12:28:49,0.223694,5,7.792,0.0,-0.223694,0.0,24.2,4.8,4.6,1024,1024,1024,1024,0,0,0,0,95,4.51,64.94,100.721788,P-GPS,,30.7
637,63700,2026-01-08 12:28:49,0.223694,5,7.792,0.0,-0.223694,0.0,24.3,4.3,4.9,1024,1024,1024,1024,0,0,0,0,95,4.51,64.94,100.721788,P-GPS,,30.7
638,63800,2026-01-08 12:28:49,0.223694,5,7.792,0.0,-0.223694,0.0,24.2,2.9,4.9,1024,1024,1024,1024,0,0,0,0,95,4.51,64.94,100.393704,P-GPS,,30.6
639,63900,2026-01-08 12:28:49,0.223694,5,7.792,0.0,-0.223694,0.0,24.2,3.0,5.0,1024,1024,1024,1024,0,0,0,0,95,4.51,64.94,100.393704,P-GPS,,30.6
640,64000,2026-01-08 12:28:49,0.223694,5,7.792,0.0,-0.223694,-0.223694,24.2,3.7,5.3,1024,1024,1024,1024,0,0,0,0,95,4.51,64.94,100.393704,P-GPS,,30.6
641,64100,2026-01-08 12:28:49,0.0,5,7.792,0.0,0.0,-0.223694,24.3,3.0,5.7,1024,1024,1024,1024,0,0,0,0,95,4.51,64.94,100.393704,P-GPS,,30.6
642,64200,2026-01-08 12:28:49,0.0,5,7.792,0.0,0.0,-0.223694,24.3,3.1,5.4,1024,1024,1024,1024,0,0,0,0,95,4.51,64.94,100.393704,P-GPS,,30.6
643,64300,2026-01-08 12:28:49,0.0,5,7.792,0.0,0.0,-0.223694,24.4,3.9,5.7,1024,1024,1024,1024,0,0,0,0,95,4.51,64.94,100.06562,P-GPS,,30.5
644,64400,2026-01-08 12:28:49,0.0,5,7.795,0.0,0.0,-0.223694,24.6,4.2,5.7,1024,1024,1024,1024,0,0,0,0,95,4.476,64.94,100.06562,P-GPS,,30.5
645,64500,2026-01-08 12:28:50,0.0,5,7.795,0.0,0.0,-0.223694,24.6,4.5,6.1,1024,1024,1024,1024,0,0,0,0,95,4.476,64.94,100.06562,P-GPS,,30.5
646,64600,2026-01-08 12:28:50,0.0,5,7.795,0.0,0.0,-0.223694,24.5,5.1,5.6,1024,1024,1024,1024,0,0,0,0,95,4.476,64.94,99.737536,P-GPS,,30.4
647,64700,2026-01-08 12:28:50,0.0,5,7.795,0.0,0.0,0.0,24.5,5.3,5.7,1024,1024,1024,1024,0,0,0,0,95,4.476,64.94,99.737536,P-GPS,,30.4
648,64800,2026-01-08 12:28:50,0.0,5,7.795,0.0,0.0,-0.223694,24.4,5.4,5.4,1024,1024,1024,1024,0,0,0,0,95,4.476,64.94,99.737536,P-GPS,,30.4
649,64900,2026-01-08 12:28:50,0.0,5,7.795,0.0,0.0,-0.223694,24.4,5.7,5.6,1024,1024,1024,1024,0,0,0,0,95,4.476,64.94,99.737536,P-GPS,,30.4
650,65000,2026-01-08 12:28:50,0.0,5,7.795,0.0,0.0,-0.223694,24.5,5.9,5.7,1024,1024,1024,1024,0,0,0,0,95,4.476,64.94,99.737536,P-GPS,,30.4
651,65100,2026-01-08 12:28:50,0.0,5,7.795,0.0,0.0,-0.223694,24.5,6.1,5.5,1024,1024,1024,1024,0,0,0,0,95,4.476,64.94,99.737536,P-GPS,,30.4
652,65200,2026-01-08 12:28:50,0.0,5,7.795,0.0,0.0,-0.223694,24.5,5.7,5.9,1024,1024,1024,1024,0,0,0,0,95,4.476,64.94,99.409452,P-GPS,,30.3
653,65300,2026-01-08 12:28:50,0.0,5,7.795,0.0,0.0,-0.223694,24.5,5.6,5.8,1024,1024,1024,1024,0,0,0,0,95,4.476,64.94,99.409452,P-GPS,,30.3
654,65400,2026-01-08 12:28:50,0.0,5,7.795,0.0,0.0,-0.223694,24.4,5.8,6.0,1024,1024,1024,1024,0,0,0,0,95,4.476,64.94,99.409452,P-GPS,,30.3
655,65500,2026-01-08 12:28:50,0.0,5,7.817,0.0,0.0,-0.223694,24.4,6.9,5.6,1024,1024,1024,1024,0,0,0,0,94,4.219,64.94,99.409452,P-GPS,,30.3
656,65600,2026-01-08 12:28:51,0.0,5,7.817,0.0,0.0,-0.223694,24.5,7.3,5.7,1024,1024,1024,1024,0,0,0,0,94,4.219,64.94,99.081368,P-GPS,,30.2
657,65700,2026-01-08 12:28:51,0.0,5,7.817,0.0,0.0,-0.223694,24.6,6.4,5.8,1024,1024,1024,1024,0,0,0,0,94,4.219,64.94,99.081368,P-GPS,,30.2
658,65800,2026-01-08 12:28:51,0.0,5,7.817,0.0,0.0,-0.223694,24.5,6.3,6.9,1024,1024,1024,1024,0,0,0,0,94,4.219,64.94,99.081368,P-GPS,,30.2
659,65900,2026-01-08 12:28:51,0.0,5,7.817,0.0,0.0,-0.223694,24.2,5.9,6.2,1024,1024,1024,1024,0,0,0,0,94,4.219,64.94,99.081368,P-GPS,,30.2
660,66000,2026-01-08 12:28:51,0.0,5,7.817,0.0,0.0,-0.223694,24.3,5.8,6.2,1024,1024,1024,1024,0,0,0,0,94,4.219,64.94,98.753284,P-GPS,,30.1
661,66100,2026-01-08 12:28:51,0.0,5,7.817,0.0,0.0,-0.447388,24.3,5.3,5.9,1024,1024,1024,1024,0,0,0,0,94,4.219,64.94,98.753284,P-GPS,,30.1
662,66200,2026-01-08 12:28:51,0.0,5,7.817,0.0,0.0,-0.447388,24.3,5.4,6.1,1024,1024,1024,1024,0,0,0,0,94,4.219,64.94,98.4252,P-GPS,,30.0
663,66300,2026-01-08 12:28:51,0.0,5,7.817,0.0,0.0,-0.223694,24.2,5.0,5.7,1024,1024,1024,1024,0,0,0,0,94,4.219,64.94,98.4252,P-GPS,,30.0
664,66400,2026-01-08 12:28:51,0.0,5,7.817,0.0,0.0,-0.223694,24.2,4.7,6.1,1024,1024,1024,1024,0,0,0,0,94,4.219,64.94,98.4252,P-GPS,,30.0
665,66500,2026-01-08 12:28:51,0.0,5,7.817,0.0,0.0,-0.223694,24.3,5.3,6.2,1024,1024,1024,1024,0,0,0,0,94,4.219,64.94,98.097116,P-GPS,,29.9
666,66600,2026-01-08 12:28:52,0.0,5,7.817,0.0,0.0,-0.223694,24.3,5.0,5.9,1024,1024,1024,1024,0,0,0,0,94,4.219,64.94,98.097116,P-GPS,,29.9
667,66700,2026-01-08 12:28:52,0.0,5,7.817,0.0,0.0,-0.223694,24.4,4.8,6.1,1024,1024,1024,1024,0,0,0,0,94,4.219,64.94,97.769032,P-GPS,,29.8
668,66800,2026-01-08 12:28:52,0.0,5,7.817,0.0,0.0,-0.223694,24.3,4.7,5.6,1024,1024,1024,1024,0,0,0,0,94,4.219,64.94,97.769032,P-GPS,,29.8
669,66900,2026-01-08 12:28:52,0.0,5,7.817,0.0,0.0,-0.447388,24.6,4.6,6.3,1024,1024,1024,1024,0,0,0,0,94,4.219,64.94,97.769032,P-GPS,,29.8
670,67000,2026-01-08 12:28:52,0.0,5,7.817,0.0,0.0,-0.447388,24.6,4.3,5.8,1024,1024,1024,1024,0,0,0,0,94,4.219,64.94,97.440948,P-GPS,,29.7
671,67100,2026-01-08 12:28:52,0.0,5,7.817,0.0,0.0,-0.447388,24.7,4.5,6.5,1024,1024,1024,1024,0,0,0,0,94,4.219,64.94,97.440948,P-GPS,,29.7
672,67200,2026-01-08 12:28:52,0.0,5,7.817,0.0,0.0,-0.447388,24.4,4.8,5.5,1024,1024,1024,1024,0,0,0,0,94,4.219,64.94,97.440948,P-GPS,,29.7
673,67300,2026-01-08 12:28:52,0.0,5,7.817,0.0,0.0,-0.447388,24.3,4.9,5.9,1024,1024,1024,1024,0,0,0,0,94,4.219,64.94,97.112864,P-GPS,,29.6
674,67400,2026-01-08 12:28:52,0.0,5,7.817,0.0,0.0,-0.447388,24.3,5.5,5.8,1024,1024,1024,1024,0,0,0,0,94,4.219,64.94,97.112864,P-GPS,,29.6
675,67500,2026-01-08 12:28:53,0.0,5,7.817,0.0,0.0,-0.447388,24.3,5.4,5.8,1024,1024,1024,1024,0,0,0,0,94,4.219,64.94,97.112864,P-GPS,,29.6
676,67600,2026-01-08 12:28:53,0.0,5,7.818,0.0,0.0,-0.447388,24.2,6.0,5.5,1024,1024,1024,1024,0,0,0,0,94,4.253,64.94,96.78478,P-GPS,,29.5
677,67700,2026-01-08 12:28:53,0.0,5,7.818,0.0,0.0,-0.447388,24.3,6.5,5.8,1024,1024,1024,1024,0,0,0,0,94,4.253,64.94,96.78478,P-GPS,,29.5
678,67800,2026-01-08 12:28:53,0.0,5,7.818,0.0,0.0,-0.447388,24.2,6.2,5.7,1024,1024,1024,1024,0,0,0,0,94,4.253,64.94,96.78478,P-GPS,,29.5
679,67900,2026-01-08 12:28:53,0.0,5,7.818,0.0,0.0,-0.447388,24.2,6.3,5.4,1024,1024,1024,1024,0,0,0,0,94,4.253,64.94,96.78478,P-GPS,,29.5
680,68000,2026-01-08 12:28:53,0.0,5,7.818,0.0,0.0,-0.447388,24.2,6.7,5.4,1024,1024,1024,1024,0,0,0,0,94,4.253,64.94,97.112864,P-GPS,,29.6
681,68100,2026-01-08 12:28:53,0.0,5,7.818,0.0,0.0,-0.447388,24.3,6.8,6.0,1024,1024,1024,1024,0,0,0,0,94,4.253,64.94,97.112864,P-GPS,,29.6
682,68200,2026-01-08 12:28:53,0.0,5,7.818,0.0,0.0,-0.447388,24.2,6.8,6.0,1024,1024,1024,1024,0,0,0,0,94,4.253,64.94,97.112864,P-GPS,,29.6
683,68300,2026-01-08 12:28:53,0.0,5,7.818,0.0,0.0,-0.447388,24.2,6.8,5.9,1024,1024,1024,1024,0,0,0,0,94,4.253,64.94,97.112864,P-GPS,,29.6
684,68400,2026-01-08 12:28:53,0.0,5,7.818,0.0,0.0,-0.447388,24.1,6.7,5.7,1024,1024,1024,1024,0,0,0,0,94,4.253,64.94,97.440948,P-GPS,,29.7
685,68500,2026-01-08 12:28:53,0.0,5,7.818,0.0,0.0,-0.447388,24.2,6.8,5.7,1024,1024,1024,1024,0,0,0,0,94,4.253,64.94,97.440948,P-GPS,,29.7
686,68600,2026-01-08 12:28:54,0.0,5,7.818,0.0,0.0,-0.447388,24.1,7.4,5.8,1024,1024,1024,1024,0,0,0,0,94,4.253,64.94,97.440948,P-GPS,,29.7
687,68700,2026-01-08 12:28:54,0.0,5,7.818,0.0,0.0,-0.447388,24.0,7.1,5.4,1024,1024,1024,1024,0,0,0,0,94,4.253,64.94,97.440948,P-GPS,,29.7
688,68800,2026-01-08 12:28:54,0.0,5,7.811,0.0,0.0,-0.447388,24.1,7.5,5.7,1024,1024,1024,1024,0,0,0,0,94,4.244,64.94,97.440948,P-GPS,,29.7
689,68900,2026-01-08 12:28:54,0.0,5,7.811,0.0,0.0,-0.223694,24.1,8.0,5.9,1024,1024,1024,1024,0,0,0,0,94,4.244,64.94,97.440948,P-GPS,,29.7
690,69000,2026-01-08 12:28:54,0.0,5,7.811,0.0,0.0,-0.223694,24.1,8.3,6.2,1024,1024,1024,1024,0,0,0,0,94,4.244,64.94,97.440948,P-GPS,,29.7
691,69100,2026-01-08 12:28:54,0.0,5,7.811,0.0,0.0,-0.223694,24.2,7.4,5.6,1024,1024,1024,1024,0,0,0,0,94,4.244,64.94,97.440948,P-GPS,,29.7
692,69200,2026-01-08 12:28:54,0.0,5,7.811,0.0,0.0,-0.223694,24.4,7.7,5.9,1024,1024,1024,1024,0,0,0,0,94,4.244,64.94,97.440948,P-GPS,,29.7
693,69300,2026-01-08 12:28:54,0.0,5,7.811,0.0,0.0,-0.223694,24.2,7.3,5.9,1024,1024,1024,1024,0,0,0,0,94,4.244,64.94,97.440948,P-GPS,,29.7
694,69400,2026-01-08 12:28:54,0.0,5,7.811,0.0,0.0,-0.223694,24.1,7.4,6.0,1024,1024,1024,1024,0,0,0,0,94,4.244,64.94,97.440948,P-GPS,,29.7
695,69500,2026-01-08 12:28:54,0.0,5,7.811,0.0,0.0,-0.223694,24.0,7.1,5.4,1024,1024,1024,1024,0,0,0,0,94,4.244,64.94,97.440948,P-GPS,,29.7
696,69600,2026-01-08 12:28:55,0.223694,5,7.811,0.0,0.223694,-0.223694,23.9,7.2,4.8,1024,1024,1024,1024,0,0,0,0,94,4.244,64.94,97.440948,P-GPS,,29.7
697,69700,2026-01-08 12:28:55,0.223694,5,7.811,0.0,0.223694,-0.223694,23.8,7.2,4.5,1024,1024,1024,1024,0,0,0,0,94,4.244,64.94,97.440948,P-GPS,,29.7
698,69800,2026-01-08 12:28:55,0.0,5,7.811,0.0,0.0,-0.223694,23.8,7.5,4.7,1024,1024,1024,1024,0,0,0,0,94,4.244,64.94,97.112864,P-GPS,,29.6
699,69900,2026-01-08 12:28:55,0.0,5,7.813,0.0,0.0,-0.447388,23.8,7.0,5.2,1024,1024,1024,1024,0,0,0,0,94,4.345,65.12,97.112864,P-GPS,,29.6
700,70000,2026-01-08 12:28:55,0.0,5,7.813,0.0,0.0,-0.447388,23.9,8.3,5.3,1024,1024,1024,1024,0,0,0,0,94,4.345,65.12,96.78478,P-GPS,,29.5
701,70100,2026-01-08 12:28:55,0.0,5,7.813,0.0,0.0,-0.223694,23.9,8.6,5.5,1024,1024,1024,1024,0,0,0,0,94,4.345,65.12,96.78478,P-GPS,,29.5
702,70200,2026-01-08 12:28:55,0.0,5,7.813,0.0,0.0,-0.223694,23.9,8.4,5.5,1024,1024,1024,1024,0,0,0,0,94,4.345,65.12,96.78478,P-GPS,,29.5
703,70300,2026-01-08 12:28:55,0.0,5,7.813,0.0,0.0,-0.223694,24.1,8.8,5.8,1024,1024,1024,1024,0,0,0,0,94,4.345,65.12,96.456696,P-GPS,,29.4
704,70400,2026-01-08 12:28:55,0.0,5,7.813,0.0,0.0,-0.223694,24.0,8.8,5.0,1024,1024,1024,1024,0,0,0,0,94,4.345,65.12,96.456696,P-GPS,,29.4
705,70500,2026-01-08 12:28:55,0.223694,5,7.813,-0.223694,0.0,-0.223694,24.0,8.0,3.8,1024,1024,1024,1024,0,0,0,0,94,4.345,65.12,96.456696,P-GPS,,29.4
706,70600,2026-01-08 12:28:56,0.223694,5,7.813,-0.223694,0.0,-0.447388,23.9,6.6,3.7,1024,1024,1024,1024,0,0,0,0,94,4.345,65.12,96.456696,P-GPS,,29.4
707,70700,2026-01-08 12:28:56,0.223694,5,7.813,-0.223694,0.0,-0.671082,24.0,6.2,4.5,1024,1024,1024,1024,0,0,0,0,94,4.345,65.12,96.456696,P-GPS,,29.4
708,70800,2026-01-08 12:28:56,0.0,5,7.813,0.0,0.0,-0.671082,24.2,7.1,4.8,1024,1024,1024,1024,0,0,0,0,94,4.345,65.12,96.456696,P-GPS,,29.4
709,70900,2026-01-08 12:28:56,0.223694,5,7.813,-0.223694,0.0,-0.447388,24.4,6.9,4.9,1024,1024,1024,1024,0,0,0,0,94,4.345,65.12,96.456696,P-GPS,,29.4
710,71000,2026-01-08 12:28:56,0.0,5,7.815,0.0,0.0,-0.447388,24.4,6.6,5.5,1024,1024,1024,1024,0,0,0,0,94,4.344,65.12,96.456696,P-GPS,,29.4
711,71100,2026-01-08 12:28:56,0.0,5,7.815,0.0,0.0,-0.447388,24.5,7.9,6.4,1024,1024,1024,1024,0,0,0,0,94,4.344,65.12,96.456696,P-GPS,,29.4
712,71200,2026-01-08 12:28:56,0.0,5,7.815,0.0,0.0,-0.223694,24.2,7.9,6.2,1024,1024,1024,1024,0,0,0,0,94,4.344,65.12,96.78478,P-GPS,,29.5
713,71300,2026-01-08 12:28:56,0.0,5,7.815,0.0,0.0,-0.223694,24.2,8.0,6.0,1024,1024,1024,1024,0,0,0,0,94,4.344,65.12,96.78478,P-GPS,,29.5
714,71400,2026-01-08 12:28:56,0.223694,5,7.815,-0.223694,0.0,-0.223694,24.2,7.9,5.5,1024,1024,1024,1024,0,0,0,0,94,4.344,65.12,96.78478,P-GPS,,29.5
715,71500,2026-01-08 12:28:57,0.223694,5,7.815,-0.223694,0.0,-0.223694,24.1,6.6,5.5,1024,1024,1024,1024,0,0,0,0,94,4.344,65.12,97.112864,P-GPS,,29.6
716,71600,2026-01-08 12:28:57,0.223694,5,7.815,0.0,0.0,-0.447388,24.1,6.9,5.3,1024,1024,1024,1024,0,0,0,0,94,4.344,65.12,97.112864,P-GPS,,29.6
717,71700,2026-01-08 12:28:57,0.223694,5,7.815,-0.223694,0.0,-0.447388,24.2,7.0,4.9,1024,1024,1024,1024,0,0,0,0,94,4.344,65.12,97.112864,P-GPS,,29.6
718,71800,2026-01-08 12:28:57,0.0,5,7.815,0.0,0.0,-0.447388,24.1,7.0,4.6,1024,1024,1024,1024,0,0,0,0,94,4.344,65.12,97.112864,P-GPS,,29.6
719,71900,2026-01-08 12:28:57,0.0,5,7.815,0.0,0.0,-0.447388,24.3,7.2,4.5,1024,1024,1024,1024,0,0,0,0,94,4.344,65.12,97.112864,P-GPS,,29.6
720,72000,2026-01-08 12:28:57,0.0,5,7.815,0.0,0.0,-0.223694,24.3,8.0,4.8,1024,1024,1024,1024,0,0,0,0,94,4.344,65.12,97.440948,P-GPS,,29.7
721,72100,2026-01-08 12:28:57,0.0,5,7.806,0.0,0.0,-0.223694,24.3,7.8,4.9,1024,1024,1024,1024,0,0,0,0,94,4.537,65.12,97.440948,P-GPS,,29.7
722,72200,2026-01-08 12:28:57,0.0,5,7.806,0.0,0.0,-0.223694,24.2,7.7,5.2,1024,1024,1024,1024,0,0,0,0,94,4.537,65.12,97.440948,P-GPS,,29.7
723,72300,2026-01-08 12:28:57,0.0,5,7.806,0.0,0.0,-0.223694,24.1,7.6,4.7,1024,1024,1024,1024,0,0,0,0,94,4.537,65.12,97.440948,P-GPS,,29.7
724,72400,2026-01-08 12:28:57,0.0,5,7.806,0.0,0.0,-0.223694,24.1,7.6,5.5,1024,1024,1024,1024,0,0,0,0,94,4.537,65.12,97.769032,P-GPS,,29.8
725,72500,2026-01-08 12:28:58,0.0,5,7.806,0.0,0.0,-0.223694,24.1,7.1,5.4,1024,1024,1024,1024,0,0,0,0,94,4.537,65.12,97.769032,P-GPS,,29.8
726,72600,2026-01-08 12:28:58,0.0,5,7.806,0.0,0.0,-0.223694,24.3,7.2,5.7,1024,1024,1024,1024,0,0,0,0,94,4.537,65.12,97.769032,P-GPS,,29.8
727,72700,2026-01-08 12:28:58,0.0,5,7.806,0.0,0.0,-0.223694,24.3,7.4,5.7,1024,1024,1024,1024,0,0,0,0,94,4.537,65.12,97.769032,P-GPS,,29.8
728,72800,2026-01-08 12:28:58,0.0,5,7.806,0.0,0.0,-0.223694,24.3,7.8,5.8,1024,1024,1024,1024,0,0,0,0,94,4.537,65.12,97.769032,P-GPS,,29.8
729,72900,2026-01-08 12:28:58,0.0,5,7.806,0.0,0.0,-0.223694,24.2,7.5,5.6,1024,1024,1024,1024,0,0,0,0,94,4.537,65.12,98.097116,P-GPS,,29.9
730,73000,2026-01-08 12:28:58,0.0,5,7.806,0.0,0.0,-0.223694,24.1,7.2,5.5,1024,1024,1024,1024,0,0,0,0,94,4.537,65.12,98.097116,P-GPS,,29.9
731,73100,2026-01-08 12:28:58,0.223694,5,7.806,-0.223694,0.0,-0.223694,24.1,7.2,5.3,1024,1024,1024,1024,0,0,0,0,94,4.537,65.12,98.097116,P-GPS,,29.9
732,73200,2026-01-08 12:28:58,0.0,5,7.806,0.0,0.0,-0.223694,24.2,7.8,5.3,1024,1024,1024,1024,0,0,0,0,94,4.537,65.12,98.097116,P-GPS,,29.9
733,73300,2026-01-08 12:28:58,0.0,5,7.797,0.0,0.0,-0.223694,24.1,7.2,4.9,1024,1024,1024,1024,0,0,0,0,94,4.467,65.3,98.097116,P-GPS,,29.9
734,73400,2026-01-08 12:28:58,0.223694,5,7.797,-0.223694,0.0,-0.223694,24.1,7.4,4.7,1024,1024,1024,1024,0,0,0,0,94,4.467,65.3,98.097116,P-GPS,,29.9
735,73500,2026-01-08 12:28:58,0.223694,5,7.797,-0.223694,0.223694,-0.223694,24.1,7.6,4.6,1024,1024,1024,1024,0,0,0,0,94,4.467,65.3,98.4252,P-GPS,,30.0
736,73600,2026-01-08 12:28:59,0.0,5,7.797,0.0,0.0,-0.223694,24.1,6.9,4.6,1024,1024,1024,1024,0,0,0,0,94,4.467,65.3,98.4252,P-GPS,,30.0
737,73700,2026-01-08 12:28:59,0.223694,5,7.797,-0.223694,0.0,-0.223694,24.2,6.6,4.7,1024,1024,1024,1024,0,0,0,0,94,4.467,65.3,98.4252,P-GPS,,30.0
738,73800,2026-01-08 12:28:59,0.0,5,7.797,0.0,0.0,-0.223694,24.3,7.3,4.8,1024,1024,1024,1024,0,0,0,0,94,4.467,65.3,98.4252,P-GPS,,30.0
739,73900,2026-01-08 12:28:59,0.0,5,7.797,0.0,0.0,-0.223694,24.2,7.1,4.6,1024,1024,1024,1024,0,0,0,0,94,4.467,65.3,98.4252,P-GPS,,30.0
740,74000,2026-01-08 12:28:59,0.0,5,7.797,0.0,0.0,-0.223694,24.2,6.0,4.7,1024,1024,1024,1024,0,0,0,0,94,4.467,65.3,98.4252,P-GPS,,30.0
741,74100,2026-01-08 12:28:59,0.0,5,7.797,0.0,0.0,-0.223694,24.3,6.8,5.6,1024,1024,1024,1024,0,0,0,0,94,4.467,65.3,98.4252,P-GPS,,30.0
742,74200,2026-01-08 12:28:59,0.0,5,7.797,0.0,0.0,-0.223694,24.4,7.4,5.8,1024,1024,1024,1024,0,0,0,0,94,4.467,65.3,98.753284,P-GPS,,30.1
743,74300,2026-01-08 12:28:59,0.0,5,7.797,0.0,0.0,-0.223694,24.4,7.2,5.6,1024,1024,1024,1024,0,0,0,0,94,4.467,65.3,98.753284,P-GPS,,30.1
744,74400,2026-01-08 12:28:59,0.0,5,7.8,0.0,0.0,-0.223694,24.3,7.5,5.7,1024,1024,1024,1024,0,0,0,0,94,4.481,65.48,98.753284,P-GPS,,30.1
745,74500,2026-01-08 12:29:00,0.0,5,7.8,0.0,0.0,0.0,24.4,8.1,5.8,1024,1024,1024,1024,0,0,0,0,94,4.481,65.48,98.753284,P-GPS,,30.1
746,74600,2026-01-08 12:29:00,0.0,5,7.8,0.0,0.0,0.0,24.3,7.8,5.5,1024,1024,1024,1024,0,0,0,0,94,4.481,65.48,98.753284,P-GPS,,30.1
747,74700,2026-01-08 12:29:00,0.223694,5,7.8,-0.223694,0.0,0.0,24.2,7.5,5.1,1024,1024,1024,1024,0,0,0,0,94,4.481,65.48,98.753284,P-GPS,,30.1
748,74800,2026-01-08 12:29:00,0.223694,5,7.8,-0.223694,0.0,0.0,24.2,7.7,4.9,1024,1024,1024,1024,0,0,0,0,94,4.481,65.48,98.753284,P-GPS,,30.1
749,74900,2026-01-08 12:29:00,0.223694,5,7.8,-0.223694,0.0,0.0,24.1,7.0,4.8,1024,1024,1024,1024,0,0,0,0,94,4.481,65.48,98.753284,P-GPS,,30.1
750,75000,2026-01-08 12:29:00,0.223694,5,7.8,-0.223694,0.0,0.0,24.2,7.1,4.9,1024,1024,1024,1024,0,0,0,0,94,4.481,65.48,98.753284,P-GPS,,30.1
751,75100,2026-01-08 12:29:00,0.223694,5,7.8,-0.223694,0.0,-0.223694,24.2,6.2,4.6,1024,1024,1024,1024,0,0,0,0,94,4.481,65.48,98.753284,P-GPS,,30.1
752,75200,2026-01-08 12:29:00,0.223694,5,7.8,-0.223694,0.0,-0.223694,24.2,6.5,4.7,1024,1024,1024,1024,0,0,0,0,94,4.481,65.48,99.081368,P-GPS,,30.2
753,75300,2026-01-08 12:29:00,0.223694,5,7.8,-0.223694,0.0,0.0,24.2,6.7,4.7,1024,1024,1024,1024,0,0,0,0,94,4.481,65.48,99.081368,P-GPS,,30.2
754,75400,2026-01-08 12:29:00,0.0,5,7.8,0.0,0.0,0.0,24.3,6.8,4.9,1024,1024,1024,1024,0,0,0,0,94,4.481,65.48,99.081368,P-GPS,,30.2
755,75500,2026-01-08 12:29:00,0.0,5,7.804,0.0,0.0,-0.223694,24.2,6.6,4.8,1024,1024,1024,1024,0,0,0,0,94,4.555,65.48,99.081368,P-GPS,,30.2
756,75600,2026-01-08 12:29:01,0.0,5,7.804,0.0,0.0,0.0,24.2,6.7,4.7,1024,1024,1024,1024,0,0,0,0,94,4.555,65.48,99.081368,P-GPS,,30.2
757,75700,2026-01-08 12:29:01,0.0,5,7.804,0.0,0.0,0.0,24.1,6.7,4.6,1024,1024,1024,1024,0,0,0,0,94,4.555,65.48,99.081368,P-GPS,,30.2
758,75800,2026-01-08 12:29:01,0.0,5,7.804,0.0,0.0,0.0,24.2,7.1,5.2,1024,1024,1024,1024,0,0,0,0,94,4.555,65.48,99.081368,P-GPS,,30.2
759,75900,2026-01-08 12:29:01,0.0,5,7.804,0.0,0.0,0.0,24.2,7.2,4.9,1024,1024,1024,1024,0,0,0,0,94,4.555,65.48,99.081368,P-GPS,,30.2
760,76000,2026-01-08 12:29:01,0.0,5,7.804,0.0,0.0,0.0,24.2,7.3,5.1,1024,1024,1024,1024,0,0,0,0,94,4.555,65.48,99.081368,P-GPS,,30.2
761,76100,2026-01-08 12:29:01,0.223694,5,7.804,0.0,0.223694,0.0,24.1,7.5,5.1,1024,1024,1024,1024,0,0,0,0,94,4.555,65.48,99.081368,P-GPS,,30.2
762,76200,2026-01-08 12:29:01,0.0,5,7.804,0.0,0.0,0.0,24.2,7.3,5.0,1024,1024,1024,1024,0,0,0,0,94,4.555,65.48,99.081368,P-GPS,,30.2
763,76300,2026-01-08 12:29:01,0.223694,5,7.804,0.0,0.223694,0.0,24.1,6.7,4.6,1024,1024,1024,1024,0,0,0,0,94,4.555,65.48,99.081368,P-GPS,,30.2
764,76400,2026-01-08 12:29:01,0.0,5,7.804,0.0,0.0,-0.223694,24.2,7.1,4.6,1024,1024,1024,1024,0,0,0,0,94,4.555,65.48,99.409452,P-GPS,,30.3
765,76500,2026-01-08 12:29:02,0.0,5,7.804,0.0,0.0,0.0,24.2,7.1,4.4,1024,1024,1024,1024,0,0,0,0,94,4.555,65.48,99.409452,P-GPS,,30.3
766,76600,2026-01-08 12:29:02,0.0,5,7.804,0.0,0.0,0.0,24.2,7.5,5.0,1024,1024,1024,1024,0,0,0,0,94,4.555,65.48,99.409452,P-GPS,,30.3
767,76700,2026-01-08 12:29:02,0.0,5,7.804,0.0,0.0,0.0,24.2,7.2,4.9,1024,1024,1024,1024,0,0,0,0,94,4.555,65.48,99.409452,P-GPS,,30.3
768,76800,2026-01-08 12:29:02,0.0,5,7.804,0.0,0.0,0.0,24.3,7.9,4.9,1024,1024,1024,1024,0,0,0,0,94,4.555,65.48,99.409452,P-GPS,,30.3
769,76900,2026-01-08 12:29:02,0.0,5,7.804,0.0,0.0,0.0,24.4,7.3,5.1,1024,1024,1024,1024,0,0,0,0,94,4.555,65.48,99.409452,P-GPS,,30.3
770,77000,2026-01-08 12:29:02,0.0,5,7.804,0.0,0.0,0.0,24.3,6.5,5.6,1024,1024,1024,1024,0,0,0,0,94,4.555,65.48,99.409452,P-GPS,,30.3
771,77100,2026-01-08 12:29:02,0.0,5,7.804,0.0,0.0,0.0,24.3,6.8,5.3,1024,1024,1024,1024,0,0,0,0,94,4.555,65.48,99.409452,P-GPS,,30.3
772,77200,2026-01-08 12:29:02,0.223694,5,7.804,-0.223694,0.0,0.0,24.2,6.8,4.7,1024,1024,1024,1024,0,0,0,0,94,4.555,65.48,99.737536,P-GPS,,30.4
773,77300,2026-01-08 12:29:02,0.223694,5,7.804,-0.223694,0.0,0.0,24.1,5.7,4.5,1024,1024,1024,1024,0,0,0,0,94,4.555,65.48,99.737536,P-GPS,,30.4
774,77400,2026-01-08 12:29:02,0.0,5,7.804,0.0,0.0,0.0,24.2,6.5,4.5,1024,1024,1024,1024,0,0,0,0,94,4.555,65.48,99.737536,P-GPS,,30.4
775,77500,2026-01-08 12:29:02,0.0,5,7.804,0.0,0.0,0.0,24.3,7.0,4.9,1024,1024,1024,1024,0,0,0,0,94,4.555,65.48,99.737536,P-GPS,,30.4
776,77600,2026-01-08 12:29:03,0.0,5,7.779,0.0,0.0,0.0,24.2,6.8,5.2,1024,1024,1024,1024,0,0,0,0,94,4.611,65.48,99.737536,P-GPS,,30.4
777,77700,2026-01-08 12:29:03,0.0,5,7.779,0.0,0.0,0.0,24.2,6.7,5.2,1024,1024,1024,1024,0,0,0,0,94,4.611,65.48,99.737536,P-GPS,,30.4
778,77800,2026-01-08 12:29:03,0.0,5,7.779,0.0,0.0,0.0,24.1,6.7,5.1,1024,1024,1024,1024,0,0,0,0,94,4.611,65.48,99.737536,P-GPS,,30.4
779,77900,2026-01-08 12:29:03,0.0,5,7.779,0.0,0.0,0.0,24.2,7.3,5.4,1024,1024,1024,1024,0,0,0,0,94,4.611,65.48,99.737536,P-GPS,,30.4
780,78000,2026-01-08 12:29:03,0.0,5,7.779,0.0,0.0,0.0,24.2,7.6,4.8,1024,1024,1024,1024,0,0,0,0,94,4.611,65.48,99.737536,P-GPS,,30.4
781,78100,2026-01-08 12:29:03,0.0,5,7.779,0.0,0.0,0.0,24.2,7.4,4.9,1024,1024,1024,1024,0,0,0,0,94,4.611,65.48,99.737536,P-GPS,,30.4
782,78200,2026-01-08 12:29:03,0.0,5,7.779,0.0,0.0,0.0,24.1,7.2,4.6,1024,1024,1024,1024,0,0,0,0,94,4.611,65.48,99.737536,P-GPS,,30.4
783,78300,2026-01-08 12:29:03,0.0,5,7.779,0.0,0.0,0.0,24.1,7.5,4.7,1024,1024,1024,1024,0,0,0,0,94,4.611,65.48,99.737536,P-GPS,,30.4
784,78400,2026-01-08 12:29:03,0.0,5,7.779,0.0,0.0,0.0,24.2,7.4,4.5,1024,1024,1024,1024,0,0,0,0,94,4.611,65.48,99.737536,P-GPS,,30.4
785,78500,2026-01-08 12:29:04,0.0,5,7.779,0.0,0.0,0.0,24.2,7.4,5.0,1024,1024,1024,1024,0,0,0,0,94,4.611,65.48,99.737536,P-GPS,,30.4
786,78600,2026-01-08 12:29:04,0.0,5,7.779,0.0,0.0,-0.223694,24.4,8.2,5.8,1024,1024,1024,1024,0,0,0,0,94,4.611,65.48,99.737536,P-GPS,,30.4
787,78700,2026-01-08 12:29:04,0.0,5,7.779,0.0,0.0,0.0,24.5,8.4,5.8,1024,1024,1024,1024,0,0,0,0,94,4.611,65.48,99.737536,P-GPS,,30.4
788,78800,2026-01-08 12:29:04,0.0,5,7.79,0.0,0.0,0.0,24.6,9.0,6.3,1024,1024,1024,1024,0,0,0,0,94,4.491,65.66,99.737536,P-GPS,,30.4
789,78900,2026-01-08 12:29:04,0.0,5,7.79,0.0,0.0,0.0,24.6,8.9,6.3,1024,1024,1024,1024,0,0,0,0,94,4.491,65.66,99.737536,P-GPS,,30.4
790,79000,2026-01-08 12:29:04,0.0,5,7.79,0.0,0.0,0.0,24.5,8.5,6.1,1024,1024,1024,1024,0,0,0,0,94,4.491,65.66,99.737536,P-GPS,,30.4
791,79100,2026-01-08 12:29:04,0.0,5,7.79,0.0,0.0,0.0,24.4,8.1,5.9,1024,1024,1024,1024,0,0,0,0,94,4.491,65.66,99.737536,P-GPS,,30.4
792,79200,2026-01-08 12:29:04,0.0,5,7.79,0.0,0.0,0.0,24.5,8.4,6.4,1024,1024,1024,1024,0,0,0,0,94,4.491,65.66,99.737536,P-GPS,,30.4
793,79300,2026-01-08 12:29:04,0.0,5,7.79,0.0,0.0,0.0,24.4,8.0,6.6,1024,1024,1024,1024,0,0,0,0,94,4.491,65.66,99.737536,P-GPS,,30.4
794,79400,2026-01-08 12:29:04,0.0,5,7.79,0.0,0.0,0.0,24.3,7.3,6.4,1024,1024,1024,1024,0,0,0,0,94,4.491,65.66,99.737536,P-GPS,,30.4
795,79500,2026-01-08 12:29:04,0.0,5,7.79,0.0,0.0,0.0,24.3,7.8,6.3,1024,1024,1024,1024,0,0,0,0,94,4.491,65.66,99.737536,P-GPS,,30.4
796,79600,2026-01-08 12:29:05,0.0,5,7.79,0.0,0.0,0.0,24.3,8.3,6.6,1024,1024,1024,1024,0,0,0,0,94,4.491,65.66,99.737536,P-GPS,,30.4
797,79700,2026-01-08 12:29:05,0.0,5,7.79,0.0,0.0,0.0,24.4,8.1,6.5,1024,1024,1024,1024,0,0,0,0,94,4.491,65.66,99.737536,P-GPS,,30.4
798,79800,2026-01-08 12:29:05,0.0,5,7.79,0.0,0.0,-0.223694,24.4,8.5,6.6,1024,1024,1024,1024,0,0,0,0,94,4.491,65.66,99.737536,P-GPS,,30.4
799,79900,2026-01-08 12:29:05,0.0,5,7.791,0.0,0.0,0.0,24.3,8.2,6.6,1024,1024,1024,1024,0,0,0,0,94,4.544,65.66,99.737536,P-GPS,,30.4
800,80000,2026-01-08 12:29:05,0.0,5,7.791,0.0,0.0,0.0,24.3,8.5,7.2,1024,1024,1024,1024,0,0,0,0,94,4.544,65.66,99.737536,P-GPS,,30.4
801,80100,2026-01-08 12:29:05,0.0,5,7.791,0.0,0.0,0.0,24.4,9.3,7.1,1024,1024,1024,1024,0,0,0,0,94,4.544,65.66,99.737536,P-GPS,,30.4
802,80200,2026-01-08 12:29:05,0.0,5,7.791,0.0,0.0,0.0,24.6,9.6,7.7,1024,1024,1024,1024,0,0,0,0,94,4.544,65.66,99.737536,P-GPS,,30.4
803,80300,2026-01-08 12:29:05,0.0,5,7.791,0.0,0.0,0.0,24.6,10.4,8.1,1024,1024,1024,1024,0,0,0,0,94,4.544,65.66,99.737536,P-GPS,,30.4
804,80400,2026-01-08 12:29:05,0.0,5,7.791,0.0,0.0,0.0,24.6,9.4,8.3,1024,1024,1024,1024,0,0,0,0,94,4.544,65.66,99.737536,P-GPS,,30.4
805,80500,2026-01-08 12:29:06,0.0,5,7.791,0.0,0.0,0.0,24.7,9.8,8.9,1024,1024,1024,1024,0,0,0,0,94,4.544,65.66,99.737536,P-GPS,,30.4
806,80600,2026-01-08 12:29:06,0.0,5,7.791,0.0,0.0,0.0,24.6,10.2,8.7,1024,1024,1024,1024,0,0,0,0,94,4.544,65.66,100.06562,P-GPS,,30.5
807,80700,2026-01-08 12:29:06,0.0,5,7.791,0.0,0.0,0.0,24.6,9.8,8.4,1024,1024,1024,1024,0,0,0,0,94,4.544,65.66,100.06562,P-GPS,,30.5
808,80800,2026-01-08 12:29:06,0.0,5,7.791,0.0,0.0,0.0,24.7,10.0,9.0,1024,1024,1024,1024,0,0,0,0,94,4.544,65.66,100.06562,P-GPS,,30.5
809,80900,2026-01-08 12:29:06,0.0,5,7.791,0.0,0.0,0.0,24.8,9.9,9.1,1024,1024,1024,1024,0,0,0,0,94,4.544,65.66,100.06562,P-GPS,,30.5
810,81000,2026-01-08 12:29:06,0.0,5,7.747,0.0,0.0,0.0,24.7,9.1,8.4,1024,1024,1024,1024,0,0,0,0,94,4.81,65.66,100.06562,P-GPS,,30.5
811,81100,2026-01-08 12:29:06,0.0,5,7.747,0.0,0.0,-0.223694,24.5,8.2,8.3,1024,1024,1024,1024,0,0,0,0,94,4.81,65.66,100.393704,P-GPS,,30.6
