index,time(millisecond),timestamp,speed(mph),gpslevel,voltage(v),xSpeed(mph),ySpeed(mph),zSpeed(mph),compass_heading(degrees),pitch(degrees),roll(degrees),rc_elevator,rc_aileron,rc_throttle,rc_rudder,rc_elevator(percent),rc_aileron(percent),rc_throttle(percent),rc_rudder(percent),battery_percent,current(A),battery_temperature(f),ascent(feet),flycState,message,height_above_takeoff(meters)
88,484600,2026-01-08 12:36:32,0.223694,5,7.426,0.0,-0.223694,0.0,22.6,8.2,3.1,1024,1024,1024,1024,0,0,0,0,69,6.142,77.54,34.44882,P-GPS,,10.5
89,484700,2026-01-08 12:36:32,0.223694,5,7.426,0.0,-0.223694,0.0,22.6,8.2,3.3,1024,1024,1024,1024,0,0,0,0,69,6.142,77.54,34.44882,P-GPS,,10.5
90,484800,2026-01-08 12:36:32,0.223694,5,7.464,0.0,-0.223694,0.0,22.6,8.6,4.1,1024,1024,1024,1024,0,0,0,0,68,4.825,77.54,34.44882,P-GPS,,10.5
91,484900,2026-01-08 12:36:32,0.0,5,7.464,0.0,0.0,0.0,22.6,7.4,3.6,1024,1024,1024,1024,0,0,0,0,68,4.825,77.54,34.44882,P-GPS,,10.5
92,485000,2026-01-08 12:36:32,0.0,5,7.464,0.0,0.0,0.0,22.5,7.7,3.2,1024,1024,1024,1024,0,0,0,0,68,4.825,77.54,34.44882,P-GPS,,10.5
93,485100,2026-01-08 12:36:32,0.0,5,7.464,0.0,0.0,0.0,22.6,8.2,3.3,1024,1024,1024,1024,0,0,0,0,68,4.825,77.54,34.44882,P-GPS,,10.5
94,485200,2026-01-08 12:36:33,0.0,5,7.464,0.0,0.0,0.0,22.4,8.1,3.6,1024,1024,1024,1024,0,0,0,0,68,4.825,77.54,34.120736,P-GPS,,10.4
95,485300,2026-01-08 12:36:33,0.0,5,7.464,0.0,0.0,0.0,22.6,8.4,3.4,1024,1024,1024,1024,0,0,0,0,68,4.825,77.54,34.120736,P-GPS,,10.4
96,485400,2026-01-08 12:36:33,0.0,5,7.464,0.0,0.0,0.0,22.6,8.9,3.0,1024,1024,1024,1024,0,0,0,0,68,4.825,77.54,34.120736,P-GPS,,10.4
97,485500,2026-01-08 12:36:33,0.0,5,7.464,0.0,0.0,0.0,22.7,8.6,3.1,1024,1024,1024,1024,0,0,0,0,68,4.825,77.54,34.120736,P-GPS,,10.4
98,485600,2026-01-08 12:36:33,0.0,5,7.464,0.0,0.0,0.0,22.7,7.9,3.8,1024,1024,1024,1024,0,0,0,0,68,4.825,77.54,34.120736,P-GPS,,10.4
99,485700,2026-01-08 12:36:33,0.0,5,7.464,0.0,0.0,0.0,22.7,7.6,3.7,1024,1024,1024,1024,0,0,0,0,68,4.825,77.54,33.792652,P-GPS,,10.3
100,485800,2026-01-08 12:36:33,0.0,5,7.464,0.0,0.0,0.0,22.6,6.5,4.1,1024,1024,1024,1024,0,0,0,0,68,4.825,77.54,33.792652,P-GPS,,10.3
101,485900,2026-01-08 12:36:33,0.0,5,7.467,0.0,0.0,0.0,22.7,6.5,3.9,1024,1024,1024,1024,0,0,0,0,68,5.551,77.72,33.792652,P-GPS,,10.3
102,486000,2026-01-08 12:36:33,0.0,5,7.467,0.0,0.0,0.0,22.8,6.6,4.8,1024,1024,1024,1024,0,0,0,0,68,5.551,77.72,33.792652,P-GPS,,10.3
103,486100,2026-01-08 12:36:33,0.0,5,7.467,0.0,0.0,0.0,22.8,6.7,4.0,1024,1024,1024,1024,0,0,0,0,68,5.551,77.72,33.792652,P-GPS,,10.3
104,486200,2026-01-08 12:36:34,0.0,5,7.467,0.0,0.0,-0.223694,22.7,7.4,3.6,1024,1024,1024,1024,0,0,0,0,68,5.551,77.72,33.792652,P-GPS,,10.3
105,486300,2026-01-08 12:36:34,0.0,5,7.467,0.0,0.0,0.0,22.8,7.2,3.5,1024,1024,1024,1024,0,0,0,0,68,5.551,77.72,33.464568,P-GPS,,10.2
106,486400,2026-01-08 12:36:34,0.0,5,7.467,0.0,0.0,0.0,22.7,7.6,3.1,1024,1024,1024,1024,0,0,0,0,68,5.551,77.72,33.464568,P-GPS,,10.2
107,486500,2026-01-08 12:36:34,0.0,5,7.467,0.0,0.0,0.0,22.6,7.3,3.1,1024,1024,1024,1024,0,0,0,0,68,5.551,77.72,33.464568,P-GPS,,10.2
108,486600,2026-01-08 12:36:34,0.0,5,7.467,0.0,0.0,0.0,22.6,8.6,2.7,1024,1024,1024,1024,0,0,0,0,68,5.551,77.72,33.464568,P-GPS,,10.2
109,486700,2026-01-08 12:36:34,0.0,5,7.467,0.0,0.0,0.0,22.7,8.7,2.9,1024,1024,1024,1024,0,0,0,0,68,5.551,77.72,33.464568,P-GPS,SD card speed low. Normal use may be affected. Replace SD card (Code: 10028). Gimbal stuck. Make sure gimbal cover is removed and manually check whether gimbal can rotate freely (Code: 40002),10.2
110,486800,2026-01-08 12:36:34,0.0,5,7.467,0.0,0.0,0.0,22.8,8.5,3.2,1024,1024,1024,1024,0,0,0,0,68,5.551,77.72,33.136484,P-GPS,,10.1
111,486900,2026-01-08 12:36:34,0.0,5,7.467,0.0,0.0,0.0,22.7,8.8,3.0,1024,1024,1024,1024,0,0,0,0,68,5.551,77.72,33.136484,P-GPS,,10.1
112,487000,2026-01-08 12:36:34,0.0,5,7.494,0.0,0.0,0.0,22.7,8.9,3.4,1024,1024,1024,1024,0,0,0,0,68,5.217,77.72,33.136484,P-GPS,,10.1
113,487100,2026-01-08 12:36:34,0.0,5,7.494,0.0,0.0,0.0,22.8,9.0,3.1,1024,1024,1024,1024,0,0,0,0,68,5.217,77.72,33.136484,P-GPS,,10.1
114,487200,2026-01-08 12:36:35,0.0,5,7.494,0.0,0.0,0.0,22.8,8.9,3.4,1024,1024,1024,1024,0,0,0,0,68,5.217,77.72,33.136484,P-GPS,,10.1
115,487300,2026-01-08 12:36:35,0.0,5,7.494,0.0,0.0,0.0,22.7,7.7,3.5,1024,1024,1024,1024,0,0,0,0,68,5.217,77.72,32.8084,P-GPS,,10.0
116,487400,2026-01-08 12:36:35,0.0,5,7.494,0.0,0.0,0.0,22.6,6.9,3.3,1024,1024,1024,1024,0,0,0,0,68,5.217,77.72,32.8084,P-GPS,,10.0
117,487500,2026-01-08 12:36:35,0.0,5,7.494,0.0,0.0,0.0,22.7,7.0,2.9,1024,1024,1024,1024,0,0,0,0,68,5.217,77.72,32.8084,P-GPS,,10.0
118,487600,2026-01-08 12:36:35,0.0,5,7.494,0.0,0.0,0.0,22.7,7.3,2.8,1024,1024,1024,1024,0,0,0,0,68,5.217,77.72,32.8084,P-GPS,,10.0
119,487700,2026-01-08 12:36:35,0.0,5,7.494,0.0,0.0,0.0,22.6,7.1,2.9,1024,1024,1024,1024,0,0,0,0,68,5.217,77.72,32.8084,P-GPS,,10.0
120,487800,2026-01-08 12:36:35,0.0,5,7.494,0.0,0.0,0.0,22.7,7.5,2.6,1024,1024,1024,1024,0,0,0,0,68,5.217,77.72,32.8084,P-GPS,,10.0
121,487900,2026-01-08 12:36:35,0.0,5,7.494,0.0,0.0,0.0,22.6,7.0,2.9,1024,1024,1024,1024,0,0,0,0,68,5.217,77.72,32.8084,P-GPS,,10.0
122,488000,2026-01-08 12:36:35,0.0,5,7.494,0.0,0.0,0.0,22.6,6.9,3.5,1024,1024,1024,1024,0,0,0,0,68,5.217,77.72,32.480316,P-GPS,,9.9
123,488100,2026-01-08 12:36:35,0.0,5,7.509,0.0,0.0,0.0,22.7,7.7,4.2,1024,1024,1024,1024,0,0,0,0,68,4.939,77.72,32.480316,P-GPS,,9.9
124,488200,2026-01-08 12:36:36,0.0,5,7.509,0.0,0.0,0.0,22.7,7.2,4.2,1024,1024,1024,1024,0,0,0,0,68,4.939,77.72,32.480316,P-GPS,,9.9
125,488300,2026-01-08 12:36:36,0.0,5,7.509,0.0,0.0,0.0,22.9,7.6,4.3,1024,1024,1024,1024,0,0,0,0,68,4.939,77.72,32.480316,P-GPS,,9.9
126,488400,2026-01-08 12:36:36,0.0,5,7.509,0.0,0.0,0.0,22.9,7.8,4.3,1024,1024,1024,1024,0,0,0,0,68,4.939,77.72,32.480316,P-GPS,,9.9
127,488500,2026-01-08 12:36:36,0.0,5,7.509,0.0,0.0,0.0,22.8,6.8,4.7,1024,1024,1024,1024,0,0,0,0,68,4.939,77.72,32.480316,P-GPS,,9.9
128,488600,2026-01-08 12:36:36,0.0,5,7.509,0.0,0.0,0.0,22.7,6.2,4.3,1024,1024,1024,1024,0,0,0,0,68,4.939,77.72,32.480316,P-GPS,,9.9
129,488700,2026-01-08 12:36:36,0.0,5,7.509,0.0,0.0,0.0,22.7,5.8,4.1,1024,1024,1024,1024,0,0,0,0,68,4.939,77.72,32.480316,P-GPS,,9.9
130,488800,2026-01-08 12:36:36,0.0,5,7.509,0.0,0.0,0.0,22.7,5.5,4.0,1024,1024,1024,1024,0,0,0,0,68,4.939,77.72,32.480316,P-GPS,,9.9
131,488900,2026-01-08 12:36:36,0.0,5,7.509,0.0,0.0,0.0,22.7,5.8,3.7,1024,1024,1024,1024,0,0,0,0,68,4.939,77.72,32.480316,P-GPS,,9.9
132,489000,2026-01-08 12:36:36,0.0,5,7.509,0.0,0.0,0.0,22.8,5.8,3.9,1024,1024,1024,1024,0,0,0,0,68,4.939,77.72,32.480316,P-GPS,,9.9
133,489100,2026-01-08 12:36:36,0.0,5,7.509,0.0,0.0,0.0,22.8,5.2,3.9,1024,1024,1024,1024,0,0,0,0,68,4.939,77.72,32.152232,P-GPS,,9.8
134,489200,2026-01-08 12:36:36,0.0,5,7.509,0.0,0.0,0.0,22.6,5.3,4.1,1024,1024,1024,1024,0,0,0,0,68,4.939,77.72,32.152232,P-GPS,,9.8
135,489300,2026-01-08 12:36:37,0.0,5,7.509,0.0,0.0,0.0,22.7,5.0,4.1,1024,1024,1024,1024,0,0,0,0,68,4.939,77.72,32.152232,P-GPS,,9.8
136,489400,2026-01-08 12:36:37,0.0,5,7.509,0.0,0.0,0.0,22.8,5.4,4.2,1024,1024,1024,1024,0,0,0,0,68,4.939,77.72,32.480316,P-GPS,,9.9
137,489500,2026-01-08 12:36:37,0.0,5,7.509,0.0,0.0,0.0,22.9,5.2,4.1,1024,1024,1024,1024,0,0,0,0,68,4.939,77.72,32.480316,P-GPS,,9.9
138,489600,2026-01-08 12:36:37,0.0,5,7.509,0.0,0.0,0.0,22.9,5.4,4.5,1024,1024,1024,1024,0,0,0,0,68,4.939,77.72,32.480316,P-GPS,,9.9
139,489700,2026-01-08 12:36:37,0.0,5,7.509,0.0,0.0,0.0,22.9,5.2,4.8,1024,1024,1024,1024,0,0,0,0,68,4.939,77.72,32.152232,P-GPS,,9.8
140,489800,2026-01-08 12:36:37,0.0,5,7.509,0.0,0.0,0.0,22.9,6.1,4.4,1024,1024,1024,1024,0,0,0,0,68,4.939,77.72,32.152232,P-GPS,,9.8
141,489900,2026-01-08 12:36:37,0.0,5,7.509,0.0,0.0,0.0,23.0,5.0,5.0,1024,1024,1024,1024,0,0,0,0,68,4.939,77.72,32.152232,P-GPS,,9.8
142,490000,2026-01-08 12:36:37,0.0,5,7.509,0.0,0.0,0.0,22.8,3.8,5.6,1024,1024,1024,1024,0,0,0,0,68,4.939,77.72,32.152232,P-GPS,,9.8
143,490100,2026-01-08 12:36:37,0.0,5,7.509,0.0,0.0,0.0,22.9,4.0,5.7,1024,1024,1024,1024,0,0,0,0,68,4.939,77.72,32.152232,P-GPS,,9.8
144,490200,2026-01-08 12:36:38,0.0,5,7.509,0.0,0.0,0.0,22.9,4.9,6.1,1024,1024,1024,1024,0,0,0,0,68,4.939,77.72,32.152232,P-GPS,,9.8
145,490300,2026-01-08 12:36:38,0.0,5,7.497,0.0,0.0,0.0,22.8,4.6,6.1,1024,1024,1024,1024,0,0,0,0,68,4.873,77.72,32.152232,P-GPS,,9.8
146,490400,2026-01-08 12:36:38,0.0,5,7.497,0.0,0.0,0.0,22.7,4.3,6.2,1024,1024,1024,1024,0,0,0,0,68,4.873,77.72,32.152232,P-GPS,,9.8
147,490500,2026-01-08 12:36:38,0.0,5,7.497,0.0,0.0,0.0,22.7,4.0,5.9,1024,1024,1024,1024,0,0,0,0,68,4.873,77.72,32.152232,P-GPS,,9.8
148,490600,2026-01-08 12:36:38,0.0,5,7.497,0.0,0.0,0.0,22.6,3.8,5.8,1024,1024,1024,1024,0,0,0,0,68,4.873,77.72,31.824148,P-GPS,,9.7
149,490700,2026-01-08 12:36:38,0.0,5,7.497,0.0,0.0,0.0,22.7,4.3,5.4,1024,1024,1024,1024,0,0,0,0,68,4.873,77.72,31.824148,P-GPS,,9.7
150,490800,2026-01-08 12:36:38,0.0,5,7.497,0.0,0.0,0.0,22.7,4.5,5.0,1024,1024,1024,1024,0,0,0,0,68,4.873,77.72,31.824148,P-GPS,,9.7
151,490900,2026-01-08 12:36:38,0.0,5,7.497,0.0,0.0,0.0,22.6,4.2,4.7,1024,1024,1024,1024,0,0,0,0,68,4.873,77.72,31.824148,P-GPS,,9.7
152,491000,2026-01-08 12:36:38,0.0,5,7.497,0.0,0.0,0.0,22.6,4.3,4.6,1024,1024,1024,1024,0,0,0,0,68,4.873,77.72,31.824148,P-GPS,,9.7
153,491100,2026-01-08 12:36:38,0.0,5,7.497,0.0,0.0,0.0,22.7,5.6,4.0,1024,1024,1024,1024,0,0,0,0,68,4.873,77.72,31.824148,P-GPS,,9.7
154,491200,2026-01-08 12:36:38,0.0,5,7.497,0.0,0.0,0.0,22.8,6.1,3.8,1024,1024,1024,1024,0,0,0,0,68,4.873,77.72,31.824148,P-GPS,,9.7
155,491300,2026-01-08 12:36:39,0.0,5,7.497,0.0,0.0,0.0,22.7,6.2,3.5,1024,1024,1024,1024,0,0,0,0,68,4.873,77.72,31.824148,P-GPS,,9.7
156,491400,2026-01-08 12:36:39,0.0,5,7.503,0.0,0.0,0.0,22.7,6.0,3.8,1024,1024,1024,1024,0,0,0,0,68,4.804,77.72,31.824148,P-GPS,,9.7
157,491500,2026-01-08 12:36:39,0.0,5,7.503,0.0,0.0,0.0,22.8,6.9,3.7,1024,1024,1024,1024,0,0,0,0,68,4.804,77.72,31.824148,P-GPS,,9.7
158,491600,2026-01-08 12:36:39,0.0,5,7.503,0.0,0.0,0.0,22.8,7.2,3.8,1024,1024,1024,1024,0,0,0,0,68,4.804,77.72,31.824148,P-GPS,,9.7
159,491700,2026-01-08 12:36:39,0.0,5,7.503,0.0,0.0,0.0,22.7,7.2,3.4,1024,1024,1024,1024,0,0,0,0,68,4.804,77.72,31.824148,P-GPS,,9.7
160,491800,2026-01-08 12:36:39,0.0,5,7.503,0.0,0.0,0.0,22.8,7.2,3.6,1024,1024,1024,1024,0,0,0,0,68,4.804,77.72,31.824148,P-GPS,,9.7
161,491900,2026-01-08 12:36:39,0.0,5,7.503,0.0,0.0,0.0,22.8,6.4,3.8,1024,1024,1024,1024,0,0,0,0,68,4.804,77.72,31.824148,P-GPS,,9.7
162,492000,2026-01-08 12:36:39,0.0,5,7.503,0.0,0.0,0.0,22.8,6.3,3.9,1024,1024,1024,1024,0,0,0,0,68,4.804,77.72,31.824148,P-GPS,,9.7
163,492100,2026-01-08 12:36:39,0.0,5,7.503,0.0,0.0,0.0,22.7,6.3,4.1,1024,1024,1024,1024,0,0,0,0,68,4.804,77.72,31.824148,P-GPS,,9.7
164,492200,2026-01-08 12:36:40,0.0,5,7.503,0.0,0.0,0.0,22.6,6.2,4.3,1024,1024,1024,1024,0,0,0,0,68,4.804,77.72,31.496064,P-GPS,,9.6
165,492300,2026-01-08 12:36:40,0.0,5,7.503,0.0,0.0,0.0,22.7,7.4,4.3,1024,1024,1024,1024,0,0,0,0,68,4.804,77.72,31.496064,P-GPS,,9.6
166,492400,2026-01-08 12:36:40,0.0,5,7.503,0.0,0.0,0.0,22.7,7.4,4.3,1024,1024,1024,1024,0,0,0,0,68,4.804,77.72,31.496064,P-GPS,,9.6
167,492500,2026-01-08 12:36:40,0.0,5,7.507,0.0,0.0,0.0,22.6,7.9,4.6,1024,1024,1024,1024,0,0,0,0,68,4.704,77.72,31.496064,P-GPS,,9.6
168,492600,2026-01-08 12:36:40,0.0,5,7.507,0.0,0.0,0.0,22.7,8.3,4.6,1024,1024,1024,1024,0,0,0,0,68,4.704,77.72,31.496064,P-GPS,,9.6
169,492700,2026-01-08 12:36:40,0.0,5,7.507,0.0,0.0,0.0,22.8,8.6,4.2,1024,1024,1024,1024,0,0,0,0,68,4.704,77.72,31.16798,P-GPS,,9.5
170,492800,2026-01-08 12:36:40,0.0,5,7.507,0.0,0.0,0.0,22.7,8.4,4.2,1024,1024,1024,1024,0,0,0,0,68,4.704,77.72,31.16798,P-GPS,,9.5
171,492900,2026-01-08 12:36:40,0.0,5,7.507,0.0,0.0,0.0,22.7,7.8,3.9,1024,1024,1024,1024,0,0,0,0,68,4.704,77.72,31.16798,P-GPS,,9.5
172,493000,2026-01-08 12:36:40,0.0,5,7.507,0.0,0.0,0.0,22.7,7.4,3.9,1024,1024,1024,1024,0,0,0,0,68,4.704,77.72,31.16798,P-GPS,,9.5
173,493100,2026-01-08 12:36:40,0.0,5,7.507,0.0,0.0,0.0,22.8,7.1,3.4,1024,1024,1024,1024,0,0,0,0,68,4.704,77.72,31.16798,P-GPS,,9.5
174,493200,2026-01-08 12:36:41,0.0,5,7.507,0.0,0.0,0.0,22.8,7.0,3.4,1024,1024,1024,1024,0,0,0,0,68,4.704,77.72,31.16798,P-GPS,,9.5
175,493300,2026-01-08 12:36:41,0.0,5,7.507,0.0,0.0,0.0,22.8,7.7,3.9,1024,1024,1024,1024,0,0,0,0,68,4.704,77.72,30.839896,P-GPS,,9.4
176,493400,2026-01-08 12:36:41,0.0,5,7.507,0.0,0.0,0.0,22.7,7.7,3.5,1024,1024,1024,1024,0,0,0,0,68,4.704,77.72,30.839896,P-GPS,,9.4
177,493500,2026-01-08 12:36:41,0.0,5,7.507,0.0,0.0,0.0,22.7,6.9,3.3,1024,1024,1024,1024,0,0,0,0,68,4.704,77.72,30.839896,P-GPS,,9.4
178,493600,2026-01-08 12:36:41,0.0,5,7.511,0.0,0.0,0.0,22.6,7.1,3.5,1024,1024,1024,1024,0,0,0,0,68,4.829,77.72,30.839896,P-GPS,,9.4
179,493700,2026-01-08 12:36:41,0.0,5,7.511,0.0,0.0,0.0,22.7,7.3,3.7,1024,1024,1024,1024,0,0,0,0,68,4.829,77.72,30.511812,P-GPS,,9.3
180,493800,2026-01-08 12:36:41,0.0,5,7.511,0.0,0.0,0.0,22.7,6.9,3.4,1024,1024,1024,1024,0,0,0,0,68,4.829,77.72,30.511812,P-GPS,,9.3
181,493900,2026-01-08 12:36:41,0.0,5,7.511,0.0,0.0,0.0,22.7,6.9,3.4,1024,1024,1024,1024,0,0,0,0,68,4.829,77.72,30.511812,P-GPS,,9.3
182,494000,2026-01-08 12:36:41,0.0,5,7.511,0.0,0.0,0.0,22.8,6.7,3.3,1024,1024,1024,1024,0,0,0,0,68,4.829,77.72,30.183728,P-GPS,,9.2
183,494100,2026-01-08 12:36:41,0.0,5,7.511,0.0,0.0,0.0,22.7,6.9,3.1,1024,1024,1024,1024,0,0,0,0,68,4.829,77.72,30.183728,P-GPS,,9.2
184,494200,2026-01-08 12:36:42,0.0,5,7.511,0.0,0.0,0.0,22.7,6.8,3.3,1024,1024,1024,1024,0,0,0,0,68,4.829,77.72,30.183728,P-GPS,,9.2
185,494300,2026-01-08 12:36:42,0.0,5,7.511,0.0,0.0,0.0,22.8,6.9,3.7,1024,1024,1024,1024,0,0,0,0,68,4.829,77.72,30.183728,P-GPS,,9.2
186,494400,2026-01-08 12:36:42,0.0,5,7.511,0.0,0.0,0.0,22.6,6.2,4.0,1024,1024,1024,1024,0,0,0,0,68,4.829,77.72,29.855644,P-GPS,,9.1
187,494500,2026-01-08 12:36:42,0.0,5,7.511,0.0,0.0,0.0,22.5,5.9,4.3,1024,1024,1024,1024,0,0,0,0,68,4.829,77.72,29.855644,P-GPS,,9.1
188,494600,2026-01-08 12:36:42,0.0,5,7.511,0.0,0.0,-0.223694,22.6,6.0,4.6,1024,1024,1024,1024,0,0,0,0,68,4.829,77.72,29.52756,P-GPS,,9.0
189,494700,2026-01-08 12:36:42,0.0,5,7.517,0.0,0.0,-0.223694,22.7,6.7,4.8,1024,1024,1024,1024,0,0,0,0,68,4.27,77.72,29.52756,P-GPS,,9.0
190,494800,2026-01-08 12:36:42,0.0,5,7.517,0.0,0.0,0.0,22.7,7.5,4.9,1024,1024,1024,1024,0,0,0,0,68,4.27,77.72,29.199476,P-GPS,,8.9
191,494900,2026-01-08 12:36:42,0.0,5,7.517,0.0,0.0,0.0,22.8,7.2,5.4,1024,1024,1024,1024,0,0,0,0,68,4.27,77.72,29.199476,P-GPS,,8.9
192,495000,2026-01-08 12:36:42,0.0,5,7.517,0.0,0.0,0.0,22.9,7.2,5.5,1024,1024,1024,1024,0,0,0,0,68,4.27,77.72,28.871392,P-GPS,,8.8
193,495100,2026-01-08 12:36:42,0.0,5,7.517,0.0,0.0,0.0,22.8,6.3,5.4,1024,1024,1024,1024,0,0,0,0,68,4.27,77.72,28.871392,P-GPS,,8.8
194,495200,2026-01-08 12:36:43,0.0,5,7.517,0.0,0.0,0.0,23.0,7.1,5.4,1024,1024,1024,1024,0,0,0,0,68,4.27,77.72,28.871392,P-GPS,,8.8
195,495300,2026-01-08 12:36:43,0.0,5,7.517,0.0,0.0,0.0,23.1,7.2,5.9,1024,1024,1024,1024,0,0,0,0,68,4.27,77.72,28.543308,P-GPS,,8.7
196,495400,2026-01-08 12:36:43,0.0,5,7.517,0.0,0.0,0.0,23.2,7.2,6.0,1024,1024,1024,1024,0,0,0,0,68,4.27,77.72,28.543308,P-GPS,,8.7
197,495500,2026-01-08 12:36:43,0.0,5,7.517,0.0,0.0,0.0,23.2,6.9,5.9,1024,1024,1024,1024,0,0,0,0,68,4.27,77.72,28.543308,P-GPS,,8.7
198,495600,2026-01-08 12:36:43,0.0,5,7.517,0.0,0.0,0.0,23.2,7.9,5.6,1024,1024,1024,1024,0,0,0,0,68,4.27,77.72,28.543308,P-GPS,,8.7
199,495700,2026-01-08 12:36:43,0.0,5,7.517,0.0,0.0,0.0,23.0,7.6,5.3,1024,1024,1024,1024,0,0,0,0,68,4.27,77.72,28.871392,P-GPS,,8.8
200,495800,2026-01-08 12:36:43,0.0,5,7.514,0.0,0.0,0.0,22.9,7.5,5.8,1024,1024,1024,1024,0,0,0,0,68,4.132,77.9,28.871392,P-GPS,,8.8
201,495900,2026-01-08 12:36:43,0.0,5,7.514,0.0,0.0,0.223694,22.9,7.4,6.5,1024,1024,1024,1024,0,0,0,0,68,4.132,77.9,28.871392,P-GPS,,8.8
202,496000,2026-01-08 12:36:43,0.0,5,7.514,0.0,0.0,0.0,22.9,6.5,5.1,1024,1024,1024,1024,0,0,0,0,68,4.132,77.9,29.199476,P-GPS,,8.9
203,496100,2026-01-08 12:36:43,0.0,5,7.514,0.0,0.0,0.0,22.9,8.1,4.5,1024,1024,1024,1024,0,0,0,0,68,4.132,77.9,29.199476,P-GPS,,8.9
204,496200,2026-01-08 12:36:44,0.0,5,7.514,0.0,0.0,0.0,22.9,8.7,4.3,1024,1024,1024,1024,0,0,0,0,68,4.132,77.9,29.199476,P-GPS,,8.9
205,496300,2026-01-08 12:36:44,0.0,5,7.514,0.0,0.223694,0.0,22.8,8.6,4.4,1024,1024,1024,1024,0,0,0,0,68,4.132,77.9,29.199476,P-GPS,,8.9
206,496400,2026-01-08 12:36:44,0.223694,5,7.514,0.0,0.223694,0.0,22.8,8.9,3.6,1024,1024,1024,1024,0,0,0,0,68,4.132,77.9,29.199476,P-GPS,,8.9
207,496500,2026-01-08 12:36:44,0.223694,5,7.514,0.0,0.223694,0.0,22.8,9.1,3.1,1024,1024,1024,1024,0,0,0,0,68,4.132,77.9,29.199476,P-GPS,,8.9
208,496600,2026-01-08 12:36:44,0.223694,5,7.514,0.0,0.223694,0.0,23.0,9.7,2.6,1024,1024,1024,1024,0,0,0,0,68,4.132,77.9,29.199476,P-GPS,,8.9
209,496700,2026-01-08 12:36:44,0.223694,5,7.514,0.0,0.223694,0.0,23.0,10.2,2.4,1024,1024,1024,1024,0,0,0,0,68,4.132,77.9,29.199476,P-GPS,,8.9
210,496800,2026-01-08 12:36:44,0.3131716,5,7.514,0.223694,0.223694,0.0,23.0,10.4,2.6,1024,1024,1024,1024,0,0,0,0,68,4.132,77.9,29.199476,P-GPS,,8.9
211,496900,2026-01-08 12:36:44,0.3131716,5,7.453,0.223694,0.223694,0.0,23.2,11.3,3.0,1024,1024,1024,1024,0,0,0,0,68,5.559,77.9,29.199476,P-GPS,,8.9
212,497000,2026-01-08 12:36:44,0.3131716,5,7.453,0.223694,0.223694,0.0,23.3,12.4,2.7,1024,1024,1024,1024,0,0,0,0,68,5.559,77.9,29.199476,P-GPS,,8.9
213,497100,2026-01-08 12:36:44,0.3131716,5,7.453,0.223694,0.223694,0.0,23.0,12.8,2.4,1024,1024,1024,1024,0,0,0,0,68,5.559,77.9,29.199476,P-GPS,,8.9
214,497200,2026-01-08 12:36:45,0.223694,5,7.453,0.223694,0.0,0.0,23.1,13.0,2.7,1024,1024,1024,1024,0,0,0,0,68,5.559,77.9,29.199476,P-GPS,,8.9
215,497300,2026-01-08 12:36:45,0.0,5,7.453,0.0,0.0,0.0,23.1,13.4,2.1,1024,1024,1024,1024,0,0,0,0,68,5.559,77.9,29.199476,P-GPS,,8.9
216,497400,2026-01-08 12:36:45,0.0,5,7.453,0.0,0.0,0.0,23.0,11.9,1.7,1024,1024,1024,1024,0,0,0,0,68,5.559,77.9,29.199476,P-GPS,,8.9
217,497500,2026-01-08 12:36:45,0.0,5,7.453,0.0,0.0,0.0,23.0,11.1,2.5,1024,1024,1024,1024,0,0,0,0,68,5.559,77.9,29.199476,P-GPS,,8.9
218,497600,2026-01-08 12:36:45,0.0,5,7.453,0.0,0.0,0.0,23.0,11.3,3.0,1024,1024,1024,1024,0,0,0,0,68,5.559,77.9,29.199476,P-GPS,,8.9
219,497700,2026-01-08 12:36:45,0.0,5,7.453,0.0,0.0,-0.223694,23.0,10.5,3.5,1024,1024,1024,1024,0,0,0,0,68,5.559,77.9,29.199476,P-GPS,,8.9
220,497800,2026-01-08 12:36:45,0.0,5,7.453,0.0,0.0,-0.223694,23.0,9.9,3.9,1024,1024,1024,1024,0,0,0,0,68,5.559,77.9,29.199476,P-GPS,,8.9
221,497900,2026-01-08 12:36:45,0.0,5,7.453,0.0,0.0,-0.223694,22.9,9.5,4.0,1024,1024,1024,1024,0,0,0,0,68,5.559,77.9,29.199476,P-GPS,,8.9
222,498000,2026-01-08 12:36:45,0.0,5,7.442,0.0,0.0,-0.223694,22.7,9.8,3.9,1024,1024,1024,1024,0,0,0,0,68,6.14,77.9,29.199476,P-GPS,,8.9
223,498100,2026-01-08 12:36:45,0.0,5,7.442,0.0,0.0,-0.223694,22.8,9.4,4.0,1024,1024,1024,1024,0,0,0,0,68,6.14,77.9,29.199476,P-GPS,,8.9
224,498200,2026-01-08 12:36:45,0.0,5,7.442,0.0,0.0,0.0,22.8,9.7,4.2,1024,1024,1024,1024,0,0,0,0,68,6.14,77.9,28.871392,P-GPS,,8.8
225,498300,2026-01-08 12:36:46,0.0,5,7.442,0.0,0.0,0.0,22.9,10.3,4.2,1024,1024,1024,1024,0,0,0,0,68,6.14,77.9,28.871392,P-GPS,,8.8
226,498400,2026-01-08 12:36:46,0.0,5,7.442,0.0,0.0,0.0,22.8,9.0,4.3,1024,1024,1024,1024,0,0,0,0,68,6.14,77.9,28.871392,P-GPS,,8.8
227,498500,2026-01-08 12:36:46,0.0,5,7.442,0.0,0.0,0.0,22.7,9.0,3.9,1024,1024,1024,1024,0,0,0,0,68,6.14,77.9,28.871392,P-GPS,,8.8
228,498600,2026-01-08 12:36:46,0.0,5,7.442,0.0,0.0,0.0,22.9,8.8,4.5,1024,1024,1024,1024,0,0,0,0,68,6.14,77.9,28.871392,P-GPS,,8.8
229,498700,2026-01-08 12:36:46,0.223694,5,7.442,0.0,-0.223694,0.0,22.9,8.5,5.0,1024,1024,1024,1024,0,0,0,0,68,6.14,77.9,28.871392,P-GPS,,8.8
230,498800,2026-01-08 12:36:46,0.223694,5,7.442,0.0,-0.223694,0.0,22.7,7.8,5.6,1024,1024,1024,1024,0,0,0,0,68,6.14,77.9,28.871392,P-GPS,,8.8
231,498900,2026-01-08 12:36:46,0.223694,5,7.442,0.0,-0.223694,0.223694,22.9,9.0,5.5,1024,1024,1024,1024,0,0,0,0,68,6.14,77.9,29.199476,P-GPS,,8.9
232,499000,2026-01-08 12:36:46,0.3131716,5,7.442,-0.223694,-0.223694,0.223694,23.0,6.6,4.6,1024,1024,1024,1024,0,0,0,0,68,6.14,77.9,29.199476,P-GPS,,8.9
233,499100,2026-01-08 12:36:46,0.3131716,5,7.442,-0.223694,-0.223694,0.0,22.8,3.6,5.8,1024,1024,1024,1024,0,0,0,0,68,6.14,77.9,29.199476,P-GPS,,8.9
234,499200,2026-01-08 12:36:47,0.223694,5,7.408,0.0,-0.223694,-0.223694,22.8,3.5,6.4,1024,1024,1024,1024,0,0,0,0,68,5.49,77.9,29.199476,P-GPS,,8.9
235,499300,2026-01-08 12:36:47,0.223694,5,7.408,0.0,-0.223694,-0.447388,23.1,3.9,7.0,1024,1024,1024,1024,0,0,0,0,68,5.49,77.9,29.52756,P-GPS,,9.0
236,499400,2026-01-08 12:36:47,0.0,5,7.408,0.0,0.0,-0.223694,23.1,4.4,6.8,1024,1024,1024,1024,0,0,0,0,68,5.49,77.9,29.52756,P-GPS,,9.0
237,499500,2026-01-08 12:36:47,0.0,5,7.408,0.0,0.0,-0.223694,23.2,5.0,6.5,1024,1024,1024,1024,0,0,0,0,68,5.49,77.9,29.52756,P-GPS,,9.0
238,499600,2026-01-08 12:36:47,0.0,5,7.408,0.0,0.0,0.0,23.2,5.5,5.7,1024,1024,1024,1024,0,0,0,0,68,5.49,77.9,29.52756,P-GPS,,9.0
239,499700,2026-01-08 12:36:47,0.0,5,7.408,0.0,0.0,0.0,23.2,5.6,5.4,1024,1024,1024,1024,0,0,0,0,68,5.49,77.9,29.52756,P-GPS,,9.0
240,499800,2026-01-08 12:36:47,0.0,5,7.408,0.0,0.0,0.0,23.2,5.4,5.1,1024,1024,1024,1024,0,0,0,0,68,5.49,77.9,29.52756,P-GPS,,9.0
241,499900,2026-01-08 12:36:47,0.0,5,7.408,0.0,0.0,0.0,23.1,5.9,4.7,1024,1024,1024,1024,0,0,0,0,68,5.49,77.9,29.52756,P-GPS,,9.0
242,500000,2026-01-08 12:36:47,0.0,5,7.408,0.0,0.0,0.0,23.1,5.5,4.9,1024,1024,1024,1024,0,0,0,0,68,5.49,77.9,29.52756,P-GPS,,9.0
243,500100,2026-01-08 12:36:47,0.0,5,7.408,0.0,0.0,0.0,22.9,5.3,5.3,1024,1024,1024,1024,0,0,0,0,68,5.49,77.9,29.52756,P-GPS,,9.0
244,500200,2026-01-08 12:36:48,0.0,5,7.408,0.0,0.0,0.0,22.9,4.7,5.3,1024,1024,1024,1024,0,0,0,0,68,5.49,77.9,29.52756,P-GPS,,9.0
245,500300,2026-01-08 12:36:48,0.0,5,7.499,0.0,0.0,0.0,22.9,4.2,5.9,1024,1024,1024,1024,0,0,0,0,67,4.09,77.9,29.52756,P-GPS,,9.0
246,500400,2026-01-08 12:36:48,0.0,5,7.499,0.0,0.0,0.0,22.8,4.1,6.2,1024,1024,1024,1024,0,0,0,0,67,4.09,77.9,29.52756,P-GPS,,9.0
247,500500,2026-01-08 12:36:48,0.0,5,7.499,0.0,0.0,0.0,22.9,4.5,6.2,1024,1024,1024,1024,0,0,0,0,67,4.09,77.9,29.52756,P-GPS,,9.0
248,500600,2026-01-08 12:36:48,0.0,5,7.499,0.0,0.0,0.0,23.0,5.6,5.8,1024,1024,1024,1024,0,0,0,0,67,4.09,77.9,29.52756,P-GPS,,9.0
249,500700,2026-01-08 12:36:48,0.0,5,7.499,0.0,0.0,0.0,22.9,5.5,5.7,1024,1024,1024,1024,0,0,0,0,67,4.09,77.9,29.52756,P-GPS,,9.0
250,500800,2026-01-08 12:36:48,0.0,5,7.499,0.0,0.0,0.0,22.8,5.4,4.8,1024,1024,1024,1024,0,0,0,0,67,4.09,77.9,29.52756,P-GPS,,9.0
251,500900,2026-01-08 12:36:48,0.0,5,7.499,0.0,0.0,0.0,22.7,5.1,5.3,1024,1024,1024,1024,0,0,0,0,67,4.09,77.9,29.52756,P-GPS,,9.0
252,501000,2026-01-08 12:36:48,0.0,5,7.499,0.0,0.0,0.0,22.8,6.7,5.1,1024,1024,1024,1024,0,0,0,0,67,4.09,77.9,29.52756,P-GPS,,9.0
253,501100,2026-01-08 12:36:48,0.0,5,7.499,0.0,0.0,0.0,22.8,7.1,5.4,1024,1024,1024,1024,0,0,0,0,67,4.09,77.9,29.52756,P-GPS,,9.0
254,501200,2026-01-08 12:36:49,0.0,5,7.499,0.0,0.0,0.0,22.8,6.2,5.5,1024,1024,1024,1024,0,0,0,0,67,4.09,77.9,29.52756,P-GPS,,9.0
255,501300,2026-01-08 12:36:49,0.0,5,7.499,0.0,0.0,0.0,22.8,6.8,5.5,1024,1024,1024,1024,0,0,0,0,67,4.09,77.9,29.52756,P-GPS,,9.0
256,501400,2026-01-08 12:36:49,0.0,5,7.488,0.0,0.0,0.0,23.0,7.6,5.1,1024,1024,1024,1024,0,0,0,0,67,4.768,77.9,29.52756,P-GPS,,9.0
257,501500,2026-01-08 12:36:49,0.0,5,7.488,0.0,0.0,0.0,22.9,7.7,6.3,1024,1024,1024,1024,0,0,0,0,67,4.768,77.9,29.52756,P-GPS,,9.0
258,501600,2026-01-08 12:36:49,0.0,5,7.488,0.0,0.0,0.0,23.0,8.0,6.5,1024,1024,1024,1024,0,0,0,0,67,4.768,77.9,29.52756,P-GPS,,9.0
259,501700,2026-01-08 12:36:49,0.0,5,7.488,0.0,0.0,0.0,22.9,7.1,6.5,1024,1024,1024,1024,0,0,0,0,67,4.768,77.9,29.52756,P-GPS,,9.0
260,501800,2026-01-08 12:36:49,0.0,5,7.488,0.0,0.0,0.0,22.8,7.1,6.3,1024,1024,1024,1024,0,0,0,0,67,4.768,77.9,29.52756,P-GPS,,9.0
261,501900,2026-01-08 12:36:49,0.0,5,7.488,0.0,0.0,0.0,22.6,6.9,6.0,1024,1024,1024,1024,0,0,0,0,67,4.768,77.9,29.52756,P-GPS,,9.0
262,502000,2026-01-08 12:36:49,0.0,5,7.488,0.0,0.0,0.0,22.8,8.0,6.0,1024,1024,1024,1024,0,0,0,0,67,4.768,77.9,29.52756,P-GPS,,9.0
263,502100,2026-01-08 12:36:49,0.0,5,7.488,0.0,0.0,0.0,22.8,7.9,6.3,1024,1024,1024,1024,0,0,0,0,67,4.768,77.9,29.52756,P-GPS,,9.0
264,502200,2026-01-08 12:36:50,0.0,5,7.488,0.0,0.0,0.0,22.9,8.4,6.5,1024,1024,1024,1024,0,0,0,0,67,4.768,77.9,29.52756,P-GPS,,9.0
265,502300,2026-01-08 12:36:50,0.0,5,7.488,0.0,0.0,0.0,22.9,8.2,6.9,1024,1024,1024,1024,0,0,0,0,67,4.768,77.9,29.52756,P-GPS,,9.0
266,502400,2026-01-08 12:36:50,0.0,5,7.488,0.0,0.0,0.0,23.0,8.7,6.1,1024,1024,1024,1024,0,0,0,0,67,4.768,77.9,29.52756,P-GPS,,9.0
267,502500,2026-01-08 12:36:50,0.0,5,7.479,0.0,0.0,0.0,23.0,8.3,6.2,1024,1024,1024,1024,0,0,0,0,67,5.145,77.9,29.52756,P-GPS,,9.0
268,502600,2026-01-08 12:36:50,0.0,5,7.479,0.0,0.0,0.0,22.8,7.5,6.5,1024,1024,1024,1024,0,0,0,0,67,5.145,77.9,29.52756,P-GPS,,9.0
269,502700,2026-01-08 12:36:50,0.0,5,7.479,0.0,0.0,0.0,22.7,7.6,6.5,1024,1024,1024,1024,0,0,0,0,67,5.145,77.9,29.52756,P-GPS,,9.0
270,502800,2026-01-08 12:36:50,0.0,5,7.479,0.0,0.0,0.0,22.7,8.1,6.0,1024,1024,1024,1024,0,0,0,0,67,5.145,77.9,29.52756,P-GPS,,9.0
271,502900,2026-01-08 12:36:50,0.0,5,7.479,0.0,0.0,0.0,22.7,8.1,5.6,1024,1024,1024,1024,0,0,0,0,67,5.145,77.9,29.52756,P-GPS,,9.0
272,503000,2026-01-08 12:36:50,0.223694,5,7.479,0.223694,0.0,0.0,22.8,9.0,5.3,1024,1024,1024,1024,0,0,0,0,67,5.145,77.9,29.52756,P-GPS,,9.0
273,503100,2026-01-08 12:36:50,0.223694,5,7.479,0.223694,0.0,0.0,23.0,10.6,6.8,1024,1024,1024,1024,0,0,0,0,67,5.145,77.9,29.52756,P-GPS,,9.0
274,503200,2026-01-08 12:36:50,0.223694,5,7.479,0.223694,0.0,0.0,23.1,10.8,6.4,1024,1024,1024,1024,0,0,0,0,67,5.145,77.9,29.52756,P-GPS,,9.0
275,503300,2026-01-08 12:36:51,0.0,5,7.479,0.0,0.0,0.0,23.2,10.8,6.4,1024,1024,1024,1024,0,0,0,0,67,5.145,77.9,29.855644,P-GPS,,9.1
276,503400,2026-01-08 12:36:51,0.0,5,7.479,0.0,0.0,0.0,23.3,10.4,6.7,1024,1024,1024,1024,0,0,0,0,67,5.145,77.9,29.855644,P-GPS,,9.1
277,503500,2026-01-08 12:36:51,0.0,5,7.479,0.0,0.0,0.0,23.4,10.1,7.1,1024,1024,1024,1024,0,0,0,0,67,5.145,77.9,29.855644,P-GPS,,9.1
278,503600,2026-01-08 12:36:51,0.0,5,7.453,0.0,0.0,0.0,23.4,8.6,7.4,1024,1024,1024,1024,0,0,0,0,67,5.224,78.08,29.855644,P-GPS,,9.1
279,503700,2026-01-08 12:36:51,0.0,5,7.453,0.0,0.0,0.0,23.0,7.0,8.4,1024,1024,1024,1024,0,0,0,0,67,5.224,78.08,29.855644,P-GPS,,9.1
280,503800,2026-01-08 12:36:51,0.0,5,7.453,0.0,0.0,0.0,22.8,6.9,7.5,1024,1024,1024,1024,0,0,0,0,67,5.224,78.08,30.183728,P-GPS,,9.2
281,503900,2026-01-08 12:36:51,0.0,5,7.453,0.0,0.0,0.0,22.8,6.9,7.4,1024,1024,1024,1024,0,0,0,0,67,5.224,78.08,29.855644,P-GPS,,9.1
282,504000,2026-01-08 12:36:51,0.0,5,7.453,0.0,0.0,-0.223694,22.8,8.2,6.3,1024,1024,1024,1024,0,0,0,0,67,5.224,78.08,29.855644,P-GPS,,9.1
283,504100,2026-01-08 12:36:51,0.223694,5,7.453,0.0,0.223694,-0.223694,22.8,9.4,5.1,1024,1024,1024,1024,0,0,0,0,67,5.224,78.08,29.855644,P-GPS,,9.1
284,504200,2026-01-08 12:36:52,0.223694,5,7.453,0.0,0.223694,0.0,22.8,9.3,5.3,1024,1024,1024,1024,0,0,0,0,67,5.224,78.08,29.855644,P-GPS,,9.1
285,504300,2026-01-08 12:36:52,0.223694,5,7.453,0.0,0.223694,-0.223694,22.7,8.8,4.4,1024,1024,1024,1024,0,0,0,0,67,5.224,78.08,29.52756,P-GPS,,9.0
286,504400,2026-01-08 12:36:52,0.223694,5,7.453,0.0,0.223694,-0.223694,22.5,7.4,3.8,1024,1024,1024,1024,0,0,0,0,67,5.224,78.08,29.52756,P-GPS,,9.0
287,504500,2026-01-08 12:36:52,0.223694,5,7.453,0.0,0.223694,0.0,22.6,9.3,3.2,1024,1024,1024,1024,0,0,0,0,67,5.224,78.08,29.199476,P-GPS,,8.9
288,504600,2026-01-08 12:36:52,0.0,5,7.453,0.0,0.0,0.0,22.6,9.2,3.6,1024,1024,1024,1024,0,0,0,0,67,5.224,78.08,28.871392,P-GPS,,8.8
289,504700,2026-01-08 12:36:52,0.223694,5,7.518,-0.223694,0.0,0.0,22.8,8.4,2.9,1024,1024,1024,1024,0,0,0,0,67,4.782,78.08,28.871392,P-GPS,,8.8
290,504800,2026-01-08 12:36:52,0.223694,5,7.518,-0.223694,0.0,0.0,22.7,7.0,3.2,1024,1024,1024,1024,0,0,0,0,67,4.782,78.08,28.871392,P-GPS,,8.8
291,504900,2026-01-08 12:36:52,0.223694,5,7.518,-0.223694,0.0,0.0,22.6,6.1,2.9,1024,1024,1024,1024,0,0,0,0,67,4.782,78.08,28.543308,P-GPS,,8.7
292,505000,2026-01-08 12:36:52,0.223694,5,7.518,-0.223694,0.0,0.0,22.6,5.6,2.5,1024,1024,1024,1024,0,0,0,0,67,4.782,78.08,28.543308,P-GPS,,8.7
293,505100,2026-01-08 12:36:52,0.0,5,7.518,0.0,0.0,0.0,22.5,6.4,2.9,1024,1024,1024,1024,0,0,0,0,67,4.782,78.08,28.215224,P-GPS,,8.6
294,505200,2026-01-08 12:36:53,0.0,5,7.518,0.0,0.0,0.0,22.6,6.6,3.5,1024,1024,1024,1024,0,0,0,0,67,4.782,78.08,28.215224,P-GPS,,8.6
295,505300,2026-01-08 12:36:53,0.0,5,7.518,0.0,0.0,0.0,22.8,6.6,4.8,1024,1024,1024,1024,0,0,0,0,67,4.782,78.08,28.215224,P-GPS,,8.6
296,505400,2026-01-08 12:36:53,0.0,5,7.518,0.0,0.0,0.0,22.8,6.6,5.0,1024,1024,1024,1024,0,0,0,0,67,4.782,78.08,28.215224,P-GPS,,8.6
297,505500,2026-01-08 12:36:53,0.0,5,7.518,0.0,0.0,0.0,22.7,7.1,4.0,1024,1024,1024,1024,0,0,0,0,67,4.782,78.08,28.215224,P-GPS,,8.6
298,505600,2026-01-08 12:36:53,0.0,5,7.518,0.0,0.0,0.0,22.6,6.9,3.7,1024,1024,1024,1024,0,0,0,0,67,4.782,78.08,28.215224,P-GPS,,8.6
299,505700,2026-01-08 12:36:53,0.0,5,7.518,0.0,0.0,0.0,22.6,7.1,3.7,1024,1024,1024,1024,0,0,0,0,67,4.782,78.08,28.215224,P-GPS,,8.6
300,505800,2026-01-08 12:36:53,0.0,5,7.488,0.0,0.0,0.0,22.6,6.4,3.6,1024,1024,1024,1024,0,0,0,0,67,4.449,78.08,28.215224,P-GPS,,8.6
301,505900,2026-01-08 12:36:53,0.0,5,7.488,0.0,0.0,0.0,22.6,7.1,3.6,1024,1024,1024,1024,0,0,0,0,67,4.449,78.08,28.215224,P-GPS,,8.6
302,506000,2026-01-08 12:36:53,0.0,5,7.488,0.0,0.0,0.0,22.7,7.4,3.6,1024,1024,1024,1024,0,0,0,0,67,4.449,78.08,28.215224,P-GPS,,8.6
303,506100,2026-01-08 12:36:53,0.0,5,7.488,0.0,0.0,0.0,22.8,6.8,3.7,1024,1024,1024,1024,0,0,0,0,67,4.449,78.08,28.215224,P-GPS,,8.6
304,506200,2026-01-08 12:36:54,0.0,5,7.488,0.0,0.0,0.0,22.9,7.2,3.8,1024,1024,1024,1024,0,0,0,0,67,4.449,78.08,28.215224,P-GPS,,8.6
305,506300,2026-01-08 12:36:54,0.0,5,7.488,0.0,0.0,0.0,22.8,6.9,3.5,1024,1024,1024,1024,0,0,0,0,67,4.449,78.08,28.215224,P-GPS,,8.6
306,506400,2026-01-08 12:36:54,0.0,5,7.488,0.0,0.0,0.0,22.8,6.8,3.4,1024,1024,1024,1024,0,0,0,0,67,4.449,78.08,28.215224,P-GPS,,8.6
307,506500,2026-01-08 12:36:54,0.0,5,7.488,0.0,0.0,0.0,22.8,7.0,3.5,1024,1024,1024,1024,0,0,0,0,67,4.449,78.08,28.215224,P-GPS,,8.6
308,506600,2026-01-08 12:36:54,0.0,5,7.488,0.0,0.0,0.0,22.8,6.9,2.9,1024,1024,1024,1024,0,0,0,0,67,4.449,78.08,28.215224,P-GPS,,8.6
309,506700,2026-01-08 12:36:54,0.223694,5,7.488,0.0,0.223694,0.0,22.7,6.8,2.2,1024,1024,1024,1024,0,0,0,0,67,4.449,78.08,27.88714,P-GPS,,8.5
310,506800,2026-01-08 12:36:54,0.223694,5,7.488,0.0,0.0,0.0,22.8,7.3,1.9,1024,1024,1024,1024,0,0,0,0,67,4.449,78.08,27.88714,P-GPS,,8.5
311,506900,2026-01-08 12:36:54,0.0,5,7.482,0.0,0.0,0.0,22.7,8.5,2.3,1024,1024,1024,1024,0,0,0,0,67,4.673,78.08,27.88714,P-GPS,,8.5
312,507000,2026-01-08 12:36:54,0.0,5,7.482,0.0,0.0,0.0,22.7,8.7,2.6,1024,1024,1024,1024,0,0,0,0,67,4.673,78.08,27.88714,P-GPS,,8.5
313,507100,2026-01-08 12:36:54,0.0,5,7.482,0.0,0.0,0.0,22.7,9.3,2.2,1024,1024,1024,1024,0,0,0,0,67,4.673,78.08,27.88714,P-GPS,,8.5
314,507200,2026-01-08 12:36:55,0.223694,5,7.482,0.223694,0.0,0.0,22.8,10.2,2.3,1024,1024,1024,1024,0,0,0,0,67,4.673,78.08,27.88714,P-GPS,,8.5
315,507300,2026-01-08 12:36:55,0.0,5,7.482,0.0,0.0,0.0,22.8,10.2,2.1,1024,1024,1024,1024,0,0,0,0,67,4.673,78.08,28.215224,P-GPS,,8.6
316,507400,2026-01-08 12:36:55,0.0,5,7.482,0.0,0.0,0.0,22.7,9.8,2.1,1024,1024,1024,1024,0,0,0,0,67,4.673,78.08,28.215224,P-GPS,,8.6
317,507500,2026-01-08 12:36:55,0.0,5,7.482,0.0,0.0,0.0,22.7,9.9,2.1,1024,1024,1024,1024,0,0,0,0,67,4.673,78.08,28.215224,P-GPS,,8.6
318,507600,2026-01-08 12:36:55,0.0,5,7.482,0.0,0.0,0.0,22.7,9.4,2.4,1024,1024,1024,1024,0,0,0,0,67,4.673,78.08,28.215224,P-GPS,,8.6
319,507700,2026-01-08 12:36:55,0.0,5,7.482,0.0,0.0,0.0,22.8,9.2,2.6,1024,1024,1024,1024,0,0,0,0,67,4.673,78.08,28.215224,P-GPS,,8.6
320,507800,2026-01-08 12:36:55,0.0,5,7.482,0.0,0.0,0.0,23.0,9.1,2.9,1024,1024,1024,1024,0,0,0,0,67,4.673,78.08,28.215224,P-GPS,,8.6
321,507900,2026-01-08 12:36:55,0.0,5,7.482,0.0,0.0,0.0,23.0,9.5,3.3,1024,1024,1024,1024,0,0,0,0,67,4.673,78.08,28.543308,P-GPS,,8.7
322,508000,2026-01-08 12:36:55,0.0,5,7.468,0.0,0.0,0.0,23.0,9.2,2.6,1024,1024,1024,1024,0,0,0,0,67,4.977,78.08,28.543308,P-GPS,,8.7
323,508100,2026-01-08 12:36:55,0.0,5,7.468,0.0,0.0,0.0,22.9,8.5,2.9,1024,1024,1024,1024,0,0,0,0,67,4.977,78.08,28.543308,P-GPS,,8.7
324,508200,2026-01-08 12:36:55,0.0,5,7.468,0.0,0.0,0.0,22.8,9.0,3.2,1024,1024,1024,1024,0,0,0,0,67,4.977,78.08,28.543308,P-GPS,,8.7
325,508300,2026-01-08 12:36:56,0.0,5,7.468,0.0,0.0,0.0,22.9,8.8,3.2,1024,1024,1024,1024,0,0,0,0,67,4.977,78.08,28.543308,P-GPS,,8.7
326,508400,2026-01-08 12:36:56,0.0,5,7.468,0.0,0.0,0.0,22.7,7.9,2.9,1024,1024,1024,1024,0,0,0,0,67,4.977,78.08,28.543308,P-GPS,,8.7
327,508500,2026-01-08 12:36:56,0.0,5,7.468,0.0,0.0,0.0,22.7,7.4,2.9,1024,1024,1024,1024,0,0,0,0,67,4.977,78.08,28.543308,P-GPS,,8.7
328,508600,2026-01-08 12:36:56,0.0,5,7.468,0.0,0.0,0.0,22.9,7.8,2.8,1024,1024,1024,1024,0,0,0,0,67,4.977,78.08,28.543308,P-GPS,,8.7
329,508700,2026-01-08 12:36:56,0.0,5,7.468,0.0,0.0,0.0,22.9,7.8,2.9,1024,1024,1024,1024,0,0,0,0,67,4.977,78.08,28.871392,P-GPS,,8.8
330,508800,2026-01-08 12:36:56,0.0,5,7.468,0.0,0.0,0.0,22.8,7.4,2.9,1024,1024,1024,1024,0,0,0,0,67,4.977,78.08,28.871392,P-GPS,,8.8
331,508900,2026-01-08 12:36:56,0.0,5,7.468,0.0,0.0,0.0,22.8,7.5,2.5,1024,1024,1024,1024,0,0,0,0,67,4.977,78.08,28.871392,P-GPS,,8.8
332,509000,2026-01-08 12:36:56,0.0,5,7.468,0.0,0.0,0.0,22.9,6.9,2.5,1024,1024,1024,1024,0,0,0,0,67,4.977,78.08,28.871392,P-GPS,,8.8
333,509100,2026-01-08 12:36:56,0.0,5,7.461,0.0,0.0,0.0,22.8,6.7,2.4,1024,1024,1024,1024,0,0,0,0,67,4.979,78.08,28.871392,P-GPS,,8.8
334,509200,2026-01-08 12:36:57,0.0,5,7.461,0.0,0.0,0.0,22.8,7.0,2.4,1024,1024,1024,1024,0,0,0,0,67,4.979,78.08,28.871392,P-GPS,,8.8
335,509300,2026-01-08 12:36:57,0.0,5,7.461,0.0,0.0,0.0,22.8,6.9,2.4,1024,1024,1024,1024,0,0,0,0,67,4.979,78.08,28.871392,P-GPS,,8.8
336,509400,2026-01-08 12:36:57,0.0,5,7.461,0.0,0.0,0.0,22.8,7.4,1.8,1024,1024,1024,1024,0,0,0,0,67,4.979,78.08,28.871392,P-GPS,,8.8
337,509500,2026-01-08 12:36:57,0.0,5,7.461,0.0,0.0,0.0,22.8,7.8,1.5,1024,1024,1024,1024,0,0,0,0,67,4.979,78.08,28.871392,P-GPS,,8.8
338,509600,2026-01-08 12:36:57,0.0,5,7.461,0.0,0.0,0.0,22.7,7.4,1.4,1024,1024,1024,1024,0,0,0,0,67,4.979,78.08,28.871392,P-GPS,,8.8
339,509700,2026-01-08 12:36:57,0.0,5,7.461,0.0,0.0,0.0,22.7,7.3,1.9,1024,1024,1024,1024,0,0,0,0,67,4.979,78.08,28.871392,P-GPS,,8.8
340,509800,2026-01-08 12:36:57,0.0,5,7.461,0.0,0.0,0.0,22.8,7.1,1.3,1024,1024,1024,1024,0,0,0,0,67,4.979,78.08,28.871392,P-GPS,,8.8
341,509900,2026-01-08 12:36:57,0.0,5,7.461,0.0,0.0,0.0,22.7,7.3,1.6,1024,1024,1024,1024,0,0,0,0,67,4.979,78.08,28.871392,P-GPS,,8.8
342,510000,2026-01-08 12:36:57,0.0,5,7.461,0.0,0.0,0.0,22.9,6.5,2.3,1024,1024,1024,1024,0,0,0,0,67,4.979,78.08,28.871392,P-GPS,,8.8
343,510100,2026-01-08 12:36:57,0.0,5,7.461,0.0,0.0,0.0,22.9,6.4,1.9,1024,1024,1024,1024,0,0,0,0,67,4.979,78.08,28.871392,P-GPS,,8.8
344,510200,2026-01-08 12:36:57,0.0,5,7.461,0.0,0.0,0.0,22.8,6.5,1.2,1024,1024,1024,1024,0,0,0,0,67,4.979,78.08,29.199476,P-GPS,,8.9
345,510300,2026-01-08 12:36:58,0.0,5,7.466,0.0,0.0,0.0,22.8,6.4,0.9,1024,1024,1024,1024,0,0,0,0,67,4.932,78.08,29.199476,P-GPS,,8.9
346,510400,2026-01-08 12:36:58,0.0,5,7.466,0.0,0.0,0.0,22.8,6.6,0.8,1024,1024,1024,1024,0,0,0,0,67,4.932,78.08,29.199476,P-GPS,,8.9
347,510500,2026-01-08 12:36:58,0.0,5,7.466,0.0,0.0,0.0,22.7,6.4,0.7,1024,1024,1024,1024,0,0,0,0,67,4.932,78.08,29.199476,P-GPS,,8.9
348,510600,2026-01-08 12:36:58,0.0,5,7.466,0.0,0.0,0.0,22.7,6.2,1.0,1024,1024,1024,1024,0,0,0,0,67,4.932,78.08,29.199476,P-GPS,,8.9
349,510700,2026-01-08 12:36:58,0.0,5,7.466,0.0,0.0,0.0,22.7,6.3,1.0,1024,1024,1024,1024,0,0,0,0,67,4.932,78.08,29.199476,P-GPS,,8.9
350,510800,2026-01-08 12:36:58,0.0,5,7.466,0.0,0.0,0.0,22.6,6.1,0.8,1024,1024,1024,1024,0,0,0,0,67,4.932,78.08,29.52756,P-GPS,,9.0
351,510900,2026-01-08 12:36:58,0.0,5,7.466,0.0,0.0,0.0,22.6,6.1,2.0,1024,1024,1024,1024,0,0,0,0,67,4.932,78.08,29.52756,P-GPS,,9.0
352,511000,2026-01-08 12:36:58,0.0,5,7.466,0.0,0.0,0.0,22.6,6.3,2.0,1024,1024,1024,1024,0,0,0,0,67,4.932,78.08,29.52756,P-GPS,,9.0
353,511100,2026-01-08 12:36:58,0.0,5,7.466,0.0,0.0,0.0,22.6,6.2,2.4,1024,1024,1024,1024,0,0,0,0,67,4.932,78.08,29.52756,P-GPS,,9.0
354,511200,2026-01-08 12:36:59,0.0,5,7.466,0.0,0.0,0.0,22.5,6.0,2.9,1024,1024,1024,1024,0,0,0,0,67,4.932,78.08,29.855644,P-GPS,,9.1
355,511300,2026-01-08 12:36:59,0.0,5,7.466,0.0,0.0,0.0,22.6,5.5,2.7,1024,1024,1024,1024,0,0,0,0,67,4.932,78.08,29.855644,P-GPS,,9.1
356,511400,2026-01-08 12:36:59,0.0,5,7.477,0.0,0.0,0.0,22.6,5.5,3.2,1024,1024,1024,1024,0,0,0,0,67,4.788,78.08,29.855644,P-GPS,,9.1
357,511500,2026-01-08 12:36:59,0.0,5,7.477,0.0,0.0,0.0,22.7,5.9,3.5,1024,1024,1024,1024,0,0,0,0,67,4.788,78.08,29.855644,P-GPS,,9.1
358,511600,2026-01-08 12:36:59,0.0,5,7.477,0.0,0.0,0.0,22.6,5.9,3.4,1024,1024,1024,1024,0,0,0,0,67,4.788,78.08,29.855644,P-GPS,,9.1
359,511700,2026-01-08 12:36:59,0.0,5,7.477,0.0,0.0,0.0,22.6,6.1,3.7,1024,1024,1024,1024,0,0,0,0,67,4.788,78.08,30.183728,P-GPS,,9.2
360,511800,2026-01-08 12:36:59,0.0,5,7.477,0.0,0.0,0.0,22.7,6.8,3.7,1024,1024,1024,1024,0,0,0,0,67,4.788,78.08,30.183728,P-GPS,,9.2
361,511900,2026-01-08 12:36:59,0.0,5,7.477,0.0,0.0,0.0,22.7,6.9,3.6,1024,1024,1024,1024,0,0,0,0,67,4.788,78.08,30.183728,P-GPS,,9.2
362,512000,2026-01-08 12:36:59,0.0,5,7.477,0.0,0.0,0.0,22.7,7.0,3.4,1024,1024,1024,1024,0,0,0,0,67,4.788,78.08,30.183728,P-GPS,,9.2
363,512100,2026-01-08 12:36:59,0.0,5,7.477,0.0,0.0,0.0,22.7,6.3,3.8,1024,1024,1024,1024,0,0,0,0,67,4.788,78.08,30.511812,P-GPS,,9.3
364,512200,2026-01-08 12:36:59,0.0,5,7.477,0.0,0.0,0.0,22.6,5.7,4.0,1024,1024,1024,1024,0,0,0,0,67,4.788,78.08,30.511812,P-GPS,,9.3
