index,time(millisecond),timestamp,speed(mph),gpslevel,voltage(v),xSpeed(mph),ySpeed(mph),zSpeed(mph),compass_heading(degrees),pitch(degrees),roll(degrees),rc_elevator,rc_aileron,rc_throttle,rc_rudder,rc_elevator(percent),rc_aileron(percent),rc_throttle(percent),rc_rudder(percent),battery_percent,current(A),battery_temperature(f),ascent(feet),flycState,message,height_above_takeoff(meters)
84,426400,2026-01-09 20:13:58,0.0,5,7.467,0.0,0.0,0.0,21.1,2.4,-0.9,1024,1024,1024,1024,0,0,0,0,71,5.792,75.74,35.433072,P-GPS,,10.8
85,426500,2026-01-09 20:13:58,0.0,5,7.467,0.0,0.0,0.0,21.1,2.4,-0.8,1024,1024,1024,1024,0,0,0,0,71,5.792,75.74,35.433072,P-GPS,,10.8
86,426600,2026-01-09 20:13:58,0.0,5,7.467,0.0,0.0,0.0,21.2,2.3,-0.7,1024,1024,1024,1024,0,0,0,0,71,5.792,75.74,35.433072,P-GPS,,10.8
87,426700,2026-01-09 20:13:58,0.0,5,7.467,0.0,0.0,0.0,21.2,2.5,-0.6,1024,1024,1024,1024,0,0,0,0,71,5.792,75.74,35.433072,P-GPS,,10.8
88,426800,2026-01-09 20:13:58,0.0,5,7.467,0.0,0.0,0.0,21.1,2.4,-0.8,1024,1024,1024,1024,0,0,0,0,71,5.792,75.74,35.433072,P-GPS,,10.8
89,426900,2026-01-09 20:13:58,0.0,5,7.467,0.0,0.0,0.0,21.1,2.5,-0.6,1024,1024,1024,1024,0,0,0,0,71,5.792,75.74,35.433072,P-GPS,,10.8
90,427000,2026-01-09 20:13:59,0.0,5,7.467,0.0,0.0,0.0,21.1,2.3,-0.5,1024,1024,1024,1024,0,0,0,0,71,5.792,75.74,35.433072,P-GPS,,10.8
91,427100,2026-01-09 20:13:59,0.0,5,7.467,0.0,0.0,0.0,21.1,2.3,-0.2,1024,1024,1024,1024,0,0,0,0,71,5.792,75.74,35.433072,P-GPS,,10.8
92,427200,2026-01-09 20:13:59,0.0,5,7.467,0.0,0.0,0.0,21.1,2.0,-0.2,1024,1024,1024,1024,0,0,0,0,71,5.792,75.74,35.433072,P-GPS,,10.8
93,427300,2026-01-09 20:13:59,0.0,5,7.467,0.0,0.0,0.0,21.2,2.0,0.0,1024,1024,1024,1024,0,0,0,0,71,5.792,75.74,35.433072,P-GPS,,10.8
94,427400,2026-01-09 20:13:59,0.0,5,7.524,0.0,0.0,0.0,21.2,1.9,-0.1,1024,1024,1024,1024,0,0,0,0,71,3.974,75.92,35.433072,P-GPS,,10.8
95,427500,2026-01-09 20:13:59,0.0,5,7.524,0.0,0.0,0.0,21.2,1.8,0.1,1024,1024,1024,1024,0,0,0,0,71,3.974,75.92,35.433072,P-GPS,,10.8
96,427600,2026-01-09 20:13:59,0.223694,5,7.524,-0.223694,0.0,0.0,21.2,1.4,0.0,1024,1024,1024,1024,0,0,0,0,71,3.974,75.92,35.433072,P-GPS,,10.8
97,427700,2026-01-09 20:13:59,0.0,5,7.524,0.0,0.0,0.0,21.2,1.2,0.0,1024,1024,1024,1024,0,0,0,0,71,3.974,75.92,35.433072,P-GPS,,10.8
98,427800,2026-01-09 20:13:59,0.0,5,7.524,0.0,0.0,0.0,21.1,1.1,0.0,1024,1024,1024,1024,0,0,0,0,71,3.974,75.92,35.433072,P-GPS,,10.8
99,427900,2026-01-09 20:13:59,0.0,5,7.524,0.0,0.0,0.0,21.1,1.0,0.0,1024,1024,1024,1024,0,0,0,0,71,3.974,75.92,35.433072,P-GPS,,10.8
100,428000,2026-01-09 20:13:59,0.0,5,7.524,0.0,0.0,0.0,21.2,0.1,0.0,1024,1024,1024,1024,0,0,0,0,71,3.974,75.92,35.433072,P-GPS,,10.8
101,428100,2026-01-09 20:14:00,0.0,5,7.524,0.0,0.0,0.0,21.1,0.8,0.1,1024,1024,1024,1024,0,0,0,0,71,3.974,75.92,35.433072,P-GPS,,10.8
102,428200,2026-01-09 20:14:00,0.0,5,7.524,0.0,0.0,0.0,21.1,1.1,0.0,1024,1024,1024,1024,0,0,0,0,71,3.974,75.92,35.433072,P-GPS,,10.8
103,428300,2026-01-09 20:14:00,0.0,5,7.524,0.0,0.0,0.0,21.1,1.3,0.0,1024,1024,1024,1024,0,0,0,0,71,3.974,75.92,35.433072,P-GPS,,10.8
104,428400,2026-01-09 20:14:00,0.0,5,7.524,0.0,0.0,0.0,21.1,1.4,0.0,1024,1024,1024,1024,0,0,0,0,71,3.974,75.92,35.433072,P-GPS,,10.8
105,428500,2026-01-09 20:14:00,0.0,5,7.524,0.0,0.0,0.0,21.1,1.5,0.1,1024,1024,1024,1024,0,0,0,0,71,3.974,75.92,35.433072,P-GPS,,10.8
106,428600,2026-01-09 20:14:00,0.0,5,7.505,0.0,0.0,0.0,21.1,1.4,0.0,1024,1024,1024,1024,0,0,0,0,71,4.863,75.92,35.433072,P-GPS,,10.8
107,428700,2026-01-09 20:14:00,0.0,5,7.505,0.0,0.0,0.0,21.1,1.3,0.1,1024,1024,1024,1024,0,0,0,0,71,4.863,75.92,35.433072,P-GPS,,10.8
108,428800,2026-01-09 20:14:00,0.0,5,7.505,0.0,0.0,0.0,21.1,1.2,0.1,1024,1024,1024,1024,0,0,0,0,71,4.863,75.92,35.433072,P-GPS,,10.8
109,428900,2026-01-09 20:14:00,0.0,5,7.505,0.0,0.0,0.0,21.1,0.7,0.4,1024,1024,1024,1024,0,0,0,0,71,4.863,75.92,35.433072,P-GPS,,10.8
110,429000,2026-01-09 20:14:01,0.0,5,7.505,0.0,0.0,0.0,21.1,1.0,0.1,1024,1024,1024,1024,0,0,0,0,71,4.863,75.92,35.761156,P-GPS,,10.9
111,429100,2026-01-09 20:14:01,0.0,5,7.505,0.0,0.0,0.0,21.1,1.3,0.0,1024,1024,1024,1024,0,0,0,0,71,4.863,75.92,35.761156,P-GPS,,10.9
112,429200,2026-01-09 20:14:01,0.0,5,7.505,0.0,0.0,0.0,21.1,1.4,0.0,1024,1024,1024,1024,0,0,0,0,71,4.863,75.92,35.761156,P-GPS,,10.9
113,429300,2026-01-09 20:14:01,0.0,5,7.505,0.0,0.0,0.0,21.1,1.8,0.1,1024,1024,1024,1024,0,0,0,0,71,4.863,75.92,35.761156,P-GPS,,10.9
114,429400,2026-01-09 20:14:01,0.0,5,7.505,0.0,0.0,0.0,21.1,1.7,0.0,1024,1024,1024,1024,0,0,0,0,71,4.863,75.92,35.761156,P-GPS,,10.9
115,429500,2026-01-09 20:14:01,0.0,5,7.505,0.0,0.0,0.0,21.1,1.8,0.0,1024,1024,1024,1024,0,0,0,0,71,4.863,75.92,35.761156,P-GPS,,10.9
116,429600,2026-01-09 20:14:01,0.0,5,7.505,0.0,0.0,0.0,21.2,1.5,0.1,1024,1024,1024,1024,0,0,0,0,71,4.863,75.92,35.761156,P-GPS,,10.9
117,429700,2026-01-09 20:14:01,0.0,5,7.509,0.0,0.0,0.0,21.1,2.1,0.2,1024,1024,1024,1024,0,0,0,0,71,4.827,75.92,35.761156,P-GPS,,10.9
118,429800,2026-01-09 20:14:01,0.0,5,7.509,0.0,0.0,0.0,21.1,2.1,0.0,1024,1024,1024,1024,0,0,0,0,71,4.827,75.92,35.761156,P-GPS,,10.9
119,429900,2026-01-09 20:14:01,0.0,5,7.509,0.0,0.0,0.0,21.1,2.1,0.0,1024,1024,1024,1024,0,0,0,0,71,4.827,75.92,35.761156,P-GPS,,10.9
120,430000,2026-01-09 20:14:02,0.0,5,7.509,0.0,0.0,0.0,21.1,2.0,-0.1,1024,1024,1024,1024,0,0,0,0,71,4.827,75.92,35.761156,P-GPS,,10.9
121,430100,2026-01-09 20:14:02,0.0,5,7.509,0.0,0.0,0.0,21.2,1.7,0.1,1024,1024,1024,1024,0,0,0,0,71,4.827,75.92,35.761156,P-GPS,,10.9
122,430200,2026-01-09 20:14:02,0.0,5,7.509,0.0,0.223694,0.0,21.1,1.9,-0.2,1024,1024,1024,1024,0,0,0,0,71,4.827,75.92,35.761156,P-GPS,,10.9
123,430300,2026-01-09 20:14:02,0.223694,5,7.509,0.0,0.223694,0.0,21.1,2.0,-0.2,1024,1024,1024,1024,0,0,0,0,71,4.827,75.92,35.761156,P-GPS,,10.9
124,430400,2026-01-09 20:14:02,0.0,5,7.509,0.0,0.0,0.0,21.1,1.6,-0.2,1024,1024,1024,1024,0,0,0,0,71,4.827,75.92,35.761156,P-GPS,,10.9
125,430500,2026-01-09 20:14:02,0.0,5,7.509,0.0,0.0,0.0,21.1,1.9,-0.3,1024,1024,1024,1024,0,0,0,0,71,4.827,75.92,35.761156,P-GPS,,10.9
126,430600,2026-01-09 20:14:02,0.0,5,7.509,0.0,0.0,0.0,21.1,1.8,-0.4,1024,1024,1024,1024,0,0,0,0,71,4.827,75.92,35.761156,P-GPS,,10.9
127,430700,2026-01-09 20:14:02,0.0,5,7.509,0.0,0.0,0.0,21.0,1.9,-0.3,1024,1024,1024,1024,0,0,0,0,71,4.827,75.92,35.761156,P-GPS,,10.9
128,430800,2026-01-09 20:14:02,0.0,5,7.512,0.0,0.0,0.0,21.0,1.9,-0.4,1024,1024,1024,1024,0,0,0,0,70,4.805,75.92,35.761156,P-GPS,,10.9
129,430900,2026-01-09 20:14:02,0.0,5,7.512,0.0,0.0,0.0,21.0,2.0,-0.2,1024,1024,1024,1024,0,0,0,0,70,4.805,75.92,35.761156,P-GPS,,10.9
130,431000,2026-01-09 20:14:03,0.0,5,7.512,0.0,0.0,0.0,21.0,1.8,-0.2,1024,1024,1024,1024,0,0,0,0,70,4.805,75.92,35.761156,P-GPS,,10.9
131,431100,2026-01-09 20:14:03,0.0,5,7.512,0.0,0.0,0.0,21.0,1.9,-0.2,1024,1024,1024,1024,0,0,0,0,70,4.805,75.92,35.761156,P-GPS,,10.9
132,431200,2026-01-09 20:14:03,0.0,5,7.512,0.0,0.0,0.0,21.1,1.9,-0.2,1024,1024,1024,1024,0,0,0,0,70,4.805,75.92,35.761156,P-GPS,,10.9
133,431300,2026-01-09 20:14:03,0.0,5,7.512,0.0,0.0,0.0,21.1,2.0,-0.3,1024,1024,1024,1024,0,0,0,0,70,4.805,75.92,35.761156,P-GPS,,10.9
134,431400,2026-01-09 20:14:03,0.0,5,7.512,0.0,0.0,0.0,21.2,1.8,-0.4,1024,1024,1024,1024,0,0,0,0,70,4.805,75.92,35.761156,P-GPS,,10.9
135,431500,2026-01-09 20:14:03,0.0,5,7.512,0.0,0.0,0.0,21.2,2.0,-0.3,1024,1024,1024,1024,0,0,0,0,70,4.805,75.92,35.761156,P-GPS,,10.9
136,431600,2026-01-09 20:14:03,0.0,5,7.512,0.0,0.0,0.0,21.2,2.0,-0.2,1024,1024,1024,1024,0,0,0,0,70,4.805,75.92,35.761156,P-GPS,,10.9
137,431700,2026-01-09 20:14:03,0.0,5,7.512,0.0,0.0,0.0,21.2,2.1,-0.1,1024,1024,1024,1024,0,0,0,0,70,4.805,75.92,35.761156,P-GPS,,10.9
138,431800,2026-01-09 20:14:03,0.0,5,7.512,0.0,0.0,0.0,21.2,2.1,0.0,1024,1024,1024,1024,0,0,0,0,70,4.805,75.92,35.761156,P-GPS,,10.9
139,431900,2026-01-09 20:14:03,0.0,5,7.506,0.0,0.0,0.0,21.1,2.2,-0.1,1024,1024,1024,1024,0,0,0,0,70,4.718,75.92,35.433072,P-GPS,,10.8
140,432000,2026-01-09 20:14:03,0.0,5,7.506,0.0,0.0,0.0,21.1,2.1,-0.2,1024,1024,1024,1024,0,0,0,0,70,4.718,75.92,35.433072,P-GPS,,10.8
141,432100,2026-01-09 20:14:04,0.0,5,7.506,0.0,0.0,0.0,21.1,2.4,-0.2,1024,1024,1024,1024,0,0,0,0,70,4.718,75.92,35.433072,P-GPS,,10.8
142,432200,2026-01-09 20:14:04,0.0,5,7.506,0.0,0.0,0.0,21.2,2.2,-0.2,1024,1024,1024,1024,0,0,0,0,70,4.718,75.92,35.433072,P-GPS,,10.8
143,432300,2026-01-09 20:14:04,0.0,5,7.506,0.0,0.0,0.0,21.2,2.2,0.0,1024,1024,1024,1024,0,0,0,0,70,4.718,75.92,35.433072,P-GPS,,10.8
144,432400,2026-01-09 20:14:04,0.0,5,7.506,0.0,0.0,0.0,21.2,2.0,0.0,1024,1024,1024,1024,0,0,0,0,70,4.718,75.92,35.433072,P-GPS,,10.8
145,432500,2026-01-09 20:14:04,0.0,5,7.506,0.0,0.0,0.0,21.2,2.0,0.0,1024,1024,1024,1024,0,0,0,0,70,4.718,75.92,35.433072,P-GPS,,10.8
146,432600,2026-01-09 20:14:04,0.0,5,7.506,0.0,0.0,0.0,21.2,1.9,-0.1,1024,1024,1024,1024,0,0,0,0,70,4.718,75.92,35.104988,P-GPS,,10.7
147,432700,2026-01-09 20:14:04,0.0,5,7.506,0.0,0.0,0.0,21.2,1.8,-0.2,1024,1024,1024,1024,0,0,0,0,70,4.718,75.92,35.104988,P-GPS,,10.7
148,432800,2026-01-09 20:14:04,0.0,5,7.506,0.0,0.0,0.0,21.1,1.6,-0.3,1024,1024,1024,1024,0,0,0,0,70,4.718,75.92,35.104988,P-GPS,,10.7
149,432900,2026-01-09 20:14:04,0.0,5,7.506,0.0,0.0,0.0,21.1,1.6,-0.1,1024,1024,1024,1024,0,0,0,0,70,4.718,75.92,35.104988,P-GPS,,10.7
150,433000,2026-01-09 20:14:05,0.0,5,7.505,0.0,0.0,0.0,21.2,1.5,0.0,1024,1024,1024,1024,0,0,0,0,70,4.755,75.92,35.104988,P-GPS,,10.7
151,433100,2026-01-09 20:14:05,0.0,5,7.505,0.0,0.0,0.0,21.2,1.3,0.0,1024,1024,1024,1024,0,0,0,0,70,4.755,75.92,35.104988,P-GPS,,10.7
152,433200,2026-01-09 20:14:05,0.0,5,7.505,0.0,0.0,0.0,21.1,1.5,0.0,1024,1024,1024,1024,0,0,0,0,70,4.755,75.92,34.776904,P-GPS,,10.6
153,433300,2026-01-09 20:14:05,0.0,5,7.505,0.0,0.0,0.0,21.1,1.8,0.0,1024,1024,1024,1024,0,0,0,0,70,4.755,75.92,34.776904,P-GPS,,10.6
154,433400,2026-01-09 20:14:05,0.0,5,7.505,0.0,0.0,0.0,21.1,1.8,0.1,1024,1024,1024,1024,0,0,0,0,70,4.755,75.92,34.776904,P-GPS,,10.6
155,433500,2026-01-09 20:14:05,0.0,5,7.505,0.0,0.0,0.0,21.2,2.2,0.5,1024,1024,1024,1024,0,0,0,0,70,4.755,75.92,34.776904,P-GPS,,10.6
156,433600,2026-01-09 20:14:05,0.0,5,7.505,0.0,0.0,0.0,21.2,2.3,0.5,1024,1024,1024,1024,0,0,0,0,70,4.755,75.92,34.776904,P-GPS,,10.6
157,433700,2026-01-09 20:14:05,0.0,5,7.505,0.0,0.0,0.0,21.1,2.7,0.3,1024,1024,1024,1024,0,0,0,0,70,4.755,75.92,34.776904,P-GPS,,10.6
158,433800,2026-01-09 20:14:05,0.0,5,7.505,0.0,0.0,0.0,21.1,2.6,0.2,1024,1024,1024,1024,0,0,0,0,70,4.755,75.92,34.776904,P-GPS,,10.6
159,433900,2026-01-09 20:14:05,0.0,5,7.505,0.0,0.0,0.0,21.1,2.5,0.4,1024,1024,1024,1024,0,0,0,0,70,4.755,75.92,34.44882,P-GPS,,10.5
160,434000,2026-01-09 20:14:05,0.0,5,7.505,0.0,0.0,0.0,21.1,2.0,0.6,1024,1024,1024,1024,0,0,0,0,70,4.755,75.92,34.44882,P-GPS,,10.5
161,434100,2026-01-09 20:14:06,0.0,5,7.504,0.0,0.0,0.0,21.1,2.1,0.3,1024,1024,1024,1024,0,0,0,0,70,4.82,76.1,34.44882,P-GPS,,10.5
162,434200,2026-01-09 20:14:06,0.0,5,7.504,0.0,0.0,0.0,21.1,1.9,0.1,1024,1024,1024,1024,0,0,0,0,70,4.82,76.1,34.44882,P-GPS,,10.5
163,434300,2026-01-09 20:14:06,0.0,5,7.504,0.0,0.0,0.0,21.1,1.9,0.1,1024,1024,1024,1024,0,0,0,0,70,4.82,76.1,34.44882,P-GPS,,10.5
164,434400,2026-01-09 20:14:06,0.0,5,7.504,0.0,0.0,0.0,21.1,1.9,0.0,1024,1024,1024,1024,0,0,0,0,70,4.82,76.1,34.44882,P-GPS,,10.5
165,434500,2026-01-09 20:14:06,0.0,5,7.504,0.0,0.0,0.0,21.1,2.1,-0.1,1024,1024,1024,1024,0,0,0,0,70,4.82,76.1,34.44882,P-GPS,,10.5
166,434600,2026-01-09 20:14:06,0.0,5,7.504,0.0,0.0,0.0,21.1,1.9,-0.1,1024,1024,1024,1024,0,0,0,0,70,4.82,76.1,34.44882,P-GPS,,10.5
167,434700,2026-01-09 20:14:06,0.0,5,7.504,0.0,0.0,0.0,21.2,2.0,-0.1,1024,1024,1024,1024,0,0,0,0,70,4.82,76.1,34.44882,P-GPS,,10.5
168,434800,2026-01-09 20:14:06,0.0,5,7.504,0.0,0.0,0.0,21.2,1.7,0.0,1024,1024,1024,1024,0,0,0,0,70,4.82,76.1,34.120736,P-GPS,,10.4
169,434900,2026-01-09 20:14:06,0.0,5,7.504,0.0,0.0,0.0,21.1,2.0,-0.1,1024,1024,1024,1024,0,0,0,0,70,4.82,76.1,34.120736,P-GPS,,10.4
170,435000,2026-01-09 20:14:07,0.0,5,7.504,0.0,0.0,0.0,21.1,2.0,-0.2,1024,1024,1024,1024,0,0,0,0,70,4.82,76.1,34.120736,P-GPS,,10.4
171,435100,2026-01-09 20:14:07,0.0,5,7.504,0.0,0.0,0.0,21.1,2.0,-0.3,1024,1024,1024,1024,0,0,0,0,70,4.82,76.1,34.120736,P-GPS,,10.4
172,435200,2026-01-09 20:14:07,0.0,5,7.5,0.0,0.0,0.0,21.1,2.1,-0.3,1024,1024,1024,1024,0,0,0,0,70,4.865,76.1,34.120736,P-GPS,,10.4
173,435300,2026-01-09 20:14:07,0.0,5,7.5,0.0,0.0,0.0,21.1,2.3,-0.3,1024,1024,1024,1024,0,0,0,0,70,4.865,76.1,34.120736,P-GPS,,10.4
174,435400,2026-01-09 20:14:07,0.0,5,7.5,0.0,0.0,0.0,21.1,2.2,-0.3,1024,1024,1024,1024,0,0,0,0,70,4.865,76.1,34.120736,P-GPS,,10.4
175,435500,2026-01-09 20:14:07,0.0,5,7.5,0.0,0.0,0.0,21.2,2.2,-0.3,1024,1024,1024,1024,0,0,0,0,70,4.865,76.1,34.120736,P-GPS,,10.4
176,435600,2026-01-09 20:14:07,0.0,5,7.5,0.0,0.0,0.0,21.3,2.0,-0.3,1024,1024,1024,1024,0,0,0,0,70,4.865,76.1,34.120736,P-GPS,,10.4
177,435700,2026-01-09 20:14:07,0.0,5,7.5,0.0,0.0,0.0,21.3,2.0,-0.3,1024,1024,1024,1024,0,0,0,0,70,4.865,76.1,34.120736,P-GPS,,10.4
178,435800,2026-01-09 20:14:07,0.0,5,7.5,0.0,0.0,0.0,21.2,2.1,-0.4,1024,1024,1024,1024,0,0,0,0,70,4.865,76.1,34.120736,P-GPS,,10.4
179,435900,2026-01-09 20:14:07,0.0,5,7.5,0.0,0.0,0.0,21.2,2.4,-0.4,1024,1024,1024,1024,0,0,0,0,70,4.865,76.1,34.120736,P-GPS,,10.4
180,436000,2026-01-09 20:14:07,0.0,5,7.5,0.0,0.0,0.0,21.2,2.3,-0.2,1024,1024,1024,1024,0,0,0,0,70,4.865,76.1,34.120736,P-GPS,,10.4
181,436100,2026-01-09 20:14:08,0.0,5,7.5,0.0,0.0,0.0,21.2,2.3,-0.2,1024,1024,1024,1024,0,0,0,0,70,4.865,76.1,34.120736,P-GPS,,10.4
182,436200,2026-01-09 20:14:08,0.0,5,7.5,0.0,0.0,0.0,21.2,2.3,-0.2,1024,1024,1024,1024,0,0,0,0,70,4.865,76.1,34.120736,P-GPS,,10.4
183,436300,2026-01-09 20:14:08,0.0,5,7.5,0.0,0.0,0.0,21.2,2.3,0.0,1024,1024,1024,1024,0,0,0,0,70,4.865,76.1,34.120736,P-GPS,,10.4
184,436400,2026-01-09 20:14:08,0.0,5,7.5,0.0,0.0,0.0,21.2,2.3,0.0,1024,1024,1024,1024,0,0,0,0,70,4.865,76.1,34.120736,P-GPS,,10.4
185,436500,2026-01-09 20:14:08,0.0,5,7.5,0.0,0.0,0.0,21.1,2.9,0.0,1024,1024,1024,1024,0,0,0,0,70,4.865,76.1,34.120736,P-GPS,,10.4
186,436600,2026-01-09 20:14:08,0.0,5,7.5,0.0,0.0,0.0,21.2,2.7,0.3,1024,1024,1024,1024,0,0,0,0,70,4.865,76.1,34.120736,P-GPS,,10.4
187,436700,2026-01-09 20:14:08,0.0,5,7.5,0.0,0.0,0.0,21.2,2.6,0.2,1024,1024,1024,1024,0,0,0,0,70,4.865,76.1,34.120736,P-GPS,,10.4
188,436800,2026-01-09 20:14:08,0.0,5,7.5,0.0,0.0,0.0,21.2,2.9,-0.2,1024,1024,1024,1024,0,0,0,0,70,4.865,76.1,34.120736,P-GPS,,10.4
189,436900,2026-01-09 20:14:08,0.0,5,7.5,0.0,0.0,0.0,21.2,2.8,-0.6,1024,1024,1024,1024,0,0,0,0,70,4.865,76.1,34.120736,P-GPS,,10.4
190,437000,2026-01-09 20:14:09,0.0,5,7.5,0.0,0.0,0.0,21.2,2.3,-0.3,1024,1024,1024,1024,0,0,0,0,70,4.865,76.1,34.120736,P-GPS,,10.4
191,437100,2026-01-09 20:14:09,0.0,5,7.5,0.0,0.0,0.0,21.1,2.6,0.0,1024,1024,1024,1024,0,0,0,0,70,4.865,76.1,34.120736,P-GPS,,10.4
192,437200,2026-01-09 20:14:09,0.0,5,7.5,0.0,0.0,0.0,21.1,2.7,-0.1,1024,1024,1024,1024,0,0,0,0,70,4.865,76.1,34.120736,P-GPS,,10.4
193,437300,2026-01-09 20:14:09,0.0,5,7.5,0.0,0.0,0.0,21.1,2.9,-0.3,1024,1024,1024,1024,0,0,0,0,70,4.865,76.1,34.120736,P-GPS,,10.4
194,437400,2026-01-09 20:14:09,0.0,5,7.494,0.0,0.0,0.0,21.1,2.5,-0.1,1024,1024,1024,1024,0,0,0,0,70,4.907,76.1,34.120736,P-GPS,,10.4
195,437500,2026-01-09 20:14:09,0.0,5,7.494,0.0,0.0,0.0,21.2,2.5,0.1,1024,1024,1024,1024,0,0,0,0,70,4.907,76.1,34.120736,P-GPS,,10.4
196,437600,2026-01-09 20:14:09,0.0,5,7.494,0.0,0.0,0.0,21.3,2.4,0.1,1024,1024,1024,1024,0,0,0,0,70,4.907,76.1,34.44882,P-GPS,,10.5
197,437700,2026-01-09 20:14:09,0.0,5,7.494,0.0,0.0,0.0,21.2,2.8,-0.3,1024,1024,1024,1024,0,0,0,0,70,4.907,76.1,34.44882,P-GPS,,10.5
198,437800,2026-01-09 20:14:09,0.0,5,7.494,0.0,0.0,0.0,21.3,2.4,-0.4,1024,1024,1024,1024,0,0,0,0,70,4.907,76.1,34.44882,P-GPS,,10.5
199,437900,2026-01-09 20:14:09,0.0,5,7.494,0.0,0.0,0.0,21.3,2.5,-0.8,1024,1024,1024,1024,0,0,0,0,70,4.907,76.1,34.44882,P-GPS,,10.5
200,438000,2026-01-09 20:14:09,0.0,5,7.494,0.0,0.0,0.0,21.2,2.5,-1.1,1024,1024,1024,1024,0,0,0,0,70,4.907,76.1,34.44882,P-GPS,,10.5
201,438100,2026-01-09 20:14:10,0.0,5,7.494,0.0,0.0,0.0,21.2,2.6,-0.8,1024,1024,1024,1024,0,0,0,0,70,4.907,76.1,34.44882,P-GPS,,10.5
202,438200,2026-01-09 20:14:10,0.0,5,7.494,0.0,0.0,0.0,21.3,2.2,-0.4,1024,1024,1024,1024,0,0,0,0,70,4.907,76.1,34.44882,P-GPS,,10.5
203,438300,2026-01-09 20:14:10,0.0,5,7.494,0.0,0.0,0.0,21.3,2.5,-0.2,1024,1024,1024,1024,0,0,0,0,70,4.907,76.1,34.44882,P-GPS,,10.5
204,438400,2026-01-09 20:14:10,0.0,5,7.494,0.0,0.0,0.0,21.2,2.6,-0.2,1024,1024,1024,1024,0,0,0,0,70,4.907,76.1,34.44882,P-GPS,,10.5
205,438500,2026-01-09 20:14:10,0.0,5,7.477,0.0,0.0,0.0,21.2,2.7,-0.1,1024,1024,1024,1024,0,0,0,0,70,5.202,76.1,34.776904,P-GPS,,10.6
206,438600,2026-01-09 20:14:10,0.0,5,7.477,0.0,0.0,0.0,21.3,2.5,0.1,1024,1024,1024,1024,0,0,0,0,70,5.202,76.1,34.776904,P-GPS,,10.6
207,438700,2026-01-09 20:14:10,0.0,5,7.477,0.0,0.0,0.0,21.2,2.8,-0.3,1024,1024,1024,1024,0,0,0,0,70,5.202,76.1,34.776904,P-GPS,,10.6
208,438800,2026-01-09 20:14:10,0.0,5,7.477,0.0,0.0,0.0,21.1,2.6,-0.1,1024,1024,1024,1024,0,0,0,0,70,5.202,76.1,34.776904,P-GPS,,10.6
209,438900,2026-01-09 20:14:10,0.0,5,7.477,0.0,0.0,0.0,21.1,2.7,0.2,1024,1024,1024,1024,0,0,0,0,70,5.202,76.1,34.776904,P-GPS,,10.6
210,439000,2026-01-09 20:14:11,0.0,5,7.477,0.0,0.0,0.0,21.1,2.8,0.2,1024,1024,1024,1024,0,0,0,0,70,5.202,76.1,34.776904,P-GPS,,10.6
211,439100,2026-01-09 20:14:11,0.0,5,7.477,0.0,0.0,0.0,21.1,3.0,0.0,1024,1024,1024,1024,0,0,0,0,70,5.202,76.1,34.776904,P-GPS,,10.6
212,439200,2026-01-09 20:14:11,0.0,5,7.477,0.0,0.0,0.0,21.2,2.7,0.0,1024,1024,1024,1024,0,0,0,0,70,5.202,76.1,34.776904,P-GPS,,10.6
213,439300,2026-01-09 20:14:11,0.0,5,7.477,0.0,0.0,0.0,21.2,2.4,-0.1,1024,1024,1024,1024,0,0,0,0,70,5.202,76.1,35.104988,P-GPS,,10.7
214,439400,2026-01-09 20:14:11,0.0,5,7.477,0.0,0.0,0.0,21.1,2.7,-0.5,1024,1024,1024,1024,0,0,0,0,70,5.202,76.1,35.104988,P-GPS,,10.7
215,439500,2026-01-09 20:14:11,0.0,5,7.477,0.0,0.0,0.0,21.1,3.1,-0.8,1024,1024,1024,1024,0,0,0,0,70,5.202,76.1,35.104988,P-GPS,,10.7
216,439600,2026-01-09 20:14:11,0.0,5,7.477,0.0,0.0,0.0,21.2,3.1,-0.7,1024,1024,1024,1024,0,0,0,0,70,5.14,76.1,35.104988,P-GPS,,10.7
217,439700,2026-01-09 20:14:11,0.0,5,7.477,0.0,0.0,0.0,21.2,3.1,-0.8,1024,1024,1024,1024,0,0,0,0,70,5.14,76.1,35.104988,P-GPS,,10.7
218,439800,2026-01-09 20:14:11,0.0,5,7.477,0.0,0.0,0.0,21.3,3.2,-1.3,1024,1024,1024,1024,0,0,0,0,70,5.14,76.1,35.104988,P-GPS,,10.7
219,439900,2026-01-09 20:14:11,0.0,5,7.477,0.0,0.0,0.0,21.2,3.4,-1.4,1024,1024,1024,1024,0,0,0,0,70,5.14,76.1,35.104988,P-GPS,,10.7
220,440000,2026-01-09 20:14:11,0.0,5,7.477,0.0,0.0,0.0,21.2,3.3,-1.3,1024,1024,1024,1024,0,0,0,0,70,5.14,76.1,35.433072,P-GPS,,10.8
221,440100,2026-01-09 20:14:12,0.0,5,7.477,0.0,0.0,0.0,21.1,3.3,-1.3,1024,1024,1024,1024,0,0,0,0,70,5.14,76.1,35.433072,P-GPS,,10.8
222,440200,2026-01-09 20:14:12,0.0,5,7.477,0.0,0.0,0.0,21.2,3.4,-1.2,1024,1024,1024,1024,0,0,0,0,70,5.14,76.1,35.433072,P-GPS,,10.8
223,440300,2026-01-09 20:14:12,0.0,5,7.477,0.0,0.0,0.0,21.1,3.3,-1.2,1024,1024,1024,1024,0,0,0,0,70,5.14,76.1,35.433072,P-GPS,,10.8
224,440400,2026-01-09 20:14:12,0.0,5,7.477,0.0,0.0,0.0,21.1,3.4,-1.0,1024,1024,1024,1024,0,0,0,0,70,5.14,76.1,35.433072,P-GPS,,10.8
225,440500,2026-01-09 20:14:12,0.0,5,7.477,0.0,0.0,0.0,21.1,3.7,-0.9,1024,1024,1024,1024,0,0,0,0,70,5.14,76.1,35.761156,P-GPS,,10.9
226,440600,2026-01-09 20:14:12,0.0,5,7.477,0.0,0.0,0.0,21.0,3.9,-0.6,1024,1024,1024,1024,0,0,0,0,70,5.14,76.1,35.761156,P-GPS,,10.9
227,440700,2026-01-09 20:14:12,0.0,5,7.494,0.0,0.0,0.0,20.8,4.0,-0.9,1024,1024,1024,1024,0,0,0,0,70,4.856,76.1,35.761156,P-GPS,,10.9
228,440800,2026-01-09 20:14:12,0.0,5,7.494,0.0,0.0,0.0,20.8,3.6,-1.1,1024,1024,1024,1024,0,0,0,0,70,4.856,76.1,35.761156,P-GPS,,10.9
229,440900,2026-01-09 20:14:12,0.0,5,7.494,0.0,0.0,0.0,20.8,3.5,-1.0,1024,1024,1024,1024,0,0,0,0,70,4.856,76.1,35.761156,P-GPS,,10.9
230,441000,2026-01-09 20:14:13,0.0,5,7.494,0.0,0.0,0.0,20.9,3.3,-0.8,1024,1024,1024,1024,0,0,0,0,70,4.856,76.1,35.761156,P-GPS,,10.9
231,441100,2026-01-09 20:14:13,0.0,5,7.494,0.0,0.0,0.0,20.9,3.3,-0.4,1024,1024,1024,1024,0,0,0,0,70,4.856,76.1,35.761156,P-GPS,,10.9
232,441200,2026-01-09 20:14:13,0.0,5,7.494,0.0,0.0,0.0,21.0,3.5,-0.4,1024,1024,1024,1024,0,0,0,0,70,4.856,76.1,35.761156,P-GPS,,10.9
233,441300,2026-01-09 20:14:13,0.0,5,7.494,0.0,0.0,0.0,20.9,3.5,-0.6,1024,1024,1024,1024,0,0,0,0,70,4.856,76.1,36.08924,P-GPS,,11.0
234,441400,2026-01-09 20:14:13,0.0,5,7.494,0.0,0.0,0.0,21.0,3.3,-0.8,1024,1024,1024,1024,0,0,0,0,70,4.856,76.1,36.08924,P-GPS,,11.0
235,441500,2026-01-09 20:14:13,0.0,5,7.494,0.0,0.0,0.0,21.0,3.2,-0.9,1024,1024,1024,1024,0,0,0,0,70,4.856,76.1,36.08924,P-GPS,,11.0
236,441600,2026-01-09 20:14:13,0.0,5,7.494,0.0,0.0,0.0,21.0,3.1,-0.9,1024,1024,1024,1024,0,0,0,0,70,4.856,76.1,36.08924,P-GPS,,11.0
237,441700,2026-01-09 20:14:13,0.0,5,7.494,0.0,0.0,0.0,21.0,3.1,-1.1,1024,1024,1024,1024,0,0,0,0,70,4.856,76.1,36.08924,P-GPS,,11.0
238,441800,2026-01-09 20:14:13,0.0,5,7.5,0.0,0.0,0.0,21.1,3.0,-1.2,1024,1024,1024,1024,0,0,0,0,70,4.722,76.1,36.08924,P-GPS,,11.0
239,441900,2026-01-09 20:14:13,0.0,5,7.5,0.0,0.0,0.0,21.2,2.9,-1.4,1024,1024,1024,1024,0,0,0,0,70,4.722,76.1,36.08924,P-GPS,,11.0
240,442000,2026-01-09 20:14:14,0.0,5,7.5,0.0,0.0,0.0,21.3,2.9,-1.4,1024,1024,1024,1024,0,0,0,0,70,4.722,76.1,36.08924,P-GPS,,11.0
241,442100,2026-01-09 20:14:14,0.0,5,7.5,0.0,0.0,0.0,21.3,2.7,-1.4,1024,1024,1024,1024,0,0,0,0,70,4.722,76.1,36.08924,P-GPS,,11.0
242,442200,2026-01-09 20:14:14,0.0,5,7.5,0.0,0.0,0.0,21.3,2.9,-1.6,1024,1024,1024,1024,0,0,0,0,70,4.722,76.1,36.08924,P-GPS,,11.0
243,442300,2026-01-09 20:14:14,0.0,5,7.5,0.0,0.0,0.0,21.3,3.1,-1.6,1024,1024,1024,1024,0,0,0,0,70,4.722,76.1,36.08924,P-GPS,,11.0
244,442400,2026-01-09 20:14:14,0.0,5,7.5,0.0,0.0,0.0,21.2,2.9,-1.7,1024,1024,1024,1024,0,0,0,0,70,4.722,76.1,36.08924,P-GPS,,11.0
245,442500,2026-01-09 20:14:14,0.0,5,7.5,0.0,0.0,0.0,21.1,2.8,-1.6,1024,1024,1024,1024,0,0,0,0,70,4.722,76.1,36.08924,P-GPS,,11.0
246,442600,2026-01-09 20:14:14,0.0,5,7.5,0.0,0.0,0.0,21.1,2.8,-1.2,1024,1024,1024,1024,0,0,0,0,70,4.722,76.1,35.761156,P-GPS,,10.9
247,442700,2026-01-09 20:14:14,0.0,5,7.5,0.0,0.0,0.0,21.2,2.9,-0.9,1024,1024,1024,1024,0,0,0,0,70,4.722,76.1,35.761156,P-GPS,,10.9
248,442800,2026-01-09 20:14:14,0.0,5,7.5,0.0,0.0,0.0,21.2,3.0,-0.9,1024,1024,1024,1024,0,0,0,0,70,4.722,76.1,35.761156,P-GPS,,10.9
249,442900,2026-01-09 20:14:14,0.0,5,7.501,0.0,0.0,0.223694,21.1,3.3,-0.9,1024,1024,1024,1024,0,0,0,0,70,4.597,76.28,35.761156,P-GPS,,10.9
250,443000,2026-01-09 20:14:14,0.0,5,7.501,0.0,0.0,0.223694,21.1,3.1,-0.7,1024,1024,1024,1024,0,0,0,0,70,4.597,76.28,35.761156,P-GPS,,10.9
251,443100,2026-01-09 20:14:15,0.0,5,7.501,0.0,0.0,0.223694,21.1,2.9,-0.6,1024,1024,1024,1024,0,0,0,0,70,4.597,76.28,35.761156,P-GPS,,10.9
252,443200,2026-01-09 20:14:15,0.0,5,7.501,0.0,0.0,0.223694,21.2,2.5,-0.4,1024,1024,1024,1024,0,0,0,0,70,4.597,76.28,35.761156,P-GPS,,10.9
253,443300,2026-01-09 20:14:15,0.0,5,7.501,0.0,0.0,0.223694,21.2,2.1,-0.5,1024,1024,1024,1024,0,0,0,0,70,4.597,76.28,35.433072,P-GPS,,10.8
254,443400,2026-01-09 20:14:15,0.0,5,7.501,0.0,0.0,0.0,21.2,2.0,-0.6,1024,1024,1024,1024,0,0,0,0,70,4.597,76.28,35.433072,P-GPS,,10.8
255,443500,2026-01-09 20:14:15,0.0,5,7.501,0.0,0.0,0.223694,21.3,2.1,-0.5,1024,1024,1024,1024,0,0,0,0,70,4.597,76.28,35.433072,P-GPS,,10.8
256,443600,2026-01-09 20:14:15,0.0,5,7.501,0.0,0.0,0.0,21.3,2.1,-0.6,1024,1024,1024,1024,0,0,0,0,70,4.597,76.28,35.433072,P-GPS,,10.8
257,443700,2026-01-09 20:14:15,0.0,5,7.501,0.0,0.0,0.0,21.2,2.2,-0.5,1024,1024,1024,1024,0,0,0,0,70,4.597,76.28,35.433072,P-GPS,,10.8
258,443800,2026-01-09 20:14:15,0.0,5,7.501,0.0,0.0,0.0,21.3,2.1,-0.5,1024,1024,1024,1024,0,0,0,0,70,4.597,76.28,35.433072,P-GPS,,10.8
259,443900,2026-01-09 20:14:15,0.0,5,7.501,0.0,0.0,0.0,21.3,2.0,-0.6,1024,1024,1024,1024,0,0,0,0,70,4.597,76.28,35.433072,P-GPS,,10.8
260,444000,2026-01-09 20:14:16,0.0,5,7.496,0.0,0.0,0.0,21.3,1.9,-0.8,1024,1024,1024,1024,0,0,0,0,70,4.703,76.28,35.104988,P-GPS,,10.7
261,444100,2026-01-09 20:14:16,0.0,5,7.496,0.0,0.0,0.0,21.2,1.9,-0.9,1024,1024,1024,1024,0,0,0,0,70,4.703,76.28,35.104988,P-GPS,,10.7
262,444200,2026-01-09 20:14:16,0.0,5,7.496,0.0,0.0,0.0,21.2,1.9,-0.9,1024,1024,1024,1024,0,0,0,0,70,4.703,76.28,35.104988,P-GPS,,10.7
263,444300,2026-01-09 20:14:16,0.0,5,7.496,0.0,0.0,0.0,21.2,2.1,-1.0,1024,1024,1024,1024,0,0,0,0,70,4.703,76.28,35.104988,P-GPS,,10.7
264,444400,2026-01-09 20:14:16,0.0,5,7.496,0.0,0.0,0.0,21.1,2.2,-1.1,1024,1024,1024,1024,0,0,0,0,70,4.703,76.28,35.104988,P-GPS,,10.7
265,444500,2026-01-09 20:14:16,0.0,5,7.496,0.0,0.0,0.0,21.1,2.3,-1.1,1024,1024,1024,1024,0,0,0,0,70,4.703,76.28,35.104988,P-GPS,,10.7
266,444600,2026-01-09 20:14:16,0.0,5,7.496,0.0,0.0,0.0,21.1,2.3,-1.2,1024,1024,1024,1024,0,0,0,0,70,4.703,76.28,35.104988,P-GPS,,10.7
267,444700,2026-01-09 20:14:16,0.0,5,7.496,0.0,0.0,0.0,21.2,2.1,-1.1,1024,1024,1024,1024,0,0,0,0,70,4.703,76.28,34.776904,P-GPS,,10.6
268,444800,2026-01-09 20:14:16,0.0,5,7.496,0.0,0.0,0.0,21.2,1.8,-1.0,1024,1024,1024,1024,0,0,0,0,70,4.703,76.28,34.776904,P-GPS,,10.6
269,444900,2026-01-09 20:14:16,0.0,5,7.496,0.0,0.0,0.0,21.2,1.6,-0.7,1024,1024,1024,1024,0,0,0,0,70,4.703,76.28,34.776904,P-GPS,,10.6
270,445000,2026-01-09 20:14:17,0.0,5,7.496,0.0,0.0,0.0,21.2,1.2,-0.6,1024,1024,1024,1024,0,0,0,0,70,4.703,76.28,34.776904,P-GPS,,10.6
271,445100,2026-01-09 20:14:17,0.0,5,7.492,0.0,0.0,0.0,21.2,1.3,-0.8,1024,1024,1024,1024,0,0,0,0,70,4.75,76.28,34.776904,P-GPS,,10.6
272,445200,2026-01-09 20:14:17,0.0,5,7.492,0.0,0.0,0.0,21.2,1.4,-0.8,1024,1024,1024,1024,0,0,0,0,70,4.75,76.28,34.776904,P-GPS,,10.6
273,445300,2026-01-09 20:14:17,0.0,5,7.492,0.0,0.0,0.0,21.1,1.7,-0.9,1024,1024,1024,1024,0,0,0,0,70,4.75,76.28,34.776904,P-GPS,,10.6
274,445400,2026-01-09 20:14:17,0.0,5,7.492,0.0,0.0,0.0,21.1,1.8,-0.8,1024,1024,1024,1024,0,0,0,0,70,4.75,76.28,34.776904,P-GPS,,10.6
275,445500,2026-01-09 20:14:17,0.0,5,7.492,0.0,0.0,0.0,21.1,1.9,-0.8,1024,1024,1024,1024,0,0,0,0,70,4.75,76.28,34.776904,P-GPS,,10.6
276,445600,2026-01-09 20:14:17,0.0,5,7.492,0.0,0.0,0.0,21.2,2.1,-0.9,1024,1024,1024,1024,0,0,0,0,70,4.75,76.28,34.776904,P-GPS,,10.6
277,445700,2026-01-09 20:14:17,0.0,5,7.492,0.0,0.0,0.0,21.2,2.2,-0.8,1024,1024,1024,1024,0,0,0,0,70,4.75,76.28,34.776904,P-GPS,,10.6
278,445800,2026-01-09 20:14:17,0.0,5,7.492,0.0,0.0,0.0,21.3,2.1,-0.9,1024,1024,1024,1024,0,0,0,0,70,4.75,76.28,34.776904,P-GPS,,10.6
279,445900,2026-01-09 20:14:17,0.0,5,7.492,0.0,0.0,0.0,21.2,2.1,-1.1,1024,1024,1024,1024,0,0,0,0,70,4.75,76.28,34.776904,P-GPS,,10.6
280,446000,2026-01-09 20:14:18,0.0,5,7.492,0.0,0.0,0.0,21.2,2.1,-1.3,1024,1024,1024,1024,0,0,0,0,70,4.75,76.28,34.776904,P-GPS,,10.6
281,446100,2026-01-09 20:14:18,0.0,5,7.492,0.0,0.0,0.0,21.2,2.2,-1.4,1024,1024,1024,1024,0,0,0,0,70,4.75,76.28,34.776904,P-GPS,,10.6
282,446200,2026-01-09 20:14:18,0.0,5,7.487,0.0,0.0,0.0,21.2,2.3,-1.3,1024,1024,1024,1024,0,0,0,0,70,4.878,76.28,34.776904,P-GPS,,10.6
283,446300,2026-01-09 20:14:18,0.0,5,7.487,0.0,0.0,0.0,21.2,2.3,-1.2,1024,1024,1024,1024,0,0,0,0,70,4.878,76.28,34.776904,P-GPS,,10.6
284,446400,2026-01-09 20:14:18,0.0,5,7.487,0.0,0.0,0.0,21.2,2.3,-1.1,1024,1024,1024,1024,0,0,0,0,70,4.878,76.28,34.776904,P-GPS,,10.6
285,446500,2026-01-09 20:14:18,0.0,5,7.487,0.0,0.0,0.0,21.2,2.1,-1.0,1024,1024,1024,1024,0,0,0,0,70,4.878,76.28,34.776904,P-GPS,,10.6
286,446600,2026-01-09 20:14:18,0.0,5,7.487,0.0,0.0,0.0,21.3,2.2,-1.0,1024,1024,1024,1024,0,0,0,0,70,4.878,76.28,34.776904,P-GPS,,10.6
287,446700,2026-01-09 20:14:18,0.0,5,7.487,0.0,0.0,0.0,21.3,2.4,-1.2,1024,1024,1024,1024,0,0,0,0,70,4.878,76.28,34.776904,P-GPS,,10.6
288,446800,2026-01-09 20:14:18,0.0,5,7.487,0.0,0.0,0.0,21.3,2.7,-1.2,1024,1024,1024,1024,0,0,0,0,70,4.878,76.28,35.104988,P-GPS,,10.7
289,446900,2026-01-09 20:14:18,0.0,5,7.487,0.0,0.0,0.0,21.2,2.8,-1.3,1024,1024,1024,1024,0,0,0,0,70,4.878,76.28,35.104988,P-GPS,,10.7
290,447000,2026-01-09 20:14:19,0.0,5,7.487,0.0,0.0,0.0,21.1,2.9,-0.9,1024,1024,1024,1024,0,0,0,0,70,4.878,76.28,35.104988,P-GPS,,10.7
291,447100,2026-01-09 20:14:19,0.0,5,7.487,0.0,0.0,0.0,21.1,3.0,-0.6,1024,1024,1024,1024,0,0,0,0,70,4.878,76.28,35.104988,P-GPS,,10.7
292,447200,2026-01-09 20:14:19,0.0,5,7.487,0.0,0.0,0.0,21.2,3.2,-0.6,1024,1024,1024,1024,0,0,0,0,70,4.878,76.28,35.104988,P-GPS,,10.7
293,447300,2026-01-09 20:14:19,0.0,5,7.487,0.0,0.0,0.0,21.3,3.3,-0.7,1024,1024,1024,1024,0,0,0,0,70,4.878,76.28,35.104988,P-GPS,,10.7
294,447400,2026-01-09 20:14:19,0.0,5,7.487,0.0,0.0,0.0,21.3,3.4,-1.0,1024,1024,1024,1024,0,0,0,0,69,4.878,76.28,35.104988,P-GPS,,10.7
295,447500,2026-01-09 20:14:19,0.0,5,7.487,0.0,0.0,0.0,21.3,3.3,-1.3,1024,1024,1024,1024,0,0,0,0,69,4.878,76.28,35.104988,P-GPS,,10.7
296,447600,2026-01-09 20:14:19,0.0,5,7.487,0.0,0.0,0.0,21.3,3.1,-1.6,1024,1024,1024,1024,0,0,0,0,69,4.878,76.28,35.104988,P-GPS,,10.7
297,447700,2026-01-09 20:14:19,0.0,5,7.487,0.0,0.0,0.0,21.3,2.8,-1.6,1024,1024,1024,1024,0,0,0,0,69,4.878,76.28,35.104988,P-GPS,,10.7
298,447800,2026-01-09 20:14:19,0.0,5,7.487,0.0,0.0,0.0,21.2,2.6,-1.4,1024,1024,1024,1024,0,0,0,0,69,4.878,76.28,35.104988,P-GPS,,10.7
299,447900,2026-01-09 20:14:19,0.0,5,7.487,0.0,0.0,0.0,21.2,2.7,-1.1,1024,1024,1024,1024,0,0,0,0,69,4.878,76.28,35.433072,P-GPS,,10.8
300,448000,2026-01-09 20:14:20,0.0,5,7.487,0.0,0.0,0.0,21.2,2.8,-1.0,1024,1024,1024,1024,0,0,0,0,69,4.878,76.28,35.433072,P-GPS,,10.8
301,448100,2026-01-09 20:14:20,0.0,5,7.487,0.0,0.0,0.0,21.2,2.8,-1.0,1024,1024,1024,1024,0,0,0,0,69,4.878,76.28,35.433072,P-GPS,,10.8
302,448200,2026-01-09 20:14:20,0.0,5,7.487,0.0,0.0,0.0,21.2,2.7,-1.1,1024,1024,1024,1024,0,0,0,0,69,4.878,76.28,35.433072,P-GPS,,10.8
303,448300,2026-01-09 20:14:20,0.0,5,7.487,0.0,0.0,0.0,21.3,3.0,-1.1,1024,1024,1024,1024,0,0,0,0,69,4.878,76.28,35.433072,P-GPS,,10.8
304,448400,2026-01-09 20:14:20,0.0,5,7.49,0.0,0.0,0.0,21.2,3.1,-1.4,1024,1024,1024,1024,0,0,0,0,69,4.86,76.46,35.433072,P-GPS,,10.8
305,448500,2026-01-09 20:14:20,0.0,5,7.49,0.0,0.0,0.0,21.0,2.9,-1.3,1024,1024,1024,1024,0,0,0,0,69,4.86,76.46,35.433072,P-GPS,,10.8
306,448600,2026-01-09 20:14:20,0.0,5,7.49,0.0,0.0,0.0,21.0,3.1,-1.2,1024,1024,1024,1024,0,0,0,0,69,4.86,76.46,35.433072,P-GPS,,10.8
307,448700,2026-01-09 20:14:20,0.0,5,7.49,0.0,0.0,0.0,21.0,3.1,-1.2,1024,1024,1024,1024,0,0,0,0,69,4.86,76.46,35.433072,P-GPS,,10.8
308,448800,2026-01-09 20:14:20,0.0,5,7.49,0.0,0.0,0.0,21.0,3.2,-1.0,1024,1024,1024,1024,0,0,0,0,69,4.86,76.46,35.433072,P-GPS,,10.8
309,448900,2026-01-09 20:14:20,0.0,5,7.49,0.0,0.0,0.0,21.0,3.2,-0.7,1024,1024,1024,1024,0,0,0,0,69,4.86,76.46,35.433072,P-GPS,,10.8
310,449000,2026-01-09 20:14:20,0.0,5,7.49,0.0,0.0,0.0,21.0,3.1,-0.7,1024,1024,1024,1024,0,0,0,0,69,4.86,76.46,35.433072,P-GPS,,10.8
311,449100,2026-01-09 20:14:21,0.0,5,7.49,0.0,0.0,0.0,21.1,3.0,-0.6,1024,1024,1024,1024,0,0,0,0,69,4.86,76.46,35.104988,P-GPS,,10.7
312,449200,2026-01-09 20:14:21,0.0,5,7.49,0.0,0.0,0.0,21.1,3.0,-0.6,1024,1024,1024,1024,0,0,0,0,69,4.86,76.46,35.104988,P-GPS,,10.7
313,449300,2026-01-09 20:14:21,0.0,5,7.49,0.0,0.0,0.0,21.2,2.8,-0.5,1024,1024,1024,1024,0,0,0,0,69,4.86,76.46,35.104988,P-GPS,,10.7
314,449400,2026-01-09 20:14:21,0.0,5,7.49,0.0,0.0,0.0,21.2,3.1,-0.9,1024,1024,1024,1024,0,0,0,0,69,4.86,76.46,35.104988,P-GPS,,10.7
315,449500,2026-01-09 20:14:21,0.0,5,7.493,0.0,0.0,0.0,21.2,3.3,-1.5,1024,1024,1024,1024,0,0,0,0,69,4.678,76.46,35.104988,P-GPS,,10.7
316,449600,2026-01-09 20:14:21,0.0,5,7.493,0.0,0.0,0.0,21.1,3.3,-1.7,1024,1024,1024,1024,0,0,0,0,69,4.678,76.46,35.104988,P-GPS,,10.7
317,449700,2026-01-09 20:14:21,0.0,5,7.493,0.0,0.0,0.0,21.0,3.4,-1.5,1024,1024,1024,1024,0,0,0,0,69,4.678,76.46,35.104988,P-GPS,,10.7
318,449800,2026-01-09 20:14:21,0.0,5,7.493,0.0,0.0,0.0,21.0,3.5,-1.7,1024,1024,1024,1024,0,0,0,0,69,4.678,76.46,35.104988,P-GPS,,10.7
319,449900,2026-01-09 20:14:21,0.0,5,7.493,0.0,0.0,0.0,21.0,3.8,-1.7,1024,1024,1024,1024,0,0,0,0,69,4.678,76.46,35.104988,P-GPS,,10.7
320,450000,2026-01-09 20:14:22,0.0,5,7.493,0.0,0.0,0.0,21.1,3.9,-1.5,1024,1024,1024,1024,0,0,0,0,69,4.678,76.46,35.104988,P-GPS,,10.7
321,450100,2026-01-09 20:14:22,0.0,5,7.493,0.0,0.0,0.0,21.1,3.5,-1.4,1024,1024,1024,1024,0,0,0,0,69,4.678,76.46,35.104988,P-GPS,,10.7
322,450200,2026-01-09 20:14:22,0.0,5,7.493,0.0,0.0,0.0,21.0,3.4,-1.3,1024,1024,1024,1024,0,0,0,0,69,4.678,76.46,35.104988,P-GPS,,10.7
323,450300,2026-01-09 20:14:22,0.0,5,7.493,0.0,0.0,0.0,21.1,3.5,-1.2,1024,1024,1024,1024,0,0,0,0,69,4.678,76.46,35.104988,P-GPS,,10.7
324,450400,2026-01-09 20:14:22,0.0,5,7.493,0.0,0.0,0.0,21.1,3.4,-1.1,1024,1024,1024,1024,0,0,0,0,69,4.678,76.46,35.104988,P-GPS,,10.7
325,450500,2026-01-09 20:14:22,0.0,5,7.493,0.0,0.0,0.0,21.1,3.5,-1.0,1024,1024,1024,1024,0,0,0,0,69,4.678,76.46,35.104988,P-GPS,,10.7
326,450600,2026-01-09 20:14:22,0.0,5,7.493,0.0,0.0,0.0,21.1,3.3,-0.7,1024,1024,1024,1024,0,0,0,0,69,4.678,76.46,35.104988,P-GPS,,10.7
