index,time(millisecond),timestamp,speed(mph),gpslevel,voltage(v),xSpeed(mph),ySpeed(mph),zSpeed(mph),compass_heading(degrees),pitch(degrees),roll(degrees),rc_elevator,rc_aileron,rc_throttle,rc_rudder,rc_elevator(percent),rc_aileron(percent),rc_throttle(percent),rc_rudder(percent),battery_percent,current(A),battery_temperature(f),ascent(feet),flycState,message,height_above_takeoff(meters)
838,83800,2026-01-09 12:38:09,0.0,5,7.655,0.0,0.0,0.0,25.4,-3.6,-9.2,1024,1024,1024,1024,0,0,0,0,93,5.828,65.48,166.994756,P-GPS,,50.9
839,83900,2026-01-09 12:38:09,0.0,5,7.655,0.0,0.0,0.0,25.3,-4.0,-9.1,1024,1024,1024,1024,0,0,0,0,93,5.828,65.48,166.994756,P-GPS,,50.9
840,84000,2026-01-09 12:38:09,0.0,5,7.734,0.0,0.0,0.0,25.1,-3.4,-8.7,1024,1024,1024,1024,0,0,0,0,93,4.574,65.48,166.994756,P-GPS,,50.9
841,84100,2026-01-09 12:38:09,0.0,5,7.734,0.0,0.0,0.0,24.9,-3.0,-8.3,1024,1024,1024,1024,0,0,0,0,93,4.574,65.48,166.994756,P-GPS,,50.9
842,84200,2026-01-09 12:38:09,0.0,5,7.734,0.0,0.0,0.0,25.1,-3.3,-8.0,1024,1024,1024,1024,0,0,0,0,93,4.574,65.48,166.994756,P-GPS,,50.9
843,84300,2026-01-09 12:38:09,0.0,5,7.734,0.0,0.0,0.0,25.3,-3.4,-8.0,1024,1024,1024,1024,0,0,0,0,93,4.574,65.48,166.994756,P-GPS,,50.9
844,84400,2026-01-09 12:38:09,0.0,5,7.734,0.0,0.0,0.0,25.4,-3.9,-7.9,1024,1024,1024,1024,0,0,0,0,93,4.574,65.48,166.994756,P-GPS,,50.9
845,84500,2026-01-09 12:38:09,0.0,5,7.734,0.0,0.0,0.0,25.5,-3.7,-7.8,1024,1024,1024,1024,0,0,0,0,93,4.574,65.48,167.32284,P-GPS,,51.0
846,84600,2026-01-09 12:38:09,0.0,5,7.734,0.0,0.0,0.0,25.6,-3.4,-8.2,1024,1024,1024,1024,0,0,0,0,93,4.574,65.48,167.32284,P-GPS,,51.0
847,84700,2026-01-09 12:38:09,0.0,5,7.734,0.0,0.0,0.0,25.4,-2.8,-8.7,1024,1024,1024,1024,0,0,0,0,93,4.574,65.48,167.32284,P-GPS,,51.0
848,84800,2026-01-09 12:38:09,0.0,5,7.734,0.0,0.0,0.0,25.5,-3.3,-8.8,1024,1024,1024,1024,0,0,0,0,93,4.574,65.48,167.650924,P-GPS,,51.1
849,84900,2026-01-09 12:38:10,0.0,5,7.734,0.0,0.0,0.0,25.4,-2.9,-9.5,1024,1024,1024,1024,0,0,0,0,93,4.574,65.48,167.650924,P-GPS,,51.1
850,85000,2026-01-09 12:38:10,0.0,5,7.734,0.0,0.0,0.0,25.4,-2.6,-9.5,1024,1024,1024,1024,0,0,0,0,93,4.574,65.48,167.650924,P-GPS,,51.1
851,85100,2026-01-09 12:38:10,0.0,5,7.748,0.0,0.0,0.0,25.3,-2.3,-9.3,1024,1024,1024,1024,0,0,0,0,93,4.729,65.66,167.650924,P-GPS,,51.1
852,85200,2026-01-09 12:38:10,0.0,5,7.748,0.0,0.0,0.0,25.2,-2.3,-9.4,1024,1024,1024,1024,0,0,0,0,93,4.729,65.66,167.650924,P-GPS,,51.1
853,85300,2026-01-09 12:38:10,0.0,5,7.748,0.0,0.0,0.0,25.3,-2.6,-9.0,1024,1024,1024,1024,0,0,0,0,93,4.729,65.66,167.650924,P-GPS,,51.1
854,85400,2026-01-09 12:38:10,0.0,5,7.748,0.0,0.0,0.0,25.4,-2.7,-9.3,1024,1024,1024,1024,0,0,0,0,93,4.729,65.66,167.650924,P-GPS,,51.1
855,85500,2026-01-09 12:38:10,0.0,5,7.748,0.0,0.0,0.223694,25.2,-2.5,-9.2,1024,1024,1024,1024,0,0,0,0,93,4.729,65.66,167.650924,P-GPS,,51.1
856,85600,2026-01-09 12:38:10,0.0,5,7.748,0.0,0.0,0.223694,25.3,-2.4,-9.3,1024,1024,1024,1024,0,0,0,0,93,4.729,65.66,167.650924,P-GPS,,51.1
857,85700,2026-01-09 12:38:10,0.0,5,7.748,0.0,0.0,0.0,25.3,-2.3,-9.1,1024,1024,1024,1024,0,0,0,0,93,4.729,65.66,167.650924,P-GPS,,51.1
858,85800,2026-01-09 12:38:10,0.0,5,7.748,0.0,0.0,0.0,25.4,-2.1,-9.2,1024,1024,1024,1024,0,0,0,0,93,4.729,65.66,167.650924,P-GPS,,51.1
859,85900,2026-01-09 12:38:11,0.0,5,7.748,0.0,0.0,0.0,25.8,-3.7,-8.9,1024,1024,1024,1024,0,0,0,0,93,4.729,65.66,167.650924,P-GPS,,51.1
860,86000,2026-01-09 12:38:11,0.0,5,7.748,0.0,0.0,0.0,25.7,-3.4,-8.9,1024,1024,1024,1024,0,0,0,0,93,4.729,65.66,167.979008,P-GPS,,51.2
861,86100,2026-01-09 12:38:11,0.0,5,7.748,0.0,0.0,0.0,25.9,-4.5,-9.1,1024,1024,1024,1024,0,0,0,0,93,4.729,65.66,167.979008,P-GPS,,51.2
862,86200,2026-01-09 12:38:11,0.0,5,7.748,0.0,0.0,0.0,26.0,-5.3,-8.0,1024,1024,1024,1024,0,0,0,0,93,4.729,65.66,168.307092,P-GPS,,51.3
863,86300,2026-01-09 12:38:11,0.0,5,7.772,0.0,0.0,0.0,25.6,-4.3,-8.1,1024,1024,1024,1024,0,0,0,0,93,4.515,65.66,168.307092,P-GPS,,51.3
864,86400,2026-01-09 12:38:11,0.0,5,7.772,0.0,0.0,0.0,25.5,-4.4,-8.4,1024,1024,1024,1024,0,0,0,0,93,4.515,65.66,168.307092,P-GPS,,51.3
865,86500,2026-01-09 12:38:11,0.223694,5,7.772,0.0,-0.223694,0.0,25.4,-4.1,-7.9,1024,1024,1024,1024,0,0,0,0,93,4.515,65.66,168.307092,P-GPS,,51.3
866,86600,2026-01-09 12:38:11,0.223694,5,7.772,0.0,-0.223694,0.223694,25.6,-4.9,-6.6,1024,1024,1024,1024,0,0,0,0,93,4.515,65.66,167.979008,P-GPS,,51.2
867,86700,2026-01-09 12:38:11,0.0,5,7.772,0.0,0.0,0.223694,25.4,-5.4,-5.9,1024,1024,1024,1024,0,0,0,0,93,4.515,65.66,167.979008,P-GPS,,51.2
868,86800,2026-01-09 12:38:11,0.0,5,7.772,0.0,0.0,0.223694,25.4,-5.4,-5.3,1024,1024,1024,1024,0,0,0,0,93,4.515,65.66,167.979008,P-GPS,,51.2
869,86900,2026-01-09 12:38:12,0.0,5,7.772,0.0,0.0,0.223694,25.1,-4.6,-6.2,1024,1024,1024,1024,0,0,0,0,93,4.515,65.66,167.979008,P-GPS,,51.2
870,87000,2026-01-09 12:38:12,0.0,5,7.772,0.0,0.0,0.223694,25.0,-3.3,-6.9,1024,1024,1024,1024,0,0,0,0,93,4.515,65.66,167.650924,P-GPS,,51.1
871,87100,2026-01-09 12:38:12,0.0,5,7.772,0.0,0.0,0.223694,25.0,-2.5,-7.4,1024,1024,1024,1024,0,0,0,0,93,4.515,65.66,167.650924,P-GPS,,51.1
872,87200,2026-01-09 12:38:12,0.0,5,7.772,0.0,0.0,0.223694,24.8,-2.0,-8.2,1024,1024,1024,1024,0,0,0,0,93,4.515,65.66,167.650924,P-GPS,,51.1
873,87300,2026-01-09 12:38:12,0.0,5,7.772,0.0,0.0,0.223694,24.3,-3.1,-8.3,1024,1024,1024,1024,0,0,0,0,93,4.515,65.66,167.650924,P-GPS,,51.1
874,87400,2026-01-09 12:38:12,0.0,5,7.739,0.0,0.0,0.223694,24.6,-3.2,-8.1,1024,1024,1024,1024,0,0,0,0,93,4.662,65.66,167.650924,P-GPS,,51.1
875,87500,2026-01-09 12:38:12,0.223694,5,7.739,0.0,-0.223694,0.0,25.0,-4.5,-6.8,1024,1024,1024,1024,0,0,0,0,93,4.662,65.66,167.650924,P-GPS,,51.1
876,87600,2026-01-09 12:38:12,0.223694,5,7.739,0.0,-0.223694,0.0,25.1,-5.3,-5.8,1024,1024,1024,1024,0,0,0,0,93,4.662,65.66,167.650924,P-GPS,,51.1
877,87700,2026-01-09 12:38:12,0.223694,5,7.739,0.0,-0.223694,0.0,25.0,-5.4,-4.6,1024,1024,1024,1024,0,0,0,0,93,4.662,65.66,167.650924,P-GPS,,51.1
878,87800,2026-01-09 12:38:12,0.223694,5,7.739,0.0,-0.223694,0.0,25.0,-5.8,-4.5,1024,1024,1024,1024,0,0,0,0,93,4.662,65.66,167.650924,P-GPS,,51.1
879,87900,2026-01-09 12:38:13,0.223694,5,7.739,0.0,-0.223694,0.0,24.6,-5.9,-3.9,1024,1024,1024,1024,0,0,0,0,93,4.662,65.66,167.650924,P-GPS,,51.1
880,88000,2026-01-09 12:38:13,0.223694,5,7.739,0.0,-0.223694,0.0,25.0,-6.5,-4.2,1024,1024,1024,1024,0,0,0,0,93,4.662,65.66,167.650924,P-GPS,,51.1
881,88100,2026-01-09 12:38:13,0.223694,5,7.739,0.0,-0.223694,0.0,25.3,-7.4,-4.3,1024,1024,1024,1024,0,0,0,0,93,4.662,65.66,167.650924,P-GPS,,51.1
882,88200,2026-01-09 12:38:13,0.0,5,7.739,0.0,0.0,0.0,25.4,-7.8,-4.3,1024,1024,1024,1024,0,0,0,0,93,4.662,65.66,167.979008,P-GPS,,51.2
883,88300,2026-01-09 12:38:13,0.0,5,7.739,0.0,0.0,0.0,25.4,-7.6,-4.9,1024,1024,1024,1024,0,0,0,0,93,4.662,65.66,167.979008,P-GPS,,51.2
884,88400,2026-01-09 12:38:13,0.0,5,7.739,0.0,0.0,0.0,25.4,-7.3,-5.3,1024,1024,1024,1024,0,0,0,0,93,4.662,65.66,167.979008,P-GPS,,51.2
885,88500,2026-01-09 12:38:13,0.0,5,7.752,0.0,0.0,0.0,25.4,-6.8,-5.5,1024,1024,1024,1024,0,0,0,0,93,4.913,65.66,167.979008,P-GPS,,51.2
886,88600,2026-01-09 12:38:13,0.0,5,7.752,0.0,0.0,0.0,25.4,-6.5,-5.8,1024,1024,1024,1024,0,0,0,0,93,4.913,65.66,167.979008,P-GPS,,51.2
887,88700,2026-01-09 12:38:13,0.0,5,7.752,0.0,0.0,0.0,25.3,-6.1,-6.0,1024,1024,1024,1024,0,0,0,0,93,4.913,65.66,167.979008,P-GPS,,51.2
888,88800,2026-01-09 12:38:14,0.0,5,7.752,0.0,0.0,0.223694,25.4,-5.9,-6.2,1024,1024,1024,1024,0,0,0,0,93,4.913,65.66,167.979008,P-GPS,,51.2
889,88900,2026-01-09 12:38:14,0.0,5,7.752,0.0,0.0,0.223694,25.5,-6.2,-6.0,1024,1024,1024,1024,0,0,0,0,93,4.913,65.66,167.979008,P-GPS,,51.2
890,89000,2026-01-09 12:38:14,0.0,5,7.752,0.0,0.0,0.223694,25.7,-6.0,-5.6,1024,1024,1024,1024,0,0,0,0,93,4.913,65.66,167.979008,P-GPS,,51.2
891,89100,2026-01-09 12:38:14,0.0,5,7.752,0.0,0.0,0.0,25.7,-5.9,-6.1,1024,1024,1024,1024,0,0,0,0,93,4.913,65.66,167.979008,P-GPS,,51.2
892,89200,2026-01-09 12:38:14,0.223694,5,7.752,0.0,0.223694,0.0,25.6,-5.0,-6.8,1024,1024,1024,1024,0,0,0,0,93,4.913,65.66,168.307092,P-GPS,,51.3
893,89300,2026-01-09 12:38:14,0.223694,5,7.752,0.0,0.223694,0.0,25.5,-4.5,-7.1,1024,1024,1024,1024,0,0,0,0,93,4.913,65.66,168.307092,P-GPS,,51.3
894,89400,2026-01-09 12:38:14,0.223694,5,7.752,0.0,0.223694,0.0,25.4,-3.6,-7.6,1024,1024,1024,1024,0,0,0,0,93,4.913,65.66,168.307092,P-GPS,,51.3
895,89500,2026-01-09 12:38:14,0.223694,5,7.752,0.0,0.223694,0.0,25.4,-3.4,-7.4,1024,1024,1024,1024,0,0,0,0,93,4.913,65.66,168.307092,P-GPS,,51.3
896,89600,2026-01-09 12:38:14,0.0,5,7.752,0.0,0.0,0.0,25.3,-2.6,-7.5,1024,1024,1024,1024,0,0,0,0,93,4.913,65.66,167.979008,P-GPS,,51.2
897,89700,2026-01-09 12:38:14,0.0,5,7.752,0.0,0.0,0.0,25.3,-2.8,-7.3,1024,1024,1024,1024,0,0,0,0,93,4.913,65.66,167.979008,P-GPS,,51.2
898,89800,2026-01-09 12:38:14,0.0,5,7.752,0.0,0.0,0.223694,25.2,-3.1,-7.1,1024,1024,1024,1024,0,0,0,0,93,4.913,65.66,167.979008,P-GPS,,51.2
899,89900,2026-01-09 12:38:15,0.0,5,7.752,0.0,0.0,0.223694,25.2,-3.2,-7.0,1024,1024,1024,1024,0,0,0,0,93,4.913,65.66,167.979008,P-GPS,,51.2
900,90000,2026-01-09 12:38:15,0.0,5,7.752,0.0,0.0,0.223694,25.1,-3.1,-7.3,1024,1024,1024,1024,0,0,0,0,93,4.913,65.66,167.979008,P-GPS,,51.2
901,90100,2026-01-09 12:38:15,0.0,5,7.752,0.0,0.0,0.223694,25.1,-3.8,-7.1,1024,1024,1024,1024,0,0,0,0,93,4.913,65.66,167.650924,P-GPS,,51.1
902,90200,2026-01-09 12:38:15,0.223694,5,7.752,0.0,0.223694,0.223694,25.1,-3.5,-7.6,1024,1024,1024,1024,0,0,0,0,93,4.913,65.66,167.650924,P-GPS,,51.1
903,90300,2026-01-09 12:38:15,0.223694,5,7.752,0.0,0.223694,0.223694,24.9,-2.6,-8.6,1024,1024,1024,1024,0,0,0,0,93,4.913,65.66,167.650924,P-GPS,,51.1
904,90400,2026-01-09 12:38:15,0.223694,5,7.752,0.0,0.223694,0.223694,24.9,-2.2,-8.7,1024,1024,1024,1024,0,0,0,0,93,4.913,65.66,167.32284,P-GPS,,51.0
905,90500,2026-01-09 12:38:15,0.0,5,7.752,0.0,0.0,0.223694,24.7,-2.0,-8.6,1024,1024,1024,1024,0,0,0,0,93,4.913,65.66,167.32284,P-GPS,,51.0
906,90600,2026-01-09 12:38:15,0.0,5,7.752,0.0,0.0,0.0,24.7,-2.1,-8.4,1024,1024,1024,1024,0,0,0,0,93,4.913,65.66,167.32284,P-GPS,,51.0
907,90700,2026-01-09 12:38:15,0.0,5,7.742,0.0,0.0,0.0,24.8,-2.4,-8.3,1024,1024,1024,1024,0,0,0,0,93,4.804,65.84,166.994756,P-GPS,,50.9
908,90800,2026-01-09 12:38:15,0.0,5,7.742,0.0,0.0,0.0,24.8,-2.3,-8.5,1024,1024,1024,1024,0,0,0,0,93,4.804,65.84,166.994756,P-GPS,,50.9
909,90900,2026-01-09 12:38:16,0.0,5,7.742,0.0,0.0,0.0,24.7,-2.0,-8.6,1024,1024,1024,1024,0,0,0,0,93,4.804,65.84,166.666672,P-GPS,,50.8
910,91000,2026-01-09 12:38:16,0.0,5,7.742,0.0,0.0,0.0,24.8,-2.7,-8.5,1024,1024,1024,1024,0,0,0,0,93,4.804,65.84,166.666672,P-GPS,,50.8
911,91100,2026-01-09 12:38:16,0.0,5,7.742,0.0,0.0,0.0,24.6,-2.5,-8.4,1024,1024,1024,1024,0,0,0,0,93,4.804,65.84,166.666672,P-GPS,,50.8
912,91200,2026-01-09 12:38:16,0.0,5,7.742,0.0,0.0,0.0,24.7,-2.3,-8.1,1024,1024,1024,1024,0,0,0,0,93,4.804,65.84,166.338588,P-GPS,,50.7
913,91300,2026-01-09 12:38:16,0.0,5,7.742,0.0,0.0,0.0,24.8,-2.3,-8.0,1024,1024,1024,1024,0,0,0,0,93,4.804,65.84,166.338588,P-GPS,,50.7
914,91400,2026-01-09 12:38:16,0.0,5,7.742,0.0,0.0,0.0,24.9,-2.1,-8.2,1024,1024,1024,1024,0,0,0,0,93,4.804,65.84,166.338588,P-GPS,,50.7
915,91500,2026-01-09 12:38:16,0.0,5,7.742,0.0,0.0,0.0,25.0,-2.7,-8.5,1024,1024,1024,1024,0,0,0,0,93,4.804,65.84,166.338588,P-GPS,,50.7
916,91600,2026-01-09 12:38:16,0.0,5,7.742,0.0,0.0,0.0,25.2,-3.0,-8.6,1024,1024,1024,1024,0,0,0,0,93,4.804,65.84,166.338588,P-GPS,,50.7
917,91700,2026-01-09 12:38:16,0.0,5,7.742,0.0,0.0,0.0,25.3,-3.1,-8.8,1024,1024,1024,1024,0,0,0,0,93,4.804,65.84,166.338588,P-GPS,,50.7
918,91800,2026-01-09 12:38:16,0.0,5,7.732,0.0,0.0,0.0,25.3,-3.1,-9.3,1024,1024,1024,1024,0,0,0,0,92,5.049,65.84,166.338588,P-GPS,,50.7
919,91900,2026-01-09 12:38:17,0.0,5,7.732,0.0,0.0,0.0,25.2,-2.9,-9.9,1024,1024,1024,1024,0,0,0,0,92,5.049,65.84,166.338588,P-GPS,,50.7
920,92000,2026-01-09 12:38:17,0.0,5,7.732,0.0,0.0,0.0,25.1,-2.9,-9.7,1024,1024,1024,1024,0,0,0,0,92,5.049,65.84,166.338588,P-GPS,,50.7
921,92100,2026-01-09 12:38:17,0.0,5,7.732,0.0,0.0,0.0,25.2,-3.4,-8.8,1024,1024,1024,1024,0,0,0,0,92,5.049,65.84,166.338588,P-GPS,,50.7
922,92200,2026-01-09 12:38:17,0.0,5,7.732,0.0,0.0,0.0,25.1,-3.4,-9.1,1024,1024,1024,1024,0,0,0,0,92,5.049,65.84,166.338588,P-GPS,,50.7
923,92300,2026-01-09 12:38:17,0.0,5,7.732,0.0,0.0,0.0,25.3,-3.6,-9.0,1024,1024,1024,1024,0,0,0,0,92,5.049,65.84,166.338588,P-GPS,,50.7
924,92400,2026-01-09 12:38:17,0.0,5,7.732,0.0,0.0,0.0,25.3,-3.6,-8.5,1024,1024,1024,1024,0,0,0,0,92,5.049,65.84,166.338588,P-GPS,,50.7
925,92500,2026-01-09 12:38:17,0.0,5,7.732,0.0,0.0,0.0,25.4,-3.2,-8.3,1024,1024,1024,1024,0,0,0,0,92,5.049,65.84,166.338588,P-GPS,,50.7
926,92600,2026-01-09 12:38:17,0.0,5,7.732,0.0,0.0,0.0,25.5,-3.6,-9.0,1024,1024,1024,1024,0,0,0,0,92,5.049,65.84,166.338588,P-GPS,,50.7
927,92700,2026-01-09 12:38:17,0.0,5,7.732,0.0,0.0,0.0,25.5,-3.2,-9.6,1024,1024,1024,1024,0,0,0,0,92,5.049,65.84,166.338588,P-GPS,,50.7
928,92800,2026-01-09 12:38:17,0.0,5,7.732,0.0,0.0,0.0,25.4,-2.5,-10.3,1024,1024,1024,1024,0,0,0,0,92,5.049,65.84,166.338588,P-GPS,,50.7
929,92900,2026-01-09 12:38:18,0.0,5,7.766,0.0,0.0,0.0,25.3,-2.0,-10.3,1024,1024,1024,1024,0,0,0,0,92,4.759,65.84,166.338588,P-GPS,,50.7
930,93000,2026-01-09 12:38:18,0.0,5,7.766,0.0,0.0,0.0,25.3,-1.9,-10.2,1024,1024,1024,1024,0,0,0,0,92,4.759,65.84,166.338588,P-GPS,,50.7
931,93100,2026-01-09 12:38:18,0.0,5,7.766,0.0,0.0,0.0,25.3,-2.3,-10.1,1024,1024,1024,1024,0,0,0,0,92,4.759,65.84,166.338588,P-GPS,,50.7
932,93200,2026-01-09 12:38:18,0.0,5,7.766,0.0,0.0,0.0,25.3,-2.5,-10.1,1024,1024,1024,1024,0,0,0,0,92,4.759,65.84,166.338588,P-GPS,,50.7
933,93300,2026-01-09 12:38:18,0.0,5,7.766,0.0,0.0,0.0,25.3,-2.7,-10.1,1024,1024,1024,1024,0,0,0,0,92,4.759,65.84,166.338588,P-GPS,,50.7
934,93400,2026-01-09 12:38:18,0.0,5,7.766,0.0,0.0,0.0,25.2,-2.7,-9.7,1024,1024,1024,1024,0,0,0,0,92,4.759,65.84,166.338588,P-GPS,,50.7
935,93500,2026-01-09 12:38:18,0.0,5,7.766,0.0,0.0,0.0,25.3,-3.0,-9.2,1024,1024,1024,1024,0,0,0,0,92,4.759,65.84,166.338588,P-GPS,,50.7
936,93600,2026-01-09 12:38:18,0.0,5,7.766,0.0,0.0,0.0,25.4,-3.2,-9.0,1024,1024,1024,1024,0,0,0,0,92,4.759,65.84,166.338588,P-GPS,,50.7
937,93700,2026-01-09 12:38:18,0.0,5,7.766,0.0,0.0,0.0,25.3,-3.5,-8.9,1024,1024,1024,1024,0,0,0,0,92,4.759,65.84,166.010504,P-GPS,,50.6
938,93800,2026-01-09 12:38:19,0.0,5,7.766,0.0,0.0,0.0,25.3,-3.2,-8.4,1024,1024,1024,1024,0,0,0,0,92,4.759,65.84,166.010504,P-GPS,,50.6
939,93900,2026-01-09 12:38:19,0.0,5,7.766,0.0,0.0,0.0,25.3,-3.1,-8.1,1024,1024,1024,1024,0,0,0,0,92,4.759,65.84,166.010504,P-GPS,,50.6
940,94000,2026-01-09 12:38:19,0.0,5,7.762,0.0,0.0,0.0,25.3,-3.3,-7.9,1024,1024,1024,1024,0,0,0,0,92,4.56,66.02,166.010504,P-GPS,,50.6
941,94100,2026-01-09 12:38:19,0.0,5,7.762,0.0,0.0,0.0,25.3,-3.2,-8.2,1024,1024,1024,1024,0,0,0,0,92,4.56,66.02,166.010504,P-GPS,,50.6
942,94200,2026-01-09 12:38:19,0.0,5,7.762,0.0,0.0,0.0,25.2,-3.3,-8.3,1024,1024,1024,1024,0,0,0,0,92,4.56,66.02,166.010504,P-GPS,,50.6
943,94300,2026-01-09 12:38:19,0.0,5,7.762,0.0,0.0,0.0,25.1,-4.0,-8.6,1024,1024,1024,1024,0,0,0,0,92,4.56,66.02,166.010504,P-GPS,,50.6
944,94400,2026-01-09 12:38:19,0.223694,5,7.762,0.0,-0.223694,0.0,25.1,-3.8,-7.5,1024,1024,1024,1024,0,0,0,0,92,4.56,66.02,166.010504,P-GPS,,50.6
945,94500,2026-01-09 12:38:19,0.223694,5,7.762,0.0,-0.223694,0.0,25.0,-4.0,-6.7,1024,1024,1024,1024,0,0,0,0,92,4.56,66.02,165.68242,P-GPS,,50.5
946,94600,2026-01-09 12:38:19,0.223694,5,7.762,0.0,-0.223694,0.0,24.9,-4.2,-5.8,1024,1024,1024,1024,0,0,0,0,92,4.56,66.02,165.68242,P-GPS,,50.5
947,94700,2026-01-09 12:38:19,0.223694,5,7.762,0.0,-0.223694,0.0,24.7,-4.0,-5.7,1024,1024,1024,1024,0,0,0,0,92,4.56,66.02,165.68242,P-GPS,,50.5
948,94800,2026-01-09 12:38:19,0.223694,5,7.762,0.0,-0.223694,0.0,24.7,-3.9,-5.8,1024,1024,1024,1024,0,0,0,0,92,4.56,66.02,165.354336,P-GPS,,50.4
949,94900,2026-01-09 12:38:20,0.0,5,7.762,0.0,0.0,0.0,24.8,-4.2,-5.7,1024,1024,1024,1024,0,0,0,0,92,4.56,66.02,165.354336,P-GPS,,50.4
950,95000,2026-01-09 12:38:20,0.0,5,7.762,0.0,0.0,0.0,24.8,-3.7,-5.6,1024,1024,1024,1024,0,0,0,0,92,4.56,66.02,165.354336,P-GPS,,50.4
951,95100,2026-01-09 12:38:20,0.0,5,7.73,0.0,0.0,0.0,25.1,-4.0,-5.5,1024,1024,1024,1024,0,0,0,0,92,5.003,66.02,165.354336,P-GPS,,50.4
952,95200,2026-01-09 12:38:20,0.0,5,7.73,0.0,0.0,0.0,25.2,-5.0,-5.7,1024,1024,1024,1024,0,0,0,0,92,5.003,66.02,165.354336,P-GPS,,50.4
953,95300,2026-01-09 12:38:20,0.0,5,7.73,0.0,0.0,0.0,25.1,-4.4,-6.0,1024,1024,1024,1024,0,0,0,0,92,5.003,66.02,165.354336,P-GPS,,50.4
954,95400,2026-01-09 12:38:20,0.0,5,7.73,0.0,0.0,0.0,25.2,-3.9,-6.3,1024,1024,1024,1024,0,0,0,0,92,5.003,66.02,165.354336,P-GPS,,50.4
955,95500,2026-01-09 12:38:20,0.0,5,7.73,0.0,0.0,0.0,25.2,-3.9,-6.5,1024,1024,1024,1024,0,0,0,0,92,5.003,66.02,165.354336,P-GPS,,50.4
956,95600,2026-01-09 12:38:20,0.0,5,7.73,0.0,0.0,0.0,25.2,-4.0,-6.6,1024,1024,1024,1024,0,0,0,0,92,5.003,66.02,165.68242,P-GPS,,50.5
957,95700,2026-01-09 12:38:20,0.0,5,7.73,0.0,0.0,0.0,25.2,-3.8,-6.8,1024,1024,1024,1024,0,0,0,0,92,5.003,66.02,165.68242,P-GPS,,50.5
958,95800,2026-01-09 12:38:21,0.0,5,7.73,0.0,0.0,0.0,25.2,-4.0,-6.9,1024,1024,1024,1024,0,0,0,0,92,5.003,66.02,165.68242,P-GPS,,50.5
959,95900,2026-01-09 12:38:21,0.0,5,7.73,0.0,0.0,0.0,25.2,-4.0,-7.7,1024,1024,1024,1024,0,0,0,0,92,5.003,66.02,165.68242,P-GPS,,50.5
960,96000,2026-01-09 12:38:21,0.0,5,7.73,0.0,0.0,0.0,25.1,-3.7,-7.9,1024,1024,1024,1024,0,0,0,0,92,5.003,66.02,166.010504,P-GPS,,50.6
961,96100,2026-01-09 12:38:21,0.0,5,7.73,0.0,0.0,0.0,25.1,-3.5,-7.9,1024,1024,1024,1024,0,0,0,0,92,5.003,66.02,166.010504,P-GPS,,50.6
962,96200,2026-01-09 12:38:21,0.0,5,7.742,0.0,0.0,0.0,24.9,-3.0,-8.3,1024,1024,1024,1024,0,0,0,0,92,5.032,66.02,165.68242,P-GPS,,50.5
963,96300,2026-01-09 12:38:21,0.0,5,7.742,0.0,0.0,0.0,25.2,-3.4,-8.1,1024,1024,1024,1024,0,0,0,0,92,5.032,66.02,166.010504,P-GPS,,50.6
964,96400,2026-01-09 12:38:21,0.0,5,7.742,0.0,0.0,0.0,25.3,-3.7,-8.2,1024,1024,1024,1024,0,0,0,0,92,5.032,66.02,166.010504,P-GPS,,50.6
965,96500,2026-01-09 12:38:21,0.0,5,7.742,0.0,0.0,0.0,25.2,-3.5,-8.5,1024,1024,1024,1024,0,0,0,0,92,5.032,66.02,166.010504,P-GPS,,50.6
966,96600,2026-01-09 12:38:21,0.0,5,7.742,0.0,0.0,0.0,25.3,-4.1,-8.3,1024,1024,1024,1024,0,0,0,0,92,5.032,66.02,166.010504,P-GPS,,50.6
967,96700,2026-01-09 12:38:21,0.0,5,7.742,0.0,0.0,0.0,25.4,-4.2,-8.5,1024,1024,1024,1024,0,0,0,0,92,5.032,66.02,166.010504,P-GPS,,50.6
968,96800,2026-01-09 12:38:21,0.0,5,7.742,0.0,0.0,0.0,25.4,-4.4,-8.9,1024,1024,1024,1024,0,0,0,0,92,5.032,66.02,166.338588,P-GPS,,50.7
969,96900,2026-01-09 12:38:22,0.0,5,7.742,0.0,0.0,0.0,25.4,-4.0,-9.0,1024,1024,1024,1024,0,0,0,0,92,5.032,66.02,166.338588,P-GPS,,50.7
970,97000,2026-01-09 12:38:22,0.0,5,7.742,0.0,0.0,0.0,25.5,-4.2,-8.9,1024,1024,1024,1024,0,0,0,0,92,5.032,66.02,166.338588,P-GPS,,50.7
971,97100,2026-01-09 12:38:22,0.0,5,7.742,0.0,0.0,0.0,25.5,-4.1,-9.2,1024,1024,1024,1024,0,0,0,0,92,5.032,66.02,166.338588,P-GPS,,50.7
972,97200,2026-01-09 12:38:22,0.0,5,7.742,0.0,0.0,0.0,25.6,-4.2,-9.6,1024,1024,1024,1024,0,0,0,0,92,5.032,66.02,166.338588,P-GPS,,50.7
973,97300,2026-01-09 12:38:22,0.0,5,7.742,0.0,0.0,0.0,25.6,-4.6,-9.6,1024,1024,1024,1024,0,0,0,0,92,5.032,66.02,166.666672,P-GPS,,50.8
974,97400,2026-01-09 12:38:22,0.0,5,7.734,0.0,0.0,0.0,25.7,-4.8,-9.3,1024,1024,1024,1024,0,0,0,0,92,5.132,66.02,166.666672,P-GPS,,50.8
975,97500,2026-01-09 12:38:22,0.0,5,7.734,0.0,0.0,0.0,25.7,-5.1,-9.8,1024,1024,1024,1024,0,0,0,0,92,5.132,66.02,166.666672,P-GPS,,50.8
976,97600,2026-01-09 12:38:22,0.0,5,7.734,0.0,0.0,0.0,25.7,-4.8,-10.3,1024,1024,1024,1024,0,0,0,0,92,5.132,66.02,166.666672,P-GPS,,50.8
977,97700,2026-01-09 12:38:22,0.0,5,7.734,0.0,0.0,0.0,25.7,-4.9,-10.0,1024,1024,1024,1024,0,0,0,0,92,5.132,66.02,166.666672,P-GPS,,50.8
978,97800,2026-01-09 12:38:22,0.0,5,7.734,0.0,0.0,0.0,25.6,-4.7,-10.1,1024,1024,1024,1024,0,0,0,0,92,5.132,66.02,166.666672,P-GPS,,50.8
979,97900,2026-01-09 12:38:23,0.0,5,7.734,0.0,0.0,0.0,25.6,-4.8,-9.5,1024,1024,1024,1024,0,0,0,0,92,5.132,66.02,166.666672,P-GPS,,50.8
980,98000,2026-01-09 12:38:23,0.0,5,7.734,0.0,0.0,0.0,25.5,-5.0,-9.3,1024,1024,1024,1024,0,0,0,0,92,5.132,66.02,166.666672,P-GPS,,50.8
981,98100,2026-01-09 12:38:23,0.0,5,7.734,0.0,0.0,0.0,25.4,-5.0,-8.8,1024,1024,1024,1024,0,0,0,0,92,5.132,66.02,166.666672,P-GPS,,50.8
982,98200,2026-01-09 12:38:23,0.0,5,7.734,0.0,0.0,0.0,25.4,-4.7,-8.5,1024,1024,1024,1024,0,0,0,0,92,5.132,66.02,166.666672,P-GPS,,50.8
983,98300,2026-01-09 12:38:23,0.0,5,7.734,0.0,0.0,0.0,25.5,-5.1,-8.3,1024,1024,1024,1024,0,0,0,0,92,5.132,66.02,166.666672,P-GPS,,50.8
984,98400,2026-01-09 12:38:23,0.0,5,7.734,0.0,0.0,0.0,25.4,-5.1,-8.4,1024,1024,1024,1024,0,0,0,0,92,5.132,66.02,166.338588,P-GPS,,50.7
985,98500,2026-01-09 12:38:23,0.0,5,7.724,0.0,0.0,0.0,25.4,-5.0,-8.3,1024,1024,1024,1024,0,0,0,0,92,5.051,66.2,166.338588,P-GPS,,50.7
986,98600,2026-01-09 12:38:23,0.0,5,7.724,0.0,0.0,0.0,25.4,-5.2,-8.2,1024,1024,1024,1024,0,0,0,0,92,5.051,66.2,166.338588,P-GPS,,50.7
987,98700,2026-01-09 12:38:23,0.0,5,7.724,0.0,0.0,0.0,25.5,-5.0,-7.8,1024,1024,1024,1024,0,0,0,0,92,5.051,66.2,166.338588,P-GPS,,50.7
988,98800,2026-01-09 12:38:23,0.0,5,7.724,0.0,0.0,0.0,25.4,-5.1,-7.4,1024,1024,1024,1024,0,0,0,0,92,5.051,66.2,166.338588,P-GPS,,50.7
989,98900,2026-01-09 12:38:24,0.0,5,7.724,0.0,0.0,0.0,25.4,-5.1,-7.3,1024,1024,1024,1024,0,0,0,0,92,5.051,66.2,166.338588,P-GPS,,50.7
990,99000,2026-01-09 12:38:24,0.0,5,7.724,0.0,0.0,0.0,25.3,-4.7,-7.3,1024,1024,1024,1024,0,0,0,0,92,5.051,66.2,166.338588,P-GPS,,50.7
991,99100,2026-01-09 12:38:24,0.0,5,7.724,0.0,0.0,0.0,25.3,-4.4,-7.7,1024,1024,1024,1024,0,0,0,0,92,5.051,66.2,166.338588,P-GPS,,50.7
992,99200,2026-01-09 12:38:24,0.0,5,7.724,0.0,0.0,0.0,25.3,-4.5,-7.3,1024,1024,1024,1024,0,0,0,0,92,5.051,66.2,166.338588,P-GPS,,50.7
993,99300,2026-01-09 12:38:24,0.0,5,7.724,0.0,0.0,0.0,25.5,-5.3,-6.7,1024,1024,1024,1024,0,0,0,0,92,5.051,66.2,166.338588,P-GPS,,50.7
994,99400,2026-01-09 12:38:24,0.0,5,7.724,0.0,0.0,0.0,25.5,-5.4,-6.1,1024,1024,1024,1024,0,0,0,0,92,5.051,66.2,166.338588,P-GPS,,50.7
995,99500,2026-01-09 12:38:24,0.0,5,7.724,0.0,0.0,0.0,25.5,-5.4,-6.1,1024,1024,1024,1024,0,0,0,0,92,5.051,66.2,166.338588,P-GPS,,50.7
996,99600,2026-01-09 12:38:24,0.0,5,7.724,0.0,0.0,0.0,25.7,-6.3,-6.2,1024,1024,1024,1024,0,0,0,0,92,5.051,66.2,166.338588,P-GPS,,50.7
997,99700,2026-01-09 12:38:24,0.0,5,7.724,0.0,0.0,0.0,25.5,-6.3,-6.3,1024,1024,1024,1024,0,0,0,0,92,5.051,66.2,166.338588,P-GPS,,50.7
998,99800,2026-01-09 12:38:24,0.0,5,7.724,0.0,0.0,0.0,25.2,-5.6,-6.6,1024,1024,1024,1024,0,0,0,0,92,5.051,66.2,166.338588,P-GPS,,50.7
999,99900,2026-01-09 12:38:25,0.0,5,7.724,0.0,0.0,0.0,25.5,-5.6,-6.7,1024,1024,1024,1024,0,0,0,0,92,5.051,66.2,166.338588,P-GPS,,50.7
1000,100000,2026-01-09 12:38:25,0.0,5,7.724,0.0,0.0,0.0,25.9,-6.5,-6.5,1024,1024,1024,1024,0,0,0,0,92,5.051,66.2,166.338588,P-GPS,,50.7
1001,100100,2026-01-09 12:38:25,0.0,5,7.724,0.0,0.0,0.0,25.8,-5.9,-7.2,1024,1024,1024,1024,0,0,0,0,92,5.051,66.2,166.338588,P-GPS,,50.7
1002,100200,2026-01-09 12:38:25,0.0,5,7.724,0.0,0.0,0.0,25.7,-5.8,-8.0,1024,1024,1024,1024,0,0,0,0,92,5.051,66.2,166.338588,P-GPS,,50.7
1003,100300,2026-01-09 12:38:25,0.0,5,7.724,0.0,0.0,0.0,25.5,-6.7,-8.1,1024,1024,1024,1024,0,0,0,0,92,5.051,66.2,166.338588,P-GPS,,50.7
1004,100400,2026-01-09 12:38:25,0.0,5,7.724,0.0,0.0,0.0,25.4,-6.9,-7.6,1024,1024,1024,1024,0,0,0,0,92,5.051,66.2,166.338588,P-GPS,,50.7
1005,100500,2026-01-09 12:38:25,0.0,5,7.724,0.0,0.0,0.0,25.3,-6.2,-6.7,1024,1024,1024,1024,0,0,0,0,92,5.051,66.2,166.338588,P-GPS,,50.7
1006,100600,2026-01-09 12:38:25,0.0,5,7.724,0.0,0.0,0.0,25.4,-5.9,-6.4,1024,1024,1024,1024,0,0,0,0,92,5.051,66.2,166.338588,P-GPS,,50.7
1007,100700,2026-01-09 12:38:25,0.0,5,7.727,0.0,0.0,0.0,25.4,-5.6,-7.3,1024,1024,1024,1024,0,0,0,0,92,5.027,66.2,166.338588,P-GPS,,50.7
1008,100800,2026-01-09 12:38:26,0.0,5,7.727,0.0,0.0,0.0,25.3,-5.8,-7.9,1024,1024,1024,1024,0,0,0,0,92,5.027,66.2,166.338588,P-GPS,,50.7
1009,100900,2026-01-09 12:38:26,0.0,5,7.727,0.0,0.0,0.0,25.4,-6.0,-7.9,1024,1024,1024,1024,0,0,0,0,92,5.027,66.2,166.338588,P-GPS,,50.7
1010,101000,2026-01-09 12:38:26,0.0,5,7.727,0.0,0.0,0.0,25.4,-6.1,-7.7,1024,1024,1024,1024,0,0,0,0,92,5.027,66.2,166.338588,P-GPS,,50.7
1011,101100,2026-01-09 12:38:26,0.0,5,7.727,0.0,0.0,0.0,25.2,-5.8,-8.1,1024,1024,1024,1024,0,0,0,0,92,5.027,66.2,166.338588,P-GPS,,50.7
1012,101200,2026-01-09 12:38:26,0.0,5,7.727,0.0,0.0,0.0,25.3,-5.7,-7.9,1024,1024,1024,1024,0,0,0,0,92,5.027,66.2,166.338588,P-GPS,,50.7
1013,101300,2026-01-09 12:38:26,0.0,5,7.727,0.0,0.0,0.0,25.3,-5.2,-7.7,1024,1024,1024,1024,0,0,0,0,92,5.027,66.2,166.338588,P-GPS,,50.7
1014,101400,2026-01-09 12:38:26,0.0,5,7.727,0.0,0.0,0.0,25.3,-4.8,-7.9,1024,1024,1024,1024,0,0,0,0,92,5.027,66.2,166.338588,P-GPS,,50.7
1015,101500,2026-01-09 12:38:26,0.0,5,7.727,0.0,0.0,0.0,25.4,-4.8,-7.9,1024,1024,1024,1024,0,0,0,0,92,5.027,66.2,166.338588,P-GPS,,50.7
1016,101600,2026-01-09 12:38:26,0.0,5,7.727,0.0,0.0,0.0,25.5,-5.0,-7.6,1024,1024,1024,1024,0,0,0,0,92,5.027,66.2,166.338588,P-GPS,,50.7
1017,101700,2026-01-09 12:38:26,0.0,5,7.727,0.0,0.0,0.0,25.4,-4.9,-7.7,1024,1024,1024,1024,0,0,0,0,92,5.027,66.2,166.338588,P-GPS,,50.7
1018,101800,2026-01-09 12:38:26,0.0,5,7.734,0.0,0.0,0.0,25.3,-4.7,-7.8,1024,1024,1024,1024,0,0,0,0,92,5.124,66.2,166.338588,P-GPS,,50.7
1019,101900,2026-01-09 12:38:27,0.0,5,7.734,0.0,0.0,0.0,25.3,-4.7,-7.9,1024,1024,1024,1024,0,0,0,0,92,5.124,66.2,166.338588,P-GPS,,50.7
1020,102000,2026-01-09 12:38:27,0.0,5,7.734,0.0,0.0,0.0,25.4,-4.9,-7.9,1024,1024,1024,1024,0,0,0,0,92,5.124,66.2,166.338588,P-GPS,,50.7
1021,102100,2026-01-09 12:38:27,0.0,5,7.734,0.0,0.0,0.0,25.4,-5.0,-8.1,1024,1024,1024,1024,0,0,0,0,92,5.124,66.2,166.338588,P-GPS,,50.7
1022,102200,2026-01-09 12:38:27,0.0,5,7.734,0.0,0.0,0.0,25.5,-5.2,-8.2,1024,1024,1024,1024,0,0,0,0,92,5.124,66.2,166.338588,P-GPS,,50.7
1023,102300,2026-01-09 12:38:27,0.0,5,7.734,0.0,0.0,0.0,25.5,-5.0,-8.0,1024,1024,1024,1024,0,0,0,0,92,5.124,66.2,166.338588,P-GPS,,50.7
1024,102400,2026-01-09 12:38:27,0.0,5,7.734,0.0,0.0,0.0,25.4,-5.7,-7.8,1024,1024,1024,1024,0,0,0,0,92,5.124,66.2,166.338588,P-GPS,,50.7
1025,102500,2026-01-09 12:38:27,0.0,5,7.734,0.0,0.0,0.0,25.4,-5.7,-7.5,1024,1024,1024,1024,0,0,0,0,92,5.124,66.2,166.338588,P-GPS,,50.7
1026,102600,2026-01-09 12:38:27,0.0,5,7.734,0.0,0.0,0.0,25.4,-5.6,-7.3,1024,1024,1024,1024,0,0,0,0,92,5.124,66.2,166.338588,P-GPS,,50.7
1027,102700,2026-01-09 12:38:27,0.0,5,7.734,0.0,0.0,0.0,25.4,-5.9,-7.3,1024,1024,1024,1024,0,0,0,0,92,5.124,66.2,166.338588,P-GPS,,50.7
1028,102800,2026-01-09 12:38:28,0.0,5,7.734,0.0,0.0,0.0,25.5,-6.8,-7.1,1024,1024,1024,1024,0,0,0,0,92,5.124,66.2,166.338588,P-GPS,,50.7
1029,102900,2026-01-09 12:38:28,0.0,5,7.728,0.0,0.0,0.0,25.5,-6.3,-7.5,1024,1024,1024,1024,0,0,0,0,92,5.117,66.38,166.338588,P-GPS,,50.7
1030,103000,2026-01-09 12:38:28,0.0,5,7.728,0.0,0.0,0.0,25.6,-5.7,-7.8,1024,1024,1024,1024,0,0,0,0,92,5.117,66.38,166.338588,P-GPS,,50.7
1031,103100,2026-01-09 12:38:28,0.223694,5,7.728,0.0,0.223694,0.0,25.6,-5.5,-10.4,1024,1024,1024,1024,0,0,0,0,92,5.117,66.38,166.338588,P-GPS,,50.7
1032,103200,2026-01-09 12:38:28,0.223694,5,7.728,0.0,0.223694,0.0,25.7,-5.7,-10.9,1024,1024,1024,1024,0,0,0,0,92,5.117,66.38,166.338588,P-GPS,,50.7
1033,103300,2026-01-09 12:38:28,0.223694,5,7.728,0.0,0.223694,0.0,25.6,-5.7,-11.1,1024,1024,1024,1024,0,0,0,0,92,5.117,66.38,166.338588,P-GPS,,50.7
1034,103400,2026-01-09 12:38:28,0.223694,5,7.728,0.0,0.223694,0.0,25.5,-5.2,-11.8,1024,1024,1024,1024,0,0,0,0,92,5.117,66.38,166.666672,P-GPS,,50.8
1035,103500,2026-01-09 12:38:28,0.223694,5,7.728,0.0,0.223694,0.0,25.5,-5.2,-12.0,1024,1024,1024,1024,0,0,0,0,92,5.117,66.38,166.666672,P-GPS,,50.8
1036,103600,2026-01-09 12:38:28,0.0,5,7.728,0.0,0.0,0.0,25.4,-5.0,-11.7,1024,1024,1024,1024,0,0,0,0,92,5.117,66.38,166.666672,P-GPS,,50.8
1037,103700,2026-01-09 12:38:28,0.0,5,7.728,0.0,0.0,0.0,25.5,-5.3,-11.5,1024,1024,1024,1024,0,0,0,0,92,5.117,66.38,166.666672,P-GPS,,50.8
1038,103800,2026-01-09 12:38:28,0.0,5,7.728,0.0,0.0,0.0,25.3,-4.9,-10.6,1024,1024,1024,1024,0,0,0,0,92,5.117,66.38,166.338588,P-GPS,,50.7
1039,103900,2026-01-09 12:38:29,0.0,5,7.728,0.0,0.0,0.0,25.3,-4.8,-10.3,1024,1024,1024,1024,0,0,0,0,92,5.117,66.38,166.338588,P-GPS,,50.7
1040,104000,2026-01-09 12:38:29,0.0,5,7.712,0.0,0.0,0.0,25.3,-4.7,-10.2,1024,1024,1024,1024,0,0,0,0,92,5.338,66.38,166.338588,P-GPS,,50.7
1041,104100,2026-01-09 12:38:29,0.0,5,7.712,0.0,0.0,0.0,25.3,-4.7,-9.6,1024,1024,1024,1024,0,0,0,0,92,5.338,66.38,166.338588,P-GPS,,50.7
1042,104200,2026-01-09 12:38:29,0.0,5,7.712,0.0,0.0,0.0,25.1,-4.1,-9.3,1024,1024,1024,1024,0,0,0,0,92,5.338,66.38,166.010504,P-GPS,,50.6
1043,104300,2026-01-09 12:38:29,0.0,5,7.712,0.0,0.0,0.0,25.2,-4.4,-9.4,1024,1024,1024,1024,0,0,0,0,92,5.338,66.38,166.010504,P-GPS,,50.6
1044,104400,2026-01-09 12:38:29,0.223694,5,7.712,0.223694,0.0,0.0,25.2,-3.8,-9.2,1024,1024,1024,1024,0,0,0,0,92,5.338,66.38,165.68242,P-GPS,,50.5
1045,104500,2026-01-09 12:38:29,0.223694,5,7.712,0.223694,0.0,0.0,24.8,-2.5,-9.2,1024,1024,1024,1024,0,0,0,0,92,5.338,66.38,165.68242,P-GPS,,50.5
1046,104600,2026-01-09 12:38:29,0.0,5,7.712,0.0,0.0,0.0,24.9,-2.5,-9.2,1024,1024,1024,1024,0,0,0,0,92,5.338,66.38,165.68242,P-GPS,,50.5
1047,104700,2026-01-09 12:38:29,0.0,5,7.712,0.0,0.0,0.0,24.9,-2.8,-8.9,1024,1024,1024,1024,0,0,0,0,92,5.338,66.38,165.354336,P-GPS,,50.4
1048,104800,2026-01-09 12:38:29,0.0,5,7.712,0.0,0.0,0.0,25.0,-3.1,-8.6,1024,1024,1024,1024,0,0,0,0,92,5.338,66.38,165.354336,P-GPS,,50.4
1049,104900,2026-01-09 12:38:30,0.0,5,7.712,0.0,0.0,0.0,24.9,-2.7,-8.3,1024,1024,1024,1024,0,0,0,0,92,5.338,66.38,165.026252,P-GPS,,50.3
1050,105000,2026-01-09 12:38:30,0.0,5,7.712,0.0,0.0,0.0,25.0,-3.0,-8.2,1024,1024,1024,1024,0,0,0,0,92,5.338,66.38,165.026252,P-GPS,,50.3
1051,105100,2026-01-09 12:38:30,0.0,5,7.736,0.0,0.0,0.0,25.1,-2.9,-8.0,1024,1024,1024,1024,0,0,0,0,92,4.903,66.38,165.026252,P-GPS,,50.3
1052,105200,2026-01-09 12:38:30,0.0,5,7.736,0.0,0.0,0.0,24.9,-2.3,-8.1,1024,1024,1024,1024,0,0,0,0,92,4.903,66.38,165.026252,P-GPS,,50.3
1053,105300,2026-01-09 12:38:30,0.0,5,7.736,0.0,0.0,0.0,24.8,-2.2,-7.9,1024,1024,1024,1024,0,0,0,0,92,4.903,66.38,164.698168,P-GPS,,50.2
1054,105400,2026-01-09 12:38:30,0.0,5,7.736,0.0,0.0,0.0,24.8,-2.1,-8.0,1024,1024,1024,1024,0,0,0,0,92,4.903,66.38,164.698168,P-GPS,,50.2
1055,105500,2026-01-09 12:38:30,0.0,5,7.736,0.0,0.0,0.0,24.7,-2.4,-8.0,1024,1024,1024,1024,0,0,0,0,92,4.903,66.38,164.698168,P-GPS,,50.2
1056,105600,2026-01-09 12:38:30,0.0,5,7.736,0.0,0.0,0.0,24.8,-2.9,-7.7,1024,1024,1024,1024,0,0,0,0,92,4.903,66.38,164.698168,P-GPS,,50.2
1057,105700,2026-01-09 12:38:30,0.0,5,7.736,0.0,0.0,0.0,24.9,-3.1,-7.8,1024,1024,1024,1024,0,0,0,0,92,4.903,66.38,164.698168,P-GPS,,50.2
1058,105800,2026-01-09 12:38:30,0.0,5,7.736,0.0,0.0,0.0,24.8,-2.7,-7.9,1024,1024,1024,1024,0,0,0,0,92,4.903,66.38,164.370084,P-GPS,,50.1
1059,105900,2026-01-09 12:38:31,0.0,5,7.736,0.0,0.0,0.0,24.7,-3.1,-7.9,1024,1024,1024,1024,0,0,0,0,92,4.903,66.38,164.370084,P-GPS,,50.1
1060,106000,2026-01-09 12:38:31,0.0,5,7.736,0.0,0.0,0.0,24.6,-2.8,-7.7,1024,1024,1024,1024,0,0,0,0,92,4.903,66.38,164.370084,P-GPS,,50.1
1061,106100,2026-01-09 12:38:31,0.0,5,7.736,0.0,0.0,0.0,24.7,-2.9,-7.4,1024,1024,1024,1024,0,0,0,0,92,4.903,66.38,164.370084,P-GPS,,50.1
1062,106200,2026-01-09 12:38:31,0.0,5,7.739,0.0,0.0,0.0,25.1,-3.7,-6.9,1024,1024,1024,1024,0,0,0,0,92,4.993,66.38,164.370084,P-GPS,,50.1
1063,106300,2026-01-09 12:38:31,0.0,5,7.739,0.0,0.0,0.0,25.2,-3.6,-7.1,1024,1024,1024,1024,0,0,0,0,92,4.993,66.38,164.370084,P-GPS,,50.1
1064,106400,2026-01-09 12:38:31,0.0,5,7.739,0.0,0.0,0.0,25.1,-3.4,-7.4,1024,1024,1024,1024,0,0,0,0,92,4.993,66.38,164.370084,P-GPS,,50.1
1065,106500,2026-01-09 12:38:31,0.0,5,7.739,0.0,0.0,0.0,25.1,-3.7,-7.5,1024,1024,1024,1024,0,0,0,0,92,4.993,66.38,164.698168,P-GPS,,50.2
1066,106600,2026-01-09 12:38:31,0.0,5,7.739,0.0,0.0,0.0,25.1,-3.5,-7.6,1024,1024,1024,1024,0,0,0,0,92,4.993,66.38,164.698168,P-GPS,,50.2
1067,106700,2026-01-09 12:38:31,0.0,5,7.739,0.0,0.0,0.0,25.1,-3.7,-7.9,1024,1024,1024,1024,0,0,0,0,92,4.993,66.38,164.698168,P-GPS,,50.2
1068,106800,2026-01-09 12:38:31,0.0,5,7.739,0.0,0.0,0.0,25.1,-3.5,-8.0,1024,1024,1024,1024,0,0,0,0,92,4.993,66.38,164.698168,P-GPS,,50.2
1069,106900,2026-01-09 12:38:32,0.0,5,7.739,0.0,0.0,0.0,25.2,-3.5,-7.4,1024,1024,1024,1024,0,0,0,0,92,4.993,66.38,164.698168,P-GPS,,50.2
1070,107000,2026-01-09 12:38:32,0.0,5,7.739,0.0,0.0,0.0,25.6,-4.4,-6.9,1024,1024,1024,1024,0,0,0,0,92,4.993,66.38,165.026252,P-GPS,,50.3
1071,107100,2026-01-09 12:38:32,0.0,5,7.739,0.0,0.0,0.0,25.7,-5.0,-7.0,1024,1024,1024,1024,0,0,0,0,92,4.993,66.38,165.026252,P-GPS,,50.3
1072,107200,2026-01-09 12:38:32,0.0,5,7.739,0.0,0.0,0.0,25.8,-5.2,-7.1,1024,1024,1024,1024,0,0,0,0,92,4.993,66.38,165.354336,P-GPS,,50.4
1073,107300,2026-01-09 12:38:32,0.0,5,7.742,0.0,0.0,0.0,25.8,-5.8,-6.9,1024,1024,1024,1024,0,0,0,0,92,4.834,66.56,165.354336,P-GPS,,50.4
1074,107400,2026-01-09 12:38:32,0.0,5,7.742,0.0,0.0,0.0,25.7,-5.5,-7.2,1024,1024,1024,1024,0,0,0,0,92,4.834,66.56,165.68242,P-GPS,,50.5
1075,107500,2026-01-09 12:38:32,0.0,5,7.742,0.0,0.0,0.0,25.8,-5.4,-7.6,1024,1024,1024,1024,0,0,0,0,92,4.834,66.56,165.68242,P-GPS,,50.5
1076,107600,2026-01-09 12:38:32,0.0,5,7.742,0.0,0.0,0.0,25.7,-4.9,-7.9,1024,1024,1024,1024,0,0,0,0,92,4.834,66.56,165.68242,P-GPS,,50.5
1077,107700,2026-01-09 12:38:32,0.0,5,7.742,0.0,0.0,0.0,25.5,-5.1,-8.6,1024,1024,1024,1024,0,0,0,0,92,4.834,66.56,166.010504,P-GPS,,50.6
1078,107800,2026-01-09 12:38:32,0.0,5,7.742,0.0,0.0,0.0,25.8,-5.1,-8.6,1024,1024,1024,1024,0,0,0,0,92,4.834,66.56,166.010504,P-GPS,,50.6
1079,107900,2026-01-09 12:38:33,0.0,5,7.742,0.0,0.0,0.0,25.8,-4.9,-8.2,1024,1024,1024,1024,0,0,0,0,92,4.834,66.56,166.338588,P-GPS,,50.7
1080,108000,2026-01-09 12:38:33,0.0,5,7.742,0.0,0.0,0.0,25.7,-4.8,-7.9,1024,1024,1024,1024,0,0,0,0,92,4.834,66.56,166.338588,P-GPS,,50.7
1081,108100,2026-01-09 12:38:33,0.0,5,7.742,0.0,0.0,0.0,25.6,-4.2,-7.8,1024,1024,1024,1024,0,0,0,0,92,4.834,66.56,166.338588,P-GPS,,50.7
1082,108200,2026-01-09 12:38:33,0.0,5,7.742,0.0,0.0,0.0,25.7,-4.5,-7.6,1024,1024,1024,1024,0,0,0,0,92,4.834,66.56,166.338588,P-GPS,,50.7
1083,108300,2026-01-09 12:38:33,0.0,5,7.742,0.0,0.0,0.0,25.7,-4.5,-7.4,1024,1024,1024,1024,0,0,0,0,92,4.834,66.56,166.338588,P-GPS,,50.7
1084,108400,2026-01-09 12:38:33,0.0,5,7.772,0.0,0.0,0.0,25.7,-4.3,-7.2,1024,1024,1024,1024,0,0,0,0,91,4.433,66.56,166.338588,P-GPS,,50.7
1085,108500,2026-01-09 12:38:33,0.0,5,7.772,0.0,0.0,0.0,25.6,-4.3,-6.9,1024,1024,1024,1024,0,0,0,0,91,4.433,66.56,166.338588,P-GPS,,50.7
1086,108600,2026-01-09 12:38:33,0.0,5,7.772,0.0,0.0,0.223694,25.6,-4.4,-6.5,1024,1024,1024,1024,0,0,0,0,91,4.433,66.56,166.338588,P-GPS,,50.7
1087,108700,2026-01-09 12:38:33,0.0,5,7.772,0.0,0.0,0.0,25.6,-4.1,-6.5,1024,1024,1024,1024,0,0,0,0,91,4.433,66.56,166.338588,P-GPS,,50.7
1088,108800,2026-01-09 12:38:33,0.0,5,7.772,0.0,0.0,0.0,25.6,-3.8,-6.5,1024,1024,1024,1024,0,0,0,0,91,4.433,66.56,166.338588,P-GPS,,50.7
1089,108900,2026-01-09 12:38:34,0.0,5,7.772,0.0,0.0,0.0,25.7,-4.5,-6.5,1024,1024,1024,1024,0,0,0,0,91,4.433,66.56,166.666672,P-GPS,,50.8
1090,109000,2026-01-09 12:38:34,0.0,5,7.772,0.0,0.0,0.0,25.6,-4.3,-6.3,1024,1024,1024,1024,0,0,0,0,91,4.433,66.56,166.666672,P-GPS,,50.8
1091,109100,2026-01-09 12:38:34,0.0,5,7.772,0.0,0.0,0.0,25.5,-4.8,-6.3,1024,1024,1024,1024,0,0,0,0,91,4.433,66.56,166.666672,P-GPS,,50.8
1092,109200,2026-01-09 12:38:34,0.0,5,7.772,0.0,0.0,0.0,25.5,-4.5,-6.3,1024,1024,1024,1024,0,0,0,0,91,4.433,66.56,166.666672,P-GPS,,50.8
1093,109300,2026-01-09 12:38:34,0.0,5,7.772,0.0,0.0,0.0,25.4,-4.1,-6.3,1024,1024,1024,1024,0,0,0,0,91,4.433,66.56,166.666672,P-GPS,,50.8
