index,time(millisecond),timestamp,speed(mph),gpslevel,voltage(v),xSpeed(mph),ySpeed(mph),zSpeed(mph),compass_heading(degrees),pitch(degrees),roll(degrees),rc_elevator,rc_aileron,rc_throttle,rc_rudder,rc_elevator(percent),rc_aileron(percent),rc_throttle(percent),rc_rudder(percent),battery_percent,current(A),battery_temperature(f),ascent(feet),flycState,message,height_above_takeoff(meters)
722,371900,2026-01-07 12:35:14,0.0,5,7.498,0.0,0.0,0.0,50.3,7.7,4.5,1024,1024,1024,1024,0,0,0,0,73,5.44,72.14,166.338588,P-GPS,,50.7
723,372000,2026-01-07 12:35:14,0.0,5,7.498,0.0,0.0,0.0,50.4,7.8,4.7,1024,1024,1024,1024,0,0,0,0,73,5.44,72.14,166.666672,P-GPS,,50.8
724,372100,2026-01-07 12:35:14,0.0,5,7.498,0.0,0.0,0.0,50.4,7.8,4.8,1024,1024,1024,1024,0,0,0,0,73,5.44,72.14,166.666672,P-GPS,,50.8
725,372200,2026-01-07 12:35:14,0.0,5,7.494,0.0,0.0,0.0,50.4,7.6,4.8,1024,1024,1024,1024,0,0,0,0,73,4.119,72.32,166.666672,P-GPS,,50.8
726,372300,2026-01-07 12:35:14,0.0,5,7.494,0.0,0.0,0.0,50.4,7.3,4.6,1024,1024,1024,1024,0,0,0,0,73,4.119,72.32,166.666672,P-GPS,,50.8
727,372400,2026-01-07 12:35:15,0.0,5,7.494,0.0,0.0,0.0,50.4,7.6,4.7,1024,1024,1024,1024,0,0,0,0,73,4.119,72.32,166.666672,P-GPS,,50.8
728,372500,2026-01-07 12:35:15,0.0,5,7.494,0.0,0.0,0.0,50.5,7.6,4.8,1024,1024,1024,1024,0,0,0,0,73,4.119,72.32,166.666672,P-GPS,,50.8
729,372600,2026-01-07 12:35:15,0.0,5,7.494,0.0,0.0,0.0,50.4,7.7,4.7,1024,1024,1024,1024,0,0,0,0,73,4.119,72.32,166.666672,P-GPS,,50.8
730,372700,2026-01-07 12:35:15,0.0,5,7.494,0.0,0.0,0.0,50.4,7.6,4.7,1024,1024,1024,1024,0,0,0,0,73,4.119,72.32,166.666672,P-GPS,SD card speed low SD card speed low. Normal use may be affected. Replace SD card (Code: 10028). Gimbal stuck. Make sure gimbal cover is removed and manually check whether gimbal can rotate freely (Code: 40002),50.8
731,372800,2026-01-07 12:35:15,0.0,5,7.494,0.0,0.0,0.0,50.4,7.7,4.8,1024,1024,1024,1024,0,0,0,0,73,4.119,72.32,166.666672,P-GPS,,50.8
732,372900,2026-01-07 12:35:15,0.0,5,7.494,0.0,0.0,0.0,50.4,7.7,4.9,1024,1024,1024,1024,0,0,0,0,73,4.119,72.32,166.338588,P-GPS,,50.7
733,373000,2026-01-07 12:35:15,0.0,5,7.494,0.0,0.0,0.0,50.4,7.9,5.0,1024,1024,1024,1024,0,0,0,0,73,4.119,72.32,166.338588,P-GPS,,50.7
734,373100,2026-01-07 12:35:15,0.0,5,7.494,0.0,0.0,0.0,50.4,8.2,5.1,1024,1024,1024,1024,0,0,0,0,73,4.119,72.32,166.338588,P-GPS,,50.7
735,373200,2026-01-07 12:35:15,0.0,5,7.494,0.0,0.0,0.0,50.4,8.4,5.0,1024,1024,1024,1024,0,0,0,0,73,4.119,72.32,166.338588,P-GPS,,50.7
736,373300,2026-01-07 12:35:15,0.0,5,7.483,0.0,0.0,0.0,50.4,8.3,4.9,1024,1024,1024,1024,0,0,0,0,73,4.619,72.14,166.338588,P-GPS,,50.7
737,373400,2026-01-07 12:35:16,0.0,5,7.483,0.0,0.0,0.0,50.4,8.4,5.0,1024,1024,1024,1024,0,0,0,0,73,4.619,72.14,166.338588,P-GPS,,50.7
738,373500,2026-01-07 12:35:16,0.0,5,7.483,0.0,0.0,0.0,50.4,8.4,4.8,1024,1024,1024,1024,0,0,0,0,73,4.619,72.14,166.338588,P-GPS,,50.7
739,373600,2026-01-07 12:35:16,0.0,5,7.483,0.0,0.0,0.0,50.4,8.6,4.6,1024,1024,1024,1024,0,0,0,0,73,4.619,72.14,166.338588,P-GPS,,50.7
740,373700,2026-01-07 12:35:16,0.0,5,7.483,0.0,0.0,0.0,50.4,8.6,4.6,1024,1024,1024,1024,0,0,0,0,73,4.619,72.14,166.338588,P-GPS,,50.7
741,373800,2026-01-07 12:35:16,0.0,5,7.483,0.0,0.0,0.0,50.4,8.7,4.6,1024,1024,1024,1024,0,0,0,0,73,4.619,72.14,166.010504,P-GPS,,50.6
742,373900,2026-01-07 12:35:16,0.0,5,7.483,0.0,0.0,0.0,50.4,8.6,4.5,1024,1024,1024,1024,0,0,0,0,73,4.619,72.14,166.010504,P-GPS,,50.6
743,374000,2026-01-07 12:35:16,0.0,5,7.483,0.0,0.0,0.0,50.4,8.6,4.3,1024,1024,1024,1024,0,0,0,0,73,4.619,72.14,166.010504,P-GPS,,50.6
744,374100,2026-01-07 12:35:16,0.0,5,7.483,0.0,0.0,0.0,50.4,8.6,4.1,1024,1024,1024,1024,0,0,0,0,73,4.619,72.14,166.010504,P-GPS,,50.6
745,374200,2026-01-07 12:35:16,0.0,5,7.483,0.0,0.0,0.0,50.3,8.3,4.1,1024,1024,1024,1024,0,0,0,0,73,4.619,72.14,166.010504,P-GPS,,50.6
746,374300,2026-01-07 12:35:17,0.0,5,7.483,0.0,0.0,0.0,50.4,8.5,4.2,1024,1024,1024,1024,0,0,0,0,73,4.619,72.14,166.010504,P-GPS,,50.6
747,374400,2026-01-07 12:35:17,0.0,5,7.483,0.0,0.0,0.0,50.4,8.7,4.4,1024,1024,1024,1024,0,0,0,0,73,4.619,72.14,166.010504,P-GPS,,50.6
748,374500,2026-01-07 12:35:17,0.0,5,7.483,0.0,0.0,0.0,50.4,8.4,4.6,1024,1024,1024,1024,0,0,0,0,73,4.619,72.14,166.010504,P-GPS,,50.6
749,374600,2026-01-07 12:35:17,0.0,5,7.483,0.0,0.0,0.0,50.4,8.4,4.5,1024,1024,1024,1024,0,0,0,0,73,4.619,72.14,166.010504,P-GPS,,50.6
750,374700,2026-01-07 12:35:17,0.0,5,7.483,0.0,0.0,0.0,50.4,8.4,4.4,1024,1024,1024,1024,0,0,0,0,73,4.619,72.14,166.010504,P-GPS,,50.6
751,374800,2026-01-07 12:35:17,0.0,5,7.483,0.0,0.0,0.0,50.4,8.1,4.1,1024,1024,1024,1024,0,0,0,0,73,4.619,72.14,165.68242,P-GPS,,50.5
752,374900,2026-01-07 12:35:17,0.0,5,7.483,0.0,0.0,0.0,50.4,8.2,4.2,1024,1024,1024,1024,0,0,0,0,73,4.619,72.14,165.68242,P-GPS,,50.5
753,375000,2026-01-07 12:35:17,0.0,5,7.483,0.0,0.0,0.0,50.4,8.2,4.2,1024,1024,1024,1024,0,0,0,0,73,4.619,72.14,165.68242,P-GPS,,50.5
754,375100,2026-01-07 12:35:17,0.0,5,7.483,0.0,0.0,0.0,50.4,8.2,4.3,1024,1024,1024,1024,0,0,0,0,73,4.619,72.14,165.68242,P-GPS,,50.5
755,375200,2026-01-07 12:35:17,0.0,5,7.483,0.0,0.0,0.0,50.4,8.2,4.0,1024,1024,1024,1024,0,0,0,0,73,4.619,72.14,165.68242,P-GPS,,50.5
756,375300,2026-01-07 12:35:17,0.0,5,7.483,0.0,0.0,0.0,50.3,8.0,3.9,1024,1024,1024,1024,0,0,0,0,73,4.619,72.14,165.68242,P-GPS,,50.5
757,375400,2026-01-07 12:35:18,0.0,5,7.483,0.0,0.0,0.0,50.3,7.9,4.0,1024,1024,1024,1024,0,0,0,0,73,4.619,72.14,165.68242,P-GPS,,50.5
758,375500,2026-01-07 12:35:18,0.0,5,7.483,0.0,0.0,0.0,50.4,7.8,4.2,1024,1024,1024,1024,0,0,0,0,73,4.619,72.14,165.68242,P-GPS,,50.5
759,375600,2026-01-07 12:35:18,0.0,5,7.483,0.0,0.0,0.0,50.4,8.0,4.3,1024,1024,1024,1024,0,0,0,0,73,4.75,72.32,165.68242,P-GPS,,50.5
760,375700,2026-01-07 12:35:18,0.0,5,7.483,0.0,0.0,0.0,50.4,7.8,4.1,1024,1024,1024,1024,0,0,0,0,73,4.75,72.32,165.68242,P-GPS,,50.5
761,375800,2026-01-07 12:35:18,0.0,5,7.483,0.0,0.0,0.0,50.4,7.7,4.0,1024,1024,1024,1024,0,0,0,0,73,4.75,72.32,165.68242,P-GPS,,50.5
762,375900,2026-01-07 12:35:18,0.0,5,7.483,0.0,0.0,0.0,50.4,7.6,4.0,1024,1024,1024,1024,0,0,0,0,73,4.75,72.32,165.68242,P-GPS,,50.5
763,376000,2026-01-07 12:35:18,0.0,5,7.483,0.0,0.0,0.0,50.4,7.6,4.1,1024,1024,1024,1024,0,0,0,0,73,4.75,72.32,165.68242,P-GPS,,50.5
764,376100,2026-01-07 12:35:18,0.0,5,7.483,0.0,0.0,0.0,50.4,7.7,4.1,1024,1024,1024,1024,0,0,0,0,73,4.75,72.32,165.68242,P-GPS,,50.5
765,376200,2026-01-07 12:35:18,0.0,5,7.483,0.0,0.0,0.0,50.4,7.7,4.0,1024,1024,1024,1024,0,0,0,0,73,4.75,72.32,165.68242,P-GPS,,50.5
766,376300,2026-01-07 12:35:18,0.0,5,7.483,0.0,0.0,0.0,50.4,7.7,4.1,1024,1024,1024,1024,0,0,0,0,73,4.75,72.32,165.68242,P-GPS,,50.5
767,376400,2026-01-07 12:35:19,0.0,5,7.483,0.0,0.0,0.0,50.3,7.7,4.1,1024,1024,1024,1024,0,0,0,0,73,4.75,72.32,165.68242,P-GPS,,50.5
768,376500,2026-01-07 12:35:19,0.0,5,7.483,0.0,0.0,0.0,50.4,7.4,4.0,1024,1024,1024,1024,0,0,0,0,73,4.75,72.32,165.68242,P-GPS,,50.5
769,376600,2026-01-07 12:35:19,0.0,5,7.483,0.0,0.0,0.0,50.4,7.3,4.1,1024,1024,1024,1024,0,0,0,0,73,4.75,72.32,165.68242,P-GPS,,50.5
770,376700,2026-01-07 12:35:19,0.0,5,7.487,0.0,0.0,0.0,50.4,7.3,4.2,1024,1024,1024,1024,0,0,0,0,73,4.663,72.32,165.68242,P-GPS,,50.5
771,376800,2026-01-07 12:35:19,0.0,5,7.487,0.0,0.0,0.0,50.3,7.4,4.2,1024,1024,1024,1024,0,0,0,0,73,4.663,72.32,165.68242,P-GPS,,50.5
772,376900,2026-01-07 12:35:19,0.0,5,7.487,0.0,0.0,0.0,50.4,7.5,4.2,1024,1024,1024,1024,0,0,0,0,73,4.663,72.32,165.68242,P-GPS,,50.5
773,377000,2026-01-07 12:35:19,0.0,5,7.487,0.0,0.0,0.0,50.4,7.6,4.3,1024,1024,1024,1024,0,0,0,0,73,4.663,72.32,165.68242,P-GPS,,50.5
774,377100,2026-01-07 12:35:19,0.0,5,7.487,0.0,0.0,0.0,50.4,7.6,4.3,1024,1024,1024,1024,0,0,0,0,73,4.663,72.32,165.68242,P-GPS,,50.5
775,377200,2026-01-07 12:35:19,0.0,5,7.487,0.0,0.0,0.0,50.3,7.7,4.2,1024,1024,1024,1024,0,0,0,0,73,4.663,72.32,165.68242,P-GPS,,50.5
776,377300,2026-01-07 12:35:19,0.0,5,7.487,0.0,0.0,0.0,50.4,7.6,4.3,1024,1024,1024,1024,0,0,0,0,73,4.663,72.32,165.68242,P-GPS,,50.5
777,377400,2026-01-07 12:35:20,0.0,5,7.487,0.0,0.0,0.0,50.4,7.3,4.5,1024,1024,1024,1024,0,0,0,0,73,4.663,72.32,165.68242,P-GPS,,50.5
778,377500,2026-01-07 12:35:20,0.0,5,7.487,0.0,0.0,0.0,50.4,7.4,4.5,1024,1024,1024,1024,0,0,0,0,73,4.663,72.32,165.68242,P-GPS,,50.5
779,377600,2026-01-07 12:35:20,0.0,5,7.487,0.0,0.0,0.0,50.4,7.5,4.5,1024,1024,1024,1024,0,0,0,0,73,4.663,72.32,165.68242,P-GPS,,50.5
780,377700,2026-01-07 12:35:20,0.0,5,7.487,0.0,0.0,0.0,50.4,7.5,4.4,1024,1024,1024,1024,0,0,0,0,73,4.663,72.32,165.68242,P-GPS,,50.5
781,377800,2026-01-07 12:35:20,0.0,5,7.481,0.0,0.0,0.0,50.4,7.4,4.1,1024,1024,1024,1024,0,0,0,0,72,4.715,72.32,165.68242,P-GPS,,50.5
782,377900,2026-01-07 12:35:20,0.0,5,7.481,0.0,0.0,0.0,50.4,7.6,4.2,1024,1024,1024,1024,0,0,0,0,72,4.715,72.32,165.68242,P-GPS,,50.5
783,378000,2026-01-07 12:35:20,0.0,5,7.481,0.0,0.0,0.0,50.4,7.7,4.2,1024,1024,1024,1024,0,0,0,0,72,4.715,72.32,165.68242,P-GPS,,50.5
784,378100,2026-01-07 12:35:20,0.0,5,7.481,0.0,0.0,0.0,50.4,7.8,4.2,1024,1024,1024,1024,0,0,0,0,72,4.715,72.32,165.68242,P-GPS,,50.5
785,378200,2026-01-07 12:35:20,0.0,5,7.481,0.0,0.0,0.0,50.4,8.0,4.3,1024,1024,1024,1024,0,0,0,0,72,4.715,72.32,165.68242,P-GPS,,50.5
786,378300,2026-01-07 12:35:20,0.0,5,7.481,0.0,0.0,0.0,50.4,8.2,4.3,1024,1024,1024,1024,0,0,0,0,72,4.715,72.32,165.68242,P-GPS,,50.5
787,378400,2026-01-07 12:35:21,0.0,5,7.481,0.0,0.0,0.0,50.4,8.3,4.4,1024,1024,1024,1024,0,0,0,0,72,4.715,72.32,165.68242,P-GPS,,50.5
788,378500,2026-01-07 12:35:21,0.0,5,7.481,0.0,0.0,0.0,50.4,8.3,4.3,1024,1024,1024,1024,0,0,0,0,72,4.715,72.32,165.68242,P-GPS,,50.5
789,378600,2026-01-07 12:35:21,0.0,5,7.481,0.0,0.0,0.0,50.4,8.1,4.1,1024,1024,1024,1024,0,0,0,0,72,4.715,72.32,165.68242,P-GPS,,50.5
790,378700,2026-01-07 12:35:21,0.0,5,7.481,0.0,0.0,0.0,50.4,8.1,4.1,1024,1024,1024,1024,0,0,0,0,72,4.715,72.32,165.68242,P-GPS,,50.5
791,378800,2026-01-07 12:35:21,0.0,5,7.481,0.0,0.0,0.0,50.4,8.2,4.0,1024,1024,1024,1024,0,0,0,0,72,4.715,72.32,165.68242,P-GPS,,50.5
792,378900,2026-01-07 12:35:21,0.0,5,7.479,0.0,0.0,0.0,50.4,8.3,4.1,1024,1024,1024,1024,0,0,0,0,72,4.754,72.32,165.68242,P-GPS,,50.5
793,379000,2026-01-07 12:35:21,0.0,5,7.479,0.0,0.0,0.0,50.4,8.2,4.2,1024,1024,1024,1024,0,0,0,0,72,4.754,72.32,165.68242,P-GPS,,50.5
794,379100,2026-01-07 12:35:21,0.0,5,7.479,0.0,0.0,0.0,50.4,8.3,4.3,1024,1024,1024,1024,0,0,0,0,72,4.754,72.32,165.68242,P-GPS,,50.5
795,379200,2026-01-07 12:35:21,0.0,5,7.479,0.0,0.0,0.0,50.4,8.3,4.2,1024,1024,1024,1024,0,0,0,0,72,4.754,72.32,165.68242,P-GPS,,50.5
796,379300,2026-01-07 12:35:21,0.0,5,7.479,0.0,0.0,0.0,50.4,8.3,4.2,1024,1024,1024,1024,0,0,0,0,72,4.754,72.32,165.68242,P-GPS,,50.5
797,379400,2026-01-07 12:35:22,0.0,5,7.479,0.0,0.0,0.0,50.4,8.1,4.1,1024,1024,1024,1024,0,0,0,0,72,4.754,72.32,165.68242,P-GPS,,50.5
798,379500,2026-01-07 12:35:22,0.0,5,7.479,0.0,0.0,0.0,50.4,8.1,4.1,1024,1024,1024,1024,0,0,0,0,72,4.754,72.32,165.68242,P-GPS,,50.5
799,379600,2026-01-07 12:35:22,0.0,5,7.479,0.0,0.0,0.0,50.4,8.1,4.1,1024,1024,1024,1024,0,0,0,0,72,4.754,72.32,165.68242,P-GPS,,50.5
800,379700,2026-01-07 12:35:22,0.0,5,7.479,0.0,0.0,0.0,50.4,8.3,4.1,1024,1024,1024,1024,0,0,0,0,72,4.754,72.32,165.68242,P-GPS,,50.5
801,379800,2026-01-07 12:35:22,0.0,5,7.479,0.0,0.0,0.0,50.4,8.3,4.0,1024,1024,1024,1024,0,0,0,0,72,4.754,72.32,165.68242,P-GPS,,50.5
802,379900,2026-01-07 12:35:22,0.0,5,7.479,0.0,0.0,0.0,50.4,8.4,4.0,1024,1024,1024,1024,0,0,0,0,72,4.754,72.32,165.68242,P-GPS,,50.5
803,380000,2026-01-07 12:35:22,0.0,5,7.474,0.0,0.0,0.0,50.4,8.3,4.1,1024,1024,1024,1024,0,0,0,0,72,4.83,72.32,165.68242,P-GPS,,50.5
804,380100,2026-01-07 12:35:22,0.0,5,7.474,0.0,0.0,0.0,50.4,8.4,4.1,1024,1024,1024,1024,0,0,0,0,72,4.83,72.32,165.68242,P-GPS,,50.5
805,380200,2026-01-07 12:35:22,0.0,5,7.474,0.0,0.0,0.0,50.4,8.4,4.1,1024,1024,1024,1024,0,0,0,0,72,4.83,72.32,165.68242,P-GPS,,50.5
806,380300,2026-01-07 12:35:22,0.0,5,7.474,0.0,0.0,0.0,50.4,8.4,4.1,1024,1024,1024,1024,0,0,0,0,72,4.83,72.32,165.68242,P-GPS,,50.5
807,380400,2026-01-07 12:35:23,0.0,5,7.474,0.0,0.0,0.0,50.4,8.4,4.2,1024,1024,1024,1024,0,0,0,0,72,4.83,72.32,165.68242,P-GPS,,50.5
808,380500,2026-01-07 12:35:23,0.0,5,7.474,0.0,0.0,0.0,50.4,8.3,4.2,1024,1024,1024,1024,0,0,0,0,72,4.83,72.32,165.68242,P-GPS,,50.5
809,380600,2026-01-07 12:35:23,0.0,5,7.474,0.0,0.0,0.0,50.4,8.4,4.2,1024,1024,1024,1024,0,0,0,0,72,4.83,72.32,165.68242,P-GPS,,50.5
810,380700,2026-01-07 12:35:23,0.0,5,7.474,0.0,0.0,0.0,50.4,8.5,4.1,1024,1024,1024,1024,0,0,0,0,72,4.83,72.32,165.68242,P-GPS,,50.5
811,380800,2026-01-07 12:35:23,0.0,5,7.474,0.0,0.0,0.0,50.4,8.1,4.0,1024,1024,1024,1024,0,0,0,0,72,4.83,72.32,165.68242,P-GPS,,50.5
812,380900,2026-01-07 12:35:23,0.0,5,7.474,0.0,0.0,0.0,50.4,8.1,4.1,1024,1024,1024,1024,0,0,0,0,72,4.83,72.32,165.68242,P-GPS,,50.5
813,381000,2026-01-07 12:35:23,0.0,5,7.474,0.0,0.0,0.0,50.3,7.9,4.1,1024,1024,1024,1024,0,0,0,0,72,4.83,72.32,165.68242,P-GPS,,50.5
814,381100,2026-01-07 12:35:23,0.0,5,7.474,0.0,0.0,0.0,50.3,8.1,4.1,1024,1024,1024,1024,0,0,0,0,72,4.83,72.32,165.68242,P-GPS,,50.5
815,381200,2026-01-07 12:35:23,0.0,5,7.473,0.0,0.0,0.0,50.3,8.0,4.0,1024,1024,1024,1024,0,0,0,0,72,4.864,72.32,165.68242,P-GPS,,50.5
816,381300,2026-01-07 12:35:23,0.0,5,7.473,0.0,0.0,0.0,50.3,8.0,4.1,1024,1024,1024,1024,0,0,0,0,72,4.864,72.32,165.68242,P-GPS,,50.5
817,381400,2026-01-07 12:35:23,0.0,5,7.473,0.0,0.0,0.0,50.4,8.0,4.1,1024,1024,1024,1024,0,0,0,0,72,4.864,72.32,165.68242,P-GPS,,50.5
818,381500,2026-01-07 12:35:24,0.0,5,7.473,0.0,0.0,0.0,50.4,8.2,4.1,1024,1024,1024,1024,0,0,0,0,72,4.864,72.32,165.68242,P-GPS,,50.5
819,381600,2026-01-07 12:35:24,0.0,5,7.473,0.0,0.0,0.0,50.4,8.3,4.1,1024,1024,1024,1024,0,0,0,0,72,4.864,72.32,165.68242,P-GPS,,50.5
820,381700,2026-01-07 12:35:24,0.0,5,7.473,0.0,0.0,0.0,50.4,8.3,4.0,1024,1024,1024,1024,0,0,0,0,72,4.864,72.32,165.68242,P-GPS,,50.5
821,381800,2026-01-07 12:35:24,0.0,5,7.473,0.0,0.0,0.0,50.4,8.2,4.1,1024,1024,1024,1024,0,0,0,0,72,4.864,72.32,165.68242,P-GPS,,50.5
822,381900,2026-01-07 12:35:24,0.0,5,7.473,0.0,0.0,0.0,50.4,8.1,4.1,1024,1024,1024,1024,0,0,0,0,72,4.864,72.32,165.68242,P-GPS,,50.5
823,382000,2026-01-07 12:35:24,0.0,5,7.473,0.0,0.0,0.0,50.4,8.4,4.1,1024,1024,1024,1024,0,0,0,0,72,4.864,72.32,165.68242,P-GPS,,50.5
824,382100,2026-01-07 12:35:24,0.0,5,7.473,0.0,0.0,0.0,50.4,8.5,4.0,1024,1024,1024,1024,0,0,0,0,72,4.864,72.32,165.68242,P-GPS,,50.5
825,382200,2026-01-07 12:35:24,0.0,5,7.473,0.0,0.0,0.0,50.4,8.5,4.1,1024,1024,1024,1024,0,0,0,0,72,4.864,72.32,165.68242,P-GPS,,50.5
826,382300,2026-01-07 12:35:24,0.0,5,7.47,0.0,0.0,0.0,50.4,8.5,4.0,1024,1024,1024,1024,0,0,0,0,72,4.869,72.32,165.68242,P-GPS,,50.5
827,382400,2026-01-07 12:35:25,0.0,5,7.47,0.0,0.0,0.0,50.4,8.4,3.8,1024,1024,1024,1024,0,0,0,0,72,4.869,72.32,165.68242,P-GPS,,50.5
828,382500,2026-01-07 12:35:25,0.0,5,7.47,0.0,0.0,0.0,50.4,8.2,3.8,1024,1024,1024,1024,0,0,0,0,72,4.869,72.32,165.68242,P-GPS,,50.5
829,382600,2026-01-07 12:35:25,0.0,5,7.47,0.0,0.0,0.0,50.3,8.1,3.9,1024,1024,1024,1024,0,0,0,0,72,4.869,72.32,165.68242,P-GPS,,50.5
830,382700,2026-01-07 12:35:25,0.0,5,7.47,0.0,0.0,0.0,50.3,8.1,3.9,1024,1024,1024,1024,0,0,0,0,72,4.869,72.32,165.68242,P-GPS,,50.5
831,382800,2026-01-07 12:35:25,0.0,5,7.47,0.0,0.0,0.0,50.4,8.1,3.9,1024,1024,1024,1024,0,0,0,0,72,4.869,72.32,165.68242,P-GPS,,50.5
832,382900,2026-01-07 12:35:25,0.0,5,7.47,0.0,0.0,0.0,50.4,8.1,4.1,1024,1024,1024,1024,0,0,0,0,72,4.869,72.32,165.68242,P-GPS,,50.5
833,383000,2026-01-07 12:35:25,0.0,5,7.47,0.0,0.0,0.0,50.4,8.1,4.1,1024,1024,1024,1024,0,0,0,0,72,4.869,72.32,165.68242,P-GPS,,50.5
834,383100,2026-01-07 12:35:25,0.0,5,7.47,0.0,0.0,0.0,50.4,8.3,4.2,1024,1024,1024,1024,0,0,0,0,72,4.869,72.32,165.68242,P-GPS,,50.5
835,383200,2026-01-07 12:35:25,0.0,5,7.47,0.0,0.0,0.0,50.4,8.4,4.2,1024,1024,1024,1024,0,0,0,0,72,4.869,72.32,165.68242,P-GPS,,50.5
836,383300,2026-01-07 12:35:25,0.0,5,7.47,0.0,0.0,0.0,50.4,8.4,4.2,1024,1024,1024,1024,0,0,0,0,72,4.869,72.32,165.68242,P-GPS,,50.5
837,383400,2026-01-07 12:35:26,0.0,5,7.47,0.0,0.0,0.0,50.4,7.9,4.3,1024,1024,1024,1024,0,0,0,0,72,4.869,72.32,165.68242,P-GPS,,50.5
838,383500,2026-01-07 12:35:26,0.0,5,7.47,0.0,0.0,0.0,50.3,8.1,4.2,1024,1024,1024,1024,0,0,0,0,72,4.869,72.32,165.68242,P-GPS,,50.5
839,383600,2026-01-07 12:35:26,0.0,5,7.47,0.0,0.0,0.0,50.4,8.5,4.1,1024,1024,1024,1024,0,0,0,0,72,4.869,72.32,165.68242,P-GPS,,50.5
840,383700,2026-01-07 12:35:26,0.0,5,7.47,0.0,0.0,0.0,50.4,8.5,3.9,1024,1024,1024,1024,0,0,0,0,72,4.869,72.32,165.68242,P-GPS,,50.5
841,383800,2026-01-07 12:35:26,0.0,5,7.47,0.0,0.0,0.0,50.4,8.5,3.9,1024,1024,1024,1024,0,0,0,0,72,4.869,72.32,165.68242,P-GPS,,50.5
842,383900,2026-01-07 12:35:26,0.0,5,7.47,0.0,0.0,0.0,50.4,8.3,3.8,1024,1024,1024,1024,0,0,0,0,72,4.869,72.32,165.68242,P-GPS,,50.5
843,384000,2026-01-07 12:35:26,0.0,5,7.47,0.0,0.0,0.0,50.4,8.3,3.5,1024,1024,1024,1024,0,0,0,0,72,4.869,72.32,165.68242,P-GPS,,50.5
844,384100,2026-01-07 12:35:26,0.0,5,7.47,0.0,0.0,0.0,50.4,8.6,3.7,1024,1024,1024,1024,0,0,0,0,72,4.869,72.32,165.68242,P-GPS,,50.5
845,384200,2026-01-07 12:35:26,0.0,5,7.47,0.0,0.0,0.0,50.4,8.5,3.7,1024,1024,1024,1024,0,0,0,0,72,4.869,72.32,165.68242,P-GPS,,50.5
846,384300,2026-01-07 12:35:26,0.0,5,7.47,0.0,0.0,0.0,50.4,8.5,3.9,1024,1024,1024,1024,0,0,0,0,72,4.869,72.32,165.68242,P-GPS,,50.5
847,384400,2026-01-07 12:35:27,0.0,5,7.47,0.0,0.0,0.0,50.4,8.4,4.0,1024,1024,1024,1024,0,0,0,0,72,4.869,72.32,165.68242,P-GPS,,50.5
848,384500,2026-01-07 12:35:27,0.0,5,7.473,0.0,0.0,0.0,50.4,8.3,4.1,1024,1024,1024,1024,0,0,0,0,72,4.832,72.32,165.68242,P-GPS,,50.5
849,384600,2026-01-07 12:35:27,0.0,5,7.473,0.0,0.0,0.0,50.4,8.1,4.1,1024,1024,1024,1024,0,0,0,0,72,4.832,72.32,165.68242,P-GPS,,50.5
850,384700,2026-01-07 12:35:27,0.0,5,7.473,0.0,0.0,0.0,50.4,8.0,4.1,1024,1024,1024,1024,0,0,0,0,72,4.832,72.32,165.68242,P-GPS,,50.5
851,384800,2026-01-07 12:35:27,0.0,5,7.473,0.0,0.0,0.0,50.3,8.0,4.2,1024,1024,1024,1024,0,0,0,0,72,4.832,72.32,165.68242,P-GPS,,50.5
852,384900,2026-01-07 12:35:27,0.0,5,7.473,0.0,0.0,0.0,50.4,7.8,4.1,1024,1024,1024,1024,0,0,0,0,72,4.832,72.32,165.68242,P-GPS,,50.5
853,385000,2026-01-07 12:35:27,0.0,5,7.473,0.0,0.0,0.0,50.4,7.8,4.1,1024,1024,1024,1024,0,0,0,0,72,4.832,72.32,165.68242,P-GPS,,50.5
854,385100,2026-01-07 12:35:27,0.0,5,7.473,0.0,0.0,0.0,50.4,7.8,4.2,1024,1024,1024,1024,0,0,0,0,72,4.832,72.32,165.68242,P-GPS,,50.5
855,385200,2026-01-07 12:35:27,0.0,5,7.473,0.0,0.0,0.0,50.4,7.9,4.2,1024,1024,1024,1024,0,0,0,0,72,4.832,72.32,165.68242,P-GPS,,50.5
856,385300,2026-01-07 12:35:28,0.0,5,7.473,0.0,0.0,0.0,50.4,7.9,4.2,1024,1024,1024,1024,0,0,0,0,72,4.832,72.32,165.68242,P-GPS,,50.5
857,385400,2026-01-07 12:35:28,0.0,5,7.473,0.0,0.0,0.0,50.4,8.1,4.3,1024,1024,1024,1024,0,0,0,0,72,4.832,72.32,165.68242,P-GPS,,50.5
858,385500,2026-01-07 12:35:28,0.0,5,7.473,0.0,0.0,0.0,50.4,8.1,4.2,1024,1024,1024,1024,0,0,0,0,72,4.832,72.32,165.68242,P-GPS,,50.5
859,385600,2026-01-07 12:35:28,0.0,5,7.473,0.0,0.0,0.0,50.4,8.1,4.1,1024,1024,1024,1024,0,0,0,0,72,4.832,72.32,165.68242,P-GPS,,50.5
860,385700,2026-01-07 12:35:28,0.0,5,7.473,0.0,0.0,0.0,50.4,7.9,3.9,1024,1024,1024,1024,0,0,0,0,72,4.832,72.32,165.68242,P-GPS,,50.5
861,385800,2026-01-07 12:35:28,0.0,5,7.473,0.0,0.0,0.0,50.4,7.9,4.1,1024,1024,1024,1024,0,0,0,0,72,4.832,72.32,165.68242,P-GPS,,50.5
862,385900,2026-01-07 12:35:28,0.0,5,7.473,0.0,0.0,0.0,50.4,7.8,4.4,1024,1024,1024,1024,0,0,0,0,72,4.832,72.32,165.68242,P-GPS,,50.5
863,386000,2026-01-07 12:35:28,0.0,5,7.473,0.0,0.0,0.0,50.4,8.1,4.4,1024,1024,1024,1024,0,0,0,0,72,4.832,72.32,165.68242,P-GPS,,50.5
864,386100,2026-01-07 12:35:28,0.0,5,7.473,0.0,0.0,0.0,50.4,7.9,4.3,1024,1024,1024,1024,0,0,0,0,72,4.832,72.32,165.68242,P-GPS,,50.5
865,386200,2026-01-07 12:35:28,0.0,5,7.473,0.0,0.0,0.0,50.4,8.1,4.2,1024,1024,1024,1024,0,0,0,0,72,4.832,72.32,165.68242,P-GPS,,50.5
866,386300,2026-01-07 12:35:28,0.0,5,7.473,0.0,0.0,0.0,50.4,8.2,4.2,1024,1024,1024,1024,0,0,0,0,72,4.832,72.32,165.68242,P-GPS,,50.5
867,386400,2026-01-07 12:35:29,0.0,5,7.474,0.0,0.0,0.0,50.4,8.2,4.0,1024,1024,1024,1024,0,0,0,0,72,4.766,72.32,165.68242,P-GPS,,50.5
868,386500,2026-01-07 12:35:29,0.0,5,7.474,0.0,0.0,0.0,50.4,8.1,4.1,1024,1024,1024,1024,0,0,0,0,72,4.766,72.32,165.68242,P-GPS,,50.5
869,386600,2026-01-07 12:35:29,0.0,5,7.474,0.0,0.0,0.0,50.4,8.1,4.2,1024,1024,1024,1024,0,0,0,0,72,4.766,72.32,165.68242,P-GPS,,50.5
870,386700,2026-01-07 12:35:29,0.0,5,7.474,0.0,0.0,0.0,50.4,8.0,4.1,1024,1024,1024,1024,0,0,0,0,72,4.766,72.32,165.68242,P-GPS,,50.5
871,386800,2026-01-07 12:35:29,0.0,5,7.474,0.0,0.0,0.0,50.4,8.0,4.0,1024,1024,1024,1024,0,0,0,0,72,4.766,72.32,165.68242,P-GPS,,50.5
872,386900,2026-01-07 12:35:29,0.0,5,7.474,0.0,0.0,0.0,50.4,8.2,4.0,1024,1024,1024,1024,0,0,0,0,72,4.766,72.32,165.68242,P-GPS,,50.5
873,387000,2026-01-07 12:35:29,0.0,5,7.474,0.0,0.0,0.0,50.4,8.1,4.0,1024,1024,1024,1024,0,0,0,0,72,4.766,72.32,165.68242,P-GPS,,50.5
874,387100,2026-01-07 12:35:29,0.0,5,7.474,0.0,0.0,0.0,50.4,8.3,4.0,1024,1024,1024,1024,0,0,0,0,72,4.766,72.32,165.68242,P-GPS,,50.5
875,387200,2026-01-07 12:35:29,0.0,5,7.474,0.0,0.0,0.0,50.4,8.5,4.1,1024,1024,1024,1024,0,0,0,0,72,4.766,72.32,165.68242,P-GPS,,50.5
876,387300,2026-01-07 12:35:29,0.0,5,7.474,0.0,0.0,0.0,50.4,8.4,4.0,1024,1024,1024,1024,0,0,0,0,72,4.766,72.32,165.68242,P-GPS,,50.5
877,387400,2026-01-07 12:35:30,0.0,5,7.474,0.0,0.0,0.0,50.4,8.1,3.8,1024,1024,1024,1024,0,0,0,0,72,4.766,72.32,165.354336,P-GPS,,50.4
878,387500,2026-01-07 12:35:30,0.0,5,7.474,0.0,0.0,0.0,50.4,8.2,3.8,1024,1024,1024,1024,0,0,0,0,72,4.766,72.32,165.354336,P-GPS,,50.4
879,387600,2026-01-07 12:35:30,0.0,5,7.474,0.0,0.0,0.0,50.4,8.3,3.8,1024,1024,1024,1024,0,0,0,0,72,4.766,72.32,165.354336,P-GPS,,50.4
880,387700,2026-01-07 12:35:30,0.0,5,7.474,0.0,0.0,0.0,50.4,8.1,3.8,1024,1024,1024,1024,0,0,0,0,72,4.766,72.32,165.354336,P-GPS,,50.4
881,387800,2026-01-07 12:35:30,0.0,5,7.474,0.0,0.0,0.0,50.4,8.3,3.9,1024,1024,1024,1024,0,0,0,0,72,4.766,72.32,165.354336,P-GPS,,50.4
882,387900,2026-01-07 12:35:30,0.0,5,7.466,0.0,0.0,0.0,50.4,8.1,3.7,1024,1024,1024,1024,0,0,0,0,72,4.843,72.32,165.354336,P-GPS,,50.4
883,388000,2026-01-07 12:35:30,0.0,5,7.466,0.0,0.0,0.0,50.3,7.6,3.6,1024,1024,1024,1024,0,0,0,0,72,4.843,72.32,165.354336,P-GPS,,50.4
884,388100,2026-01-07 12:35:30,0.0,5,7.466,0.0,0.0,0.0,50.4,7.6,3.6,1024,1024,1024,1024,0,0,0,0,72,4.843,72.32,165.354336,P-GPS,,50.4
885,388200,2026-01-07 12:35:30,0.0,5,7.466,0.0,0.0,0.0,50.4,7.7,3.6,1024,1024,1024,1024,0,0,0,0,72,4.843,72.32,165.354336,P-GPS,,50.4
886,388300,2026-01-07 12:35:30,0.0,5,7.466,0.0,0.0,0.0,50.3,7.7,3.5,1024,1024,1024,1024,0,0,0,0,72,4.843,72.32,165.354336,P-GPS,,50.4
887,388400,2026-01-07 12:35:31,0.0,5,7.466,0.0,0.0,0.0,50.3,7.7,3.9,1024,1024,1024,1024,0,0,0,0,72,4.843,72.32,165.354336,P-GPS,,50.4
888,388500,2026-01-07 12:35:31,0.0,5,7.466,0.0,0.0,0.0,50.3,7.6,3.6,1024,1024,1024,1024,0,0,0,0,72,4.843,72.32,165.354336,P-GPS,,50.4
889,388600,2026-01-07 12:35:31,0.0,5,7.466,0.0,0.0,0.0,50.3,7.5,3.5,1024,1024,1024,1024,0,0,0,0,72,4.843,72.32,165.354336,P-GPS,,50.4
890,388700,2026-01-07 12:35:31,0.0,5,7.466,0.0,0.0,0.0,50.3,7.5,3.6,1024,1024,1024,1024,0,0,0,0,72,4.843,72.32,165.354336,P-GPS,,50.4
891,388800,2026-01-07 12:35:31,0.0,5,7.466,0.0,0.0,0.0,50.3,7.6,3.6,1024,1024,1024,1024,0,0,0,0,72,4.843,72.32,165.354336,P-GPS,,50.4
892,388900,2026-01-07 12:35:31,0.0,5,7.466,0.0,0.0,0.0,50.3,7.7,3.6,1024,1024,1024,1024,0,0,0,0,72,4.843,72.32,165.354336,P-GPS,,50.4
893,389000,2026-01-07 12:35:31,0.0,5,7.464,0.0,0.0,0.0,50.4,7.9,3.7,1024,1024,1024,1024,0,0,0,0,72,4.928,72.32,165.354336,P-GPS,,50.4
894,389100,2026-01-07 12:35:31,0.0,5,7.464,0.0,0.0,0.0,50.3,7.9,3.7,1024,1024,1024,1024,0,0,0,0,72,4.928,72.32,165.354336,P-GPS,,50.4
895,389200,2026-01-07 12:35:31,0.0,5,7.464,0.0,0.0,0.0,50.4,7.9,3.7,1024,1024,1024,1024,0,0,0,0,72,4.928,72.32,165.354336,P-GPS,,50.4
896,389300,2026-01-07 12:35:32,0.0,5,7.464,0.0,0.0,0.0,50.4,7.8,3.8,1024,1024,1024,1024,0,0,0,0,72,4.928,72.32,165.354336,P-GPS,,50.4
897,389400,2026-01-07 12:35:32,0.0,5,7.464,0.0,0.0,0.0,50.3,7.9,3.7,1024,1024,1024,1024,0,0,0,0,72,4.928,72.32,165.354336,P-GPS,,50.4
898,389500,2026-01-07 12:35:32,0.0,5,7.464,0.0,0.0,0.0,50.4,7.9,3.8,1024,1024,1024,1024,0,0,0,0,72,4.928,72.32,165.354336,P-GPS,,50.4
899,389600,2026-01-07 12:35:32,0.0,5,7.464,0.0,0.0,0.0,50.4,7.8,3.8,1024,1024,1024,1024,0,0,0,0,72,4.928,72.32,165.354336,P-GPS,,50.4
900,389700,2026-01-07 12:35:32,0.0,5,7.464,0.0,0.0,0.0,50.4,7.8,3.7,1024,1024,1024,1024,0,0,0,0,72,4.928,72.32,165.354336,P-GPS,,50.4
901,389800,2026-01-07 12:35:32,0.0,5,7.464,0.0,0.0,0.0,50.3,7.6,3.7,1024,1024,1024,1024,0,0,0,0,72,4.928,72.32,165.354336,P-GPS,,50.4
902,389900,2026-01-07 12:35:32,0.0,5,7.464,0.0,0.0,0.0,50.4,7.6,3.7,1024,1024,1024,1024,0,0,0,0,72,4.928,72.32,165.354336,P-GPS,,50.4
903,390000,2026-01-07 12:35:32,0.0,5,7.464,0.0,0.0,0.0,50.3,7.6,3.7,1024,1024,1024,1024,0,0,0,0,72,4.928,72.32,165.354336,P-GPS,,50.4
904,390100,2026-01-07 12:35:32,0.0,5,7.464,0.0,0.0,0.0,50.3,7.6,3.8,1024,1024,1024,1024,0,0,0,0,72,4.862,72.32,165.354336,P-GPS,,50.4
905,390200,2026-01-07 12:35:32,0.0,5,7.464,0.0,0.0,0.0,50.3,7.6,3.7,1024,1024,1024,1024,0,0,0,0,72,4.862,72.32,165.354336,P-GPS,,50.4
906,390300,2026-01-07 12:35:33,0.0,5,7.464,0.0,0.0,0.0,50.3,7.6,3.7,1024,1024,1024,1024,0,0,0,0,72,4.862,72.32,165.354336,P-GPS,,50.4
907,390400,2026-01-07 12:35:33,0.0,5,7.464,0.0,0.0,0.0,50.3,7.7,3.6,1024,1024,1024,1024,0,0,0,0,72,4.862,72.32,165.354336,P-GPS,,50.4
908,390500,2026-01-07 12:35:33,0.0,5,7.464,0.0,0.0,0.0,50.3,7.7,3.6,1024,1024,1024,1024,0,0,0,0,72,4.862,72.32,165.354336,P-GPS,,50.4
909,390600,2026-01-07 12:35:33,0.0,5,7.464,0.0,0.0,0.0,50.4,7.7,3.7,1024,1024,1024,1024,0,0,0,0,72,4.862,72.32,165.354336,P-GPS,,50.4
910,390700,2026-01-07 12:35:33,0.0,5,7.464,0.0,0.0,0.0,50.3,7.7,3.8,1024,1024,1024,1024,0,0,0,0,72,4.862,72.32,165.354336,P-GPS,,50.4
911,390800,2026-01-07 12:35:33,0.0,5,7.464,0.0,0.0,0.0,50.3,7.6,3.7,1024,1024,1024,1024,0,0,0,0,72,4.862,72.32,165.354336,P-GPS,,50.4
912,390900,2026-01-07 12:35:33,0.0,5,7.464,0.0,0.0,0.0,50.3,7.6,3.8,1024,1024,1024,1024,0,0,0,0,72,4.862,72.32,165.354336,P-GPS,,50.4
913,391000,2026-01-07 12:35:33,0.0,5,7.464,0.0,0.0,0.0,50.3,7.6,3.8,1024,1024,1024,1024,0,0,0,0,72,4.862,72.32,165.354336,P-GPS,,50.4
914,391100,2026-01-07 12:35:33,0.0,5,7.464,0.0,0.0,0.0,50.3,7.7,3.8,1024,1024,1024,1024,0,0,0,0,72,4.862,72.32,165.354336,P-GPS,,50.4
915,391200,2026-01-07 12:35:33,0.0,5,7.464,0.0,0.0,0.0,50.3,7.8,3.7,1024,1024,1024,1024,0,0,0,0,72,4.84,72.32,165.354336,P-GPS,,50.4
916,391300,2026-01-07 12:35:34,0.0,5,7.464,0.0,0.0,0.0,50.3,7.7,3.7,1024,1024,1024,1024,0,0,0,0,72,4.84,72.32,165.354336,P-GPS,,50.4
917,391400,2026-01-07 12:35:34,0.0,5,7.464,0.0,0.0,0.0,50.3,7.7,3.6,1024,1024,1024,1024,0,0,0,0,72,4.84,72.32,165.354336,P-GPS,,50.4
918,391500,2026-01-07 12:35:34,0.0,5,7.464,0.0,0.0,0.0,50.3,7.7,3.6,1024,1024,1024,1024,0,0,0,0,72,4.84,72.32,165.354336,P-GPS,,50.4
919,391600,2026-01-07 12:35:34,0.0,5,7.464,0.0,0.0,0.0,50.3,7.8,3.6,1024,1024,1024,1024,0,0,0,0,72,4.84,72.32,165.354336,P-GPS,,50.4
920,391700,2026-01-07 12:35:34,0.0,5,7.464,0.0,0.0,0.0,50.3,7.8,3.7,1024,1024,1024,1024,0,0,0,0,72,4.84,72.32,165.68242,P-GPS,,50.5
921,391800,2026-01-07 12:35:34,0.0,5,7.464,0.0,0.0,0.0,50.3,7.8,3.8,1024,1024,1024,1024,0,0,0,0,72,4.84,72.32,165.68242,P-GPS,,50.5
922,391900,2026-01-07 12:35:34,0.0,5,7.464,0.0,0.0,0.0,50.3,7.8,3.8,1024,1024,1024,1024,0,0,0,0,72,4.84,72.32,165.68242,P-GPS,,50.5
923,392000,2026-01-07 12:35:34,0.0,5,7.464,0.0,0.0,0.0,50.3,7.8,3.9,1024,1024,1024,1024,0,0,0,0,72,4.84,72.32,165.68242,P-GPS,,50.5
