index,time(millisecond),timestamp,speed(mph),gpslevel,voltage(v),xSpeed(mph),ySpeed(mph),zSpeed(mph),compass_heading(degrees),pitch(degrees),roll(degrees),rc_elevator,rc_aileron,rc_throttle,rc_rudder,rc_elevator(percent),rc_aileron(percent),rc_throttle(percent),rc_rudder(percent),battery_percent,current(A),battery_temperature(f),ascent(feet),flycState,message,height_above_takeoff(meters)
478,47800,2026-01-09 12:37:32,0.223694,5,7.754,-0.223694,0.0,0.0,26.1,-6.2,-13.7,1024,1024,1024,1024,0,0,0,0,96,6.099,63.5,101.049872,P-GPS,,30.8
479,47900,2026-01-09 12:37:33,0.223694,5,7.754,-0.223694,0.0,0.0,26.1,-6.6,-14.0,1024,1024,1024,1024,0,0,0,0,96,6.099,63.5,101.049872,P-GPS,,30.8
480,48000,2026-01-09 12:37:33,0.0,5,7.754,0.0,0.0,0.0,26.1,-6.9,-13.8,1024,1024,1024,1024,0,0,0,0,96,6.099,63.5,101.049872,P-GPS,,30.8
481,48100,2026-01-09 12:37:33,0.0,5,7.754,0.0,0.0,0.0,26.1,-6.7,-13.2,1024,1024,1024,1024,0,0,0,0,96,6.099,63.5,101.049872,P-GPS,,30.8
482,48200,2026-01-09 12:37:33,0.0,5,7.754,0.0,0.0,0.0,26.0,-6.5,-12.6,1024,1024,1024,1024,0,0,0,0,96,6.099,63.5,101.049872,P-GPS,,30.8
483,48300,2026-01-09 12:37:33,0.0,5,7.754,0.0,0.0,-0.223694,26.0,-6.3,-12.4,1024,1024,1024,1024,0,0,0,0,96,6.099,63.5,101.049872,P-GPS,,30.8
484,48400,2026-01-09 12:37:33,0.0,5,7.754,0.0,0.0,-0.223694,26.1,-6.8,-12.6,1024,1024,1024,1024,0,0,0,0,96,6.099,63.5,101.049872,P-GPS,,30.8
485,48500,2026-01-09 12:37:33,0.0,5,7.754,0.0,0.0,-0.223694,25.9,-6.4,-12.6,1024,1024,1024,1024,0,0,0,0,96,6.099,63.5,101.049872,P-GPS,,30.8
486,48600,2026-01-09 12:37:33,0.0,5,7.754,0.0,0.0,0.0,25.9,-6.1,-11.8,1024,1024,1024,1024,0,0,0,0,96,6.099,63.5,101.049872,P-GPS,,30.8
487,48700,2026-01-09 12:37:33,0.0,5,7.754,0.0,0.0,0.0,25.8,-5.9,-11.9,1024,1024,1024,1024,0,0,0,0,96,6.099,63.5,101.049872,P-GPS,,30.8
488,48800,2026-01-09 12:37:33,0.0,5,7.754,0.0,0.0,0.0,25.7,-5.7,-11.8,1024,1024,1024,1024,0,0,0,0,96,6.099,63.5,101.049872,P-GPS,,30.8
489,48900,2026-01-09 12:37:34,0.223694,5,7.754,0.223694,0.0,0.0,25.7,-5.1,-11.8,1024,1024,1024,1024,0,0,0,0,96,6.099,63.5,100.721788,P-GPS,,30.7
490,49000,2026-01-09 12:37:34,0.223694,5,7.754,0.223694,0.0,0.0,25.7,-4.9,-11.3,1024,1024,1024,1024,0,0,0,0,96,6.099,63.5,100.721788,P-GPS,,30.7
491,49100,2026-01-09 12:37:34,0.223694,5,7.754,0.223694,0.0,0.0,25.6,-4.7,-11.1,1024,1024,1024,1024,0,0,0,0,96,6.099,63.5,100.721788,P-GPS,,30.7
492,49200,2026-01-09 12:37:34,0.223694,5,7.754,0.223694,0.0,0.0,25.6,-4.7,-11.5,1024,1024,1024,1024,0,0,0,0,96,6.099,63.5,100.721788,P-GPS,,30.7
493,49300,2026-01-09 12:37:34,0.0,5,7.754,0.0,0.0,0.0,25.6,-4.4,-11.6,1024,1024,1024,1024,0,0,0,0,96,6.099,63.5,100.721788,P-GPS,,30.7
494,49400,2026-01-09 12:37:34,0.0,5,7.754,0.0,0.0,0.0,25.5,-4.3,-11.9,1024,1024,1024,1024,0,0,0,0,96,6.099,63.5,100.721788,P-GPS,,30.7
495,49500,2026-01-09 12:37:34,0.0,5,7.754,0.0,0.0,0.0,25.6,-4.2,-11.6,1024,1024,1024,1024,0,0,0,0,96,6.099,63.5,100.721788,P-GPS,,30.7
496,49600,2026-01-09 12:37:34,0.0,5,7.754,0.0,0.0,0.0,25.7,-4.7,-11.9,1024,1024,1024,1024,0,0,0,0,96,6.099,63.5,100.721788,P-GPS,,30.7
497,49700,2026-01-09 12:37:34,0.0,5,7.722,0.0,0.0,0.0,25.7,-4.6,-12.2,1024,1024,1024,1024,0,0,0,0,96,5.762,63.5,100.721788,P-GPS,,30.7
498,49800,2026-01-09 12:37:34,0.0,5,7.722,0.0,0.0,0.0,25.7,-4.9,-12.0,1024,1024,1024,1024,0,0,0,0,96,5.762,63.5,100.721788,P-GPS,,30.7
499,49900,2026-01-09 12:37:35,0.0,5,7.722,0.0,0.0,0.0,25.6,-4.9,-11.9,1024,1024,1024,1024,0,0,0,0,96,5.762,63.5,101.049872,P-GPS,,30.8
500,50000,2026-01-09 12:37:35,0.0,5,7.722,0.0,0.0,0.0,25.6,-4.7,-11.8,1024,1024,1024,1024,0,0,0,0,96,5.762,63.5,101.049872,P-GPS,,30.8
501,50100,2026-01-09 12:37:35,0.0,5,7.722,0.0,0.0,0.0,25.6,-4.8,-11.9,1024,1024,1024,1024,0,0,0,0,96,5.762,63.5,101.049872,P-GPS,,30.8
502,50200,2026-01-09 12:37:35,0.0,5,7.722,0.0,0.0,0.0,25.7,-4.6,-11.4,1024,1024,1024,1024,0,0,0,0,96,5.762,63.5,101.049872,P-GPS,,30.8
503,50300,2026-01-09 12:37:35,0.0,5,7.722,0.0,0.0,0.0,25.7,-4.9,-11.8,1024,1024,1024,1024,0,0,0,0,96,5.762,63.5,101.049872,P-GPS,,30.8
504,50400,2026-01-09 12:37:35,0.0,5,7.722,0.0,0.0,0.0,25.6,-5.0,-11.5,1024,1024,1024,1024,0,0,0,0,96,5.762,63.5,101.049872,P-GPS,,30.8
505,50500,2026-01-09 12:37:35,0.0,5,7.722,0.0,0.0,0.0,25.7,-5.3,-10.9,1024,1024,1024,1024,0,0,0,0,96,5.762,63.5,100.721788,P-GPS,,30.7
506,50600,2026-01-09 12:37:35,0.0,5,7.722,0.0,0.0,0.0,25.6,-5.4,-11.1,1024,1024,1024,1024,0,0,0,0,96,5.762,63.5,100.721788,P-GPS,,30.7
507,50700,2026-01-09 12:37:35,0.0,5,7.722,0.0,0.0,0.223694,25.5,-4.8,-11.3,1024,1024,1024,1024,0,0,0,0,96,5.762,63.5,100.721788,P-GPS,,30.7
508,50800,2026-01-09 12:37:35,0.0,5,7.739,0.0,0.0,0.0,25.4,-4.8,-11.4,1024,1024,1024,1024,0,0,0,0,95,5.205,63.68,100.721788,P-GPS,,30.7
509,50900,2026-01-09 12:37:36,0.0,5,7.739,0.0,0.0,0.0,25.5,-5.0,-11.6,1024,1024,1024,1024,0,0,0,0,95,5.205,63.68,100.721788,P-GPS,,30.7
510,51000,2026-01-09 12:37:36,0.0,5,7.739,0.0,0.0,0.0,25.6,-5.0,-11.9,1024,1024,1024,1024,0,0,0,0,95,5.205,63.68,100.721788,P-GPS,,30.7
511,51100,2026-01-09 12:37:36,0.0,5,7.739,0.0,0.0,0.0,25.5,-4.6,-12.3,1024,1024,1024,1024,0,0,0,0,95,5.205,63.68,100.721788,P-GPS,,30.7
512,51200,2026-01-09 12:37:36,0.0,5,7.739,0.0,0.0,0.0,25.5,-5.1,-12.4,1024,1024,1024,1024,0,0,0,0,95,5.205,63.68,100.721788,P-GPS,,30.7
513,51300,2026-01-09 12:37:36,0.0,5,7.739,0.0,0.0,0.0,25.4,-4.8,-12.1,1024,1024,1024,1024,0,0,0,0,95,5.205,63.68,100.721788,P-GPS,,30.7
514,51400,2026-01-09 12:37:36,0.0,5,7.739,0.0,0.0,0.0,25.5,-4.8,-11.9,1024,1024,1024,1024,0,0,0,0,95,5.205,63.68,100.721788,P-GPS,,30.7
515,51500,2026-01-09 12:37:36,0.0,5,7.739,0.0,0.0,0.0,25.6,-5.3,-12.2,1024,1024,1024,1024,0,0,0,0,95,5.205,63.68,100.721788,P-GPS,,30.7
516,51600,2026-01-09 12:37:36,0.0,5,7.739,0.0,0.0,0.0,25.5,-5.2,-12.0,1024,1024,1024,1024,0,0,0,0,95,5.205,63.68,100.721788,P-GPS,,30.7
517,51700,2026-01-09 12:37:36,0.0,5,7.739,0.0,0.0,0.0,25.5,-5.2,-11.5,1024,1024,1024,1024,0,0,0,0,95,5.205,63.68,100.721788,P-GPS,,30.7
518,51800,2026-01-09 12:37:36,0.0,5,7.739,0.0,0.0,0.0,25.5,-5.5,-11.1,1024,1024,1024,1024,0,0,0,0,95,5.205,63.68,101.049872,P-GPS,,30.8
519,51900,2026-01-09 12:37:37,0.0,5,7.713,0.0,0.0,0.0,25.6,-5.6,-10.5,1024,1024,1024,1024,0,0,0,0,95,5.455,63.68,101.049872,P-GPS,,30.8
520,52000,2026-01-09 12:37:37,0.0,5,7.713,0.0,0.0,0.0,25.6,-6.1,-10.2,1024,1024,1024,1024,0,0,0,0,95,5.455,63.68,100.721788,P-GPS,,30.7
521,52100,2026-01-09 12:37:37,0.0,5,7.713,0.0,0.0,0.0,25.6,-6.1,-10.3,1024,1024,1024,1024,0,0,0,0,95,5.455,63.68,100.721788,P-GPS,,30.7
522,52200,2026-01-09 12:37:37,0.0,5,7.713,0.0,0.0,0.0,25.4,-5.8,-10.0,1024,1024,1024,1024,0,0,0,0,95,5.455,63.68,100.721788,P-GPS,,30.7
523,52300,2026-01-09 12:37:37,0.0,5,7.713,0.0,0.0,0.0,25.4,-5.4,-10.3,1024,1024,1024,1024,0,0,0,0,95,5.455,63.68,100.721788,P-GPS,,30.7
524,52400,2026-01-09 12:37:37,0.0,5,7.713,0.0,0.0,0.0,25.4,-5.0,-10.3,1024,1024,1024,1024,0,0,0,0,95,5.455,63.68,100.721788,P-GPS,,30.7
525,52500,2026-01-09 12:37:37,0.0,5,7.713,0.0,0.0,0.0,25.4,-5.0,-10.2,1024,1024,1024,1024,0,0,0,0,95,5.455,63.68,100.721788,P-GPS,,30.7
526,52600,2026-01-09 12:37:37,0.0,5,7.713,0.0,0.0,0.223694,25.4,-4.7,-10.2,1024,1024,1024,1024,0,0,0,0,95,5.455,63.68,100.721788,P-GPS,,30.7
527,52700,2026-01-09 12:37:37,0.0,5,7.713,0.0,0.0,0.0,25.5,-4.5,-10.2,1024,1024,1024,1024,0,0,0,0,95,5.455,63.68,100.721788,P-GPS,,30.7
528,52800,2026-01-09 12:37:37,0.0,5,7.713,0.0,0.0,0.0,25.4,-4.7,-10.3,1024,1024,1024,1024,0,0,0,0,95,5.455,63.68,100.721788,P-GPS,,30.7
529,52900,2026-01-09 12:37:38,0.0,5,7.713,0.0,0.0,0.0,25.5,-5.1,-10.0,1024,1024,1024,1024,0,0,0,0,95,5.455,63.68,100.721788,P-GPS,,30.7
530,53000,2026-01-09 12:37:38,0.0,5,7.746,0.0,0.0,0.0,25.4,-5.3,-10.1,1024,1024,1024,1024,0,0,0,0,95,4.993,63.86,100.721788,P-GPS,,30.7
531,53100,2026-01-09 12:37:38,0.0,5,7.746,0.0,0.0,0.0,25.3,-5.1,-9.8,1024,1024,1024,1024,0,0,0,0,95,4.993,63.86,100.721788,P-GPS,,30.7
532,53200,2026-01-09 12:37:38,0.0,5,7.746,0.0,0.0,0.0,25.3,-5.3,-10.1,1024,1024,1024,1024,0,0,0,0,95,4.993,63.86,100.721788,P-GPS,,30.7
533,53300,2026-01-09 12:37:38,0.0,5,7.746,0.0,0.0,0.0,25.3,-5.0,-10.3,1024,1024,1024,1024,0,0,0,0,95,4.993,63.86,100.721788,P-GPS,,30.7
534,53400,2026-01-09 12:37:38,0.0,5,7.746,0.0,0.0,0.0,25.3,-4.6,-10.4,1024,1024,1024,1024,0,0,0,0,95,4.993,63.86,100.721788,P-GPS,,30.7
535,53500,2026-01-09 12:37:38,0.0,5,7.746,0.0,0.0,0.0,25.4,-4.2,-10.5,1024,1024,1024,1024,0,0,0,0,95,4.993,63.86,100.393704,P-GPS,,30.6
536,53600,2026-01-09 12:37:38,0.0,5,7.746,0.0,0.0,0.0,25.4,-4.0,-10.8,1024,1024,1024,1024,0,0,0,0,95,4.993,63.86,100.393704,P-GPS,,30.6
537,53700,2026-01-09 12:37:38,0.0,5,7.746,0.0,0.0,0.0,25.1,-3.5,-11.7,1024,1024,1024,1024,0,0,0,0,95,4.993,63.86,100.393704,P-GPS,Strong wind warning Strong wind warning. Aircraft unable to return to home automatically. Lower altitude immediately and return to home manually (Code: 30149). SD card speed low. Normal use may be affected. Replace SD card (Code: 10028). Gimbal stuck. Make sure gimbal c,30.6
538,53800,2026-01-09 12:37:38,0.0,5,7.746,0.0,0.0,0.0,25.0,-3.6,-11.9,1024,1024,1024,1024,0,0,0,0,95,4.993,63.86,100.393704,P-GPS,,30.6
539,53900,2026-01-09 12:37:39,0.0,5,7.746,0.0,0.0,0.0,25.2,-3.6,-12.0,1024,1024,1024,1024,0,0,0,0,95,4.993,63.86,100.393704,P-GPS,,30.6
540,54000,2026-01-09 12:37:39,0.0,5,7.746,0.0,0.0,0.0,25.4,-3.7,-12.0,1024,1024,1024,1024,0,0,0,0,95,4.993,63.86,100.393704,P-GPS,,30.6
541,54100,2026-01-09 12:37:39,0.0,5,7.734,0.0,0.0,0.223694,25.5,-3.8,-12.5,1024,1024,1024,1024,0,0,0,0,95,5.276,63.86,100.393704,P-GPS,,30.6
542,54200,2026-01-09 12:37:39,0.0,5,7.734,0.0,0.0,0.223694,25.6,-3.9,-12.8,1024,1024,1024,1024,0,0,0,0,95,5.276,63.86,100.721788,P-GPS,,30.7
543,54300,2026-01-09 12:37:39,0.0,5,7.734,0.0,0.0,0.223694,25.7,-4.6,-13.1,1024,1024,1024,1024,0,0,0,0,95,5.276,63.86,100.721788,P-GPS,,30.7
544,54400,2026-01-09 12:37:39,0.0,5,7.734,0.0,0.0,0.0,25.8,-5.0,-14.0,1024,1024,1024,1024,0,0,0,0,95,5.276,63.86,100.721788,P-GPS,,30.7
545,54500,2026-01-09 12:37:39,0.0,5,7.734,0.0,0.0,0.0,25.6,-5.0,-14.4,1024,1024,1024,1024,0,0,0,0,95,5.276,63.86,100.721788,P-GPS,,30.7
546,54600,2026-01-09 12:37:39,0.0,5,7.734,0.0,0.0,0.0,25.7,-5.3,-14.4,1024,1024,1024,1024,0,0,0,0,95,5.276,63.86,101.049872,P-GPS,,30.8
547,54700,2026-01-09 12:37:39,0.0,5,7.734,0.0,0.0,0.0,25.7,-5.7,-13.8,1024,1024,1024,1024,0,0,0,0,95,5.276,63.86,101.049872,P-GPS,,30.8
548,54800,2026-01-09 12:37:39,0.0,5,7.734,0.0,0.0,0.0,25.6,-5.5,-13.8,1024,1024,1024,1024,0,0,0,0,95,5.276,63.86,101.049872,P-GPS,,30.8
549,54900,2026-01-09 12:37:39,0.0,5,7.734,0.0,0.0,0.0,25.5,-5.1,-13.1,1024,1024,1024,1024,0,0,0,0,95,5.276,63.86,101.049872,P-GPS,,30.8
550,55000,2026-01-09 12:37:40,0.0,5,7.734,0.0,0.0,0.0,25.6,-5.1,-13.0,1024,1024,1024,1024,0,0,0,0,95,5.276,63.86,101.049872,P-GPS,,30.8
551,55100,2026-01-09 12:37:40,0.0,5,7.734,0.0,0.0,0.0,25.5,-4.9,-13.1,1024,1024,1024,1024,0,0,0,0,95,5.276,63.86,101.049872,P-GPS,,30.8
552,55200,2026-01-09 12:37:40,0.0,5,7.676,0.0,0.0,0.0,25.6,-4.8,-12.7,1024,1024,1024,1024,0,0,0,0,95,6.127,63.86,101.049872,P-GPS,,30.8
553,55300,2026-01-09 12:37:40,0.0,5,7.676,0.0,0.0,0.0,25.6,-5.2,-12.7,1024,1024,1024,1024,0,0,0,0,95,6.127,63.86,101.049872,P-GPS,,30.8
554,55400,2026-01-09 12:37:40,0.0,5,7.676,0.0,0.0,0.0,25.5,-5.0,-13.4,1024,1024,1024,1024,0,0,0,0,95,6.127,63.86,101.049872,P-GPS,,30.8
555,55500,2026-01-09 12:37:40,0.0,5,7.676,0.0,0.0,0.0,25.6,-4.9,-13.2,1024,1024,1024,1024,0,0,0,0,95,6.127,63.86,101.049872,P-GPS,,30.8
556,55600,2026-01-09 12:37:40,0.0,5,7.676,0.0,0.0,0.0,25.8,-5.3,-13.3,1024,1024,1024,1024,0,0,0,0,95,6.127,63.86,101.049872,P-GPS,,30.8
557,55700,2026-01-09 12:37:40,0.0,5,7.676,0.0,0.0,0.0,25.8,-5.6,-13.5,1024,1024,1024,1024,0,0,0,0,95,6.127,63.86,101.049872,P-GPS,,30.8
558,55800,2026-01-09 12:37:40,0.0,5,7.676,0.0,0.0,0.0,25.7,-4.9,-14.1,1024,1024,1024,1024,0,0,0,0,95,6.127,63.86,101.049872,P-GPS,,30.8
559,55900,2026-01-09 12:37:41,0.0,5,7.676,0.0,0.0,0.0,25.6,-4.9,-14.1,1024,1024,1024,1024,0,0,0,0,95,6.127,63.86,101.049872,P-GPS,,30.8
560,56000,2026-01-09 12:37:41,0.0,5,7.676,0.0,0.0,0.0,25.5,-4.8,-13.8,1024,1024,1024,1024,0,0,0,0,95,6.127,63.86,101.049872,P-GPS,,30.8
561,56100,2026-01-09 12:37:41,0.0,5,7.676,0.0,0.0,0.0,25.5,-4.7,-13.2,1024,1024,1024,1024,0,0,0,0,95,6.127,63.86,101.049872,P-GPS,,30.8
562,56200,2026-01-09 12:37:41,0.0,5,7.676,0.0,0.0,0.0,25.5,-4.6,-12.7,1024,1024,1024,1024,0,0,0,0,95,6.127,63.86,100.721788,P-GPS,,30.7
563,56300,2026-01-09 12:37:41,0.0,5,7.674,0.0,0.0,0.0,25.6,-4.9,-12.0,1024,1024,1024,1024,0,0,0,0,95,6.022,64.04,100.721788,P-GPS,,30.7
564,56400,2026-01-09 12:37:41,0.0,5,7.674,0.0,0.0,0.0,25.7,-5.0,-12.6,1024,1024,1024,1024,0,0,0,0,95,6.022,64.04,100.721788,P-GPS,,30.7
565,56500,2026-01-09 12:37:41,0.0,5,7.674,0.0,0.0,0.0,25.4,-5.3,-13.1,1024,1024,1024,1024,0,0,0,0,95,6.022,64.04,100.721788,P-GPS,,30.7
566,56600,2026-01-09 12:37:41,0.0,5,7.674,0.0,0.0,0.0,24.9,-4.6,-13.4,1024,1024,1024,1024,0,0,0,0,95,6.022,64.04,100.721788,P-GPS,,30.7
567,56700,2026-01-09 12:37:41,0.0,5,7.674,0.0,0.0,0.0,25.4,-4.5,-12.2,1024,1024,1024,1024,0,0,0,0,95,6.022,64.04,100.393704,P-GPS,,30.6
568,56800,2026-01-09 12:37:42,0.0,5,7.674,0.0,0.0,0.0,25.6,-4.0,-12.6,1024,1024,1024,1024,0,0,0,0,95,6.022,64.04,100.393704,P-GPS,,30.6
569,56900,2026-01-09 12:37:42,0.0,5,7.674,0.0,0.0,0.0,25.7,-4.4,-12.6,1024,1024,1024,1024,0,0,0,0,95,6.022,64.04,100.393704,P-GPS,,30.6
570,57000,2026-01-09 12:37:42,0.0,5,7.674,0.0,0.0,0.0,25.6,-4.4,-13.1,1024,1024,1024,1024,0,0,0,0,95,6.022,64.04,100.393704,P-GPS,,30.6
571,57100,2026-01-09 12:37:42,0.0,5,7.674,0.0,0.0,0.0,25.5,-4.2,-13.6,1024,1024,1024,1024,0,0,0,0,95,6.022,64.04,100.393704,P-GPS,,30.6
572,57200,2026-01-09 12:37:42,0.0,5,7.674,0.0,0.0,0.0,25.5,-3.9,-13.2,1024,1024,1024,1024,0,0,0,0,95,6.022,64.04,100.393704,P-GPS,,30.6
573,57300,2026-01-09 12:37:42,0.0,5,7.674,0.0,0.0,0.0,25.5,-3.8,-13.4,1024,1024,1024,1024,0,0,0,0,95,6.022,64.04,100.393704,P-GPS,,30.6
574,57400,2026-01-09 12:37:42,0.0,5,7.724,0.0,0.0,0.0,25.5,-3.9,-13.3,1024,1024,1024,1024,0,0,0,0,95,5.644,64.04,100.393704,P-GPS,,30.6
575,57500,2026-01-09 12:37:42,0.0,5,7.724,0.0,0.0,0.0,25.6,-4.6,-13.2,1024,1024,1024,1024,0,0,0,0,95,5.644,64.04,100.393704,P-GPS,,30.6
576,57600,2026-01-09 12:37:42,0.0,5,7.724,0.0,0.0,0.0,25.5,-4.7,-13.2,1024,1024,1024,1024,0,0,0,0,95,5.644,64.04,100.393704,P-GPS,,30.6
577,57700,2026-01-09 12:37:42,0.0,5,7.724,0.0,0.0,0.0,25.6,-5.3,-13.0,1024,1024,1024,1024,0,0,0,0,95,5.644,64.04,100.393704,P-GPS,,30.6
578,57800,2026-01-09 12:37:42,0.0,5,7.724,0.0,0.0,0.0,25.5,-5.3,-13.1,1024,1024,1024,1024,0,0,0,0,95,5.644,64.04,100.393704,P-GPS,,30.6
579,57900,2026-01-09 12:37:43,0.0,5,7.724,0.0,0.0,0.0,25.7,-5.6,-12.7,1024,1024,1024,1024,0,0,0,0,95,5.644,64.04,100.393704,P-GPS,,30.6
580,58000,2026-01-09 12:37:43,0.0,5,7.724,0.0,0.0,0.0,25.6,-5.6,-13.0,1024,1024,1024,1024,0,0,0,0,95,5.644,64.04,100.393704,P-GPS,,30.6
581,58100,2026-01-09 12:37:43,0.0,5,7.724,0.0,0.0,0.0,25.4,-5.4,-12.7,1024,1024,1024,1024,0,0,0,0,95,5.644,64.04,100.06562,P-GPS,,30.5
582,58200,2026-01-09 12:37:43,0.0,5,7.724,0.0,0.0,0.0,25.5,-5.3,-12.2,1024,1024,1024,1024,0,0,0,0,95,5.644,64.04,100.06562,P-GPS,,30.5
583,58300,2026-01-09 12:37:43,0.0,5,7.724,0.0,0.0,0.0,25.6,-5.6,-12.1,1024,1024,1024,1024,0,0,0,0,95,5.644,64.04,100.06562,P-GPS,,30.5
584,58400,2026-01-09 12:37:43,0.0,5,7.724,0.0,0.0,0.0,25.5,-5.1,-12.3,1024,1024,1024,1024,0,0,0,0,95,5.644,64.04,100.06562,P-GPS,,30.5
585,58500,2026-01-09 12:37:43,0.0,5,7.724,0.0,0.0,0.0,25.5,-5.1,-12.2,1024,1024,1024,1024,0,0,0,0,95,5.644,64.04,100.06562,P-GPS,,30.5
586,58600,2026-01-09 12:37:43,0.0,5,7.724,0.0,0.0,0.0,25.5,-4.9,-12.1,1024,1024,1024,1024,0,0,0,0,95,5.644,64.04,100.06562,P-GPS,,30.5
587,58700,2026-01-09 12:37:43,0.0,5,7.724,0.0,0.0,0.0,25.4,-4.2,-12.2,1024,1024,1024,1024,0,0,0,0,95,5.644,64.04,100.06562,P-GPS,,30.5
588,58800,2026-01-09 12:37:43,0.0,5,7.724,0.0,0.0,0.0,25.6,-4.9,-12.8,1024,1024,1024,1024,0,0,0,0,95,5.644,64.04,100.06562,P-GPS,,30.5
589,58900,2026-01-09 12:37:44,0.0,5,7.724,0.0,0.0,0.0,25.4,-4.5,-12.9,1024,1024,1024,1024,0,0,0,0,95,5.644,64.04,100.06562,P-GPS,,30.5
590,59000,2026-01-09 12:37:44,0.0,5,7.724,0.0,0.0,0.0,25.2,-3.9,-12.6,1024,1024,1024,1024,0,0,0,0,95,5.644,64.04,100.06562,P-GPS,,30.5
591,59100,2026-01-09 12:37:44,0.0,5,7.724,0.0,0.0,0.0,25.5,-4.6,-12.6,1024,1024,1024,1024,0,0,0,0,95,5.644,64.04,100.393704,P-GPS,,30.6
592,59200,2026-01-09 12:37:44,0.0,5,7.724,0.0,0.0,0.0,25.5,-4.8,-13.1,1024,1024,1024,1024,0,0,0,0,95,5.644,64.04,100.393704,P-GPS,,30.6
593,59300,2026-01-09 12:37:44,0.0,5,7.724,0.0,0.0,0.0,25.5,-4.7,-13.6,1024,1024,1024,1024,0,0,0,0,95,5.644,64.04,100.393704,P-GPS,,30.6
594,59400,2026-01-09 12:37:44,0.0,5,7.724,0.0,0.0,-0.223694,25.5,-5.1,-13.7,1024,1024,1024,1024,0,0,0,0,95,5.644,64.04,100.393704,P-GPS,,30.6
595,59500,2026-01-09 12:37:44,0.0,5,7.724,0.0,0.0,-0.223694,25.4,-4.8,-13.5,1024,1024,1024,1024,0,0,0,0,95,5.644,64.04,100.393704,P-GPS,,30.6
596,59600,2026-01-09 12:37:44,0.0,5,7.724,0.0,0.0,-0.223694,25.5,-4.5,-13.2,1024,1024,1024,1024,0,0,0,0,95,5.644,64.04,100.393704,P-GPS,,30.6
597,59700,2026-01-09 12:37:44,0.0,5,7.704,0.0,0.0,-0.223694,25.3,-4.2,-12.6,1024,1024,1024,1024,0,0,0,0,95,5.811,64.04,100.393704,P-GPS,,30.6
598,59800,2026-01-09 12:37:44,0.0,5,7.704,0.0,0.0,-0.223694,25.5,-4.3,-11.8,1024,1024,1024,1024,0,0,0,0,95,5.811,64.04,100.393704,P-GPS,,30.6
599,59900,2026-01-09 12:37:45,0.0,5,7.704,0.0,0.0,-0.223694,25.5,-4.5,-11.8,1024,1024,1024,1024,0,0,0,0,95,5.811,64.04,100.393704,P-GPS,,30.6
600,60000,2026-01-09 12:37:45,0.0,5,7.704,0.0,0.0,0.0,25.4,-4.3,-11.6,1024,1024,1024,1024,0,0,0,0,95,5.811,64.04,100.393704,P-GPS,,30.6
601,60100,2026-01-09 12:37:45,0.0,5,7.704,0.0,0.0,0.0,25.3,-3.4,-11.8,1024,1024,1024,1024,0,0,0,0,95,5.811,64.04,100.393704,P-GPS,,30.6
602,60200,2026-01-09 12:37:45,0.223694,5,7.704,0.223694,0.0,0.0,25.2,-2.9,-11.3,1024,1024,1024,1024,0,0,0,0,95,5.811,64.04,100.393704,P-GPS,,30.6
603,60300,2026-01-09 12:37:45,0.0,5,7.704,0.0,0.0,0.0,25.2,-3.0,-11.0,1024,1024,1024,1024,0,0,0,0,95,5.811,64.04,100.06562,P-GPS,,30.5
604,60400,2026-01-09 12:37:45,0.0,5,7.704,0.0,0.0,0.0,25.3,-3.0,-10.9,1024,1024,1024,1024,0,0,0,0,95,5.811,64.04,100.06562,P-GPS,,30.5
605,60500,2026-01-09 12:37:45,0.0,5,7.704,0.0,0.0,0.0,25.5,-3.6,-10.9,1024,1024,1024,1024,0,0,0,0,95,5.811,64.04,100.06562,P-GPS,,30.5
606,60600,2026-01-09 12:37:45,0.0,5,7.704,0.0,0.0,0.0,25.3,-3.3,-11.1,1024,1024,1024,1024,0,0,0,0,95,5.811,64.04,100.06562,P-GPS,,30.5
607,60700,2026-01-09 12:37:45,0.0,5,7.704,0.0,0.0,0.0,25.2,-2.7,-11.2,1024,1024,1024,1024,0,0,0,0,95,5.811,64.04,100.06562,P-GPS,,30.5
608,60800,2026-01-09 12:37:45,0.0,5,7.725,0.0,0.0,0.0,25.1,-2.5,-11.3,1024,1024,1024,1024,0,0,0,0,95,5.135,64.22,100.06562,P-GPS,,30.5
609,60900,2026-01-09 12:37:46,0.0,5,7.725,0.0,0.0,0.0,25.2,-3.4,-11.0,1024,1024,1024,1024,0,0,0,0,95,5.135,64.22,100.06562,P-GPS,,30.5
610,61000,2026-01-09 12:37:46,0.0,5,7.725,0.0,0.0,0.0,25.2,-3.6,-10.3,1024,1024,1024,1024,0,0,0,0,95,5.135,64.22,100.06562,P-GPS,,30.5
611,61100,2026-01-09 12:37:46,0.0,5,7.725,0.0,0.0,-0.223694,25.2,-3.8,-10.8,1024,1024,1024,1024,0,0,0,0,95,5.135,64.22,100.06562,P-GPS,,30.5
612,61200,2026-01-09 12:37:46,0.0,5,7.725,0.0,0.0,0.0,25.3,-3.7,-10.7,1024,1024,1024,1024,0,0,0,0,95,5.135,64.22,100.06562,P-GPS,,30.5
613,61300,2026-01-09 12:37:46,0.0,5,7.725,0.0,0.0,0.0,25.5,-4.1,-11.0,1024,1024,1024,1024,0,0,0,0,95,5.135,64.22,100.06562,P-GPS,,30.5
614,61400,2026-01-09 12:37:46,0.0,5,7.725,0.0,0.0,0.0,25.4,-4.0,-11.7,1024,1024,1024,1024,0,0,0,0,95,5.135,64.22,100.393704,P-GPS,,30.6
615,61500,2026-01-09 12:37:46,0.0,5,7.725,0.0,0.0,0.0,25.2,-3.7,-12.5,1024,1024,1024,1024,0,0,0,0,95,5.135,64.22,100.393704,P-GPS,,30.6
616,61600,2026-01-09 12:37:46,0.0,5,7.725,0.0,0.0,0.0,25.0,-2.5,-11.6,1024,1024,1024,1024,0,0,0,0,95,5.135,64.22,100.393704,P-GPS,,30.6
617,61700,2026-01-09 12:37:46,0.0,5,7.725,0.0,0.0,0.0,25.3,-2.7,-11.1,1024,1024,1024,1024,0,0,0,0,95,5.135,64.22,100.393704,P-GPS,,30.6
618,61800,2026-01-09 12:37:47,0.0,5,7.725,0.0,0.0,0.0,25.4,-3.0,-10.8,1024,1024,1024,1024,0,0,0,0,95,5.135,64.22,100.393704,P-GPS,,30.6
619,61900,2026-01-09 12:37:47,0.0,5,7.723,0.0,0.0,0.0,25.4,-3.4,-11.8,1024,1024,1024,1024,0,0,0,0,95,4.991,64.22,100.393704,P-GPS,,30.6
620,62000,2026-01-09 12:37:47,0.0,5,7.723,0.0,0.0,0.0,25.7,-4.2,-11.9,1024,1024,1024,1024,0,0,0,0,95,4.991,64.22,100.721788,P-GPS,,30.7
621,62100,2026-01-09 12:37:47,0.0,5,7.723,0.0,0.0,0.0,25.7,-4.8,-12.5,1024,1024,1024,1024,0,0,0,0,95,4.991,64.22,100.721788,P-GPS,,30.7
622,62200,2026-01-09 12:37:47,0.0,5,7.723,0.0,0.0,0.0,25.7,-4.0,-13.4,1024,1024,1024,1024,0,0,0,0,95,4.991,64.22,101.049872,P-GPS,,30.8
623,62300,2026-01-09 12:37:47,0.0,5,7.723,0.0,0.0,0.0,25.6,-3.9,-13.6,1024,1024,1024,1024,0,0,0,0,95,4.991,64.22,101.049872,P-GPS,,30.8
624,62400,2026-01-09 12:37:47,0.223694,5,7.723,0.0,0.223694,0.0,25.3,-3.2,-14.1,1024,1024,1024,1024,0,0,0,0,95,4.991,64.22,101.049872,P-GPS,,30.8
625,62500,2026-01-09 12:37:47,0.223694,5,7.723,0.0,0.223694,0.0,25.3,-2.9,-14.7,1024,1024,1024,1024,0,0,0,0,95,4.991,64.22,101.377956,P-GPS,,30.9
626,62600,2026-01-09 12:37:47,0.223694,5,7.723,0.0,0.223694,0.0,25.5,-3.5,-15.1,1024,1024,1024,1024,0,0,0,0,95,4.991,64.22,101.377956,P-GPS,,30.9
627,62700,2026-01-09 12:37:47,0.0,5,7.723,0.0,0.0,0.0,25.1,-2.8,-15.8,1024,1024,1024,1024,0,0,0,0,95,4.991,64.22,101.377956,P-GPS,,30.9
628,62800,2026-01-09 12:37:47,0.0,5,7.723,0.0,0.0,0.223694,24.7,-2.3,-15.4,1024,1024,1024,1024,0,0,0,0,95,4.991,64.22,101.377956,P-GPS,,30.9
629,62900,2026-01-09 12:37:48,0.0,5,7.723,0.0,0.0,0.0,25.3,-3.1,-14.0,1024,1024,1024,1024,0,0,0,0,95,4.991,64.22,101.377956,P-GPS,,30.9
630,63000,2026-01-09 12:37:48,0.0,5,7.721,0.0,0.0,0.0,25.6,-4.6,-13.6,1024,1024,1024,1024,0,0,0,0,95,5.246,64.4,101.377956,P-GPS,,30.9
631,63100,2026-01-09 12:37:48,0.0,5,7.721,0.0,0.0,0.0,25.4,-4.5,-13.7,1024,1024,1024,1024,0,0,0,0,95,5.246,64.4,101.377956,P-GPS,,30.9
632,63200,2026-01-09 12:37:48,0.0,5,7.721,0.0,0.0,0.0,25.4,-4.8,-14.0,1024,1024,1024,1024,0,0,0,0,95,5.246,64.4,101.377956,P-GPS,,30.9
633,63300,2026-01-09 12:37:48,0.0,5,7.721,0.0,0.0,0.0,25.3,-4.7,-13.8,1024,1024,1024,1024,0,0,0,0,95,5.246,64.4,101.377956,P-GPS,,30.9
634,63400,2026-01-09 12:37:48,0.0,5,7.721,0.0,0.0,0.0,24.9,-3.9,-13.8,1024,1024,1024,1024,0,0,0,0,95,5.246,64.4,101.377956,P-GPS,,30.9
635,63500,2026-01-09 12:37:48,0.0,5,7.721,0.0,0.0,0.0,25.4,-4.1,-12.6,1024,1024,1024,1024,0,0,0,0,95,5.246,64.4,101.377956,P-GPS,,30.9
636,63600,2026-01-09 12:37:48,0.0,5,7.721,0.0,0.0,0.0,25.5,-4.1,-13.3,1024,1024,1024,1024,0,0,0,0,95,5.246,64.4,101.377956,P-GPS,,30.9
637,63700,2026-01-09 12:37:48,0.0,5,7.721,0.0,0.0,0.0,25.6,-4.4,-13.3,1024,1024,1024,1024,0,0,0,0,95,5.246,64.4,101.70604,P-GPS,,31.0
638,63800,2026-01-09 12:37:49,0.0,5,7.721,0.0,0.0,0.0,25.8,-4.7,-13.2,1024,1024,1024,1024,0,0,0,0,95,5.246,64.4,101.70604,P-GPS,,31.0
639,63900,2026-01-09 12:37:49,0.0,5,7.721,0.0,0.0,0.0,25.8,-5.1,-14.3,1024,1024,1024,1024,0,0,0,0,95,5.246,64.4,101.70604,P-GPS,,31.0
640,64000,2026-01-09 12:37:49,0.0,5,7.721,0.0,0.0,0.0,25.7,-4.9,-15.2,1024,1024,1024,1024,0,0,0,0,95,5.246,64.4,101.70604,P-GPS,,31.0
641,64100,2026-01-09 12:37:49,0.0,5,7.714,0.0,0.0,0.0,25.6,-4.9,-15.0,1024,1024,1024,1024,0,0,0,0,95,5.647,64.58,101.70604,P-GPS,,31.0
642,64200,2026-01-09 12:37:49,0.0,5,7.714,0.0,0.0,0.0,25.5,-4.7,-14.5,1024,1024,1024,1024,0,0,0,0,95,5.647,64.58,101.70604,P-GPS,,31.0
643,64300,2026-01-09 12:37:49,0.0,5,7.714,0.0,0.0,0.0,25.8,-4.8,-13.4,1024,1024,1024,1024,0,0,0,0,95,5.647,64.58,101.377956,P-GPS,,30.9
644,64400,2026-01-09 12:37:49,0.0,5,7.714,0.0,0.0,0.0,25.7,-4.8,-13.3,1024,1024,1024,1024,0,0,0,0,95,5.647,64.58,101.377956,P-GPS,,30.9
645,64500,2026-01-09 12:37:49,0.0,5,7.714,0.0,0.0,0.0,25.7,-4.9,-13.5,1024,1024,1024,1024,0,0,0,0,95,5.647,64.58,101.377956,P-GPS,,30.9
646,64600,2026-01-09 12:37:49,0.0,5,7.714,0.0,0.0,0.0,25.6,-4.8,-13.2,1024,1024,1024,1024,0,0,0,0,95,5.647,64.58,101.377956,P-GPS,,30.9
647,64700,2026-01-09 12:37:49,0.0,5,7.714,0.0,0.0,0.0,25.5,-4.3,-13.1,1024,1024,1024,1024,0,0,0,0,95,5.647,64.58,101.377956,P-GPS,,30.9
648,64800,2026-01-09 12:37:49,0.0,5,7.714,0.0,0.0,0.0,25.0,-3.8,-13.4,1024,1024,1024,1024,0,0,0,0,95,5.647,64.58,101.377956,P-GPS,,30.9
649,64900,2026-01-09 12:37:50,0.0,5,7.714,0.0,0.0,0.0,25.3,-3.6,-13.3,1024,1024,1024,1024,0,0,0,0,95,5.647,64.58,101.377956,P-GPS,,30.9
650,65000,2026-01-09 12:37:50,0.0,5,7.714,0.0,0.0,0.0,25.3,-3.3,-13.4,1024,1024,1024,1024,0,0,0,0,95,5.647,64.58,101.377956,P-GPS,,30.9
651,65100,2026-01-09 12:37:50,0.0,5,7.714,0.0,0.0,0.0,25.1,-3.1,-13.4,1024,1024,1024,1024,0,0,0,0,95,5.647,64.58,101.377956,P-GPS,,30.9
652,65200,2026-01-09 12:37:50,0.0,5,7.686,0.0,0.0,0.0,25.3,-3.5,-13.5,1024,1024,1024,1024,0,0,0,0,94,5.734,64.58,101.377956,P-GPS,,30.9
653,65300,2026-01-09 12:37:50,0.0,5,7.686,0.0,0.0,0.0,24.8,-2.9,-13.4,1024,1024,1024,1024,0,0,0,0,94,5.734,64.58,101.377956,P-GPS,,30.9
654,65400,2026-01-09 12:37:50,0.0,5,7.686,0.0,0.0,0.0,25.0,-3.0,-13.1,1024,1024,1024,1024,0,0,0,0,94,5.734,64.58,101.377956,P-GPS,,30.9
655,65500,2026-01-09 12:37:50,0.0,5,7.686,0.0,0.0,0.0,25.0,-2.8,-12.6,1024,1024,1024,1024,0,0,0,0,94,5.734,64.58,101.049872,P-GPS,,30.8
656,65600,2026-01-09 12:37:50,0.0,5,7.686,0.0,0.0,0.0,25.0,-2.4,-12.4,1024,1024,1024,1024,0,0,0,0,94,5.734,64.58,101.049872,P-GPS,,30.8
657,65700,2026-01-09 12:37:50,0.0,5,7.686,0.0,0.0,0.0,25.0,-2.2,-12.7,1024,1024,1024,1024,0,0,0,0,94,5.734,64.58,101.049872,P-GPS,,30.8
658,65800,2026-01-09 12:37:50,0.0,5,7.686,0.0,0.0,0.0,25.1,-2.3,-12.4,1024,1024,1024,1024,0,0,0,0,94,5.734,64.58,101.049872,P-GPS,,30.8
659,65900,2026-01-09 12:37:51,0.0,5,7.686,0.0,0.0,0.0,25.0,-2.2,-12.3,1024,1024,1024,1024,0,0,0,0,94,5.734,64.58,101.049872,P-GPS,,30.8
660,66000,2026-01-09 12:37:51,0.0,5,7.686,0.0,0.0,0.0,25.1,-2.2,-12.2,1024,1024,1024,1024,0,0,0,0,94,5.734,64.58,101.049872,P-GPS,,30.8
661,66100,2026-01-09 12:37:51,0.0,5,7.686,0.0,0.0,0.0,25.1,-1.9,-12.5,1024,1024,1024,1024,0,0,0,0,94,5.734,64.58,101.049872,P-GPS,,30.8
662,66200,2026-01-09 12:37:51,0.0,5,7.686,0.0,0.0,0.0,24.9,-1.5,-12.6,1024,1024,1024,1024,0,0,0,0,94,5.734,64.58,101.049872,P-GPS,,30.8
663,66300,2026-01-09 12:37:51,0.0,5,7.719,0.0,0.0,0.0,25.0,-1.7,-12.4,1024,1024,1024,1024,0,0,0,0,94,5.54,64.58,101.049872,P-GPS,,30.8
664,66400,2026-01-09 12:37:51,0.0,5,7.719,0.0,0.0,0.0,25.0,-1.7,-12.5,1024,1024,1024,1024,0,0,0,0,94,5.54,64.58,101.049872,P-GPS,,30.8
665,66500,2026-01-09 12:37:51,0.0,5,7.719,0.0,0.0,0.0,24.9,-1.5,-12.0,1024,1024,1024,1024,0,0,0,0,94,5.54,64.58,100.721788,P-GPS,,30.7
666,66600,2026-01-09 12:37:51,0.0,5,7.719,0.0,0.0,0.0,25.0,-1.7,-11.8,1024,1024,1024,1024,0,0,0,0,94,5.54,64.58,100.721788,P-GPS,,30.7
667,66700,2026-01-09 12:37:51,0.0,5,7.719,0.0,0.0,0.0,25.1,-2.2,-11.6,1024,1024,1024,1024,0,0,0,0,94,5.54,64.58,100.721788,P-GPS,,30.7
668,66800,2026-01-09 12:37:51,0.0,5,7.719,0.0,0.0,0.0,25.1,-2.5,-11.5,1024,1024,1024,1024,0,0,0,0,94,5.54,64.58,100.721788,P-GPS,,30.7
669,66900,2026-01-09 12:37:52,0.0,5,7.719,0.0,0.0,0.0,25.1,-2.5,-11.5,1024,1024,1024,1024,0,0,0,0,94,5.54,64.58,100.721788,P-GPS,,30.7
670,67000,2026-01-09 12:37:52,0.0,5,7.719,0.0,0.0,0.0,24.9,-2.4,-11.5,1024,1024,1024,1024,0,0,0,0,94,5.54,64.58,100.721788,P-GPS,,30.7
671,67100,2026-01-09 12:37:52,0.0,5,7.719,0.0,0.0,0.0,25.1,-2.8,-11.3,1024,1024,1024,1024,0,0,0,0,94,5.54,64.58,100.721788,P-GPS,,30.7
672,67200,2026-01-09 12:37:52,0.0,5,7.719,0.0,0.0,0.0,25.0,-2.6,-11.5,1024,1024,1024,1024,0,0,0,0,94,5.54,64.58,100.721788,P-GPS,,30.7
673,67300,2026-01-09 12:37:52,0.0,5,7.719,0.0,0.0,0.0,24.8,-2.4,-11.7,1024,1024,1024,1024,0,0,0,0,94,5.54,64.58,100.393704,P-GPS,,30.6
674,67400,2026-01-09 12:37:52,0.0,5,7.716,0.0,0.0,0.0,24.9,-2.5,-11.1,1024,1024,1024,1024,0,0,0,0,94,5.576,64.58,100.393704,P-GPS,,30.6
675,67500,2026-01-09 12:37:52,0.0,5,7.716,0.0,0.0,0.0,25.1,-2.9,-11.1,1024,1024,1024,1024,0,0,0,0,94,5.576,64.58,100.393704,P-GPS,,30.6
676,67600,2026-01-09 12:37:52,0.0,5,7.716,0.0,0.0,0.0,25.0,-2.9,-11.0,1024,1024,1024,1024,0,0,0,0,94,5.576,64.58,100.393704,P-GPS,,30.6
677,67700,2026-01-09 12:37:52,0.0,5,7.716,0.0,0.0,0.0,25.2,-3.2,-10.9,1024,1024,1024,1024,0,0,0,0,94,5.576,64.58,100.393704,P-GPS,,30.6
678,67800,2026-01-09 12:37:52,0.0,5,7.716,0.0,0.0,0.0,25.2,-3.0,-10.8,1024,1024,1024,1024,0,0,0,0,94,5.576,64.58,100.393704,P-GPS,,30.6
679,67900,2026-01-09 12:37:53,0.0,5,7.716,0.0,0.0,0.0,25.2,-3.0,-10.9,1024,1024,1024,1024,0,0,0,0,94,5.576,64.58,100.393704,P-GPS,,30.6
680,68000,2026-01-09 12:37:53,0.0,5,7.716,0.0,0.0,0.0,25.2,-2.9,-11.1,1024,1024,1024,1024,0,0,0,0,94,5.576,64.58,100.393704,P-GPS,,30.6
681,68100,2026-01-09 12:37:53,0.0,5,7.716,0.0,0.0,0.0,25.1,-2.4,-11.0,1024,1024,1024,1024,0,0,0,0,94,5.576,64.58,100.393704,P-GPS,,30.6
682,68200,2026-01-09 12:37:53,0.0,5,7.716,0.0,0.0,0.0,25.2,-2.3,-11.0,1024,1024,1024,1024,0,0,0,0,94,5.576,64.58,100.393704,P-GPS,,30.6
683,68300,2026-01-09 12:37:53,0.0,5,7.716,0.0,0.0,0.0,25.4,-2.6,-10.8,1024,1024,1024,1024,0,0,0,0,94,5.576,64.58,100.393704,P-GPS,,30.6
684,68400,2026-01-09 12:37:53,0.0,5,7.716,0.0,0.0,0.0,25.2,-2.5,-11.0,1024,1024,1024,1024,0,0,0,0,94,5.576,64.58,100.721788,P-GPS,,30.7
685,68500,2026-01-09 12:37:53,0.0,5,7.716,0.0,0.0,0.0,25.3,-2.6,-11.2,1024,1024,1024,1024,0,0,0,0,94,5.54,64.76,100.721788,P-GPS,,30.7
686,68600,2026-01-09 12:37:53,0.0,5,7.716,0.0,0.0,0.0,25.3,-2.8,-11.6,1024,1024,1024,1024,0,0,0,0,94,5.54,64.76,100.721788,P-GPS,,30.7
687,68700,2026-01-09 12:37:53,0.0,5,7.716,0.0,0.0,0.0,25.1,-2.4,-11.5,1024,1024,1024,1024,0,0,0,0,94,5.54,64.76,100.721788,P-GPS,,30.7
688,68800,2026-01-09 12:37:53,0.0,5,7.716,0.0,0.0,0.0,25.1,-2.4,-11.3,1024,1024,1024,1024,0,0,0,0,94,5.54,64.76,100.721788,P-GPS,,30.7
689,68900,2026-01-09 12:37:54,0.0,5,7.716,0.0,0.0,0.0,25.2,-2.6,-11.2,1024,1024,1024,1024,0,0,0,0,94,5.54,64.76,100.721788,P-GPS,,30.7
690,69000,2026-01-09 12:37:54,0.0,5,7.716,0.0,0.0,0.0,25.1,-2.6,-11.1,1024,1024,1024,1024,0,0,0,0,94,5.54,64.76,100.721788,P-GPS,,30.7
691,69100,2026-01-09 12:37:54,0.0,5,7.716,0.0,0.0,0.0,25.0,-2.3,-11.0,1024,1024,1024,1024,0,0,0,0,94,5.54,64.76,100.721788,P-GPS,,30.7
692,69200,2026-01-09 12:37:54,0.0,5,7.716,0.0,0.0,0.0,25.1,-2.2,-10.7,1024,1024,1024,1024,0,0,0,0,94,5.54,64.76,100.721788,P-GPS,,30.7
693,69300,2026-01-09 12:37:54,0.0,5,7.716,0.0,0.0,0.0,25.2,-2.2,-10.5,1024,1024,1024,1024,0,0,0,0,94,5.54,64.76,100.721788,P-GPS,,30.7
694,69400,2026-01-09 12:37:54,0.0,5,7.716,0.0,0.0,0.0,25.2,-2.2,-10.5,1024,1024,1024,1024,0,0,0,0,94,5.54,64.76,100.721788,P-GPS,,30.7
695,69500,2026-01-09 12:37:54,0.0,5,7.716,0.0,0.0,0.0,25.2,-2.2,-10.6,1024,1024,1024,1024,0,0,0,0,94,5.54,64.76,100.721788,P-GPS,,30.7
696,69600,2026-01-09 12:37:54,0.0,5,7.716,0.0,0.0,0.0,25.1,-2.1,-10.7,1024,1024,1024,1024,0,0,0,0,94,5.54,64.76,100.721788,P-GPS,,30.7
697,69700,2026-01-09 12:37:54,0.0,5,7.716,0.0,0.0,0.0,25.1,-2.0,-10.6,1024,1024,1024,1024,0,0,0,0,94,5.54,64.76,100.721788,P-GPS,,30.7
698,69800,2026-01-09 12:37:54,0.0,5,7.716,0.0,0.0,0.0,25.2,-2.2,-10.5,1024,1024,1024,1024,0,0,0,0,94,5.54,64.76,100.721788,P-GPS,,30.7
699,69900,2026-01-09 12:37:55,0.0,5,7.716,0.0,0.0,0.0,25.2,-2.2,-10.5,1024,1024,1024,1024,0,0,0,0,94,5.54,64.76,100.721788,P-GPS,,30.7
700,70000,2026-01-09 12:37:55,0.0,5,7.716,0.0,0.0,0.0,25.2,-2.4,-10.7,1024,1024,1024,1024,0,0,0,0,94,5.54,64.76,100.721788,P-GPS,,30.7
701,70100,2026-01-09 12:37:55,0.0,5,7.716,0.0,0.0,0.0,25.2,-2.5,-10.5,1024,1024,1024,1024,0,0,0,0,94,5.54,64.76,100.721788,P-GPS,,30.7
702,70200,2026-01-09 12:37:55,0.0,5,7.716,0.0,0.0,0.0,25.2,-2.5,-10.4,1024,1024,1024,1024,0,0,0,0,94,5.54,64.76,100.721788,P-GPS,,30.7
703,70300,2026-01-09 12:37:55,0.0,5,7.716,0.0,0.0,0.0,25.3,-2.9,-10.3,1024,1024,1024,1024,0,0,0,0,94,5.54,64.76,100.721788,P-GPS,,30.7
704,70400,2026-01-09 12:37:55,0.0,5,7.716,0.0,0.0,0.0,25.4,-3.0,-10.3,1024,1024,1024,1024,0,0,0,0,94,5.54,64.76,100.721788,P-GPS,,30.7
705,70500,2026-01-09 12:37:55,0.0,5,7.716,0.0,0.0,0.0,25.5,-3.6,-10.5,1024,1024,1024,1024,0,0,0,0,94,5.54,64.76,100.721788,P-GPS,,30.7
706,70600,2026-01-09 12:37:55,0.0,5,7.716,0.0,0.0,0.0,25.4,-3.2,-10.5,1024,1024,1024,1024,0,0,0,0,94,5.54,64.76,100.721788,P-GPS,,30.7
707,70700,2026-01-09 12:37:55,0.0,5,7.717,0.0,0.0,0.0,25.3,-3.1,-10.3,1024,1024,1024,1024,0,0,0,0,94,5.34,64.76,100.721788,P-GPS,,30.7
708,70800,2026-01-09 12:37:56,0.0,5,7.717,0.0,0.0,0.0,25.3,-2.9,-10.3,1024,1024,1024,1024,0,0,0,0,94,5.34,64.76,100.721788,P-GPS,,30.7
709,70900,2026-01-09 12:37:56,0.0,5,7.717,0.0,0.0,0.0,25.2,-2.6,-10.5,1024,1024,1024,1024,0,0,0,0,94,5.34,64.76,100.721788,P-GPS,,30.7
710,71000,2026-01-09 12:37:56,0.0,5,7.717,0.0,0.0,0.0,25.2,-2.4,-10.3,1024,1024,1024,1024,0,0,0,0,94,5.34,64.76,100.721788,P-GPS,,30.7
711,71100,2026-01-09 12:37:56,0.0,5,7.717,0.0,0.0,0.0,25.3,-2.7,-10.3,1024,1024,1024,1024,0,0,0,0,94,5.34,64.76,100.721788,P-GPS,,30.7
712,71200,2026-01-09 12:37:56,0.0,5,7.717,0.0,0.0,0.0,25.2,-2.6,-10.4,1024,1024,1024,1024,0,0,0,0,94,5.34,64.76,100.721788,P-GPS,,30.7
713,71300,2026-01-09 12:37:56,0.0,5,7.717,0.0,0.0,0.0,25.0,-2.4,-10.4,1024,1024,1024,1024,0,0,0,0,94,5.34,64.76,100.721788,P-GPS,,30.7
714,71400,2026-01-09 12:37:56,0.0,5,7.717,0.0,0.0,0.0,25.1,-2.7,-10.2,1024,1024,1024,1024,0,0,0,0,94,5.34,64.76,100.721788,P-GPS,,30.7
715,71500,2026-01-09 12:37:56,0.0,5,7.717,0.0,0.0,0.0,25.2,-3.2,-9.9,1024,1024,1024,1024,0,0,0,0,94,5.34,64.76,100.721788,P-GPS,,30.7
716,71600,2026-01-09 12:37:56,0.0,5,7.717,0.0,0.0,0.0,25.1,-3.1,-9.8,1024,1024,1024,1024,0,0,0,0,94,5.34,64.76,100.721788,P-GPS,,30.7
717,71700,2026-01-09 12:37:56,0.0,5,7.717,0.0,0.0,0.0,25.3,-3.1,-9.7,1024,1024,1024,1024,0,0,0,0,94,5.34,64.76,100.721788,P-GPS,,30.7
718,71800,2026-01-09 12:37:56,0.0,5,7.732,0.0,0.0,0.0,25.1,-2.7,-9.6,1024,1024,1024,1024,0,0,0,0,94,5.316,64.94,100.721788,P-GPS,,30.7
719,71900,2026-01-09 12:37:57,0.0,5,7.732,0.0,0.0,0.0,25.1,-2.4,-9.6,1024,1024,1024,1024,0,0,0,0,94,5.316,64.94,100.721788,P-GPS,,30.7
720,72000,2026-01-09 12:37:57,0.0,5,7.732,0.0,0.0,0.0,25.1,-2.0,-9.3,1024,1024,1024,1024,0,0,0,0,94,5.316,64.94,100.721788,P-GPS,,30.7
721,72100,2026-01-09 12:37:57,0.0,5,7.732,0.0,0.0,0.0,25.0,-1.8,-9.4,1024,1024,1024,1024,0,0,0,0,94,5.316,64.94,100.721788,P-GPS,,30.7
722,72200,2026-01-09 12:37:57,0.0,5,7.732,0.0,0.0,0.0,25.1,-1.6,-9.5,1024,1024,1024,1024,0,0,0,0,94,5.316,64.94,101.049872,P-GPS,,30.8
723,72300,2026-01-09 12:37:57,0.0,5,7.732,0.0,0.0,0.0,25.2,-1.3,-9.7,1024,1024,1024,1024,0,0,0,0,94,5.316,64.94,101.049872,P-GPS,,30.8
724,72400,2026-01-09 12:37:57,0.0,5,7.732,0.0,0.0,0.0,25.2,-1.2,-9.8,1024,1024,1024,1024,0,0,0,0,94,5.316,64.94,101.049872,P-GPS,,30.8
725,72500,2026-01-09 12:37:57,0.0,5,7.732,0.0,0.0,0.0,25.3,-1.6,-10.0,1024,1024,1024,1024,0,0,0,0,94,5.316,64.94,101.049872,P-GPS,,30.8
726,72600,2026-01-09 12:37:57,0.0,5,7.732,0.0,0.0,0.0,25.2,-1.6,-9.8,1024,1024,1024,1024,0,0,0,0,94,5.316,64.94,101.049872,P-GPS,,30.8
