index,time(millisecond),timestamp,speed(mph),gpslevel,voltage(v),xSpeed(mph),ySpeed(mph),zSpeed(mph),compass_heading(degrees),pitch(degrees),roll(degrees),rc_elevator,rc_aileron,rc_throttle,rc_rudder,rc_elevator(percent),rc_aileron(percent),rc_throttle(percent),rc_rudder(percent),battery_percent,current(A),battery_temperature(f),ascent(feet),flycState,message,height_above_takeoff(meters)
802,215300,2026-01-07 12:32:07,0.0,5,7.717,0.0,0.0,0.0,29.8,5.0,3.9,1024,1024,1024,1024,0,0,0,0,82,4.292,69.98,167.32284,P-GPS,,51.0
803,215400,2026-01-07 12:32:07,0.0,5,7.717,0.0,0.0,0.0,29.9,5.1,4.1,1024,1024,1024,1024,0,0,0,0,82,4.292,69.98,167.32284,P-GPS,,51.0
804,215500,2026-01-07 12:32:07,0.0,5,7.717,0.0,0.0,0.0,29.9,5.3,4.2,1024,1024,1024,1024,0,0,0,0,82,4.292,69.98,167.32284,P-GPS,,51.0
805,215600,2026-01-07 12:32:07,0.0,5,7.717,0.0,0.0,0.0,30.0,5.5,4.3,1024,1024,1024,1024,0,0,0,0,82,4.292,69.98,167.32284,P-GPS,,51.0
806,215700,2026-01-07 12:32:07,0.0,5,7.717,0.0,0.0,0.0,30.0,5.7,4.6,1024,1024,1024,1024,0,0,0,0,82,4.292,69.98,167.650924,P-GPS,,51.1
807,215800,2026-01-07 12:32:07,0.0,5,7.717,0.0,0.0,0.0,30.1,5.6,4.7,1024,1024,1024,1024,0,0,0,0,82,4.292,69.98,167.650924,P-GPS,,51.1
808,215900,2026-01-07 12:32:07,0.0,5,7.666,0.0,0.0,0.0,30.1,5.7,4.8,1024,1024,1024,1024,0,0,0,0,82,4.263,69.98,167.650924,P-GPS,,51.1
809,216000,2026-01-07 12:32:07,0.0,5,7.666,0.0,0.0,0.0,30.0,6.1,4.7,1024,1024,1024,1024,0,0,0,0,82,4.263,69.98,167.650924,P-GPS,,51.1
810,216100,2026-01-07 12:32:07,0.0,5,7.666,0.0,0.0,0.0,30.0,6.3,4.7,1024,1024,1024,1024,0,0,0,0,82,4.263,69.98,167.650924,P-GPS,,51.1
811,216200,2026-01-07 12:32:07,0.0,5,7.666,0.0,0.0,0.0,29.9,6.5,4.8,1024,1024,1024,1024,0,0,0,0,82,4.263,69.98,167.650924,P-GPS,,51.1
812,216300,2026-01-07 12:32:08,0.0,5,7.666,0.0,0.0,0.0,29.9,6.8,4.5,1024,1024,1024,1024,0,0,0,0,82,4.263,69.98,167.650924,P-GPS,,51.1
813,216400,2026-01-07 12:32:08,0.0,5,7.666,0.0,0.0,0.223694,29.9,6.7,4.2,1024,1024,1024,1024,0,0,0,0,82,4.263,69.98,167.650924,P-GPS,,51.1
814,216500,2026-01-07 12:32:08,0.0,5,7.666,0.0,0.0,0.0,29.9,6.8,4.2,1024,1024,1024,1024,0,0,0,0,82,4.263,69.98,167.650924,P-GPS,,51.1
815,216600,2026-01-07 12:32:08,0.0,5,7.666,0.0,0.0,0.0,30.0,7.4,4.1,1024,1024,1024,1024,0,0,0,0,82,4.263,69.98,167.32284,P-GPS,,51.0
816,216700,2026-01-07 12:32:08,0.0,5,7.666,0.0,0.0,0.0,29.9,7.4,4.3,1024,1024,1024,1024,0,0,0,0,82,4.263,69.98,167.32284,P-GPS,,51.0
817,216800,2026-01-07 12:32:08,0.0,5,7.666,0.0,0.0,0.0,29.9,7.3,4.2,1024,1024,1024,1024,0,0,0,0,82,4.263,69.98,167.32284,P-GPS,,51.0
818,216900,2026-01-07 12:32:08,0.0,5,7.666,0.0,0.0,0.0,29.8,6.9,4.4,1024,1024,1024,1024,0,0,0,0,82,4.263,69.98,167.32284,P-GPS,,51.0
819,217000,2026-01-07 12:32:08,0.0,5,7.659,0.0,0.0,0.0,29.9,7.1,4.6,1024,1024,1024,1024,0,0,0,0,82,4.46,69.98,166.994756,P-GPS,,50.9
820,217100,2026-01-07 12:32:08,0.0,5,7.659,0.0,0.0,0.0,29.9,6.9,4.5,1024,1024,1024,1024,0,0,0,0,82,4.46,69.98,166.994756,P-GPS,,50.9
821,217200,2026-01-07 12:32:08,0.0,5,7.659,0.0,0.0,0.0,29.9,7.1,4.4,1024,1024,1024,1024,0,0,0,0,82,4.46,69.98,166.994756,P-GPS,,50.9
822,217300,2026-01-07 12:32:09,0.0,5,7.659,0.0,0.0,0.0,29.8,6.9,4.1,1024,1024,1024,1024,0,0,0,0,82,4.46,69.98,166.994756,P-GPS,,50.9
823,217400,2026-01-07 12:32:09,0.0,5,7.659,0.0,0.0,0.0,29.8,6.8,4.0,1024,1024,1024,1024,0,0,0,0,82,4.46,69.98,166.994756,P-GPS,,50.9
824,217500,2026-01-07 12:32:09,0.0,5,7.659,0.0,0.0,0.0,29.9,6.8,4.1,1024,1024,1024,1024,0,0,0,0,82,4.46,69.98,166.666672,P-GPS,,50.8
825,217600,2026-01-07 12:32:09,0.0,5,7.659,0.0,0.0,0.0,29.8,6.7,4.2,1024,1024,1024,1024,0,0,0,0,82,4.46,69.98,166.666672,P-GPS,,50.8
826,217700,2026-01-07 12:32:09,0.0,5,7.659,0.0,0.0,0.0,29.8,6.7,4.1,1024,1024,1024,1024,0,0,0,0,82,4.46,69.98,166.666672,P-GPS,,50.8
827,217800,2026-01-07 12:32:09,0.0,5,7.659,0.0,0.0,0.0,29.7,6.6,3.9,1024,1024,1024,1024,0,0,0,0,82,4.46,69.98,166.666672,P-GPS,,50.8
828,217900,2026-01-07 12:32:09,0.0,5,7.659,0.0,0.0,0.0,29.7,6.8,3.9,1024,1024,1024,1024,0,0,0,0,82,4.46,69.98,166.338588,P-GPS,,50.7
829,218000,2026-01-07 12:32:09,0.0,5,7.659,0.0,0.0,0.0,29.8,6.9,3.8,1024,1024,1024,1024,0,0,0,0,82,4.46,69.98,166.338588,P-GPS,,50.7
830,218100,2026-01-07 12:32:09,0.0,5,7.653,0.0,0.0,0.0,29.8,6.9,3.6,1024,1024,1024,1024,0,0,0,0,82,4.569,69.98,166.338588,P-GPS,,50.7
831,218200,2026-01-07 12:32:09,0.0,5,7.653,0.0,0.0,0.0,29.8,6.9,3.5,1024,1024,1024,1024,0,0,0,0,82,4.569,69.98,166.010504,P-GPS,,50.6
832,218300,2026-01-07 12:32:10,0.0,5,7.653,0.0,0.0,0.0,29.8,6.8,3.5,1024,1024,1024,1024,0,0,0,0,82,4.569,69.98,166.010504,P-GPS,,50.6
833,218400,2026-01-07 12:32:10,0.0,5,7.653,0.0,0.0,0.0,29.8,7.0,3.7,1024,1024,1024,1024,0,0,0,0,82,4.569,69.98,166.010504,P-GPS,,50.6
834,218500,2026-01-07 12:32:10,0.0,5,7.653,0.0,0.0,0.0,29.8,6.8,3.7,1024,1024,1024,1024,0,0,0,0,82,4.569,69.98,166.010504,P-GPS,,50.6
835,218600,2026-01-07 12:32:10,0.0,5,7.653,0.0,0.0,0.0,29.8,6.8,3.8,1024,1024,1024,1024,0,0,0,0,82,4.569,69.98,166.010504,P-GPS,,50.6
836,218700,2026-01-07 12:32:10,0.0,5,7.653,0.0,0.0,0.0,29.7,6.5,3.8,1024,1024,1024,1024,0,0,0,0,82,4.569,69.98,166.010504,P-GPS,,50.6
837,218800,2026-01-07 12:32:10,0.0,5,7.653,0.0,0.0,0.0,29.7,6.5,3.7,1024,1024,1024,1024,0,0,0,0,82,4.569,69.98,166.010504,P-GPS,,50.6
838,218900,2026-01-07 12:32:10,0.0,5,7.653,0.0,0.0,0.0,29.7,6.2,3.7,1024,1024,1024,1024,0,0,0,0,82,4.569,69.98,166.010504,P-GPS,,50.6
839,219000,2026-01-07 12:32:10,0.0,5,7.653,0.0,0.0,0.0,29.8,6.0,3.7,1024,1024,1024,1024,0,0,0,0,82,4.569,69.98,165.68242,P-GPS,,50.5
840,219100,2026-01-07 12:32:10,0.0,5,7.653,0.0,0.0,0.0,29.8,5.8,3.7,1024,1024,1024,1024,0,0,0,0,82,4.569,69.98,165.68242,P-GPS,,50.5
841,219200,2026-01-07 12:32:10,0.0,5,7.655,0.0,0.0,0.0,29.8,6.0,3.7,1024,1024,1024,1024,0,0,0,0,82,4.528,69.98,165.68242,P-GPS,,50.5
842,219300,2026-01-07 12:32:11,0.0,5,7.655,0.0,0.0,0.0,29.8,6.1,3.8,1024,1024,1024,1024,0,0,0,0,82,4.528,69.98,165.68242,P-GPS,,50.5
843,219400,2026-01-07 12:32:11,0.0,5,7.655,0.0,0.0,0.0,29.7,5.8,3.8,1024,1024,1024,1024,0,0,0,0,82,4.528,69.98,165.68242,P-GPS,,50.5
844,219500,2026-01-07 12:32:11,0.0,5,7.655,0.0,0.0,0.0,29.8,6.0,3.9,1024,1024,1024,1024,0,0,0,0,82,4.528,69.98,165.68242,P-GPS,,50.5
845,219600,2026-01-07 12:32:11,0.0,5,7.655,0.0,0.0,0.0,29.7,6.0,3.9,1024,1024,1024,1024,0,0,0,0,82,4.528,69.98,165.68242,P-GPS,,50.5
846,219700,2026-01-07 12:32:11,0.0,5,7.655,0.0,0.0,0.0,29.8,6.1,3.9,1024,1024,1024,1024,0,0,0,0,82,4.528,69.98,165.68242,P-GPS,,50.5
847,219800,2026-01-07 12:32:11,0.0,5,7.655,0.0,0.0,0.0,29.8,6.2,3.6,1024,1024,1024,1024,0,0,0,0,82,4.528,69.98,165.68242,P-GPS,,50.5
848,219900,2026-01-07 12:32:11,0.0,5,7.655,0.0,0.0,0.0,29.8,6.1,3.6,1024,1024,1024,1024,0,0,0,0,82,4.528,69.98,165.68242,P-GPS,,50.5
849,220000,2026-01-07 12:32:11,0.0,5,7.655,0.0,0.0,0.0,29.8,6.3,3.5,1024,1024,1024,1024,0,0,0,0,82,4.528,69.98,165.68242,P-GPS,,50.5
850,220100,2026-01-07 12:32:11,0.0,5,7.655,0.0,0.0,0.0,29.8,6.1,3.6,1024,1024,1024,1024,0,0,0,0,82,4.528,69.98,165.68242,P-GPS,,50.5
851,220200,2026-01-07 12:32:11,0.0,5,7.655,0.0,0.0,0.0,29.8,6.0,3.7,1024,1024,1024,1024,0,0,0,0,82,4.528,69.98,165.68242,P-GPS,,50.5
852,220300,2026-01-07 12:32:12,0.0,5,7.655,0.0,0.0,0.0,29.8,5.7,3.6,1024,1024,1024,1024,0,0,0,0,82,4.528,69.98,165.68242,P-GPS,,50.5
853,220400,2026-01-07 12:32:12,0.0,5,7.655,0.0,0.0,0.0,29.8,5.4,3.8,1024,1024,1024,1024,0,0,0,0,82,4.528,69.98,165.68242,P-GPS,,50.5
854,220500,2026-01-07 12:32:12,0.0,5,7.655,0.0,0.0,0.0,29.8,5.4,3.8,1024,1024,1024,1024,0,0,0,0,82,4.528,69.98,165.68242,P-GPS,,50.5
855,220600,2026-01-07 12:32:12,0.0,5,7.655,0.0,0.0,0.0,29.8,5.3,3.9,1024,1024,1024,1024,0,0,0,0,82,4.528,69.98,165.68242,P-GPS,,50.5
856,220700,2026-01-07 12:32:12,0.0,5,7.655,0.0,0.0,0.0,29.8,5.2,4.0,1024,1024,1024,1024,0,0,0,0,82,4.528,69.98,165.68242,P-GPS,,50.5
857,220800,2026-01-07 12:32:12,0.0,5,7.655,0.0,0.0,0.0,29.8,5.2,4.0,1024,1024,1024,1024,0,0,0,0,82,4.528,69.98,165.68242,P-GPS,,50.5
858,220900,2026-01-07 12:32:12,0.0,5,7.655,0.0,0.0,0.0,29.8,5.2,3.8,1024,1024,1024,1024,0,0,0,0,82,4.528,69.98,165.68242,P-GPS,,50.5
859,221000,2026-01-07 12:32:12,0.0,5,7.655,0.0,0.0,0.0,29.8,5.0,4.0,1024,1024,1024,1024,0,0,0,0,82,4.528,69.98,165.68242,P-GPS,,50.5
860,221100,2026-01-07 12:32:12,0.0,5,7.655,0.0,0.0,0.0,29.8,5.4,4.0,1024,1024,1024,1024,0,0,0,0,82,4.528,69.98,165.68242,P-GPS,,50.5
861,221200,2026-01-07 12:32:12,0.0,5,7.655,0.0,0.0,0.0,29.8,5.7,3.8,1024,1024,1024,1024,0,0,0,0,82,4.528,69.98,165.68242,P-GPS,,50.5
862,221300,2026-01-07 12:32:13,0.0,5,7.655,0.0,0.0,0.0,29.8,6.0,3.3,1024,1024,1024,1024,0,0,0,0,82,4.528,69.98,165.68242,P-GPS,,50.5
863,221400,2026-01-07 12:32:13,0.0,5,7.655,0.0,0.0,0.0,29.8,6.1,3.3,1024,1024,1024,1024,0,0,0,0,82,4.527,69.98,165.68242,P-GPS,,50.5
864,221500,2026-01-07 12:32:13,0.0,5,7.655,0.0,0.0,0.0,29.8,5.7,3.3,1024,1024,1024,1024,0,0,0,0,82,4.527,69.98,165.68242,P-GPS,,50.5
865,221600,2026-01-07 12:32:13,0.0,5,7.655,0.0,0.0,0.0,29.7,5.5,3.3,1024,1024,1024,1024,0,0,0,0,82,4.527,69.98,165.68242,P-GPS,,50.5
866,221700,2026-01-07 12:32:13,0.0,5,7.655,0.0,0.0,0.0,29.7,5.2,3.4,1024,1024,1024,1024,0,0,0,0,82,4.527,69.98,165.68242,P-GPS,,50.5
867,221800,2026-01-07 12:32:13,0.0,5,7.655,0.0,0.0,0.0,29.7,5.3,3.5,1024,1024,1024,1024,0,0,0,0,82,4.527,69.98,165.68242,P-GPS,,50.5
868,221900,2026-01-07 12:32:13,0.0,5,7.655,0.0,0.0,0.0,29.7,5.2,3.5,1024,1024,1024,1024,0,0,0,0,82,4.527,69.98,165.68242,P-GPS,,50.5
869,222000,2026-01-07 12:32:13,0.0,5,7.655,0.0,0.0,0.0,29.7,5.2,3.5,1024,1024,1024,1024,0,0,0,0,82,4.527,69.98,165.68242,P-GPS,,50.5
870,222100,2026-01-07 12:32:13,0.0,5,7.655,0.0,0.0,0.0,29.6,5.3,3.2,1024,1024,1024,1024,0,0,0,0,82,4.527,69.98,165.68242,P-GPS,,50.5
871,222200,2026-01-07 12:32:14,0.0,5,7.655,0.0,0.0,0.0,29.7,5.3,3.3,1024,1024,1024,1024,0,0,0,0,82,4.527,69.98,165.68242,P-GPS,,50.5
872,222300,2026-01-07 12:32:14,0.0,5,7.655,0.0,0.0,0.0,29.7,5.3,3.3,1024,1024,1024,1024,0,0,0,0,82,4.527,69.98,165.68242,P-GPS,,50.5
873,222400,2026-01-07 12:32:14,0.0,5,7.655,0.0,0.0,0.0,29.7,5.4,3.4,1024,1024,1024,1024,0,0,0,0,82,4.527,69.98,165.68242,P-GPS,,50.5
874,222500,2026-01-07 12:32:14,0.0,5,7.649,0.0,0.0,0.0,29.7,5.7,3.3,1024,1024,1024,1024,0,0,0,0,82,4.62,70.16,165.68242,P-GPS,,50.5
875,222600,2026-01-07 12:32:14,0.0,5,7.649,0.0,0.0,0.0,29.6,5.4,3.5,1024,1024,1024,1024,0,0,0,0,82,4.62,70.16,165.68242,P-GPS,,50.5
876,222700,2026-01-07 12:32:14,0.0,5,7.649,0.0,0.0,0.0,29.6,5.2,3.5,1024,1024,1024,1024,0,0,0,0,82,4.62,70.16,165.68242,P-GPS,,50.5
877,222800,2026-01-07 12:32:14,0.0,5,7.649,0.0,0.0,0.0,29.6,5.2,3.4,1024,1024,1024,1024,0,0,0,0,82,4.62,70.16,165.68242,P-GPS,,50.5
878,222900,2026-01-07 12:32:14,0.0,5,7.649,0.0,0.0,0.0,29.6,5.3,3.4,1024,1024,1024,1024,0,0,0,0,82,4.62,70.16,166.010504,P-GPS,,50.6
879,223000,2026-01-07 12:32:14,0.0,5,7.649,0.0,0.0,0.0,29.7,5.3,3.6,1024,1024,1024,1024,0,0,0,0,82,4.62,70.16,166.010504,P-GPS,,50.6
880,223100,2026-01-07 12:32:14,0.0,5,7.649,0.0,0.0,0.0,29.7,5.1,3.6,1024,1024,1024,1024,0,0,0,0,82,4.62,70.16,166.010504,P-GPS,,50.6
881,223200,2026-01-07 12:32:14,0.0,5,7.649,0.0,0.0,0.0,29.7,5.2,3.5,1024,1024,1024,1024,0,0,0,0,82,4.62,70.16,166.010504,P-GPS,,50.6
882,223300,2026-01-07 12:32:15,0.0,5,7.649,0.0,0.0,0.0,29.8,5.0,3.5,1024,1024,1024,1024,0,0,0,0,82,4.62,70.16,166.010504,P-GPS,,50.6
883,223400,2026-01-07 12:32:15,0.0,5,7.649,0.0,0.0,0.0,29.7,4.9,3.3,1024,1024,1024,1024,0,0,0,0,82,4.62,70.16,166.010504,P-GPS,,50.6
884,223500,2026-01-07 12:32:15,0.0,5,7.649,0.0,0.0,0.0,29.8,4.8,3.6,1024,1024,1024,1024,0,0,0,0,82,4.62,70.16,166.010504,P-GPS,,50.6
885,223600,2026-01-07 12:32:15,0.0,5,7.649,0.0,0.0,0.0,29.8,4.6,3.6,1024,1024,1024,1024,0,0,0,0,82,4.62,70.16,166.010504,P-GPS,,50.6
886,223700,2026-01-07 12:32:15,0.0,5,7.652,0.0,0.0,0.0,29.7,4.5,3.5,1024,1024,1024,1024,0,0,0,0,82,4.579,70.16,166.010504,P-GPS,,50.6
887,223800,2026-01-07 12:32:15,0.0,5,7.652,0.0,0.0,0.0,29.7,4.5,3.7,1024,1024,1024,1024,0,0,0,0,82,4.579,70.16,166.338588,P-GPS,,50.7
888,223900,2026-01-07 12:32:15,0.0,5,7.652,0.0,0.0,0.0,29.7,4.6,3.7,1024,1024,1024,1024,0,0,0,0,82,4.579,70.16,166.338588,P-GPS,,50.7
889,224000,2026-01-07 12:32:15,0.0,5,7.652,0.0,0.0,0.0,29.8,4.7,3.5,1024,1024,1024,1024,0,0,0,0,82,4.579,70.16,166.338588,P-GPS,,50.7
890,224100,2026-01-07 12:32:15,0.0,5,7.652,0.0,0.0,0.0,29.7,4.7,3.3,1024,1024,1024,1024,0,0,0,0,82,4.579,70.16,166.338588,P-GPS,,50.7
891,224200,2026-01-07 12:32:15,0.0,5,7.652,0.0,0.0,0.0,29.7,4.9,3.3,1024,1024,1024,1024,0,0,0,0,82,4.579,70.16,166.338588,P-GPS,,50.7
892,224300,2026-01-07 12:32:16,0.0,5,7.652,0.0,0.0,0.0,29.8,4.8,3.5,1024,1024,1024,1024,0,0,0,0,82,4.579,70.16,166.338588,P-GPS,,50.7
893,224400,2026-01-07 12:32:16,0.0,5,7.652,0.0,0.0,0.0,29.8,4.7,3.7,1024,1024,1024,1024,0,0,0,0,82,4.579,70.16,166.338588,P-GPS,,50.7
894,224500,2026-01-07 12:32:16,0.0,5,7.652,0.0,0.0,0.0,29.8,4.4,3.6,1024,1024,1024,1024,0,0,0,0,82,4.579,70.16,166.338588,P-GPS,,50.7
895,224600,2026-01-07 12:32:16,0.0,5,7.652,0.0,0.0,0.0,29.8,4.5,3.6,1024,1024,1024,1024,0,0,0,0,82,4.579,70.16,166.338588,P-GPS,,50.7
896,224700,2026-01-07 12:32:16,0.0,5,7.652,0.0,0.0,0.0,29.8,4.1,3.9,1024,1024,1024,1024,0,0,0,0,82,4.579,70.16,166.666672,P-GPS,,50.8
897,224800,2026-01-07 12:32:16,0.0,5,7.65,0.0,0.0,0.0,29.8,4.0,4.2,1024,1024,1024,1024,0,0,0,0,82,4.533,69.98,166.666672,P-GPS,,50.8
898,224900,2026-01-07 12:32:16,0.0,5,7.65,0.0,0.0,0.0,29.9,4.1,4.6,1024,1024,1024,1024,0,0,0,0,82,4.533,69.98,166.666672,P-GPS,,50.8
899,225000,2026-01-07 12:32:16,0.0,5,7.65,0.0,0.0,0.0,30.0,4.3,4.7,1024,1024,1024,1024,0,0,0,0,82,4.533,69.98,166.666672,P-GPS,,50.8
900,225100,2026-01-07 12:32:16,0.0,5,7.65,0.0,0.0,0.0,30.0,4.1,4.6,1024,1024,1024,1024,0,0,0,0,82,4.533,69.98,166.666672,P-GPS,,50.8
901,225200,2026-01-07 12:32:16,0.0,5,7.65,0.0,0.0,0.0,29.9,4.0,4.6,1024,1024,1024,1024,0,0,0,0,82,4.533,69.98,166.666672,P-GPS,,50.8
902,225300,2026-01-07 12:32:16,0.0,5,7.65,0.0,0.0,0.0,29.9,4.3,4.7,1024,1024,1024,1024,0,0,0,0,82,4.533,69.98,166.666672,P-GPS,,50.8
903,225400,2026-01-07 12:32:17,0.0,5,7.65,0.0,0.0,0.0,29.9,4.5,4.5,1024,1024,1024,1024,0,0,0,0,82,4.533,69.98,166.994756,P-GPS,,50.9
904,225500,2026-01-07 12:32:17,0.0,5,7.65,0.0,0.0,0.0,30.0,5.0,4.4,1024,1024,1024,1024,0,0,0,0,82,4.533,69.98,166.994756,P-GPS,,50.9
905,225600,2026-01-07 12:32:17,0.0,5,7.65,0.0,0.0,0.0,29.8,4.5,4.3,1024,1024,1024,1024,0,0,0,0,82,4.533,69.98,166.994756,P-GPS,,50.9
906,225700,2026-01-07 12:32:17,0.0,5,7.65,0.0,0.0,0.0,29.8,4.0,4.5,1024,1024,1024,1024,0,0,0,0,82,4.533,69.98,166.994756,P-GPS,,50.9
907,225800,2026-01-07 12:32:17,0.0,5,7.65,0.0,0.0,0.0,29.9,4.3,4.6,1024,1024,1024,1024,0,0,0,0,82,4.533,69.98,166.994756,P-GPS,,50.9
908,225900,2026-01-07 12:32:17,0.0,5,7.652,0.0,0.0,0.0,30.0,4.7,4.6,1024,1024,1024,1024,0,0,0,0,82,4.503,69.98,166.994756,P-GPS,,50.9
909,226000,2026-01-07 12:32:17,0.0,5,7.652,0.0,0.0,0.223694,30.0,4.9,4.6,1024,1024,1024,1024,0,0,0,0,82,4.503,69.98,166.994756,P-GPS,,50.9
910,226100,2026-01-07 12:32:17,0.0,5,7.652,0.0,0.0,0.223694,29.8,4.6,4.6,1024,1024,1024,1024,0,0,0,0,82,4.503,69.98,166.994756,P-GPS,,50.9
911,226200,2026-01-07 12:32:17,0.0,5,7.652,0.0,0.0,0.223694,29.8,4.0,4.6,1024,1024,1024,1024,0,0,0,0,82,4.503,69.98,166.994756,P-GPS,,50.9
912,226300,2026-01-07 12:32:18,0.0,5,7.652,0.0,0.0,0.0,29.9,4.5,4.9,1024,1024,1024,1024,0,0,0,0,82,4.503,69.98,166.994756,P-GPS,,50.9
913,226400,2026-01-07 12:32:18,0.0,5,7.652,0.0,0.0,0.223694,30.0,5.0,4.7,1024,1024,1024,1024,0,0,0,0,82,4.503,69.98,166.994756,P-GPS,,50.9
914,226500,2026-01-07 12:32:18,0.0,5,7.652,0.0,0.0,0.223694,29.9,4.8,4.8,1024,1024,1024,1024,0,0,0,0,82,4.503,69.98,166.994756,P-GPS,,50.9
915,226600,2026-01-07 12:32:18,0.0,5,7.652,0.0,0.0,0.0,29.9,4.9,5.0,1024,1024,1024,1024,0,0,0,0,82,4.503,69.98,166.994756,P-GPS,,50.9
916,226700,2026-01-07 12:32:18,0.0,5,7.652,0.0,0.0,0.0,29.9,4.7,4.8,1024,1024,1024,1024,0,0,0,0,82,4.503,69.98,166.994756,P-GPS,,50.9
917,226800,2026-01-07 12:32:18,0.0,5,7.652,0.0,0.0,0.0,30.0,5.1,4.7,1024,1024,1024,1024,0,0,0,0,82,4.503,69.98,166.994756,P-GPS,,50.9
918,226900,2026-01-07 12:32:18,0.0,5,7.652,0.0,0.0,0.0,29.9,5.1,4.6,1024,1024,1024,1024,0,0,0,0,82,4.503,69.98,166.994756,P-GPS,,50.9
919,227000,2026-01-07 12:32:18,0.0,5,7.644,0.0,0.0,0.0,29.9,5.2,4.6,1024,1024,1024,1024,0,0,0,0,82,4.6,70.16,166.994756,P-GPS,,50.9
920,227100,2026-01-07 12:32:18,0.0,5,7.644,0.0,0.0,0.0,29.9,5.0,4.4,1024,1024,1024,1024,0,0,0,0,82,4.6,70.16,166.666672,P-GPS,,50.8
921,227200,2026-01-07 12:32:18,0.0,5,7.644,0.0,0.0,0.0,29.8,4.9,4.3,1024,1024,1024,1024,0,0,0,0,82,4.6,70.16,166.666672,P-GPS,,50.8
922,227300,2026-01-07 12:32:18,0.0,5,7.644,0.0,0.0,0.0,29.8,5.0,4.2,1024,1024,1024,1024,0,0,0,0,82,4.6,70.16,166.666672,P-GPS,,50.8
923,227400,2026-01-07 12:32:19,0.0,5,7.644,0.0,0.0,0.223694,29.8,4.9,4.5,1024,1024,1024,1024,0,0,0,0,82,4.6,70.16,166.666672,P-GPS,,50.8
924,227500,2026-01-07 12:32:19,0.0,5,7.644,0.0,0.0,0.223694,29.7,5.1,4.2,1024,1024,1024,1024,0,0,0,0,82,4.6,70.16,166.666672,P-GPS,,50.8
925,227600,2026-01-07 12:32:19,0.0,5,7.644,0.0,0.0,0.223694,29.7,4.6,4.1,1024,1024,1024,1024,0,0,0,0,82,4.6,70.16,166.666672,P-GPS,,50.8
926,227700,2026-01-07 12:32:19,0.0,5,7.644,0.0,0.0,0.0,29.7,5.0,4.5,1024,1024,1024,1024,0,0,0,0,82,4.6,70.16,166.666672,P-GPS,,50.8
927,227800,2026-01-07 12:32:19,0.0,5,7.644,0.0,0.0,0.223694,29.8,5.2,4.5,1024,1024,1024,1024,0,0,0,0,82,4.6,70.16,166.338588,P-GPS,,50.7
928,227900,2026-01-07 12:32:19,0.0,5,7.644,0.0,0.0,0.0,29.8,5.4,4.5,1024,1024,1024,1024,0,0,0,0,82,4.6,70.16,166.338588,P-GPS,,50.7
929,228000,2026-01-07 12:32:19,0.0,5,7.644,0.0,0.0,0.0,29.8,5.0,4.1,1024,1024,1024,1024,0,0,0,0,82,4.6,70.16,166.010504,P-GPS,,50.6
930,228100,2026-01-07 12:32:19,0.0,5,7.625,0.0,0.0,0.0,29.7,4.9,3.6,1024,1024,1024,1024,0,0,0,0,82,4.711,70.16,166.010504,P-GPS,,50.6
931,228200,2026-01-07 12:32:19,0.0,5,7.625,0.0,0.0,0.0,29.6,5.0,3.3,1024,1024,1024,1024,0,0,0,0,82,4.711,70.16,166.010504,P-GPS,,50.6
932,228300,2026-01-07 12:32:20,0.0,5,7.625,0.0,0.0,0.0,29.6,4.9,3.2,1024,1024,1024,1024,0,0,0,0,82,4.711,70.16,166.010504,P-GPS,,50.6
933,228400,2026-01-07 12:32:20,0.0,5,7.625,0.0,0.0,0.0,29.6,5.4,3.3,1024,1024,1024,1024,0,0,0,0,82,4.711,70.16,165.68242,P-GPS,,50.5
934,228500,2026-01-07 12:32:20,0.0,5,7.625,0.0,0.0,0.0,29.7,5.8,3.4,1024,1024,1024,1024,0,0,0,0,82,4.711,70.16,165.68242,P-GPS,,50.5
935,228600,2026-01-07 12:32:20,0.0,5,7.625,0.0,0.0,0.0,29.7,5.2,3.6,1024,1024,1024,1024,0,0,0,0,82,4.711,70.16,165.68242,P-GPS,,50.5
936,228700,2026-01-07 12:32:20,0.0,5,7.625,0.0,0.0,0.0,29.6,5.3,3.5,1024,1024,1024,1024,0,0,0,0,82,4.711,70.16,165.68242,P-GPS,,50.5
937,228800,2026-01-07 12:32:20,0.0,5,7.625,0.0,0.0,0.0,29.7,5.4,3.6,1024,1024,1024,1024,0,0,0,0,82,4.711,70.16,165.68242,P-GPS,,50.5
938,228900,2026-01-07 12:32:20,0.0,5,7.625,0.0,0.0,0.0,29.7,5.4,3.7,1024,1024,1024,1024,0,0,0,0,82,4.711,70.16,165.68242,P-GPS,,50.5
939,229000,2026-01-07 12:32:20,0.0,5,7.625,0.0,0.0,0.0,29.7,5.4,3.7,1024,1024,1024,1024,0,0,0,0,82,4.711,70.16,165.68242,P-GPS,,50.5
940,229100,2026-01-07 12:32:20,0.0,5,7.625,0.0,0.0,0.0,29.7,5.7,3.7,1024,1024,1024,1024,0,0,0,0,82,4.711,70.16,165.68242,P-GPS,,50.5
941,229200,2026-01-07 12:32:20,0.0,5,7.625,0.0,0.0,0.0,29.7,5.7,3.8,1024,1024,1024,1024,0,0,0,0,82,4.711,70.16,165.354336,P-GPS,,50.4
942,229300,2026-01-07 12:32:21,0.0,5,7.63,0.0,0.0,0.0,29.8,5.3,4.0,1024,1024,1024,1024,0,0,0,0,81,4.902,70.16,165.354336,P-GPS,,50.4
943,229400,2026-01-07 12:32:21,0.0,5,7.63,0.0,0.0,0.0,29.8,5.9,3.8,1024,1024,1024,1024,0,0,0,0,81,4.902,70.16,165.354336,P-GPS,,50.4
944,229500,2026-01-07 12:32:21,0.0,5,7.63,0.0,0.0,0.0,29.8,5.9,3.5,1024,1024,1024,1024,0,0,0,0,81,4.902,70.16,165.354336,P-GPS,,50.4
945,229600,2026-01-07 12:32:21,0.0,5,7.63,0.0,0.0,0.0,29.8,5.5,3.6,1024,1024,1024,1024,0,0,0,0,81,4.902,70.16,165.354336,P-GPS,,50.4
946,229700,2026-01-07 12:32:21,0.0,5,7.63,0.0,0.0,0.0,29.8,5.0,3.3,1024,1024,1024,1024,0,0,0,0,81,4.902,70.16,165.354336,P-GPS,,50.4
947,229800,2026-01-07 12:32:21,0.0,5,7.63,0.0,0.0,0.0,29.8,4.7,3.2,1024,1024,1024,1024,0,0,0,0,81,4.902,70.16,165.354336,P-GPS,,50.4
948,229900,2026-01-07 12:32:21,0.0,5,7.63,0.0,0.0,0.0,29.7,4.7,3.5,1024,1024,1024,1024,0,0,0,0,81,4.902,70.16,165.354336,P-GPS,,50.4
949,230000,2026-01-07 12:32:21,0.0,5,7.63,0.0,0.0,0.0,29.7,4.7,3.7,1024,1024,1024,1024,0,0,0,0,81,4.902,70.16,165.354336,P-GPS,,50.4
950,230100,2026-01-07 12:32:21,0.0,5,7.63,0.0,0.0,0.0,29.8,4.4,3.8,1024,1024,1024,1024,0,0,0,0,81,4.902,70.16,165.354336,P-GPS,,50.4
951,230200,2026-01-07 12:32:21,0.0,5,7.63,0.0,0.0,0.0,29.7,4.1,3.7,1024,1024,1024,1024,0,0,0,0,81,4.902,70.16,165.354336,P-GPS,,50.4
952,230300,2026-01-07 12:32:21,0.0,5,7.63,0.0,0.0,0.0,29.7,4.2,3.4,1024,1024,1024,1024,0,0,0,0,81,4.902,70.16,165.354336,P-GPS,,50.4
953,230400,2026-01-07 12:32:22,0.0,5,7.626,0.0,0.0,0.0,29.7,4.4,3.4,1024,1024,1024,1024,0,0,0,0,81,4.945,70.16,165.68242,P-GPS,,50.5
954,230500,2026-01-07 12:32:22,0.0,5,7.626,0.0,0.0,0.0,29.8,3.9,3.9,1024,1024,1024,1024,0,0,0,0,81,4.945,70.16,165.68242,P-GPS,,50.5
955,230600,2026-01-07 12:32:22,0.0,5,7.626,0.0,0.0,0.0,29.7,4.2,4.2,1024,1024,1024,1024,0,0,0,0,81,4.945,70.16,165.68242,P-GPS,,50.5
956,230700,2026-01-07 12:32:22,0.0,5,7.626,0.0,0.0,0.0,29.7,4.2,4.4,1024,1024,1024,1024,0,0,0,0,81,4.945,70.16,165.68242,P-GPS,,50.5
957,230800,2026-01-07 12:32:22,0.0,5,7.626,0.0,0.0,0.0,29.7,4.6,4.3,1024,1024,1024,1024,0,0,0,0,81,4.945,70.16,165.68242,P-GPS,,50.5
958,230900,2026-01-07 12:32:22,0.0,5,7.626,0.0,0.0,0.0,29.8,4.9,4.1,1024,1024,1024,1024,0,0,0,0,81,4.945,70.16,166.010504,P-GPS,,50.6
959,231000,2026-01-07 12:32:22,0.0,5,7.626,0.0,0.0,0.0,29.8,4.6,4.4,1024,1024,1024,1024,0,0,0,0,81,4.945,70.16,166.010504,P-GPS,,50.6
960,231100,2026-01-07 12:32:22,0.0,5,7.626,0.0,0.0,0.0,29.7,4.3,4.6,1024,1024,1024,1024,0,0,0,0,81,4.945,70.16,166.010504,P-GPS,,50.6
961,231200,2026-01-07 12:32:22,0.0,5,7.626,0.0,0.0,0.0,29.7,4.3,4.7,1024,1024,1024,1024,0,0,0,0,81,4.945,70.16,166.010504,P-GPS,,50.6
962,231300,2026-01-07 12:32:23,0.0,5,7.626,0.0,0.0,0.0,29.7,4.2,4.5,1024,1024,1024,1024,0,0,0,0,81,4.945,70.16,166.338588,P-GPS,,50.7
963,231400,2026-01-07 12:32:23,0.0,5,7.626,0.0,0.0,0.0,29.9,4.6,4.2,1024,1024,1024,1024,0,0,0,0,81,4.945,70.16,166.338588,P-GPS,,50.7
964,231500,2026-01-07 12:32:23,0.0,5,7.648,0.0,0.0,0.0,29.9,4.6,4.4,1024,1024,1024,1024,0,0,0,0,81,4.582,70.16,166.338588,P-GPS,,50.7
965,231600,2026-01-07 12:32:23,0.0,5,7.648,0.0,0.0,0.0,29.8,4.4,4.8,1024,1024,1024,1024,0,0,0,0,81,4.582,70.16,166.338588,P-GPS,,50.7
966,231700,2026-01-07 12:32:23,0.0,5,7.648,0.0,0.0,0.0,29.7,4.2,4.9,1024,1024,1024,1024,0,0,0,0,81,4.582,70.16,166.338588,P-GPS,,50.7
967,231800,2026-01-07 12:32:23,0.0,5,7.648,0.0,0.0,0.0,29.9,4.2,4.8,1024,1024,1024,1024,0,0,0,0,81,4.582,70.16,166.666672,P-GPS,,50.8
968,231900,2026-01-07 12:32:23,0.0,5,7.648,0.0,0.0,0.0,30.0,4.5,4.7,1024,1024,1024,1024,0,0,0,0,81,4.582,70.16,166.666672,P-GPS,,50.8
969,232000,2026-01-07 12:32:23,0.0,5,7.648,0.0,0.0,0.223694,30.0,5.0,5.2,1024,1024,1024,1024,0,0,0,0,81,4.582,70.16,166.666672,P-GPS,,50.8
970,232100,2026-01-07 12:32:23,0.0,5,7.648,0.0,0.0,0.0,29.9,5.3,5.1,1024,1024,1024,1024,0,0,0,0,81,4.582,70.16,166.666672,P-GPS,,50.8
971,232200,2026-01-07 12:32:23,0.0,5,7.648,0.0,0.0,0.223694,29.8,5.4,4.8,1024,1024,1024,1024,0,0,0,0,81,4.582,70.16,166.666672,P-GPS,,50.8
972,232300,2026-01-07 12:32:24,0.0,5,7.648,0.0,0.0,0.223694,29.7,5.1,5.0,1024,1024,1024,1024,0,0,0,0,81,4.582,70.16,166.666672,P-GPS,,50.8
973,232400,2026-01-07 12:32:24,0.0,5,7.648,0.0,0.0,0.0,29.8,4.9,5.1,1024,1024,1024,1024,0,0,0,0,81,4.582,70.16,166.666672,P-GPS,,50.8
974,232500,2026-01-07 12:32:24,0.0,5,7.648,0.0,0.0,0.0,29.7,5.0,4.8,1024,1024,1024,1024,0,0,0,0,81,4.582,70.16,166.666672,P-GPS,,50.8
975,232600,2026-01-07 12:32:24,0.0,5,7.632,0.0,0.0,0.223694,29.7,5.0,4.5,1024,1024,1024,1024,0,0,0,0,81,4.586,70.16,166.666672,P-GPS,,50.8
976,232700,2026-01-07 12:32:24,0.0,5,7.632,0.0,0.0,0.223694,29.7,5.0,4.2,1024,1024,1024,1024,0,0,0,0,81,4.586,70.16,166.338588,P-GPS,,50.7
977,232800,2026-01-07 12:32:24,0.0,5,7.632,0.0,0.0,0.0,29.7,4.7,4.1,1024,1024,1024,1024,0,0,0,0,81,4.586,70.16,166.338588,P-GPS,,50.7
978,232900,2026-01-07 12:32:24,0.0,5,7.632,0.0,0.0,0.0,29.7,4.7,3.9,1024,1024,1024,1024,0,0,0,0,81,4.586,70.16,166.338588,P-GPS,,50.7
979,233000,2026-01-07 12:32:24,0.0,5,7.632,0.0,0.0,0.0,29.8,4.8,3.8,1024,1024,1024,1024,0,0,0,0,81,4.586,70.16,166.338588,P-GPS,,50.7
980,233100,2026-01-07 12:32:24,0.0,5,7.632,0.0,0.0,0.0,29.7,4.8,3.8,1024,1024,1024,1024,0,0,0,0,81,4.586,70.16,166.338588,P-GPS,,50.7
981,233200,2026-01-07 12:32:24,0.0,5,7.632,0.0,0.0,0.0,29.8,4.9,3.9,1024,1024,1024,1024,0,0,0,0,81,4.586,70.16,166.338588,P-GPS,,50.7
982,233300,2026-01-07 12:32:25,0.0,5,7.632,0.0,0.0,0.0,29.9,5.1,4.1,1024,1024,1024,1024,0,0,0,0,81,4.586,70.16,166.338588,P-GPS,,50.7
983,233400,2026-01-07 12:32:25,0.0,5,7.632,0.0,0.0,0.0,29.9,5.3,4.2,1024,1024,1024,1024,0,0,0,0,81,4.586,70.16,166.338588,P-GPS,,50.7
984,233500,2026-01-07 12:32:25,0.0,5,7.632,0.0,0.0,0.0,29.8,4.8,4.3,1024,1024,1024,1024,0,0,0,0,81,4.586,70.16,166.338588,P-GPS,,50.7
985,233600,2026-01-07 12:32:25,0.0,5,7.632,0.0,0.0,0.0,29.9,4.9,4.2,1024,1024,1024,1024,0,0,0,0,81,4.586,70.16,166.338588,P-GPS,,50.7
986,233700,2026-01-07 12:32:25,0.0,5,7.641,0.0,0.0,0.0,29.8,4.8,4.3,1024,1024,1024,1024,0,0,0,0,81,4.585,70.16,166.338588,P-GPS,,50.7
987,233800,2026-01-07 12:32:25,0.0,5,7.641,0.0,0.0,0.0,29.8,4.4,4.4,1024,1024,1024,1024,0,0,0,0,81,4.585,70.16,166.010504,P-GPS,,50.6
988,233900,2026-01-07 12:32:25,0.0,5,7.641,0.0,0.0,0.0,29.9,4.4,4.4,1024,1024,1024,1024,0,0,0,0,81,4.585,70.16,166.338588,P-GPS,,50.7
989,234000,2026-01-07 12:32:25,0.0,5,7.641,0.0,0.0,0.0,29.9,4.3,4.5,1024,1024,1024,1024,0,0,0,0,81,4.585,70.16,166.338588,P-GPS,,50.7
990,234100,2026-01-07 12:32:25,0.0,5,7.641,0.0,0.0,0.0,29.9,4.3,4.5,1024,1024,1024,1024,0,0,0,0,81,4.585,70.16,166.338588,P-GPS,,50.7
991,234200,2026-01-07 12:32:25,0.0,5,7.641,0.0,0.0,0.0,29.8,4.0,4.5,1024,1024,1024,1024,0,0,0,0,81,4.585,70.16,166.010504,P-GPS,,50.6
992,234300,2026-01-07 12:32:26,0.0,5,7.641,0.0,0.0,0.0,29.8,3.8,4.5,1024,1024,1024,1024,0,0,0,0,81,4.585,70.16,166.010504,P-GPS,,50.6
993,234400,2026-01-07 12:32:26,0.0,5,7.641,0.0,0.0,0.0,29.9,4.1,4.7,1024,1024,1024,1024,0,0,0,0,81,4.585,70.16,166.010504,P-GPS,,50.6
994,234500,2026-01-07 12:32:26,0.0,5,7.641,0.0,0.0,0.0,29.9,3.9,4.6,1024,1024,1024,1024,0,0,0,0,81,4.585,70.16,166.010504,P-GPS,,50.6
995,234600,2026-01-07 12:32:26,0.0,5,7.641,0.0,0.0,0.0,29.9,3.8,4.5,1024,1024,1024,1024,0,0,0,0,81,4.585,70.16,166.010504,P-GPS,,50.6
996,234700,2026-01-07 12:32:26,0.0,5,7.641,0.0,0.0,0.0,29.9,4.0,4.6,1024,1024,1024,1024,0,0,0,0,81,4.585,70.16,166.010504,P-GPS,,50.6
997,234800,2026-01-07 12:32:26,0.0,5,7.641,0.0,0.0,0.0,29.8,3.7,4.1,1024,1024,1024,1024,0,0,0,0,81,4.585,70.16,166.010504,P-GPS,,50.6
998,234900,2026-01-07 12:32:26,0.0,5,7.648,0.0,0.0,0.0,29.8,3.5,3.9,1024,1024,1024,1024,0,0,0,0,81,4.456,70.16,166.338588,P-GPS,,50.7
999,235000,2026-01-07 12:32:26,0.0,5,7.648,0.0,0.0,0.0,29.8,3.8,4.1,1024,1024,1024,1024,0,0,0,0,81,4.456,70.16,166.338588,P-GPS,,50.7
1000,235100,2026-01-07 12:32:26,0.0,5,7.648,0.0,0.0,0.0,29.8,3.9,3.9,1024,1024,1024,1024,0,0,0,0,81,4.456,70.16,166.338588,P-GPS,,50.7
1001,235200,2026-01-07 12:32:26,0.0,5,7.648,0.0,0.0,0.0,29.8,3.7,4.0,1024,1024,1024,1024,0,0,0,0,81,4.456,70.16,166.338588,P-GPS,,50.7
1002,235300,2026-01-07 12:32:27,0.0,5,7.648,0.0,0.0,0.0,29.7,3.3,4.5,1024,1024,1024,1024,0,0,0,0,81,4.456,70.16,166.338588,P-GPS,,50.7
1003,235400,2026-01-07 12:32:27,0.0,5,7.648,0.0,0.0,0.0,29.8,3.2,4.9,1024,1024,1024,1024,0,0,0,0,81,4.456,70.16,166.338588,P-GPS,,50.7
1004,235500,2026-01-07 12:32:27,0.0,5,7.648,0.0,0.0,0.0,29.8,3.1,4.8,1024,1024,1024,1024,0,0,0,0,81,4.456,70.16,166.338588,P-GPS,,50.7
1005,235600,2026-01-07 12:32:27,0.0,5,7.648,0.0,0.0,0.0,29.8,3.2,4.4,1024,1024,1024,1024,0,0,0,0,81,4.456,70.16,166.338588,P-GPS,,50.7
1006,235700,2026-01-07 12:32:27,0.0,5,7.648,0.0,0.0,0.0,29.8,3.3,4.4,1024,1024,1024,1024,0,0,0,0,81,4.456,70.16,166.338588,P-GPS,,50.7
1007,235800,2026-01-07 12:32:27,0.0,5,7.648,0.0,0.0,0.0,29.8,3.5,4.1,1024,1024,1024,1024,0,0,0,0,81,4.456,70.16,166.338588,P-GPS,,50.7
1008,235900,2026-01-07 12:32:27,0.0,5,7.648,0.0,0.0,0.0,29.8,3.8,3.5,1024,1024,1024,1024,0,0,0,0,81,4.456,70.16,166.338588,P-GPS,,50.7
1009,236000,2026-01-07 12:32:27,0.0,5,7.651,0.0,0.0,0.0,29.8,3.7,3.3,1024,1024,1024,1024,0,0,0,0,81,4.448,70.16,166.338588,P-GPS,,50.7
1010,236100,2026-01-07 12:32:27,0.0,5,7.651,0.0,0.0,0.0,29.7,3.7,3.1,1024,1024,1024,1024,0,0,0,0,81,4.448,70.16,166.338588,P-GPS,,50.7
1011,236200,2026-01-07 12:32:27,0.0,5,7.651,0.0,0.0,0.0,29.7,3.7,3.2,1024,1024,1024,1024,0,0,0,0,81,4.448,70.16,166.338588,P-GPS,,50.7
1012,236300,2026-01-07 12:32:28,0.0,5,7.651,0.0,0.0,0.0,29.8,3.9,3.5,1024,1024,1024,1024,0,0,0,0,81,4.448,70.16,166.338588,P-GPS,,50.7
1013,236400,2026-01-07 12:32:28,0.0,5,7.651,0.0,0.0,0.0,29.8,3.8,3.5,1024,1024,1024,1024,0,0,0,0,81,4.448,70.16,166.338588,P-GPS,,50.7
1014,236500,2026-01-07 12:32:28,0.0,5,7.651,0.0,0.0,0.0,29.8,3.6,3.6,1024,1024,1024,1024,0,0,0,0,81,4.448,70.16,166.338588,P-GPS,,50.7
1015,236600,2026-01-07 12:32:28,0.0,5,7.651,0.0,0.0,0.0,29.9,3.5,4.0,1024,1024,1024,1024,0,0,0,0,81,4.448,70.16,166.338588,P-GPS,,50.7
1016,236700,2026-01-07 12:32:28,0.0,5,7.651,0.0,0.0,0.0,29.8,3.7,3.9,1024,1024,1024,1024,0,0,0,0,81,4.448,70.16,166.338588,P-GPS,,50.7
1017,236800,2026-01-07 12:32:28,0.0,5,7.651,0.0,0.0,0.0,29.8,3.8,4.1,1024,1024,1024,1024,0,0,0,0,81,4.448,70.16,166.338588,P-GPS,,50.7
1018,236900,2026-01-07 12:32:28,0.0,5,7.651,0.0,0.0,0.0,29.9,3.9,3.8,1024,1024,1024,1024,0,0,0,0,81,4.448,70.16,166.010504,P-GPS,,50.6
1019,237000,2026-01-07 12:32:28,0.0,5,7.651,0.0,0.0,0.0,29.8,4.2,3.9,1024,1024,1024,1024,0,0,0,0,81,4.448,70.16,166.338588,P-GPS,,50.7
1020,237100,2026-01-07 12:32:28,0.0,5,7.649,0.0,0.0,0.0,29.8,3.9,4.0,1024,1024,1024,1024,0,0,0,0,81,4.468,70.16,166.338588,P-GPS,,50.7
