index,time(millisecond),timestamp,speed(mph),gpslevel,voltage(v),xSpeed(mph),ySpeed(mph),zSpeed(mph),compass_heading(degrees),pitch(degrees),roll(degrees),rc_elevator,rc_aileron,rc_throttle,rc_rudder,rc_elevator(percent),rc_aileron(percent),rc_throttle(percent),rc_rudder(percent),battery_percent,current(A),battery_temperature(f),ascent(feet),flycState,message,height_above_takeoff(meters)
433,324300,2026-01-09 20:12:12,0.0,5,7.6,0.0,0.0,0.0,11.7,4.2,-2.2,1024,1024,1024,1024,0,0,0,0,77,4.026,73.76,98.753284,P-GPS,,30.1
434,324400,2026-01-09 20:12:12,0.0,5,7.6,0.0,0.0,0.0,11.7,4.6,-2.6,1024,1024,1024,1024,0,0,0,0,77,4.026,73.76,98.753284,P-GPS,,30.1
435,324500,2026-01-09 20:12:12,0.0,5,7.6,0.0,0.0,0.0,11.7,4.5,-2.6,1024,1024,1024,1024,0,0,0,0,77,4.026,73.76,98.753284,P-GPS,,30.1
436,324600,2026-01-09 20:12:12,0.0,5,7.6,0.0,0.0,0.0,11.7,4.6,-2.5,1024,1024,1024,1024,0,0,0,0,77,4.026,73.76,98.753284,P-GPS,,30.1
437,324700,2026-01-09 20:12:12,0.0,5,7.6,0.0,0.0,0.0,11.7,4.4,-2.5,1024,1024,1024,1024,0,0,0,0,77,4.026,73.76,98.753284,P-GPS,,30.1
438,324800,2026-01-09 20:12:12,0.0,5,7.6,0.0,0.0,0.0,11.7,4.7,-2.5,1024,1024,1024,1024,0,0,0,0,77,4.026,73.76,99.081368,P-GPS,,30.2
439,324900,2026-01-09 20:12:12,0.0,5,7.6,0.0,0.0,0.0,11.7,4.3,-2.5,1024,1024,1024,1024,0,0,0,0,77,4.026,73.76,99.081368,P-GPS,,30.2
440,325000,2026-01-09 20:12:12,0.0,5,7.6,0.0,0.0,0.0,11.7,4.3,-2.4,1024,1024,1024,1024,0,0,0,0,77,4.026,73.76,99.081368,P-GPS,,30.2
441,325100,2026-01-09 20:12:13,0.0,5,7.6,0.0,0.0,0.0,11.7,4.2,-2.4,1024,1024,1024,1024,0,0,0,0,77,4.026,73.76,99.081368,P-GPS,,30.2
442,325200,2026-01-09 20:12:13,0.0,5,7.6,0.0,0.0,0.0,11.6,4.3,-2.3,1024,1024,1024,1024,0,0,0,0,77,4.026,73.76,99.081368,P-GPS,,30.2
443,325300,2026-01-09 20:12:13,0.0,5,7.6,0.0,0.0,0.0,11.6,4.3,-2.3,1024,1024,1024,1024,0,0,0,0,77,4.026,73.76,99.081368,P-GPS,,30.2
444,325400,2026-01-09 20:12:13,0.0,5,7.6,0.0,0.0,0.0,11.6,4.1,-2.2,1024,1024,1024,1024,0,0,0,0,77,4.026,73.76,99.081368,P-GPS,,30.2
445,325500,2026-01-09 20:12:13,0.0,5,7.6,0.0,0.0,0.0,11.6,4.1,-2.2,1024,1024,1024,1024,0,0,0,0,77,4.026,73.76,99.081368,P-GPS,,30.2
446,325600,2026-01-09 20:12:13,0.0,5,7.6,0.0,0.0,0.0,11.7,3.8,-2.2,1024,1024,1024,1024,0,0,0,0,77,4.026,73.76,99.081368,P-GPS,,30.2
447,325700,2026-01-09 20:12:13,0.0,5,7.6,0.0,0.0,0.0,11.7,3.5,-2.1,1024,1024,1024,1024,0,0,0,0,77,4.026,73.76,99.081368,P-GPS,,30.2
448,325800,2026-01-09 20:12:13,0.0,5,7.6,0.0,0.0,0.0,11.7,3.5,-2.1,1024,1024,1024,1024,0,0,0,0,77,4.026,73.76,99.081368,P-GPS,,30.2
449,325900,2026-01-09 20:12:13,0.0,5,7.6,0.0,0.0,0.0,11.7,3.5,-2.2,1024,1024,1024,1024,0,0,0,0,77,4.026,73.76,99.081368,P-GPS,,30.2
450,326000,2026-01-09 20:12:14,0.0,5,7.6,0.0,0.0,0.0,11.7,3.4,-2.1,1024,1024,1024,1024,0,0,0,0,77,4.026,73.76,99.081368,P-GPS,,30.2
451,326100,2026-01-09 20:12:14,0.0,5,7.6,0.0,0.0,0.0,11.8,3.4,-2.0,1024,1024,1024,1024,0,0,0,0,77,4.026,73.76,99.081368,P-GPS,,30.2
452,326200,2026-01-09 20:12:14,0.0,5,7.6,0.0,0.0,0.0,11.9,3.2,-2.0,1024,1024,1024,1024,0,0,0,0,77,4.026,73.76,99.081368,P-GPS,,30.2
453,326300,2026-01-09 20:12:14,0.0,5,7.6,0.0,0.0,0.0,11.8,3.2,-2.0,1024,1024,1024,1024,0,0,0,0,77,4.026,73.76,99.081368,P-GPS,,30.2
454,326400,2026-01-09 20:12:14,0.0,5,7.6,0.0,0.0,0.0,11.8,3.2,-2.2,1024,1024,1024,1024,0,0,0,0,77,4.026,73.76,99.081368,P-GPS,,30.2
455,326500,2026-01-09 20:12:14,0.0,5,7.595,0.0,0.0,0.0,11.8,3.1,-2.0,1024,1024,1024,1024,0,0,0,0,77,4.727,73.76,99.081368,P-GPS,,30.2
456,326600,2026-01-09 20:12:14,0.0,5,7.595,0.0,0.0,0.0,11.8,3.3,-2.2,1024,1024,1024,1024,0,0,0,0,77,4.727,73.76,99.081368,P-GPS,,30.2
457,326700,2026-01-09 20:12:14,0.0,5,7.595,0.0,0.0,0.0,11.7,3.5,-2.2,1024,1024,1024,1024,0,0,0,0,77,4.727,73.76,99.081368,P-GPS,,30.2
458,326800,2026-01-09 20:12:14,0.0,5,7.595,0.0,0.0,0.0,11.7,3.7,-2.0,1024,1024,1024,1024,0,0,0,0,77,4.727,73.76,99.081368,P-GPS,,30.2
459,326900,2026-01-09 20:12:14,0.0,5,7.595,0.0,0.0,0.0,11.7,3.4,-1.9,1024,1024,1024,1024,0,0,0,0,77,4.727,73.76,99.081368,P-GPS,,30.2
460,327000,2026-01-09 20:12:14,0.0,5,7.595,0.0,0.0,0.0,11.7,3.4,-1.8,1024,1024,1024,1024,0,0,0,0,77,4.727,73.76,99.081368,P-GPS,,30.2
461,327100,2026-01-09 20:12:15,0.0,5,7.595,0.0,0.0,0.0,11.6,3.4,-1.6,1024,1024,1024,1024,0,0,0,0,77,4.727,73.76,99.081368,P-GPS,,30.2
462,327200,2026-01-09 20:12:15,0.0,5,7.595,0.0,0.0,0.0,11.5,3.6,-1.5,1024,1024,1024,1024,0,0,0,0,77,4.727,73.76,99.081368,P-GPS,,30.2
463,327300,2026-01-09 20:12:15,0.0,5,7.595,0.0,0.0,0.0,11.5,3.6,-1.3,1024,1024,1024,1024,0,0,0,0,77,4.727,73.76,99.081368,P-GPS,,30.2
464,327400,2026-01-09 20:12:15,0.0,5,7.595,0.0,0.0,0.0,11.6,3.6,-1.2,1024,1024,1024,1024,0,0,0,0,77,4.727,73.76,99.081368,P-GPS,,30.2
465,327500,2026-01-09 20:12:15,0.0,5,7.595,0.0,0.0,0.0,11.5,3.6,-1.2,1024,1024,1024,1024,0,0,0,0,77,4.727,73.76,98.753284,P-GPS,,30.1
466,327600,2026-01-09 20:12:15,0.0,5,7.593,0.0,0.0,0.0,11.6,3.6,-1.2,1024,1024,1024,1024,0,0,0,0,77,4.868,73.76,98.753284,P-GPS,,30.1
467,327700,2026-01-09 20:12:15,0.0,5,7.593,0.0,0.0,0.0,11.5,3.6,-1.2,1024,1024,1024,1024,0,0,0,0,77,4.868,73.76,98.753284,P-GPS,,30.1
468,327800,2026-01-09 20:12:15,0.0,5,7.593,0.0,0.0,0.0,11.5,3.9,-1.2,1024,1024,1024,1024,0,0,0,0,77,4.868,73.76,98.753284,P-GPS,,30.1
469,327900,2026-01-09 20:12:15,0.0,5,7.593,0.0,0.0,0.0,11.5,4.1,-1.2,1024,1024,1024,1024,0,0,0,0,77,4.868,73.76,98.753284,P-GPS,,30.1
470,328000,2026-01-09 20:12:16,0.0,5,7.593,0.0,0.0,0.0,11.5,4.2,-1.1,1024,1024,1024,1024,0,0,0,0,77,4.868,73.76,98.753284,P-GPS,,30.1
471,328100,2026-01-09 20:12:16,0.0,5,7.593,0.0,0.0,0.0,11.6,4.2,-1.0,1024,1024,1024,1024,0,0,0,0,77,4.868,73.76,98.753284,P-GPS,,30.1
472,328200,2026-01-09 20:12:16,0.0,5,7.593,0.0,0.0,0.0,11.6,4.1,-0.9,1024,1024,1024,1024,0,0,0,0,77,4.868,73.76,98.753284,P-GPS,,30.1
473,328300,2026-01-09 20:12:16,0.0,5,7.593,0.0,0.0,0.0,11.6,4.1,-1.0,1024,1024,1024,1024,0,0,0,0,77,4.868,73.76,98.753284,P-GPS,,30.1
474,328400,2026-01-09 20:12:16,0.0,5,7.593,0.0,0.0,0.0,11.6,4.0,-1.0,1024,1024,1024,1024,0,0,0,0,77,4.868,73.76,98.753284,P-GPS,,30.1
475,328500,2026-01-09 20:12:16,0.0,5,7.593,0.0,0.0,0.0,11.5,3.9,-1.0,1024,1024,1024,1024,0,0,0,0,77,4.868,73.76,98.753284,P-GPS,,30.1
476,328600,2026-01-09 20:12:16,0.0,5,7.593,0.0,0.0,0.0,11.6,3.8,-1.0,1024,1024,1024,1024,0,0,0,0,77,4.868,73.76,98.753284,P-GPS,,30.1
477,328700,2026-01-09 20:12:16,0.0,5,7.588,0.0,0.0,0.0,11.6,3.6,-1.0,1024,1024,1024,1024,0,0,0,0,77,4.878,73.76,98.753284,P-GPS,,30.1
478,328800,2026-01-09 20:12:16,0.0,5,7.588,0.0,0.0,0.0,11.6,3.8,-1.0,1024,1024,1024,1024,0,0,0,0,77,4.878,73.76,98.753284,P-GPS,,30.1
479,328900,2026-01-09 20:12:16,0.0,5,7.588,0.0,0.0,0.0,11.5,3.9,-1.1,1024,1024,1024,1024,0,0,0,0,77,4.878,73.76,98.753284,P-GPS,,30.1
480,329000,2026-01-09 20:12:16,0.0,5,7.588,0.0,0.0,0.0,11.5,4.0,-1.1,1024,1024,1024,1024,0,0,0,0,77,4.878,73.76,98.753284,P-GPS,,30.1
481,329100,2026-01-09 20:12:17,0.0,5,7.588,0.0,0.0,0.0,11.6,4.2,-1.3,1024,1024,1024,1024,0,0,0,0,77,4.878,73.76,98.753284,P-GPS,,30.1
482,329200,2026-01-09 20:12:17,0.0,5,7.588,0.0,0.0,0.0,11.6,4.0,-1.3,1024,1024,1024,1024,0,0,0,0,77,4.878,73.76,98.753284,P-GPS,,30.1
483,329300,2026-01-09 20:12:17,0.0,5,7.588,0.0,0.0,0.0,11.7,3.7,-1.0,1024,1024,1024,1024,0,0,0,0,77,4.878,73.76,99.081368,P-GPS,,30.2
484,329400,2026-01-09 20:12:17,0.0,5,7.588,0.0,0.0,0.0,11.8,3.6,-0.7,1024,1024,1024,1024,0,0,0,0,77,4.878,73.76,99.081368,P-GPS,,30.2
485,329500,2026-01-09 20:12:17,0.0,5,7.588,0.0,0.0,0.0,11.7,3.6,-1.1,1024,1024,1024,1024,0,0,0,0,77,4.878,73.76,99.081368,P-GPS,,30.2
486,329600,2026-01-09 20:12:17,0.0,5,7.588,0.0,0.0,0.0,11.7,4.0,-1.3,1024,1024,1024,1024,0,0,0,0,77,4.878,73.76,99.081368,P-GPS,,30.2
487,329700,2026-01-09 20:12:17,0.0,5,7.588,0.0,0.0,0.0,11.6,4.2,-1.4,1024,1024,1024,1024,0,0,0,0,77,4.878,73.76,99.081368,P-GPS,,30.2
488,329800,2026-01-09 20:12:17,0.0,5,7.592,0.0,0.0,0.0,11.7,4.2,-1.7,1024,1024,1024,1024,0,0,0,0,77,4.809,73.76,99.081368,P-GPS,,30.2
489,329900,2026-01-09 20:12:17,0.0,5,7.592,0.0,0.0,0.0,11.6,4.1,-1.8,1024,1024,1024,1024,0,0,0,0,77,4.809,73.76,99.081368,P-GPS,,30.2
490,330000,2026-01-09 20:12:18,0.0,5,7.592,0.0,0.0,0.0,11.7,3.8,-1.9,1024,1024,1024,1024,0,0,0,0,77,4.809,73.76,99.081368,P-GPS,,30.2
491,330100,2026-01-09 20:12:18,0.0,5,7.592,0.0,0.0,0.0,11.7,3.8,-2.0,1024,1024,1024,1024,0,0,0,0,77,4.809,73.76,99.081368,P-GPS,,30.2
492,330200,2026-01-09 20:12:18,0.0,5,7.592,0.0,0.0,0.0,11.7,3.9,-2.1,1024,1024,1024,1024,0,0,0,0,77,4.809,73.76,99.081368,P-GPS,,30.2
493,330300,2026-01-09 20:12:18,0.0,5,7.592,0.0,0.0,0.0,11.6,3.9,-2.0,1024,1024,1024,1024,0,0,0,0,77,4.809,73.76,99.081368,P-GPS,,30.2
494,330400,2026-01-09 20:12:18,0.0,5,7.592,0.0,0.0,0.0,11.6,4.1,-2.0,1024,1024,1024,1024,0,0,0,0,77,4.809,73.76,99.409452,P-GPS,,30.3
495,330500,2026-01-09 20:12:18,0.0,5,7.592,0.0,0.0,0.0,11.6,4.3,-1.9,1024,1024,1024,1024,0,0,0,0,77,4.809,73.76,99.409452,P-GPS,,30.3
496,330600,2026-01-09 20:12:18,0.0,5,7.592,0.0,0.0,0.0,11.6,4.2,-1.9,1024,1024,1024,1024,0,0,0,0,77,4.809,73.76,99.409452,P-GPS,,30.3
497,330700,2026-01-09 20:12:18,0.0,5,7.592,0.0,0.0,0.0,11.6,4.2,-1.7,1024,1024,1024,1024,0,0,0,0,77,4.809,73.76,99.409452,P-GPS,,30.3
498,330800,2026-01-09 20:12:18,0.0,5,7.592,0.0,0.0,0.0,11.6,4.1,-1.7,1024,1024,1024,1024,0,0,0,0,77,4.809,73.76,99.409452,P-GPS,,30.3
499,330900,2026-01-09 20:12:18,0.0,5,7.598,0.0,0.0,0.0,11.6,4.0,-1.7,1024,1024,1024,1024,0,0,0,0,77,4.692,73.76,99.409452,P-GPS,,30.3
500,331000,2026-01-09 20:12:18,0.0,5,7.598,0.0,0.0,0.0,11.6,3.8,-1.8,1024,1024,1024,1024,0,0,0,0,77,4.692,73.76,99.409452,P-GPS,,30.3
501,331100,2026-01-09 20:12:19,0.0,5,7.598,0.0,0.0,0.0,11.6,3.7,-1.9,1024,1024,1024,1024,0,0,0,0,77,4.692,73.76,99.409452,P-GPS,,30.3
502,331200,2026-01-09 20:12:19,0.0,5,7.598,0.0,0.0,0.0,11.6,3.5,-2.1,1024,1024,1024,1024,0,0,0,0,77,4.692,73.76,99.409452,P-GPS,,30.3
503,331300,2026-01-09 20:12:19,0.0,5,7.598,0.0,0.0,0.0,11.6,3.5,-2.1,1024,1024,1024,1024,0,0,0,0,77,4.692,73.76,99.409452,P-GPS,,30.3
504,331400,2026-01-09 20:12:19,0.0,5,7.598,0.0,0.0,0.0,11.6,3.6,-2.0,1024,1024,1024,1024,0,0,0,0,77,4.692,73.76,99.409452,P-GPS,,30.3
505,331500,2026-01-09 20:12:19,0.0,5,7.598,0.0,0.0,0.0,11.7,3.8,-1.8,1024,1024,1024,1024,0,0,0,0,77,4.692,73.76,99.409452,P-GPS,,30.3
506,331600,2026-01-09 20:12:19,0.0,5,7.598,0.0,0.0,0.0,11.7,4.3,-1.7,1024,1024,1024,1024,0,0,0,0,77,4.692,73.76,99.409452,P-GPS,,30.3
507,331700,2026-01-09 20:12:19,0.0,5,7.598,0.0,0.0,0.0,11.7,4.3,-1.6,1024,1024,1024,1024,0,0,0,0,77,4.692,73.76,99.409452,P-GPS,,30.3
508,331800,2026-01-09 20:12:19,0.0,5,7.598,0.0,0.0,0.0,11.6,4.2,-1.7,1024,1024,1024,1024,0,0,0,0,77,4.692,73.76,99.409452,P-GPS,,30.3
509,331900,2026-01-09 20:12:19,0.0,5,7.598,0.0,0.0,0.223694,11.6,4.1,-1.6,1024,1024,1024,1024,0,0,0,0,77,4.692,73.76,99.409452,P-GPS,,30.3
510,332000,2026-01-09 20:12:20,0.0,5,7.599,0.0,0.0,0.223694,11.7,4.1,-1.4,1024,1024,1024,1024,0,0,0,0,77,4.646,73.94,99.409452,P-GPS,,30.3
511,332100,2026-01-09 20:12:20,0.0,5,7.599,0.0,0.0,0.223694,11.6,4.1,-1.4,1024,1024,1024,1024,0,0,0,0,77,4.646,73.94,99.081368,P-GPS,,30.2
512,332200,2026-01-09 20:12:20,0.0,5,7.599,0.0,0.0,0.223694,11.6,4.2,-1.5,1024,1024,1024,1024,0,0,0,0,77,4.646,73.94,99.081368,P-GPS,,30.2
513,332300,2026-01-09 20:12:20,0.0,5,7.599,0.0,0.0,0.223694,11.7,4.3,-1.9,1024,1024,1024,1024,0,0,0,0,77,4.646,73.94,99.081368,P-GPS,,30.2
514,332400,2026-01-09 20:12:20,0.0,5,7.599,0.0,0.0,0.223694,11.7,4.4,-2.2,1024,1024,1024,1024,0,0,0,0,77,4.646,73.94,99.081368,P-GPS,,30.2
515,332500,2026-01-09 20:12:20,0.0,5,7.599,0.0,0.0,0.223694,11.6,4.3,-2.2,1024,1024,1024,1024,0,0,0,0,77,4.646,73.94,99.081368,P-GPS,,30.2
516,332600,2026-01-09 20:12:20,0.0,5,7.599,0.0,0.0,0.223694,11.6,4.4,-2.0,1024,1024,1024,1024,0,0,0,0,77,4.646,73.94,99.081368,P-GPS,,30.2
517,332700,2026-01-09 20:12:20,0.0,5,7.599,0.0,0.0,0.223694,11.6,4.3,-1.9,1024,1024,1024,1024,0,0,0,0,77,4.646,73.94,99.081368,P-GPS,,30.2
518,332800,2026-01-09 20:12:20,0.0,5,7.599,0.0,0.0,0.223694,11.6,4.1,-1.7,1024,1024,1024,1024,0,0,0,0,77,4.646,73.94,99.081368,P-GPS,,30.2
519,332900,2026-01-09 20:12:20,0.0,5,7.599,0.0,0.0,0.223694,11.7,4.1,-1.4,1024,1024,1024,1024,0,0,0,0,77,4.646,73.94,99.081368,P-GPS,,30.2
520,333000,2026-01-09 20:12:20,0.0,5,7.599,0.0,0.0,0.223694,11.7,4.0,-1.3,1024,1024,1024,1024,0,0,0,0,77,4.646,73.94,98.753284,P-GPS,,30.1
521,333100,2026-01-09 20:12:21,0.0,5,7.584,0.0,0.0,0.223694,11.7,4.2,-1.5,1024,1024,1024,1024,0,0,0,0,77,4.818,73.94,98.753284,P-GPS,,30.1
522,333200,2026-01-09 20:12:21,0.0,5,7.584,0.0,0.0,0.223694,11.6,4.3,-1.4,1024,1024,1024,1024,0,0,0,0,77,4.818,73.94,98.753284,P-GPS,,30.1
523,333300,2026-01-09 20:12:21,0.0,5,7.584,0.0,0.0,0.223694,11.6,4.1,-1.0,1024,1024,1024,1024,0,0,0,0,77,4.818,73.94,98.753284,P-GPS,,30.1
524,333400,2026-01-09 20:12:21,0.0,5,7.584,0.0,0.0,0.0,11.6,3.9,-1.3,1024,1024,1024,1024,0,0,0,0,77,4.818,73.94,98.753284,P-GPS,,30.1
525,333500,2026-01-09 20:12:21,0.0,5,7.584,0.0,0.0,0.0,11.6,3.5,-1.3,1024,1024,1024,1024,0,0,0,0,77,4.818,73.94,98.753284,P-GPS,,30.1
526,333600,2026-01-09 20:12:21,0.0,5,7.584,0.0,0.0,0.0,11.5,3.6,-1.3,1024,1024,1024,1024,0,0,0,0,77,4.818,73.94,98.753284,P-GPS,,30.1
527,333700,2026-01-09 20:12:21,0.0,5,7.584,0.0,0.0,0.0,11.5,3.8,-1.3,1024,1024,1024,1024,0,0,0,0,77,4.818,73.94,98.753284,P-GPS,,30.1
528,333800,2026-01-09 20:12:21,0.0,5,7.584,0.0,0.0,0.0,11.4,4.1,-1.3,1024,1024,1024,1024,0,0,0,0,77,4.818,73.94,98.753284,P-GPS,,30.1
529,333900,2026-01-09 20:12:21,0.0,5,7.584,0.0,0.0,0.0,11.5,4.1,-1.5,1024,1024,1024,1024,0,0,0,0,77,4.818,73.94,98.4252,P-GPS,,30.0
530,334000,2026-01-09 20:12:22,0.0,5,7.584,0.0,0.0,0.0,11.5,4.2,-1.4,1024,1024,1024,1024,0,0,0,0,77,4.818,73.94,98.4252,P-GPS,,30.0
531,334100,2026-01-09 20:12:22,0.0,5,7.584,0.0,0.0,0.0,11.6,4.6,-1.3,1024,1024,1024,1024,0,0,0,0,77,4.818,73.94,98.4252,P-GPS,,30.0
532,334200,2026-01-09 20:12:22,0.0,5,7.592,0.0,0.0,0.0,11.6,4.8,-1.2,1024,1024,1024,1024,0,0,0,0,77,4.746,73.94,98.4252,P-GPS,,30.0
533,334300,2026-01-09 20:12:22,0.0,5,7.592,0.0,0.0,0.0,11.6,4.8,-1.0,1024,1024,1024,1024,0,0,0,0,77,4.746,73.94,98.4252,P-GPS,,30.0
534,334400,2026-01-09 20:12:22,0.0,5,7.592,0.0,0.0,0.0,11.6,4.6,-0.9,1024,1024,1024,1024,0,0,0,0,77,4.746,73.94,98.4252,P-GPS,,30.0
535,334500,2026-01-09 20:12:22,0.0,5,7.592,0.0,0.0,0.0,11.5,4.8,-1.0,1024,1024,1024,1024,0,0,0,0,77,4.746,73.94,98.4252,P-GPS,,30.0
536,334600,2026-01-09 20:12:22,0.0,5,7.592,0.0,0.0,0.0,11.5,4.8,-0.5,1024,1024,1024,1024,0,0,0,0,77,4.746,73.94,98.4252,P-GPS,,30.0
537,334700,2026-01-09 20:12:22,0.0,5,7.592,0.0,0.0,0.0,11.6,4.5,-0.4,1024,1024,1024,1024,0,0,0,0,77,4.746,73.94,98.097116,P-GPS,,29.9
538,334800,2026-01-09 20:12:22,0.0,5,7.592,0.0,0.0,0.0,11.6,4.3,-0.8,1024,1024,1024,1024,0,0,0,0,77,4.746,73.94,98.097116,P-GPS,,29.9
539,334900,2026-01-09 20:12:22,0.0,5,7.592,0.0,0.0,0.0,11.7,4.2,-0.9,1024,1024,1024,1024,0,0,0,0,77,4.746,73.94,98.097116,P-GPS,,29.9
540,335000,2026-01-09 20:12:23,0.0,5,7.592,0.0,0.0,0.0,11.8,3.9,-1.4,1024,1024,1024,1024,0,0,0,0,77,4.746,73.94,98.097116,P-GPS,,29.9
541,335100,2026-01-09 20:12:23,0.0,5,7.592,0.0,0.0,0.0,11.7,4.1,-1.7,1024,1024,1024,1024,0,0,0,0,77,4.746,73.94,98.097116,P-GPS,,29.9
542,335200,2026-01-09 20:12:23,0.0,5,7.592,0.0,0.0,0.0,11.7,4.3,-1.6,1024,1024,1024,1024,0,0,0,0,77,4.746,73.94,98.097116,P-GPS,,29.9
543,335300,2026-01-09 20:12:23,0.0,5,7.592,0.0,0.0,0.0,11.7,4.5,-1.6,1024,1024,1024,1024,0,0,0,0,77,4.746,73.94,98.097116,P-GPS,,29.9
544,335400,2026-01-09 20:12:23,0.0,5,7.592,0.0,0.0,0.0,11.7,4.7,-1.8,1024,1024,1024,1024,0,0,0,0,77,4.746,73.94,98.097116,P-GPS,,29.9
545,335500,2026-01-09 20:12:23,0.0,5,7.592,0.0,0.0,0.0,11.8,4.9,-1.8,1024,1024,1024,1024,0,0,0,0,77,4.746,73.94,98.097116,P-GPS,,29.9
546,335600,2026-01-09 20:12:23,0.0,5,7.592,0.0,0.0,0.0,11.8,4.9,-1.8,1024,1024,1024,1024,0,0,0,0,77,4.746,73.94,98.097116,P-GPS,,29.9
547,335700,2026-01-09 20:12:23,0.0,5,7.592,0.0,0.0,0.0,11.7,5.0,-1.8,1024,1024,1024,1024,0,0,0,0,77,4.746,73.94,98.097116,P-GPS,,29.9
548,335800,2026-01-09 20:12:23,0.0,5,7.592,0.0,0.0,0.0,11.6,5.0,-1.7,1024,1024,1024,1024,0,0,0,0,77,4.746,73.94,98.097116,P-GPS,,29.9
549,335900,2026-01-09 20:12:23,0.0,5,7.592,0.0,0.0,0.0,11.6,5.0,-1.3,1024,1024,1024,1024,0,0,0,0,77,4.746,73.94,98.097116,P-GPS,,29.9
550,336000,2026-01-09 20:12:24,0.0,5,7.592,0.0,0.0,0.0,11.5,5.1,-1.4,1024,1024,1024,1024,0,0,0,0,77,4.746,73.94,98.097116,P-GPS,,29.9
551,336100,2026-01-09 20:12:24,0.0,5,7.592,0.0,0.0,0.0,11.5,5.3,-1.4,1024,1024,1024,1024,0,0,0,0,77,4.746,73.94,98.097116,P-GPS,,29.9
552,336200,2026-01-09 20:12:24,0.0,5,7.592,0.0,0.0,0.0,11.6,5.3,-1.1,1024,1024,1024,1024,0,0,0,0,77,4.746,73.94,98.097116,P-GPS,,29.9
553,336300,2026-01-09 20:12:24,0.0,5,7.592,0.0,0.0,0.0,11.6,5.4,-0.8,1024,1024,1024,1024,0,0,0,0,76,4.746,73.94,98.097116,P-GPS,,29.9
554,336400,2026-01-09 20:12:24,0.0,5,7.592,0.0,0.0,0.0,11.6,5.3,-0.5,1024,1024,1024,1024,0,0,0,0,76,4.746,73.94,98.097116,P-GPS,,29.9
555,336500,2026-01-09 20:12:24,0.0,5,7.592,0.0,0.0,0.0,11.6,5.1,-0.3,1024,1024,1024,1024,0,0,0,0,76,4.698,73.94,98.097116,P-GPS,,29.9
556,336600,2026-01-09 20:12:24,0.0,5,7.592,0.0,0.0,0.0,11.6,5.3,-0.1,1024,1024,1024,1024,0,0,0,0,76,4.698,73.94,98.097116,P-GPS,,29.9
557,336700,2026-01-09 20:12:24,0.0,5,7.592,0.0,0.0,0.0,11.6,5.7,-0.3,1024,1024,1024,1024,0,0,0,0,76,4.698,73.94,98.097116,P-GPS,,29.9
558,336800,2026-01-09 20:12:24,0.0,5,7.592,0.0,0.0,0.0,11.7,6.0,-0.3,1024,1024,1024,1024,0,0,0,0,76,4.698,73.94,97.769032,P-GPS,,29.8
559,336900,2026-01-09 20:12:24,0.0,5,7.592,0.0,0.0,0.0,11.6,6.1,-0.2,1024,1024,1024,1024,0,0,0,0,76,4.698,73.94,97.769032,P-GPS,,29.8
560,337000,2026-01-09 20:12:25,0.0,5,7.592,0.0,0.0,0.0,11.6,6.0,0.0,1024,1024,1024,1024,0,0,0,0,76,4.698,73.94,97.769032,P-GPS,,29.8
561,337100,2026-01-09 20:12:25,0.0,5,7.592,0.0,0.0,0.0,11.6,6.1,-0.4,1024,1024,1024,1024,0,0,0,0,76,4.698,73.94,97.769032,P-GPS,,29.8
562,337200,2026-01-09 20:12:25,0.0,5,7.592,0.0,0.0,0.0,11.6,6.0,-0.9,1024,1024,1024,1024,0,0,0,0,76,4.698,73.94,97.769032,P-GPS,,29.8
563,337300,2026-01-09 20:12:25,0.0,5,7.592,0.0,0.0,0.0,11.6,6.1,-0.6,1024,1024,1024,1024,0,0,0,0,76,4.698,73.94,97.769032,P-GPS,,29.8
564,337400,2026-01-09 20:12:25,0.0,5,7.592,0.0,0.0,0.0,11.6,5.9,-0.8,1024,1024,1024,1024,0,0,0,0,76,4.698,73.94,97.769032,P-GPS,,29.8
565,337500,2026-01-09 20:12:25,0.0,5,7.592,0.0,0.0,0.0,11.6,5.6,-0.9,1024,1024,1024,1024,0,0,0,0,76,4.698,73.94,97.769032,P-GPS,,29.8
566,337600,2026-01-09 20:12:25,0.0,5,7.592,0.0,0.0,0.0,11.6,5.6,-0.6,1024,1024,1024,1024,0,0,0,0,76,4.698,73.94,97.769032,P-GPS,,29.8
567,337700,2026-01-09 20:12:25,0.0,5,7.592,0.0,0.0,0.0,11.7,5.4,-0.6,1024,1024,1024,1024,0,0,0,0,76,4.698,73.94,97.769032,P-GPS,,29.8
568,337800,2026-01-09 20:12:25,0.0,5,7.592,0.0,0.0,0.0,11.7,5.4,-0.6,1024,1024,1024,1024,0,0,0,0,76,4.698,73.94,97.769032,P-GPS,,29.8
569,337900,2026-01-09 20:12:25,0.0,5,7.592,0.0,0.0,0.0,11.7,5.4,-0.6,1024,1024,1024,1024,0,0,0,0,76,4.698,73.94,97.769032,P-GPS,,29.8
570,338000,2026-01-09 20:12:25,0.0,5,7.592,0.0,0.0,0.0,11.7,5.5,-0.6,1024,1024,1024,1024,0,0,0,0,76,4.698,73.94,97.769032,P-GPS,,29.8
571,338100,2026-01-09 20:12:26,0.0,5,7.592,0.0,0.0,0.0,11.6,5.6,-0.4,1024,1024,1024,1024,0,0,0,0,76,4.698,73.94,97.769032,P-GPS,,29.8
572,338200,2026-01-09 20:12:26,0.0,5,7.592,0.0,0.0,0.0,11.6,5.4,-0.5,1024,1024,1024,1024,0,0,0,0,76,4.698,73.94,97.769032,P-GPS,,29.8
573,338300,2026-01-09 20:12:26,0.0,5,7.567,0.0,0.0,0.0,11.6,5.2,-0.5,1024,1024,1024,1024,0,0,0,0,76,5.056,73.94,97.769032,P-GPS,,29.8
574,338400,2026-01-09 20:12:26,0.0,5,7.567,0.0,0.0,0.0,11.6,5.2,-0.6,1024,1024,1024,1024,0,0,0,0,76,5.056,73.94,97.769032,P-GPS,,29.8
575,338500,2026-01-09 20:12:26,0.0,5,7.567,0.0,0.0,0.0,11.6,5.0,-0.6,1024,1024,1024,1024,0,0,0,0,76,5.056,73.94,97.769032,P-GPS,,29.8
576,338600,2026-01-09 20:12:26,0.0,5,7.567,0.0,0.0,0.0,11.7,4.9,-0.5,1024,1024,1024,1024,0,0,0,0,76,5.056,73.94,97.769032,P-GPS,,29.8
577,338700,2026-01-09 20:12:26,0.0,5,7.567,0.0,0.0,0.0,11.8,4.6,-0.8,1024,1024,1024,1024,0,0,0,0,76,5.056,73.94,97.769032,P-GPS,,29.8
578,338800,2026-01-09 20:12:26,0.0,5,7.567,0.0,0.0,0.0,11.7,5.2,-1.2,1024,1024,1024,1024,0,0,0,0,76,5.056,73.94,97.769032,P-GPS,,29.8
579,338900,2026-01-09 20:12:26,0.0,5,7.567,0.0,0.0,0.0,11.7,5.8,-1.5,1024,1024,1024,1024,0,0,0,0,76,5.056,73.94,97.769032,P-GPS,,29.8
580,339000,2026-01-09 20:12:27,0.0,5,7.567,0.0,0.0,0.0,11.7,5.6,-1.2,1024,1024,1024,1024,0,0,0,0,76,5.056,73.94,97.769032,P-GPS,,29.8
581,339100,2026-01-09 20:12:27,0.0,5,7.567,0.0,0.0,0.0,11.7,5.9,-0.9,1024,1024,1024,1024,0,0,0,0,76,5.056,73.94,97.769032,P-GPS,,29.8
582,339200,2026-01-09 20:12:27,0.0,5,7.567,0.0,0.0,0.0,11.7,5.8,-1.2,1024,1024,1024,1024,0,0,0,0,76,5.056,73.94,97.769032,P-GPS,,29.8
583,339300,2026-01-09 20:12:27,0.0,5,7.561,0.0,0.0,0.0,11.7,5.9,-1.5,1024,1024,1024,1024,0,0,0,0,76,5.2,73.94,97.769032,P-GPS,,29.8
584,339400,2026-01-09 20:12:27,0.0,5,7.561,0.0,0.0,0.0,11.7,5.9,-1.4,1024,1024,1024,1024,0,0,0,0,76,5.2,73.94,97.769032,P-GPS,,29.8
585,339500,2026-01-09 20:12:27,0.0,5,7.561,0.0,0.0,0.0,11.7,5.6,-1.1,1024,1024,1024,1024,0,0,0,0,76,5.2,73.94,97.769032,P-GPS,,29.8
586,339600,2026-01-09 20:12:27,0.0,5,7.561,0.0,0.0,0.0,11.7,5.0,-1.1,1024,1024,1024,1024,0,0,0,0,76,5.2,73.94,97.769032,P-GPS,,29.8
587,339700,2026-01-09 20:12:27,0.0,5,7.561,0.0,0.0,0.0,11.7,4.5,-0.9,1024,1024,1024,1024,0,0,0,0,76,5.2,73.94,97.769032,P-GPS,,29.8
588,339800,2026-01-09 20:12:27,0.0,5,7.561,0.0,0.0,0.0,11.7,4.4,-0.5,1024,1024,1024,1024,0,0,0,0,76,5.2,73.94,97.440948,P-GPS,,29.7
589,339900,2026-01-09 20:12:27,0.0,5,7.561,0.0,0.0,0.0,11.8,4.2,-0.8,1024,1024,1024,1024,0,0,0,0,76,5.2,73.94,97.440948,P-GPS,,29.7
590,340000,2026-01-09 20:12:27,0.0,5,7.561,0.0,0.0,0.0,11.7,4.3,-1.1,1024,1024,1024,1024,0,0,0,0,76,5.2,73.94,97.440948,P-GPS,,29.7
591,340100,2026-01-09 20:12:28,0.0,5,7.561,0.0,0.0,0.0,11.7,4.4,-1.2,1024,1024,1024,1024,0,0,0,0,76,5.2,73.94,97.440948,P-GPS,,29.7
592,340200,2026-01-09 20:12:28,0.0,5,7.561,0.0,0.0,0.0,11.7,4.7,-1.4,1024,1024,1024,1024,0,0,0,0,76,5.2,73.94,97.440948,P-GPS,,29.7
593,340300,2026-01-09 20:12:28,0.0,5,7.572,0.0,0.0,0.0,11.7,4.8,-1.5,1024,1024,1024,1024,0,0,0,0,76,5.013,74.12,97.440948,P-GPS,,29.7
594,340400,2026-01-09 20:12:28,0.0,5,7.572,0.0,0.0,0.0,11.7,4.7,-1.5,1024,1024,1024,1024,0,0,0,0,76,5.013,74.12,97.440948,P-GPS,,29.7
595,340500,2026-01-09 20:12:28,0.0,5,7.572,0.0,0.0,0.0,11.7,4.4,-1.6,1024,1024,1024,1024,0,0,0,0,76,5.013,74.12,97.440948,P-GPS,,29.7
596,340600,2026-01-09 20:12:28,0.0,5,7.572,0.0,0.0,0.0,11.7,4.3,-1.5,1024,1024,1024,1024,0,0,0,0,76,5.013,74.12,97.440948,P-GPS,,29.7
597,340700,2026-01-09 20:12:28,0.0,5,7.572,0.0,0.0,0.0,11.7,4.5,-1.5,1024,1024,1024,1024,0,0,0,0,76,5.013,74.12,97.440948,P-GPS,,29.7
598,340800,2026-01-09 20:12:28,0.0,5,7.572,0.0,0.0,0.0,11.7,4.5,-1.7,1024,1024,1024,1024,0,0,0,0,76,5.013,74.12,97.440948,P-GPS,,29.7
599,340900,2026-01-09 20:12:28,0.0,5,7.572,0.0,0.0,0.0,11.7,4.7,-1.7,1024,1024,1024,1024,0,0,0,0,76,5.013,74.12,97.440948,P-GPS,,29.7
600,341000,2026-01-09 20:12:29,0.0,5,7.572,0.0,0.0,0.0,11.6,4.9,-1.6,1024,1024,1024,1024,0,0,0,0,76,5.013,74.12,97.440948,P-GPS,,29.7
601,341100,2026-01-09 20:12:29,0.0,5,7.572,0.0,0.0,0.0,11.6,4.7,-1.4,1024,1024,1024,1024,0,0,0,0,76,5.013,74.12,97.440948,P-GPS,,29.7
602,341200,2026-01-09 20:12:29,0.0,5,7.572,0.0,0.0,0.0,11.7,4.7,-0.9,1024,1024,1024,1024,0,0,0,0,76,5.013,74.12,97.440948,P-GPS,,29.7
603,341300,2026-01-09 20:12:29,0.0,5,7.572,0.0,0.0,0.0,11.6,4.7,-1.0,1024,1024,1024,1024,0,0,0,0,76,5.013,74.12,97.440948,P-GPS,,29.7
604,341400,2026-01-09 20:12:29,0.0,5,7.583,0.0,0.0,0.0,11.7,4.7,-1.0,1024,1024,1024,1024,0,0,0,0,76,4.719,74.12,97.440948,P-GPS,,29.7
605,341500,2026-01-09 20:12:29,0.0,5,7.583,0.0,0.0,0.0,11.7,4.7,-1.1,1024,1024,1024,1024,0,0,0,0,76,4.719,74.12,97.440948,P-GPS,,29.7
606,341600,2026-01-09 20:12:29,0.0,5,7.583,0.0,0.0,0.0,11.7,4.6,-1.2,1024,1024,1024,1024,0,0,0,0,76,4.719,74.12,97.112864,P-GPS,,29.6
607,341700,2026-01-09 20:12:29,0.0,5,7.583,0.0,0.0,0.0,11.6,4.5,-1.1,1024,1024,1024,1024,0,0,0,0,76,4.719,74.12,97.112864,P-GPS,,29.6
608,341800,2026-01-09 20:12:29,0.0,5,7.583,0.0,0.0,0.0,11.7,4.4,-1.2,1024,1024,1024,1024,0,0,0,0,76,4.719,74.12,97.112864,P-GPS,,29.6
609,341900,2026-01-09 20:12:29,0.0,5,7.583,0.0,0.0,0.0,11.7,4.2,-1.4,1024,1024,1024,1024,0,0,0,0,76,4.719,74.12,97.112864,P-GPS,,29.6
610,342000,2026-01-09 20:12:29,0.0,5,7.583,0.0,0.0,0.0,11.6,4.3,-1.4,1024,1024,1024,1024,0,0,0,0,76,4.719,74.12,97.112864,P-GPS,,29.6
611,342100,2026-01-09 20:12:30,0.0,5,7.583,0.0,0.0,0.0,11.6,4.4,-1.2,1024,1024,1024,1024,0,0,0,0,76,4.719,74.12,97.112864,P-GPS,,29.6
612,342200,2026-01-09 20:12:30,0.0,5,7.583,0.0,0.0,0.0,11.5,4.6,-1.0,1024,1024,1024,1024,0,0,0,0,76,4.719,74.12,97.112864,P-GPS,,29.6
613,342300,2026-01-09 20:12:30,0.0,5,7.585,0.0,0.0,0.0,11.5,4.6,-0.9,1024,1024,1024,1024,0,0,0,0,76,4.721,74.12,97.112864,P-GPS,,29.6
614,342400,2026-01-09 20:12:30,0.0,5,7.585,0.0,0.0,0.0,11.5,4.2,-0.4,1024,1024,1024,1024,0,0,0,0,76,4.721,74.12,97.112864,P-GPS,,29.6
615,342500,2026-01-09 20:12:30,0.0,5,7.585,0.0,0.0,0.0,11.5,4.1,0.0,1024,1024,1024,1024,0,0,0,0,76,4.721,74.12,97.112864,P-GPS,,29.6
616,342600,2026-01-09 20:12:30,0.0,5,7.585,0.0,0.0,0.0,11.5,3.8,-0.3,1024,1024,1024,1024,0,0,0,0,76,4.721,74.12,97.112864,P-GPS,,29.6
617,342700,2026-01-09 20:12:30,0.0,5,7.585,0.0,0.0,0.0,11.5,3.5,-0.5,1024,1024,1024,1024,0,0,0,0,76,4.721,74.12,97.112864,P-GPS,,29.6
618,342800,2026-01-09 20:12:30,0.0,5,7.585,0.0,0.0,0.0,11.5,3.5,-0.5,1024,1024,1024,1024,0,0,0,0,76,4.721,74.12,97.112864,P-GPS,,29.6
619,342900,2026-01-09 20:12:30,0.0,5,7.585,0.0,0.0,0.0,11.6,3.4,-0.3,1024,1024,1024,1024,0,0,0,0,76,4.721,74.12,97.112864,P-GPS,,29.6
620,343000,2026-01-09 20:12:31,0.0,5,7.585,0.0,0.0,0.0,11.6,3.3,-0.3,1024,1024,1024,1024,0,0,0,0,76,4.721,74.12,96.78478,P-GPS,,29.5
621,343100,2026-01-09 20:12:31,0.0,5,7.585,0.0,0.0,0.0,11.6,3.1,-0.2,1024,1024,1024,1024,0,0,0,0,76,4.721,74.12,96.78478,P-GPS,,29.5
622,343200,2026-01-09 20:12:31,0.0,5,7.585,0.0,0.0,0.0,11.6,3.2,0.0,1024,1024,1024,1024,0,0,0,0,76,4.721,74.12,96.78478,P-GPS,,29.5
623,343300,2026-01-09 20:12:31,0.0,5,7.58,0.0,0.0,0.0,11.6,3.3,0.0,1024,1024,1024,1024,0,0,0,0,76,4.842,74.12,96.78478,P-GPS,,29.5
624,343400,2026-01-09 20:12:31,0.0,5,7.58,0.0,0.0,0.0,11.5,3.6,-0.1,1024,1024,1024,1024,0,0,0,0,76,4.842,74.12,96.78478,P-GPS,,29.5
625,343500,2026-01-09 20:12:31,0.0,5,7.58,0.0,0.0,0.0,11.5,3.6,0.0,1024,1024,1024,1024,0,0,0,0,76,4.842,74.12,96.78478,P-GPS,,29.5
626,343600,2026-01-09 20:12:31,0.0,5,7.58,0.0,0.0,0.0,11.6,3.7,0.1,1024,1024,1024,1024,0,0,0,0,76,4.842,74.12,96.78478,P-GPS,,29.5
627,343700,2026-01-09 20:12:31,0.0,5,7.58,0.0,0.0,0.0,11.6,3.5,0.2,1024,1024,1024,1024,0,0,0,0,76,4.842,74.12,96.78478,P-GPS,,29.5
628,343800,2026-01-09 20:12:31,0.0,5,7.58,0.0,0.0,0.0,11.6,3.5,0.4,1024,1024,1024,1024,0,0,0,0,76,4.842,74.12,96.78478,P-GPS,,29.5
629,343900,2026-01-09 20:12:32,0.0,5,7.58,0.0,0.0,0.0,11.6,3.4,0.5,1024,1024,1024,1024,0,0,0,0,76,4.842,74.12,96.78478,P-GPS,,29.5
630,344000,2026-01-09 20:12:32,0.0,5,7.58,0.0,0.0,0.0,11.7,3.2,0.2,1024,1024,1024,1024,0,0,0,0,76,4.842,74.12,96.78478,P-GPS,,29.5
631,344100,2026-01-09 20:12:32,0.0,5,7.58,0.0,0.0,0.0,11.8,3.1,-0.4,1024,1024,1024,1024,0,0,0,0,76,4.842,74.12,96.78478,P-GPS,,29.5
632,344200,2026-01-09 20:12:32,0.0,5,7.576,0.0,0.0,0.0,11.8,3.2,-0.5,1024,1024,1024,1024,0,0,0,0,76,4.85,74.12,96.78478,P-GPS,,29.5
633,344300,2026-01-09 20:12:32,0.0,5,7.576,0.0,0.0,0.0,11.8,3.3,-0.7,1024,1024,1024,1024,0,0,0,0,76,4.85,74.12,96.78478,P-GPS,,29.5
634,344400,2026-01-09 20:12:32,0.0,5,7.576,0.0,0.0,0.0,11.7,3.5,-0.7,1024,1024,1024,1024,0,0,0,0,76,4.85,74.12,96.78478,P-GPS,,29.5
635,344500,2026-01-09 20:12:32,0.0,5,7.576,0.0,0.0,0.0,11.7,3.7,-0.9,1024,1024,1024,1024,0,0,0,0,76,4.85,74.12,96.78478,P-GPS,,29.5
636,344600,2026-01-09 20:12:32,0.0,5,7.576,0.0,0.0,0.0,11.7,3.7,-1.1,1024,1024,1024,1024,0,0,0,0,76,4.85,74.12,96.78478,P-GPS,,29.5
637,344700,2026-01-09 20:12:32,0.0,5,7.576,0.0,0.0,0.0,11.6,3.7,-1.2,1024,1024,1024,1024,0,0,0,0,76,4.85,74.12,96.78478,P-GPS,,29.5
638,344800,2026-01-09 20:12:32,0.0,5,7.576,0.0,0.0,0.0,11.7,3.7,-1.1,1024,1024,1024,1024,0,0,0,0,76,4.85,74.12,96.78478,P-GPS,,29.5
639,344900,2026-01-09 20:12:32,0.0,5,7.576,0.0,0.0,0.0,11.7,3.8,-1.1,1024,1024,1024,1024,0,0,0,0,76,4.85,74.12,96.78478,P-GPS,,29.5
640,345000,2026-01-09 20:12:32,0.0,5,7.576,0.0,0.0,0.0,11.7,4.1,-1.1,1024,1024,1024,1024,0,0,0,0,76,4.85,74.12,96.78478,P-GPS,,29.5
641,345100,2026-01-09 20:12:33,0.0,5,7.576,0.0,0.0,0.0,11.7,4.3,-1.3,1024,1024,1024,1024,0,0,0,0,76,4.85,74.12,96.78478,P-GPS,,29.5
642,345200,2026-01-09 20:12:33,0.0,5,7.576,0.0,0.0,0.0,11.7,4.5,-1.3,1024,1024,1024,1024,0,0,0,0,76,4.85,74.12,96.78478,P-GPS,,29.5
643,345300,2026-01-09 20:12:33,0.0,5,7.576,0.0,0.0,0.0,11.7,4.3,-1.3,1024,1024,1024,1024,0,0,0,0,76,4.85,74.12,96.78478,P-GPS,,29.5
644,345400,2026-01-09 20:12:33,0.0,5,7.576,0.0,0.0,0.0,11.7,4.2,-1.4,1024,1024,1024,1024,0,0,0,0,76,4.85,74.12,96.78478,P-GPS,,29.5
645,345500,2026-01-09 20:12:33,0.0,5,7.576,0.0,0.0,0.0,11.7,4.0,-1.6,1024,1024,1024,1024,0,0,0,0,76,4.85,74.12,97.112864,P-GPS,,29.6
646,345600,2026-01-09 20:12:33,0.0,5,7.576,0.0,0.0,0.0,11.7,4.3,-1.8,1024,1024,1024,1024,0,0,0,0,76,4.85,74.12,97.112864,P-GPS,,29.6
647,345700,2026-01-09 20:12:33,0.0,5,7.576,0.0,0.0,0.0,11.7,4.4,-1.8,1024,1024,1024,1024,0,0,0,0,76,4.85,74.12,97.112864,P-GPS,,29.6
648,345800,2026-01-09 20:12:33,0.0,5,7.576,0.0,0.0,0.0,11.7,4.4,-1.7,1024,1024,1024,1024,0,0,0,0,76,4.85,74.12,97.112864,P-GPS,,29.6
649,345900,2026-01-09 20:12:33,0.0,5,7.576,0.0,0.0,0.0,11.7,4.8,-1.4,1024,1024,1024,1024,0,0,0,0,76,4.85,74.12,97.112864,P-GPS,,29.6
650,346000,2026-01-09 20:12:34,0.0,5,7.576,0.0,0.0,0.0,11.7,4.9,-1.5,1024,1024,1024,1024,0,0,0,0,76,4.85,74.12,97.112864,P-GPS,,29.6
651,346100,2026-01-09 20:12:34,0.0,5,7.576,0.0,0.0,0.0,11.7,5.1,-1.7,1024,1024,1024,1024,0,0,0,0,76,4.85,74.12,97.112864,P-GPS,,29.6
652,346200,2026-01-09 20:12:34,0.0,5,7.576,0.0,0.0,0.0,11.7,5.0,-1.5,1024,1024,1024,1024,0,0,0,0,76,4.85,74.12,97.112864,P-GPS,,29.6
653,346300,2026-01-09 20:12:34,0.0,5,7.576,0.0,0.0,0.0,11.6,4.9,-1.4,1024,1024,1024,1024,0,0,0,0,76,4.85,74.12,97.112864,P-GPS,,29.6
654,346400,2026-01-09 20:12:34,0.0,5,7.588,0.0,0.0,0.0,11.7,4.9,-1.3,1024,1024,1024,1024,0,0,0,0,76,4.666,74.12,97.112864,P-GPS,,29.6
655,346500,2026-01-09 20:12:34,0.0,5,7.588,0.0,0.0,0.0,11.6,4.9,-1.5,1024,1024,1024,1024,0,0,0,0,76,4.666,74.12,97.112864,P-GPS,,29.6
656,346600,2026-01-09 20:12:34,0.0,5,7.588,0.0,0.0,0.0,11.6,4.5,-1.6,1024,1024,1024,1024,0,0,0,0,76,4.666,74.12,97.112864,P-GPS,,29.6
657,346700,2026-01-09 20:12:34,0.0,5,7.588,0.0,0.0,0.0,11.6,4.5,-1.3,1024,1024,1024,1024,0,0,0,0,76,4.666,74.12,97.112864,P-GPS,,29.6
658,346800,2026-01-09 20:12:34,0.0,5,7.588,0.0,0.0,0.0,11.6,4.3,-1.2,1024,1024,1024,1024,0,0,0,0,76,4.666,74.12,97.112864,P-GPS,,29.6
659,346900,2026-01-09 20:12:34,0.0,5,7.588,0.0,0.0,0.0,11.6,3.9,-1.3,1024,1024,1024,1024,0,0,0,0,76,4.666,74.12,97.112864,P-GPS,,29.6
660,347000,2026-01-09 20:12:34,0.0,5,7.588,0.0,0.0,0.0,11.6,4.1,-0.9,1024,1024,1024,1024,0,0,0,0,76,4.666,74.12,97.112864,P-GPS,,29.6
661,347100,2026-01-09 20:12:35,0.0,5,7.588,0.0,0.0,0.0,11.6,4.0,-0.9,1024,1024,1024,1024,0,0,0,0,76,4.666,74.12,97.112864,P-GPS,,29.6
662,347200,2026-01-09 20:12:35,0.0,5,7.588,0.0,0.0,0.0,11.7,3.6,-1.3,1024,1024,1024,1024,0,0,0,0,76,4.666,74.12,97.112864,P-GPS,,29.6
663,347300,2026-01-09 20:12:35,0.0,5,7.588,0.0,0.0,0.0,11.7,3.8,-1.0,1024,1024,1024,1024,0,0,0,0,76,4.666,74.12,97.112864,P-GPS,,29.6
664,347400,2026-01-09 20:12:35,0.0,5,7.588,0.0,0.0,0.0,11.6,4.0,-1.0,1024,1024,1024,1024,0,0,0,0,76,4.666,74.12,97.112864,P-GPS,,29.6
665,347500,2026-01-09 20:12:35,0.0,5,7.577,0.0,0.0,0.0,11.7,4.2,-0.9,1024,1024,1024,1024,0,0,0,0,76,4.996,74.12,97.112864,P-GPS,,29.6
666,347600,2026-01-09 20:12:35,0.0,5,7.577,0.0,0.0,0.0,11.8,4.0,-1.2,1024,1024,1024,1024,0,0,0,0,76,4.996,74.12,97.112864,P-GPS,,29.6
667,347700,2026-01-09 20:12:35,0.0,5,7.577,0.0,0.0,0.0,11.9,3.7,-1.5,1024,1024,1024,1024,0,0,0,0,76,4.996,74.12,97.112864,P-GPS,,29.6
668,347800,2026-01-09 20:12:35,0.0,5,7.577,0.0,0.0,0.0,11.8,3.9,-1.7,1024,1024,1024,1024,0,0,0,0,76,4.996,74.12,97.440948,P-GPS,,29.7
669,347900,2026-01-09 20:12:35,0.0,5,7.577,0.0,0.0,0.0,11.8,4.0,-1.5,1024,1024,1024,1024,0,0,0,0,76,4.996,74.12,97.440948,P-GPS,,29.7
670,348000,2026-01-09 20:12:36,0.0,5,7.577,0.0,0.0,0.0,11.9,4.2,-1.4,1024,1024,1024,1024,0,0,0,0,76,4.996,74.12,97.440948,P-GPS,,29.7
671,348100,2026-01-09 20:12:36,0.0,5,7.577,0.0,0.0,0.0,12.0,4.2,-1.4,1024,1024,1024,1024,0,0,0,0,76,4.996,74.12,97.440948,P-GPS,,29.7
672,348200,2026-01-09 20:12:36,0.0,5,7.577,0.0,0.0,0.0,12.0,4.2,-1.3,1024,1024,1024,1024,0,0,0,0,76,4.996,74.12,97.440948,P-GPS,,29.7
673,348300,2026-01-09 20:12:36,0.0,5,7.577,0.0,0.0,0.0,12.0,4.6,-1.4,1024,1024,1024,1024,0,0,0,0,76,4.996,74.12,97.440948,P-GPS,,29.7
674,348400,2026-01-09 20:12:36,0.0,5,7.577,0.0,0.0,0.0,11.8,5.2,-1.4,1024,1024,1024,1024,0,0,0,0,76,4.996,74.12,97.440948,P-GPS,,29.7
