index,time(millisecond),timestamp,speed(mph),gpslevel,voltage(v),xSpeed(mph),ySpeed(mph),zSpeed(mph),compass_heading(degrees),pitch(degrees),roll(degrees),rc_elevator,rc_aileron,rc_throttle,rc_rudder,rc_elevator(percent),rc_aileron(percent),rc_throttle(percent),rc_rudder(percent),battery_percent,current(A),battery_temperature(f),ascent(feet),flycState,message,height_above_takeoff(meters)
942,94300,2026-01-06 16:38:59,0.0,5,7.485,0.0,0.0,0.0,17.6,0.1,-5.0,1024,1024,1024,1024,0,0,0,0,73,4.969,66.56,167.32284,P-GPS,,51.0
943,94400,2026-01-06 16:38:59,0.0,5,7.485,0.0,0.0,0.0,17.7,0.5,-4.8,1024,1024,1024,1024,0,0,0,0,73,4.969,66.56,167.32284,P-GPS,,51.0
944,94500,2026-01-06 16:38:59,0.0,5,7.485,0.0,0.0,0.0,17.7,0.8,-4.8,1024,1024,1024,1024,0,0,0,0,73,4.969,66.56,167.32284,P-GPS,,51.0
945,94600,2026-01-06 16:39:00,0.0,5,7.485,0.0,0.0,0.0,17.6,1.2,-4.8,1024,1024,1024,1024,0,0,0,0,73,4.969,66.56,167.32284,P-GPS,,51.0
946,94700,2026-01-06 16:39:00,0.0,5,7.485,0.0,0.0,0.0,17.6,1.1,-4.7,1024,1024,1024,1024,0,0,0,0,73,4.969,66.56,167.32284,P-GPS,,51.0
947,94800,2026-01-06 16:39:00,0.0,5,7.415,0.0,0.0,0.0,17.6,0.9,-4.3,1024,1024,1024,1024,0,0,0,0,73,5.067,66.74,167.32284,P-GPS,,51.0
948,94900,2026-01-06 16:39:00,0.0,5,7.415,0.0,0.0,0.0,17.8,0.4,-4.2,1024,1024,1024,1024,0,0,0,0,73,5.067,66.74,166.994756,P-GPS,,50.9
949,95000,2026-01-06 16:39:00,0.0,5,7.415,0.0,0.0,0.0,17.9,-0.4,-3.8,1024,1024,1024,1024,0,0,0,0,73,5.067,66.74,166.994756,P-GPS,,50.9
950,95100,2026-01-06 16:39:00,0.0,5,7.415,0.0,0.0,0.0,17.8,-0.3,-4.3,1024,1024,1024,1024,0,0,0,0,73,5.067,66.74,166.994756,P-GPS,,50.9
951,95200,2026-01-06 16:39:00,0.0,5,7.415,0.0,0.0,0.0,17.9,-0.8,-4.2,1024,1024,1024,1024,0,0,0,0,73,5.067,66.74,166.994756,P-GPS,,50.9
952,95300,2026-01-06 16:39:00,0.0,5,7.415,0.0,0.0,0.0,17.9,-1.0,-3.7,1024,1024,1024,1024,0,0,0,0,73,5.067,66.74,166.994756,P-GPS,,50.9
953,95400,2026-01-06 16:39:00,0.0,5,7.415,0.0,0.0,0.0,17.9,-1.0,-3.8,1024,1024,1024,1024,0,0,0,0,73,5.067,66.74,166.994756,P-GPS,,50.9
954,95500,2026-01-06 16:39:01,0.0,5,7.415,0.0,0.0,0.0,17.9,-0.9,-4.0,1024,1024,1024,1024,0,0,0,0,73,5.067,66.74,166.994756,P-GPS,,50.9
955,95600,2026-01-06 16:39:01,0.0,5,7.415,0.0,0.0,0.0,18.0,-1.0,-3.8,1024,1024,1024,1024,0,0,0,0,73,5.067,66.74,166.994756,P-GPS,,50.9
956,95700,2026-01-06 16:39:01,0.0,5,7.415,0.0,0.0,0.0,17.9,-0.5,-4.1,1024,1024,1024,1024,0,0,0,0,73,5.067,66.74,166.994756,P-GPS,,50.9
957,95800,2026-01-06 16:39:01,0.0,5,7.415,0.0,0.0,0.0,17.9,-0.7,-4.2,1024,1024,1024,1024,0,0,0,0,73,5.067,66.74,166.994756,P-GPS,,50.9
958,95900,2026-01-06 16:39:01,0.0,5,7.417,0.0,0.0,0.0,17.8,0.0,-4.3,1024,1024,1024,1024,0,0,0,0,73,5.108,66.74,166.994756,P-GPS,,50.9
959,96000,2026-01-06 16:39:01,0.0,5,7.417,0.0,0.0,0.0,17.7,0.2,-4.5,1024,1024,1024,1024,0,0,0,0,73,5.108,66.74,166.994756,P-GPS,,50.9
960,96100,2026-01-06 16:39:01,0.0,5,7.417,0.0,0.0,0.0,17.8,0.4,-4.4,1024,1024,1024,1024,0,0,0,0,73,5.108,66.74,166.994756,P-GPS,,50.9
961,96200,2026-01-06 16:39:01,0.0,5,7.417,0.0,0.0,0.0,17.8,0.1,-4.3,1024,1024,1024,1024,0,0,0,0,73,5.108,66.74,166.994756,P-GPS,,50.9
962,96300,2026-01-06 16:39:01,0.0,5,7.417,0.0,0.0,0.0,17.8,0.5,-4.5,1024,1024,1024,1024,0,0,0,0,73,5.108,66.74,166.666672,P-GPS,,50.8
963,96400,2026-01-06 16:39:01,0.0,5,7.417,0.0,0.0,0.0,17.8,0.4,-4.2,1024,1024,1024,1024,0,0,0,0,73,5.108,66.74,166.666672,P-GPS,,50.8
964,96500,2026-01-06 16:39:01,0.0,5,7.417,0.0,0.0,0.0,17.8,0.6,-4.2,1024,1024,1024,1024,0,0,0,0,73,5.108,66.74,166.666672,P-GPS,,50.8
965,96600,2026-01-06 16:39:02,0.0,5,7.417,0.0,0.0,0.0,17.8,0.5,-4.1,1024,1024,1024,1024,0,0,0,0,73,5.108,66.74,166.666672,P-GPS,,50.8
966,96700,2026-01-06 16:39:02,0.0,5,7.417,0.0,0.0,0.0,17.8,0.7,-4.3,1024,1024,1024,1024,0,0,0,0,73,5.108,66.74,166.666672,P-GPS,,50.8
967,96800,2026-01-06 16:39:02,0.0,5,7.417,0.0,0.0,0.0,17.7,0.9,-4.3,1024,1024,1024,1024,0,0,0,0,73,5.108,66.74,166.994756,P-GPS,,50.9
968,96900,2026-01-06 16:39:02,0.0,5,7.417,0.0,0.0,0.0,17.6,1.3,-4.6,1024,1024,1024,1024,0,0,0,0,73,5.108,66.74,166.994756,P-GPS,,50.9
969,97000,2026-01-06 16:39:02,0.0,5,7.417,0.0,0.0,0.0,17.9,0.7,-3.9,1024,1024,1024,1024,0,0,0,0,73,5.108,66.74,166.994756,P-GPS,,50.9
970,97100,2026-01-06 16:39:02,0.0,5,7.412,0.0,0.0,0.0,17.8,0.4,-4.3,1024,1024,1024,1024,0,0,0,0,73,5.123,66.74,166.994756,P-GPS,,50.9
971,97200,2026-01-06 16:39:02,0.0,5,7.412,0.0,0.0,0.0,17.8,0.1,-4.6,1024,1024,1024,1024,0,0,0,0,73,5.123,66.74,166.994756,P-GPS,,50.9
972,97300,2026-01-06 16:39:02,0.0,5,7.412,0.0,0.0,0.0,17.8,0.5,-4.7,1024,1024,1024,1024,0,0,0,0,73,5.123,66.74,166.994756,P-GPS,,50.9
973,97400,2026-01-06 16:39:02,0.0,5,7.412,0.0,0.0,0.0,17.8,0.0,-4.7,1024,1024,1024,1024,0,0,0,0,73,5.123,66.74,167.32284,P-GPS,,51.0
974,97500,2026-01-06 16:39:02,0.0,5,7.412,0.0,0.0,0.0,17.8,-0.1,-4.9,1024,1024,1024,1024,0,0,0,0,73,5.123,66.74,167.32284,P-GPS,,51.0
975,97600,2026-01-06 16:39:03,0.0,5,7.412,0.0,0.0,0.0,17.8,0.1,-4.8,1024,1024,1024,1024,0,0,0,0,73,5.123,66.74,167.32284,P-GPS,,51.0
976,97700,2026-01-06 16:39:03,0.0,5,7.412,0.0,0.0,0.0,17.9,0.0,-4.6,1024,1024,1024,1024,0,0,0,0,73,5.123,66.74,167.32284,P-GPS,,51.0
977,97800,2026-01-06 16:39:03,0.0,5,7.412,0.0,0.0,0.0,17.9,-0.3,-4.6,1024,1024,1024,1024,0,0,0,0,73,5.123,66.74,167.32284,P-GPS,,51.0
978,97900,2026-01-06 16:39:03,0.0,5,7.412,0.0,0.0,0.0,17.9,0.0,-4.5,1024,1024,1024,1024,0,0,0,0,73,5.123,66.74,167.32284,P-GPS,,51.0
979,98000,2026-01-06 16:39:03,0.0,5,7.412,0.0,0.0,0.0,17.9,0.7,-4.4,1024,1024,1024,1024,0,0,0,0,73,5.123,66.74,167.32284,P-GPS,,51.0
980,98100,2026-01-06 16:39:03,0.0,5,7.412,0.0,0.0,0.0,17.9,0.8,-4.5,1024,1024,1024,1024,0,0,0,0,73,5.123,66.74,167.32284,P-GPS,,51.0
981,98200,2026-01-06 16:39:03,0.0,5,7.42,0.0,0.0,0.0,17.9,0.8,-4.5,1024,1024,1024,1024,0,0,0,0,73,4.999,66.74,166.994756,P-GPS,,50.9
982,98300,2026-01-06 16:39:03,0.223694,5,7.42,0.223694,0.0,0.0,17.9,1.4,-4.5,1024,1024,1024,1024,0,0,0,0,73,4.999,66.74,166.994756,P-GPS,,50.9
983,98400,2026-01-06 16:39:03,0.0,5,7.42,0.0,0.0,0.0,17.8,1.6,-4.6,1024,1024,1024,1024,0,0,0,0,73,4.999,66.74,166.994756,P-GPS,,50.9
984,98500,2026-01-06 16:39:03,0.0,5,7.42,0.0,0.0,0.0,17.8,1.7,-4.3,1024,1024,1024,1024,0,0,0,0,73,4.999,66.74,166.994756,P-GPS,,50.9
985,98600,2026-01-06 16:39:04,0.0,5,7.42,0.0,0.0,0.0,17.8,1.5,-4.4,1024,1024,1024,1024,0,0,0,0,73,4.999,66.74,166.994756,P-GPS,,50.9
986,98700,2026-01-06 16:39:04,0.0,5,7.42,0.0,0.0,0.0,17.7,1.7,-5.0,1024,1024,1024,1024,0,0,0,0,73,4.999,66.74,166.994756,P-GPS,,50.9
987,98800,2026-01-06 16:39:04,0.0,5,7.42,0.0,0.0,0.0,17.7,1.4,-5.0,1024,1024,1024,1024,0,0,0,0,73,4.999,66.74,166.994756,P-GPS,,50.9
988,98900,2026-01-06 16:39:04,0.0,5,7.42,0.0,0.0,0.0,17.7,1.1,-5.1,1024,1024,1024,1024,0,0,0,0,73,4.999,66.74,166.994756,P-GPS,,50.9
989,99000,2026-01-06 16:39:04,0.0,5,7.42,0.0,0.0,0.0,17.8,1.0,-5.3,1024,1024,1024,1024,0,0,0,0,73,4.999,66.74,166.994756,P-GPS,,50.9
990,99100,2026-01-06 16:39:04,0.0,5,7.42,0.0,0.0,0.0,17.9,1.0,-4.8,1024,1024,1024,1024,0,0,0,0,73,4.999,66.74,166.994756,P-GPS,,50.9
991,99200,2026-01-06 16:39:04,0.0,5,7.42,0.0,0.0,0.0,17.8,0.5,-4.8,1024,1024,1024,1024,0,0,0,0,73,4.999,66.74,166.994756,P-GPS,,50.9
992,99300,2026-01-06 16:39:04,0.0,5,7.408,0.0,0.0,0.0,17.7,0.7,-5.1,1024,1024,1024,1024,0,0,0,0,73,5.118,66.92,167.32284,P-GPS,,51.0
993,99400,2026-01-06 16:39:04,0.0,5,7.408,0.0,0.0,0.0,17.7,0.5,-5.0,1024,1024,1024,1024,0,0,0,0,73,5.118,66.92,167.32284,P-GPS,,51.0
994,99500,2026-01-06 16:39:04,0.0,5,7.408,0.0,0.0,0.0,17.7,0.4,-5.0,1024,1024,1024,1024,0,0,0,0,73,5.118,66.92,167.32284,P-GPS,,51.0
995,99600,2026-01-06 16:39:05,0.0,5,7.408,0.0,0.0,0.0,17.8,0.5,-5.1,1024,1024,1024,1024,0,0,0,0,73,5.118,66.92,167.32284,P-GPS,,51.0
996,99700,2026-01-06 16:39:05,0.0,5,7.408,0.0,0.0,0.0,17.8,0.8,-5.3,1024,1024,1024,1024,0,0,0,0,73,5.118,66.92,167.32284,P-GPS,,51.0
997,99800,2026-01-06 16:39:05,0.0,5,7.408,0.0,0.0,0.0,17.8,0.7,-5.2,1024,1024,1024,1024,0,0,0,0,73,5.118,66.92,167.32284,P-GPS,,51.0
998,99900,2026-01-06 16:39:05,0.0,5,7.408,0.0,0.0,0.0,17.9,0.4,-4.9,1024,1024,1024,1024,0,0,0,0,73,5.118,66.92,167.32284,P-GPS,,51.0
999,100000,2026-01-06 16:39:05,0.0,5,7.408,0.0,0.0,0.0,17.9,0.3,-4.8,1024,1024,1024,1024,0,0,0,0,73,5.118,66.92,167.32284,P-GPS,,51.0
1000,100100,2026-01-06 16:39:05,0.0,5,7.408,0.0,0.0,0.0,17.8,0.9,-4.8,1024,1024,1024,1024,0,0,0,0,73,5.118,66.92,166.994756,P-GPS,,50.9
1001,100200,2026-01-06 16:39:05,0.0,5,7.408,0.0,0.0,0.0,17.8,1.4,-4.6,1024,1024,1024,1024,0,0,0,0,73,5.118,66.92,166.994756,P-GPS,,50.9
1002,100300,2026-01-06 16:39:05,0.0,5,7.408,0.0,0.0,0.0,17.8,0.8,-4.6,1024,1024,1024,1024,0,0,0,0,73,5.118,66.92,166.994756,P-GPS,,50.9
1003,100400,2026-01-06 16:39:05,0.0,5,7.408,0.0,0.0,0.0,18.0,0.1,-4.3,1024,1024,1024,1024,0,0,0,0,73,5.118,66.92,166.994756,P-GPS,,50.9
1004,100500,2026-01-06 16:39:05,0.0,5,7.408,0.0,0.0,0.0,18.0,0.4,-4.5,1024,1024,1024,1024,0,0,0,0,73,5.118,66.92,166.994756,P-GPS,,50.9
1005,100600,2026-01-06 16:39:06,0.223694,5,7.408,0.223694,0.0,0.0,18.0,1.3,-4.7,1024,1024,1024,1024,0,0,0,0,73,5.118,66.92,166.994756,P-GPS,,50.9
1006,100700,2026-01-06 16:39:06,0.223694,5,7.408,0.223694,0.0,0.0,17.9,2.2,-4.5,1024,1024,1024,1024,0,0,0,0,73,5.118,66.92,166.666672,P-GPS,,50.8
1007,100800,2026-01-06 16:39:06,0.223694,5,7.408,0.223694,0.0,0.0,18.1,2.2,-4.1,1024,1024,1024,1024,0,0,0,0,73,5.118,66.92,166.666672,P-GPS,,50.8
1008,100900,2026-01-06 16:39:06,0.223694,5,7.408,0.223694,0.0,0.0,18.2,2.8,-4.0,1024,1024,1024,1024,0,0,0,0,73,5.118,66.92,166.666672,P-GPS,,50.8
1009,101000,2026-01-06 16:39:06,0.223694,5,7.408,0.223694,0.0,0.0,18.1,3.7,-3.8,1024,1024,1024,1024,0,0,0,0,73,5.118,66.92,166.666672,P-GPS,,50.8
1010,101100,2026-01-06 16:39:06,0.223694,5,7.408,0.223694,0.0,0.0,18.1,4.5,-3.6,1024,1024,1024,1024,0,0,0,0,73,5.118,66.92,166.666672,P-GPS,,50.8
1011,101200,2026-01-06 16:39:06,0.223694,5,7.408,0.223694,0.0,0.0,18.0,5.0,-3.5,1024,1024,1024,1024,0,0,0,0,72,5.118,66.92,166.666672,P-GPS,,50.8
1012,101300,2026-01-06 16:39:06,0.223694,5,7.408,0.223694,0.0,0.0,18.1,5.2,-3.2,1024,1024,1024,1024,0,0,0,0,72,5.118,66.92,166.666672,P-GPS,,50.8
1013,101400,2026-01-06 16:39:06,0.223694,5,7.408,0.223694,0.0,0.0,18.0,4.6,-3.2,1024,1024,1024,1024,0,0,0,0,72,5.118,66.92,166.666672,P-GPS,,50.8
1014,101500,2026-01-06 16:39:06,0.0,5,7.416,0.0,0.0,-0.223694,17.8,5.3,-3.5,1024,1024,1024,1024,0,0,0,0,72,4.863,66.92,166.666672,P-GPS,,50.8
1015,101600,2026-01-06 16:39:07,0.0,5,7.416,0.0,0.0,-0.223694,17.8,5.2,-3.9,1024,1024,1024,1024,0,0,0,0,72,4.863,66.92,166.994756,P-GPS,,50.9
1016,101700,2026-01-06 16:39:07,0.0,5,7.416,0.0,0.0,-0.223694,17.7,4.6,-4.3,1024,1024,1024,1024,0,0,0,0,72,4.863,66.92,166.994756,P-GPS,,50.9
1017,101800,2026-01-06 16:39:07,0.0,5,7.416,0.0,0.0,-0.223694,17.7,4.5,-4.3,1024,1024,1024,1024,0,0,0,0,72,4.863,66.92,166.994756,P-GPS,,50.9
1018,101900,2026-01-06 16:39:07,0.0,5,7.416,0.0,0.0,-0.223694,17.7,4.4,-4.6,1024,1024,1024,1024,0,0,0,0,72,4.863,66.92,166.994756,P-GPS,,50.9
1019,102000,2026-01-06 16:39:07,0.0,5,7.416,0.0,0.0,-0.223694,17.6,3.7,-4.6,1024,1024,1024,1024,0,0,0,0,72,4.863,66.92,167.32284,P-GPS,,51.0
1020,102100,2026-01-06 16:39:07,0.0,5,7.416,0.0,0.0,-0.223694,17.5,3.2,-5.2,1024,1024,1024,1024,0,0,0,0,72,4.863,66.92,167.32284,P-GPS,,51.0
1021,102200,2026-01-06 16:39:07,0.0,5,7.416,0.0,0.0,0.0,17.5,3.1,-5.1,1024,1024,1024,1024,0,0,0,0,72,4.863,66.92,167.32284,P-GPS,,51.0
1022,102300,2026-01-06 16:39:07,0.0,5,7.416,0.0,0.0,0.0,17.5,3.0,-5.2,1024,1024,1024,1024,0,0,0,0,72,4.863,66.92,167.32284,P-GPS,,51.0
1023,102400,2026-01-06 16:39:07,0.0,5,7.416,0.0,0.0,0.0,17.5,2.5,-5.4,1024,1024,1024,1024,0,0,0,0,72,4.863,66.92,167.32284,P-GPS,,51.0
1024,102500,2026-01-06 16:39:07,0.0,5,7.416,0.0,0.0,0.0,17.6,2.5,-5.3,1024,1024,1024,1024,0,0,0,0,72,4.863,66.92,167.650924,P-GPS,,51.1
1025,102600,2026-01-06 16:39:08,0.0,5,7.416,0.0,0.0,0.0,17.6,2.3,-5.1,1024,1024,1024,1024,0,0,0,0,72,4.863,66.92,167.650924,P-GPS,,51.1
1026,102700,2026-01-06 16:39:08,0.0,5,7.431,0.0,0.0,0.0,17.6,2.3,-5.3,1024,1024,1024,1024,0,0,0,0,72,4.758,66.92,167.650924,P-GPS,,51.1
1027,102800,2026-01-06 16:39:08,0.0,5,7.431,0.0,0.0,0.0,17.4,2.7,-5.6,1024,1024,1024,1024,0,0,0,0,72,4.758,66.92,167.650924,P-GPS,,51.1
1028,102900,2026-01-06 16:39:08,0.0,5,7.431,0.0,0.0,0.0,17.4,2.5,-5.2,1024,1024,1024,1024,0,0,0,0,72,4.758,66.92,167.650924,P-GPS,,51.1
1029,103000,2026-01-06 16:39:08,0.0,5,7.431,0.0,0.0,0.0,17.4,2.0,-5.5,1024,1024,1024,1024,0,0,0,0,72,4.758,66.92,167.650924,P-GPS,,51.1
1030,103100,2026-01-06 16:39:08,0.0,5,7.431,0.0,0.0,0.0,17.2,2.3,-5.7,1024,1024,1024,1024,0,0,0,0,72,4.758,66.92,167.650924,P-GPS,,51.1
1031,103200,2026-01-06 16:39:08,0.0,5,7.431,0.0,0.0,0.0,17.3,2.1,-5.6,1024,1024,1024,1024,0,0,0,0,72,4.758,66.92,167.650924,P-GPS,,51.1
1032,103300,2026-01-06 16:39:08,0.0,5,7.431,0.0,0.0,0.0,17.3,1.8,-5.2,1024,1024,1024,1024,0,0,0,0,72,4.758,66.92,167.650924,P-GPS,,51.1
1033,103400,2026-01-06 16:39:08,0.0,5,7.431,0.0,0.0,0.0,17.4,1.5,-5.0,1024,1024,1024,1024,0,0,0,0,72,4.758,66.92,167.650924,P-GPS,,51.1
1034,103500,2026-01-06 16:39:08,0.0,5,7.431,0.0,0.0,0.0,17.4,1.5,-4.9,1024,1024,1024,1024,0,0,0,0,72,4.758,66.92,167.650924,P-GPS,,51.1
1035,103600,2026-01-06 16:39:09,0.0,5,7.431,0.0,0.0,0.0,17.4,1.5,-5.0,1024,1024,1024,1024,0,0,0,0,72,4.758,66.92,167.650924,P-GPS,,51.1
1036,103700,2026-01-06 16:39:09,0.0,5,7.431,0.0,0.0,0.0,17.4,1.9,-5.3,1024,1024,1024,1024,0,0,0,0,72,4.758,66.92,167.650924,P-GPS,,51.1
1037,103800,2026-01-06 16:39:09,0.0,5,7.424,0.0,0.0,0.0,17.5,2.1,-5.4,1024,1024,1024,1024,0,0,0,0,72,4.807,67.1,167.650924,P-GPS,,51.1
1038,103900,2026-01-06 16:39:09,0.0,5,7.424,0.0,0.0,0.0,17.7,1.5,-5.2,1024,1024,1024,1024,0,0,0,0,72,4.807,67.1,167.650924,P-GPS,,51.1
1039,104000,2026-01-06 16:39:09,0.0,5,7.424,0.0,0.0,0.0,17.7,1.2,-5.1,1024,1024,1024,1024,0,0,0,0,72,4.807,67.1,167.650924,P-GPS,,51.1
1040,104100,2026-01-06 16:39:09,0.0,5,7.424,0.0,0.0,0.0,17.8,0.5,-4.6,1024,1024,1024,1024,0,0,0,0,72,4.807,67.1,167.650924,P-GPS,,51.1
1041,104200,2026-01-06 16:39:09,0.0,5,7.424,0.0,0.0,0.0,17.9,0.0,-4.7,1024,1024,1024,1024,0,0,0,0,72,4.807,67.1,167.650924,P-GPS,,51.1
1042,104300,2026-01-06 16:39:09,0.0,5,7.424,0.0,0.0,0.0,17.9,-0.2,-4.6,1024,1024,1024,1024,0,0,0,0,72,4.807,67.1,167.650924,P-GPS,,51.1
1043,104400,2026-01-06 16:39:09,0.0,5,7.424,0.0,0.0,0.0,17.9,-0.1,-4.6,1024,1024,1024,1024,0,0,0,0,72,4.807,67.1,167.650924,P-GPS,,51.1
1044,104500,2026-01-06 16:39:09,0.0,5,7.424,0.0,0.0,0.0,17.9,0.0,-4.7,1024,1024,1024,1024,0,0,0,0,72,4.807,67.1,167.650924,P-GPS,,51.1
1045,104600,2026-01-06 16:39:10,0.0,5,7.424,0.0,0.0,0.0,17.8,0.0,-5.0,1024,1024,1024,1024,0,0,0,0,72,4.807,67.1,167.650924,P-GPS,,51.1
1046,104700,2026-01-06 16:39:10,0.0,5,7.424,0.0,0.0,0.0,17.7,0.6,-5.3,1024,1024,1024,1024,0,0,0,0,72,4.807,67.1,167.650924,P-GPS,,51.1
1047,104800,2026-01-06 16:39:10,0.0,5,7.424,0.0,0.0,0.0,17.9,-0.4,-5.1,1024,1024,1024,1024,0,0,0,0,72,4.807,67.1,167.650924,P-GPS,,51.1
1048,104900,2026-01-06 16:39:10,0.0,5,7.409,0.0,0.0,0.0,17.8,-0.7,-5.3,1024,1024,1024,1024,0,0,0,0,72,5.137,67.1,167.650924,P-GPS,,51.1
1049,105000,2026-01-06 16:39:10,0.0,5,7.409,0.0,0.0,0.0,17.9,-1.5,-5.1,1024,1024,1024,1024,0,0,0,0,72,5.137,67.1,167.650924,P-GPS,,51.1
1050,105100,2026-01-06 16:39:10,0.0,5,7.409,0.0,0.0,0.0,18.0,-1.7,-5.0,1024,1024,1024,1024,0,0,0,0,72,5.137,67.1,167.650924,P-GPS,,51.1
1051,105200,2026-01-06 16:39:10,0.0,5,7.409,0.0,0.0,0.0,17.9,-1.6,-5.2,1024,1024,1024,1024,0,0,0,0,72,5.137,67.1,167.650924,P-GPS,,51.1
1052,105300,2026-01-06 16:39:10,0.0,5,7.409,0.0,0.0,0.0,17.9,-1.6,-5.1,1024,1024,1024,1024,0,0,0,0,72,5.137,67.1,167.650924,P-GPS,,51.1
1053,105400,2026-01-06 16:39:10,0.0,5,7.409,0.0,0.0,0.0,17.9,-1.1,-5.1,1024,1024,1024,1024,0,0,0,0,72,5.137,67.1,167.650924,P-GPS,,51.1
1054,105500,2026-01-06 16:39:10,0.0,5,7.409,0.0,0.0,0.0,17.8,-0.5,-5.0,1024,1024,1024,1024,0,0,0,0,72,5.137,67.1,167.650924,P-GPS,,51.1
1055,105600,2026-01-06 16:39:11,0.0,5,7.409,0.0,0.0,0.0,17.7,0.1,-5.2,1024,1024,1024,1024,0,0,0,0,72,5.137,67.1,167.650924,P-GPS,,51.1
1056,105700,2026-01-06 16:39:11,0.0,5,7.409,0.0,0.0,0.0,17.8,0.1,-5.3,1024,1024,1024,1024,0,0,0,0,72,5.137,67.1,167.650924,P-GPS,,51.1
1057,105800,2026-01-06 16:39:11,0.0,5,7.409,0.0,0.0,0.0,18.0,0.0,-4.9,1024,1024,1024,1024,0,0,0,0,72,5.137,67.1,167.650924,P-GPS,,51.1
1058,105900,2026-01-06 16:39:11,0.0,5,7.409,0.0,0.0,0.0,18.0,0.7,-5.0,1024,1024,1024,1024,0,0,0,0,72,5.137,67.1,167.650924,P-GPS,,51.1
1059,106000,2026-01-06 16:39:11,0.0,5,7.409,0.0,0.0,0.0,17.9,1.1,-5.6,1024,1024,1024,1024,0,0,0,0,72,5.003,67.1,167.650924,P-GPS,,51.1
1060,106100,2026-01-06 16:39:11,0.0,5,7.409,0.0,0.0,0.0,17.9,0.6,-5.8,1024,1024,1024,1024,0,0,0,0,72,5.003,67.1,167.650924,P-GPS,,51.1
1061,106200,2026-01-06 16:39:11,0.0,5,7.409,0.0,0.0,0.0,17.9,0.6,-5.9,1024,1024,1024,1024,0,0,0,0,72,5.003,67.1,167.650924,P-GPS,,51.1
1062,106300,2026-01-06 16:39:11,0.0,5,7.409,0.0,0.0,0.0,17.8,0.9,-6.2,1024,1024,1024,1024,0,0,0,0,72,5.003,67.1,167.650924,P-GPS,,51.1
1063,106400,2026-01-06 16:39:11,0.0,5,7.409,0.0,0.0,0.0,17.7,1.4,-6.3,1024,1024,1024,1024,0,0,0,0,72,5.003,67.1,167.650924,P-GPS,,51.1
1064,106500,2026-01-06 16:39:11,0.0,5,7.409,0.0,0.0,0.0,17.7,2.0,-6.3,1024,1024,1024,1024,0,0,0,0,72,5.003,67.1,167.650924,P-GPS,,51.1
1065,106600,2026-01-06 16:39:12,0.0,5,7.409,0.0,0.0,0.0,17.7,1.7,-6.1,1024,1024,1024,1024,0,0,0,0,72,5.003,67.1,167.650924,P-GPS,,51.1
1066,106700,2026-01-06 16:39:12,0.0,5,7.409,0.0,0.0,0.0,17.7,1.9,-6.1,1024,1024,1024,1024,0,0,0,0,72,5.003,67.1,167.650924,P-GPS,,51.1
1067,106800,2026-01-06 16:39:12,0.0,5,7.409,0.0,0.0,0.0,17.6,2.3,-5.9,1024,1024,1024,1024,0,0,0,0,72,5.003,67.1,167.650924,P-GPS,,51.1
1068,106900,2026-01-06 16:39:12,0.0,5,7.409,0.0,0.0,0.0,17.8,1.7,-5.6,1024,1024,1024,1024,0,0,0,0,72,5.003,67.1,167.650924,P-GPS,,51.1
1069,107000,2026-01-06 16:39:12,0.0,5,7.409,0.0,0.0,0.0,17.7,1.8,-5.6,1024,1024,1024,1024,0,0,0,0,72,5.003,67.1,167.650924,P-GPS,,51.1
1070,107100,2026-01-06 16:39:12,0.0,5,7.414,0.0,0.0,0.0,17.7,2.0,-5.6,1024,1024,1024,1024,0,0,0,0,72,4.955,67.1,167.650924,P-GPS,,51.1
1071,107200,2026-01-06 16:39:12,0.0,5,7.414,0.0,0.0,0.0,17.9,1.9,-5.7,1024,1024,1024,1024,0,0,0,0,72,4.955,67.1,167.650924,P-GPS,,51.1
1072,107300,2026-01-06 16:39:12,0.0,5,7.414,0.0,0.0,0.0,18.0,1.2,-5.6,1024,1024,1024,1024,0,0,0,0,72,4.955,67.1,167.650924,P-GPS,,51.1
1073,107400,2026-01-06 16:39:12,0.0,5,7.414,0.0,0.0,0.0,17.9,0.8,-5.4,1024,1024,1024,1024,0,0,0,0,72,4.955,67.1,167.650924,P-GPS,,51.1
1074,107500,2026-01-06 16:39:12,0.0,5,7.414,0.0,0.0,0.0,18.0,0.9,-5.7,1024,1024,1024,1024,0,0,0,0,72,4.955,67.1,167.32284,P-GPS,,51.0
1075,107600,2026-01-06 16:39:13,0.0,5,7.414,0.0,0.0,0.0,18.0,0.7,-5.0,1024,1024,1024,1024,0,0,0,0,72,4.955,67.1,167.32284,P-GPS,,51.0
1076,107700,2026-01-06 16:39:13,0.0,5,7.414,0.0,0.0,0.0,18.0,0.4,-5.3,1024,1024,1024,1024,0,0,0,0,72,4.955,67.1,167.32284,P-GPS,,51.0
1077,107800,2026-01-06 16:39:13,0.0,5,7.414,0.0,0.0,0.0,17.9,1.8,-5.4,1024,1024,1024,1024,0,0,0,0,72,4.955,67.1,167.32284,P-GPS,,51.0
1078,107900,2026-01-06 16:39:13,0.0,5,7.414,0.0,0.0,0.0,17.9,2.0,-5.3,1024,1024,1024,1024,0,0,0,0,72,4.955,67.1,167.32284,P-GPS,,51.0
1079,108000,2026-01-06 16:39:13,0.0,5,7.414,0.0,0.0,0.0,17.9,1.4,-5.5,1024,1024,1024,1024,0,0,0,0,72,4.955,67.1,167.32284,P-GPS,,51.0
1080,108100,2026-01-06 16:39:13,0.0,5,7.414,0.0,0.0,0.0,17.7,1.6,-5.6,1024,1024,1024,1024,0,0,0,0,72,4.955,67.1,167.32284,P-GPS,,51.0
1081,108200,2026-01-06 16:39:13,0.0,5,7.417,0.0,0.0,0.0,17.5,1.7,-5.8,1024,1024,1024,1024,0,0,0,0,72,4.856,67.1,167.32284,P-GPS,,51.0
1082,108300,2026-01-06 16:39:13,0.0,5,7.417,0.0,0.0,0.0,17.4,1.9,-5.6,1024,1024,1024,1024,0,0,0,0,72,4.856,67.1,166.994756,P-GPS,,50.9
1083,108400,2026-01-06 16:39:13,0.0,5,7.417,0.0,0.0,0.0,17.6,1.6,-5.1,1024,1024,1024,1024,0,0,0,0,72,4.856,67.1,166.994756,P-GPS,,50.9
1084,108500,2026-01-06 16:39:13,0.0,5,7.417,0.0,0.0,0.0,17.7,1.4,-4.9,1024,1024,1024,1024,0,0,0,0,72,4.856,67.1,166.994756,P-GPS,,50.9
1085,108600,2026-01-06 16:39:14,0.0,5,7.417,0.0,0.0,0.0,17.8,0.5,-4.8,1024,1024,1024,1024,0,0,0,0,72,4.856,67.1,166.994756,P-GPS,,50.9
1086,108700,2026-01-06 16:39:14,0.0,5,7.417,0.0,0.0,0.0,17.7,1.8,-5.4,1024,1024,1024,1024,0,0,0,0,72,4.856,67.1,166.994756,P-GPS,,50.9
1087,108800,2026-01-06 16:39:14,0.0,5,7.417,0.0,0.0,0.0,17.5,2.6,-5.6,1024,1024,1024,1024,0,0,0,0,72,4.856,67.1,167.32284,P-GPS,,51.0
1088,108900,2026-01-06 16:39:14,0.0,5,7.417,0.0,0.0,0.0,17.6,2.5,-5.7,1024,1024,1024,1024,0,0,0,0,72,4.856,67.1,167.32284,P-GPS,,51.0
1089,109000,2026-01-06 16:39:14,0.0,5,7.417,0.0,0.0,0.0,17.7,2.5,-5.8,1024,1024,1024,1024,0,0,0,0,72,4.856,67.1,167.32284,P-GPS,,51.0
1090,109200,2026-01-06 16:39:14,0.0,5,7.417,0.0,0.0,0.0,17.7,2.2,-6.1,1024,1024,1024,1024,0,0,0,0,72,4.856,67.1,167.32284,P-GPS,,51.0
1091,109300,2026-01-06 16:39:14,0.0,5,7.417,0.0,0.0,0.0,17.7,2.4,-6.0,1024,1024,1024,1024,0,0,0,0,72,4.856,67.1,167.32284,P-GPS,,51.0
1092,109400,2026-01-06 16:39:14,0.0,5,7.417,0.0,0.0,0.0,17.7,2.0,-6.0,1024,1024,1024,1024,0,0,0,0,72,4.856,67.1,167.32284,P-GPS,,51.0
1093,109500,2026-01-06 16:39:14,0.0,5,7.417,0.0,0.0,0.0,17.7,2.3,-6.2,1024,1024,1024,1024,0,0,0,0,72,4.856,67.1,167.32284,P-GPS,,51.0
1094,109600,2026-01-06 16:39:15,0.0,5,7.417,0.0,0.0,0.0,17.7,2.3,-6.1,1024,1024,1024,1024,0,0,0,0,72,4.856,67.1,167.32284,P-GPS,,51.0
1095,109700,2026-01-06 16:39:15,0.0,5,7.417,0.0,0.0,0.0,17.6,2.4,-6.2,1024,1024,1024,1024,0,0,0,0,72,4.856,67.1,167.32284,P-GPS,,51.0
1096,109800,2026-01-06 16:39:15,0.0,5,7.417,0.0,0.0,0.0,17.6,2.8,-6.0,1024,1024,1024,1024,0,0,0,0,72,4.856,67.1,167.32284,P-GPS,,51.0
1097,109900,2026-01-06 16:39:15,0.0,5,7.417,0.0,0.0,0.0,17.6,2.7,-6.2,1024,1024,1024,1024,0,0,0,0,72,4.856,67.1,167.32284,P-GPS,,51.0
1098,110000,2026-01-06 16:39:15,0.0,5,7.417,0.0,0.0,0.0,17.6,2.9,-6.2,1024,1024,1024,1024,0,0,0,0,72,4.856,67.1,167.32284,P-GPS,,51.0
1099,110100,2026-01-06 16:39:15,0.0,5,7.417,0.0,0.0,0.0,17.7,2.9,-6.1,1024,1024,1024,1024,0,0,0,0,72,4.856,67.1,167.32284,P-GPS,,51.0
1100,110200,2026-01-06 16:39:15,0.0,5,7.417,0.0,0.0,0.0,17.8,2.4,-6.3,1024,1024,1024,1024,0,0,0,0,72,4.856,67.1,167.32284,P-GPS,,51.0
1101,110300,2026-01-06 16:39:15,0.0,5,7.417,0.0,0.0,0.0,17.9,2.2,-6.1,1024,1024,1024,1024,0,0,0,0,72,4.856,67.1,166.994756,P-GPS,,50.9
1102,110400,2026-01-06 16:39:15,0.0,5,7.417,0.0,0.0,0.0,17.8,2.2,-5.9,1024,1024,1024,1024,0,0,0,0,72,4.856,67.1,166.994756,P-GPS,,50.9
1103,110500,2026-01-06 16:39:15,0.0,5,7.406,0.0,0.0,0.0,17.8,1.9,-6.1,1024,1024,1024,1024,0,0,0,0,72,4.875,67.28,166.994756,P-GPS,,50.9
1104,110600,2026-01-06 16:39:16,0.0,5,7.406,0.0,0.0,0.0,17.8,2.1,-6.2,1024,1024,1024,1024,0,0,0,0,72,4.875,67.28,166.994756,P-GPS,,50.9
1105,110700,2026-01-06 16:39:16,0.0,5,7.406,0.0,0.0,0.0,17.8,2.5,-6.1,1024,1024,1024,1024,0,0,0,0,72,4.875,67.28,166.994756,P-GPS,,50.9
1106,110800,2026-01-06 16:39:16,0.0,5,7.406,0.0,0.0,0.0,17.9,2.5,-6.0,1024,1024,1024,1024,0,0,0,0,72,4.875,67.28,166.994756,P-GPS,,50.9
1107,110900,2026-01-06 16:39:16,0.0,5,7.406,0.0,0.0,0.0,17.8,2.9,-5.8,1024,1024,1024,1024,0,0,0,0,72,4.875,67.28,166.994756,P-GPS,,50.9
1108,111000,2026-01-06 16:39:16,0.0,5,7.406,0.0,0.0,0.0,17.7,2.8,-5.7,1024,1024,1024,1024,0,0,0,0,72,4.875,67.28,166.994756,P-GPS,,50.9
1109,111100,2026-01-06 16:39:16,0.0,5,7.406,0.0,0.0,0.0,17.8,2.7,-5.5,1024,1024,1024,1024,0,0,0,0,72,4.875,67.28,166.994756,P-GPS,,50.9
1110,111200,2026-01-06 16:39:16,0.0,5,7.406,0.0,0.0,0.0,17.9,2.0,-5.7,1024,1024,1024,1024,0,0,0,0,72,4.875,67.28,166.994756,P-GPS,,50.9
1111,111300,2026-01-06 16:39:16,0.0,5,7.406,0.0,0.0,0.0,17.8,2.2,-6.0,1024,1024,1024,1024,0,0,0,0,72,4.875,67.28,167.32284,P-GPS,,51.0
1112,111400,2026-01-06 16:39:16,0.0,5,7.406,0.0,0.0,0.0,17.7,2.7,-6.1,1024,1024,1024,1024,0,0,0,0,72,4.875,67.28,167.32284,P-GPS,,51.0
1113,111500,2026-01-06 16:39:17,0.0,5,7.406,0.0,0.0,0.0,17.8,2.7,-6.1,1024,1024,1024,1024,0,0,0,0,72,4.875,67.28,167.32284,P-GPS,,51.0
1114,111600,2026-01-06 16:39:17,0.0,5,7.42,0.0,0.0,0.0,17.8,2.5,-5.9,1024,1024,1024,1024,0,0,0,0,72,4.941,67.28,167.32284,P-GPS,,51.0
1115,111700,2026-01-06 16:39:17,0.0,5,7.42,0.0,0.0,0.0,17.8,2.7,-6.0,1024,1024,1024,1024,0,0,0,0,72,4.941,67.28,167.32284,P-GPS,,51.0
1116,111800,2026-01-06 16:39:17,0.0,5,7.42,0.0,0.0,0.0,17.8,2.6,-5.7,1024,1024,1024,1024,0,0,0,0,72,4.941,67.28,167.32284,P-GPS,,51.0
1117,111900,2026-01-06 16:39:17,0.0,5,7.42,0.0,0.0,0.0,17.8,2.5,-5.7,1024,1024,1024,1024,0,0,0,0,72,4.941,67.28,167.32284,P-GPS,,51.0
1118,112000,2026-01-06 16:39:17,0.0,5,7.42,0.0,0.0,0.0,17.7,2.7,-5.9,1024,1024,1024,1024,0,0,0,0,72,4.941,67.28,167.32284,P-GPS,,51.0
1119,112100,2026-01-06 16:39:17,0.0,5,7.42,0.0,0.0,0.0,17.7,3.1,-5.9,1024,1024,1024,1024,0,0,0,0,72,4.941,67.28,167.32284,P-GPS,,51.0
1120,112200,2026-01-06 16:39:17,0.0,5,7.42,0.0,0.0,0.0,17.7,2.9,-6.2,1024,1024,1024,1024,0,0,0,0,72,4.941,67.28,167.32284,P-GPS,,51.0
1121,112300,2026-01-06 16:39:17,0.0,5,7.42,0.0,0.0,0.0,17.7,3.0,-6.4,1024,1024,1024,1024,0,0,0,0,72,4.941,67.28,167.32284,P-GPS,,51.0
1122,112400,2026-01-06 16:39:17,0.0,5,7.42,0.0,0.0,0.0,17.7,3.2,-6.5,1024,1024,1024,1024,0,0,0,0,72,4.941,67.28,167.32284,P-GPS,,51.0
1123,112500,2026-01-06 16:39:17,0.0,5,7.42,0.0,0.0,0.0,17.8,3.3,-6.4,1024,1024,1024,1024,0,0,0,0,72,4.941,67.28,167.32284,P-GPS,,51.0
1124,112600,2026-01-06 16:39:18,0.0,5,7.42,0.0,0.0,0.0,17.7,3.0,-6.4,1024,1024,1024,1024,0,0,0,0,72,4.941,67.28,167.32284,P-GPS,,51.0
1125,112700,2026-01-06 16:39:18,0.0,5,7.41,0.0,0.0,0.0,17.8,3.0,-6.1,1024,1024,1024,1024,0,0,0,0,72,4.901,67.28,167.32284,P-GPS,,51.0
1126,112800,2026-01-06 16:39:18,0.0,5,7.41,0.0,0.0,0.0,17.8,2.6,-6.2,1024,1024,1024,1024,0,0,0,0,72,4.901,67.28,167.32284,P-GPS,,51.0
