index,time(millisecond),timestamp,speed(mph),gpslevel,voltage(v),xSpeed(mph),ySpeed(mph),zSpeed(mph),compass_heading(degrees),pitch(degrees),roll(degrees),rc_elevator,rc_aileron,rc_throttle,rc_rudder,rc_elevator(percent),rc_aileron(percent),rc_throttle(percent),rc_rudder(percent),battery_percent,current(A),battery_temperature(f),ascent(feet),flycState,message,height_above_takeoff(meters)
788,359900,2026-01-09 20:12:47,0.0,5,7.592,0.0,0.0,0.0,11.8,5.5,-3.0,1024,1024,1024,1024,0,0,0,0,75,4.288,74.48,163.713916,P-GPS,,49.9
789,360000,2026-01-09 20:12:47,0.0,5,7.592,0.0,0.0,0.0,11.7,5.9,-2.9,1024,1024,1024,1024,0,0,0,0,75,4.288,74.48,164.042,P-GPS,,50.0
790,360100,2026-01-09 20:12:48,0.0,5,7.592,0.0,0.0,0.0,11.7,6.4,-2.9,1024,1024,1024,1024,0,0,0,0,75,4.288,74.48,164.042,P-GPS,,50.0
791,360200,2026-01-09 20:12:48,0.0,5,7.592,0.0,0.0,0.0,11.6,6.3,-2.9,1024,1024,1024,1024,0,0,0,0,75,4.288,74.48,164.042,P-GPS,,50.0
792,360300,2026-01-09 20:12:48,0.0,5,7.592,0.0,0.0,0.0,11.7,6.0,-2.7,1024,1024,1024,1024,0,0,0,0,75,4.288,74.48,164.042,P-GPS,,50.0
793,360400,2026-01-09 20:12:48,0.0,5,7.592,0.0,0.0,0.0,11.7,6.0,-2.7,1024,1024,1024,1024,0,0,0,0,75,4.288,74.48,164.042,P-GPS,,50.0
794,360500,2026-01-09 20:12:48,0.0,5,7.592,0.0,0.0,0.0,11.7,5.9,-2.6,1024,1024,1024,1024,0,0,0,0,75,4.288,74.48,164.042,P-GPS,,50.0
795,360600,2026-01-09 20:12:48,0.0,5,7.592,0.0,0.0,0.0,11.7,6.0,-2.6,1024,1024,1024,1024,0,0,0,0,75,4.288,74.48,164.042,P-GPS,,50.0
796,360700,2026-01-09 20:12:48,0.0,5,7.562,0.0,0.0,0.0,11.6,5.7,-2.5,1024,1024,1024,1024,0,0,0,0,75,4.651,74.48,164.042,P-GPS,,50.0
797,360800,2026-01-09 20:12:48,0.0,5,7.562,0.0,0.0,0.0,11.6,5.5,-2.3,1024,1024,1024,1024,0,0,0,0,75,4.651,74.48,164.042,P-GPS,,50.0
798,360900,2026-01-09 20:12:48,0.0,5,7.562,0.0,0.0,0.0,11.6,5.1,-2.2,1024,1024,1024,1024,0,0,0,0,75,4.651,74.48,164.042,P-GPS,,50.0
799,361000,2026-01-09 20:12:49,0.0,5,7.562,0.0,0.0,0.0,11.7,4.8,-1.8,1024,1024,1024,1024,0,0,0,0,75,4.651,74.48,164.042,P-GPS,,50.0
800,361100,2026-01-09 20:12:49,0.0,5,7.562,0.0,0.0,0.0,11.7,4.8,-1.9,1024,1024,1024,1024,0,0,0,0,75,4.651,74.48,164.042,P-GPS,,50.0
801,361200,2026-01-09 20:12:49,0.0,5,7.562,0.0,0.0,0.0,11.7,4.8,-1.9,1024,1024,1024,1024,0,0,0,0,75,4.651,74.48,164.042,P-GPS,,50.0
802,361300,2026-01-09 20:12:49,0.0,5,7.562,0.0,0.0,0.0,11.7,4.8,-2.0,1024,1024,1024,1024,0,0,0,0,75,4.651,74.48,164.042,P-GPS,,50.0
803,361400,2026-01-09 20:12:49,0.0,5,7.562,0.0,0.0,0.0,11.7,4.7,-1.9,1024,1024,1024,1024,0,0,0,0,75,4.651,74.48,164.042,P-GPS,,50.0
804,361500,2026-01-09 20:12:49,0.0,5,7.562,0.0,0.0,0.0,11.7,4.7,-1.7,1024,1024,1024,1024,0,0,0,0,75,4.651,74.48,164.042,P-GPS,,50.0
805,361600,2026-01-09 20:12:49,0.0,5,7.562,0.0,0.0,0.0,11.7,4.7,-1.8,1024,1024,1024,1024,0,0,0,0,75,4.651,74.48,164.042,P-GPS,,50.0
806,361700,2026-01-09 20:12:49,0.0,5,7.562,0.0,0.0,0.0,11.6,5.0,-1.5,1024,1024,1024,1024,0,0,0,0,75,4.651,74.48,164.042,P-GPS,,50.0
807,361800,2026-01-09 20:12:49,0.0,5,7.557,0.0,0.0,0.0,11.6,4.7,-1.3,1024,1024,1024,1024,0,0,0,0,75,4.729,74.48,163.713916,P-GPS,,49.9
808,361900,2026-01-09 20:12:49,0.0,5,7.557,0.0,0.0,0.0,11.6,4.6,-1.3,1024,1024,1024,1024,0,0,0,0,75,4.729,74.48,163.713916,P-GPS,,49.9
809,362000,2026-01-09 20:12:49,0.0,5,7.557,0.0,0.0,0.0,11.6,4.6,-1.2,1024,1024,1024,1024,0,0,0,0,75,4.729,74.48,163.713916,P-GPS,,49.9
810,362100,2026-01-09 20:12:50,0.0,5,7.557,0.0,0.0,0.0,11.6,4.6,-1.2,1024,1024,1024,1024,0,0,0,0,75,4.729,74.48,163.713916,P-GPS,,49.9
811,362200,2026-01-09 20:12:50,0.0,5,7.557,0.0,0.0,0.0,11.6,4.2,-1.0,1024,1024,1024,1024,0,0,0,0,75,4.729,74.48,163.713916,P-GPS,,49.9
812,362300,2026-01-09 20:12:50,0.0,5,7.557,0.0,0.0,0.0,11.6,4.4,-1.0,1024,1024,1024,1024,0,0,0,0,75,4.729,74.48,163.713916,P-GPS,,49.9
813,362400,2026-01-09 20:12:50,0.0,5,7.557,0.0,0.0,0.0,11.6,4.5,-1.0,1024,1024,1024,1024,0,0,0,0,75,4.729,74.48,163.385832,P-GPS,,49.8
814,362500,2026-01-09 20:12:50,0.0,5,7.557,0.0,0.0,0.0,11.6,4.4,-1.2,1024,1024,1024,1024,0,0,0,0,75,4.729,74.48,163.385832,P-GPS,,49.8
815,362600,2026-01-09 20:12:50,0.0,5,7.557,0.0,0.0,0.0,11.6,4.6,-1.1,1024,1024,1024,1024,0,0,0,0,75,4.729,74.48,163.385832,P-GPS,,49.8
816,362700,2026-01-09 20:12:50,0.0,5,7.557,0.0,0.0,0.0,11.6,4.6,-1.1,1024,1024,1024,1024,0,0,0,0,75,4.729,74.48,163.385832,P-GPS,,49.8
817,362800,2026-01-09 20:12:50,0.0,5,7.557,0.0,0.0,0.0,11.6,4.8,-0.9,1024,1024,1024,1024,0,0,0,0,75,4.729,74.48,163.385832,P-GPS,,49.8
818,362900,2026-01-09 20:12:50,0.0,5,7.557,0.0,0.0,0.0,11.6,4.8,-1.0,1024,1024,1024,1024,0,0,0,0,75,4.729,74.48,163.385832,P-GPS,,49.8
819,363000,2026-01-09 20:12:51,0.0,5,7.557,0.0,0.0,0.0,11.6,4.9,-1.1,1024,1024,1024,1024,0,0,0,0,75,4.755,74.48,163.385832,P-GPS,,49.8
820,363100,2026-01-09 20:12:51,0.0,5,7.557,0.0,0.0,0.0,11.7,5.0,-1.1,1024,1024,1024,1024,0,0,0,0,75,4.755,74.48,163.385832,P-GPS,,49.8
821,363200,2026-01-09 20:12:51,0.0,5,7.557,0.0,0.0,0.0,11.7,5.1,-1.4,1024,1024,1024,1024,0,0,0,0,75,4.755,74.48,163.385832,P-GPS,,49.8
822,363300,2026-01-09 20:12:51,0.0,5,7.557,0.0,0.0,0.0,11.6,5.1,-1.5,1024,1024,1024,1024,0,0,0,0,75,4.755,74.48,163.385832,P-GPS,,49.8
823,363400,2026-01-09 20:12:51,0.0,5,7.557,0.0,0.0,0.0,11.6,5.2,-1.4,1024,1024,1024,1024,0,0,0,0,75,4.755,74.48,163.385832,P-GPS,,49.8
824,363500,2026-01-09 20:12:51,0.0,5,7.557,0.0,0.0,0.0,11.6,5.2,-1.3,1024,1024,1024,1024,0,0,0,0,75,4.755,74.48,163.385832,P-GPS,,49.8
825,363600,2026-01-09 20:12:51,0.0,5,7.557,0.0,0.0,0.0,11.7,5.2,-1.5,1024,1024,1024,1024,0,0,0,0,75,4.755,74.48,163.385832,P-GPS,,49.8
826,363700,2026-01-09 20:12:51,0.0,5,7.557,0.0,0.0,0.0,11.6,5.2,-1.7,1024,1024,1024,1024,0,0,0,0,75,4.755,74.48,163.385832,P-GPS,,49.8
827,363800,2026-01-09 20:12:51,0.0,5,7.557,0.0,0.0,0.0,11.6,5.3,-1.6,1024,1024,1024,1024,0,0,0,0,75,4.755,74.48,163.385832,P-GPS,,49.8
828,363900,2026-01-09 20:12:51,0.0,5,7.557,0.0,0.0,0.0,11.5,5.5,-1.4,1024,1024,1024,1024,0,0,0,0,75,4.755,74.48,163.385832,P-GPS,,49.8
829,364000,2026-01-09 20:12:51,0.0,5,7.557,0.0,0.0,0.0,11.5,5.3,-1.4,1024,1024,1024,1024,0,0,0,0,75,4.755,74.48,163.385832,P-GPS,,49.8
830,364100,2026-01-09 20:12:52,0.0,5,7.561,0.0,0.0,0.0,11.5,5.2,-1.2,1024,1024,1024,1024,0,0,0,0,75,4.675,74.66,163.385832,P-GPS,,49.8
831,364200,2026-01-09 20:12:52,0.0,5,7.561,0.0,0.0,0.0,11.5,5.3,-1.3,1024,1024,1024,1024,0,0,0,0,75,4.675,74.66,163.385832,P-GPS,,49.8
832,364300,2026-01-09 20:12:52,0.0,5,7.561,0.0,0.0,0.0,11.5,5.1,-1.2,1024,1024,1024,1024,0,0,0,0,75,4.675,74.66,163.057748,P-GPS,,49.7
833,364400,2026-01-09 20:12:52,0.0,5,7.561,0.0,0.0,0.0,11.5,5.1,-1.4,1024,1024,1024,1024,0,0,0,0,75,4.675,74.66,163.057748,P-GPS,,49.7
834,364500,2026-01-09 20:12:52,0.0,5,7.561,0.0,0.0,0.0,11.6,4.8,-1.3,1024,1024,1024,1024,0,0,0,0,75,4.675,74.66,163.057748,P-GPS,,49.7
835,364600,2026-01-09 20:12:52,0.0,5,7.561,0.0,0.0,0.0,11.6,4.8,-1.0,1024,1024,1024,1024,0,0,0,0,75,4.675,74.66,163.057748,P-GPS,,49.7
836,364700,2026-01-09 20:12:52,0.0,5,7.561,0.0,0.0,0.0,11.6,4.7,-1.1,1024,1024,1024,1024,0,0,0,0,75,4.675,74.66,163.385832,P-GPS,,49.8
837,364800,2026-01-09 20:12:52,0.0,5,7.561,0.0,0.0,0.0,11.7,4.9,-1.1,1024,1024,1024,1024,0,0,0,0,75,4.675,74.66,163.385832,P-GPS,,49.8
838,364900,2026-01-09 20:12:52,0.0,5,7.561,0.0,0.0,0.0,11.7,5.0,-1.3,1024,1024,1024,1024,0,0,0,0,75,4.675,74.66,163.385832,P-GPS,,49.8
839,365000,2026-01-09 20:12:53,0.0,5,7.561,0.0,0.0,0.0,11.6,5.2,-1.6,1024,1024,1024,1024,0,0,0,0,75,4.675,74.66,163.385832,P-GPS,,49.8
840,365100,2026-01-09 20:12:53,0.0,5,7.561,0.0,0.0,0.0,11.6,5.2,-1.7,1024,1024,1024,1024,0,0,0,0,75,4.675,74.66,163.385832,P-GPS,,49.8
841,365200,2026-01-09 20:12:53,0.0,5,7.55,0.0,0.0,0.0,11.6,5.2,-2.0,1024,1024,1024,1024,0,0,0,0,75,4.863,74.66,163.385832,P-GPS,,49.8
842,365300,2026-01-09 20:12:53,0.0,5,7.55,0.0,0.0,0.0,11.7,5.2,-1.9,1024,1024,1024,1024,0,0,0,0,75,4.863,74.66,163.385832,P-GPS,,49.8
843,365400,2026-01-09 20:12:53,0.0,5,7.55,0.0,0.0,0.0,11.6,5.4,-2.1,1024,1024,1024,1024,0,0,0,0,75,4.863,74.66,163.385832,P-GPS,,49.8
844,365500,2026-01-09 20:12:53,0.0,5,7.55,0.0,0.0,0.0,11.7,5.3,-2.4,1024,1024,1024,1024,0,0,0,0,75,4.863,74.66,163.385832,P-GPS,,49.8
845,365600,2026-01-09 20:12:53,0.0,5,7.55,0.0,0.0,0.0,11.7,5.2,-2.6,1024,1024,1024,1024,0,0,0,0,75,4.863,74.66,163.385832,P-GPS,,49.8
846,365700,2026-01-09 20:12:53,0.0,5,7.55,0.0,0.0,0.0,11.7,5.2,-2.5,1024,1024,1024,1024,0,0,0,0,75,4.863,74.66,163.385832,P-GPS,,49.8
847,365800,2026-01-09 20:12:53,0.0,5,7.55,0.0,0.0,0.0,11.7,5.4,-2.6,1024,1024,1024,1024,0,0,0,0,75,4.863,74.66,163.385832,P-GPS,,49.8
848,365900,2026-01-09 20:12:53,0.0,5,7.55,0.0,0.0,0.0,11.6,5.5,-2.6,1024,1024,1024,1024,0,0,0,0,75,4.863,74.66,163.385832,P-GPS,,49.8
849,366000,2026-01-09 20:12:54,0.0,5,7.55,0.0,0.0,0.0,11.6,5.6,-2.5,1024,1024,1024,1024,0,0,0,0,75,4.863,74.66,163.385832,P-GPS,,49.8
850,366100,2026-01-09 20:12:54,0.0,5,7.55,0.0,0.0,0.0,11.6,5.7,-2.3,1024,1024,1024,1024,0,0,0,0,75,4.863,74.66,163.385832,P-GPS,,49.8
851,366200,2026-01-09 20:12:54,0.0,5,7.55,0.0,0.0,0.0,11.6,5.7,-2.3,1024,1024,1024,1024,0,0,0,0,75,4.863,74.66,163.385832,P-GPS,,49.8
852,366300,2026-01-09 20:12:54,0.0,5,7.55,0.0,0.0,0.0,11.6,5.8,-2.1,1024,1024,1024,1024,0,0,0,0,75,4.863,74.66,163.385832,P-GPS,,49.8
853,366400,2026-01-09 20:12:54,0.0,5,7.55,0.0,0.0,0.0,11.6,5.8,-2.1,1024,1024,1024,1024,0,0,0,0,75,4.863,74.66,163.385832,P-GPS,,49.8
854,366500,2026-01-09 20:12:54,0.0,5,7.55,0.0,0.0,0.0,11.6,5.8,-2.1,1024,1024,1024,1024,0,0,0,0,75,4.863,74.66,163.385832,P-GPS,,49.8
855,366600,2026-01-09 20:12:54,0.0,5,7.55,0.0,0.0,0.0,11.6,5.8,-2.1,1024,1024,1024,1024,0,0,0,0,75,4.863,74.66,163.385832,P-GPS,,49.8
856,366700,2026-01-09 20:12:54,0.0,5,7.55,0.0,0.0,0.0,11.6,5.8,-1.9,1024,1024,1024,1024,0,0,0,0,75,4.863,74.66,163.385832,P-GPS,,49.8
857,366800,2026-01-09 20:12:54,0.0,5,7.55,0.0,0.0,0.0,11.6,5.7,-1.8,1024,1024,1024,1024,0,0,0,0,75,4.863,74.66,163.385832,P-GPS,,49.8
858,366900,2026-01-09 20:12:54,0.0,5,7.55,0.0,0.0,0.0,11.6,5.6,-1.8,1024,1024,1024,1024,0,0,0,0,75,4.863,74.66,163.385832,P-GPS,,49.8
859,367000,2026-01-09 20:12:54,0.0,5,7.55,0.0,0.0,0.0,11.6,5.6,-1.6,1024,1024,1024,1024,0,0,0,0,75,4.863,74.66,163.385832,P-GPS,,49.8
860,367100,2026-01-09 20:12:55,0.0,5,7.55,0.0,0.0,0.0,11.6,5.6,-1.7,1024,1024,1024,1024,0,0,0,0,75,4.863,74.66,163.385832,P-GPS,,49.8
861,367200,2026-01-09 20:12:55,0.0,5,7.55,0.0,0.0,0.0,11.6,5.6,-1.6,1024,1024,1024,1024,0,0,0,0,75,4.863,74.66,163.385832,P-GPS,,49.8
862,367300,2026-01-09 20:12:55,0.0,5,7.55,0.0,0.0,0.0,11.6,5.7,-1.6,1024,1024,1024,1024,0,0,0,0,74,4.863,74.66,163.385832,P-GPS,,49.8
863,367400,2026-01-09 20:12:55,0.0,5,7.555,0.0,0.0,0.0,11.6,5.6,-1.8,1024,1024,1024,1024,0,0,0,0,74,4.726,74.66,163.385832,P-GPS,,49.8
864,367500,2026-01-09 20:12:55,0.0,5,7.555,0.0,0.0,0.0,11.6,5.8,-1.7,1024,1024,1024,1024,0,0,0,0,74,4.726,74.66,163.385832,P-GPS,,49.8
865,367600,2026-01-09 20:12:55,0.0,5,7.555,0.0,0.0,0.0,11.6,5.9,-1.6,1024,1024,1024,1024,0,0,0,0,74,4.726,74.66,163.385832,P-GPS,,49.8
866,367700,2026-01-09 20:12:55,0.0,5,7.555,0.0,0.0,0.0,11.6,5.7,-1.8,1024,1024,1024,1024,0,0,0,0,74,4.726,74.66,163.385832,P-GPS,,49.8
867,367800,2026-01-09 20:12:55,0.0,5,7.555,0.0,0.0,0.0,11.6,5.9,-1.8,1024,1024,1024,1024,0,0,0,0,74,4.726,74.66,163.057748,P-GPS,,49.7
868,367900,2026-01-09 20:12:55,0.0,5,7.555,0.0,0.0,0.0,11.6,5.8,-1.8,1024,1024,1024,1024,0,0,0,0,74,4.726,74.66,163.057748,P-GPS,,49.7
869,368000,2026-01-09 20:12:56,0.0,5,7.555,0.0,0.0,0.0,11.6,5.7,-1.9,1024,1024,1024,1024,0,0,0,0,74,4.726,74.66,163.057748,P-GPS,,49.7
870,368100,2026-01-09 20:12:56,0.0,5,7.555,0.0,0.0,0.0,11.6,5.8,-2.0,1024,1024,1024,1024,0,0,0,0,74,4.726,74.66,163.057748,P-GPS,,49.7
871,368200,2026-01-09 20:12:56,0.0,5,7.555,0.0,0.0,0.0,11.6,5.7,-2.0,1024,1024,1024,1024,0,0,0,0,74,4.726,74.66,163.057748,P-GPS,,49.7
872,368300,2026-01-09 20:12:56,0.0,5,7.555,0.0,0.0,0.0,11.6,5.5,-2.1,1024,1024,1024,1024,0,0,0,0,74,4.726,74.66,163.057748,P-GPS,,49.7
873,368400,2026-01-09 20:12:56,0.0,5,7.555,0.0,0.0,0.0,11.6,5.6,-2.1,1024,1024,1024,1024,0,0,0,0,74,4.726,74.66,163.057748,P-GPS,,49.7
874,368500,2026-01-09 20:12:56,0.0,5,7.559,0.0,0.0,0.0,11.6,5.6,-2.2,1024,1024,1024,1024,0,0,0,0,74,4.671,74.66,163.057748,P-GPS,,49.7
875,368600,2026-01-09 20:12:56,0.0,5,7.559,0.0,0.0,0.0,11.6,5.5,-2.2,1024,1024,1024,1024,0,0,0,0,74,4.671,74.66,163.057748,P-GPS,,49.7
876,368700,2026-01-09 20:12:56,0.0,5,7.559,0.0,0.0,0.0,11.6,5.6,-2.1,1024,1024,1024,1024,0,0,0,0,74,4.671,74.66,163.057748,P-GPS,,49.7
877,368800,2026-01-09 20:12:56,0.0,5,7.559,0.0,0.0,0.0,11.6,5.8,-2.2,1024,1024,1024,1024,0,0,0,0,74,4.671,74.66,163.057748,P-GPS,,49.7
878,368900,2026-01-09 20:12:56,0.0,5,7.559,0.0,0.0,0.0,11.6,5.8,-2.1,1024,1024,1024,1024,0,0,0,0,74,4.671,74.66,163.057748,P-GPS,,49.7
879,369000,2026-01-09 20:12:56,0.0,5,7.559,0.0,0.0,0.0,11.6,5.7,-2.0,1024,1024,1024,1024,0,0,0,0,74,4.671,74.66,163.057748,P-GPS,,49.7
880,369100,2026-01-09 20:12:57,0.0,5,7.559,0.0,0.0,0.0,11.6,5.7,-2.0,1024,1024,1024,1024,0,0,0,0,74,4.671,74.66,163.057748,P-GPS,,49.7
881,369200,2026-01-09 20:12:57,0.0,5,7.559,0.0,0.0,0.0,11.6,5.6,-2.0,1024,1024,1024,1024,0,0,0,0,74,4.671,74.66,163.057748,P-GPS,,49.7
882,369300,2026-01-09 20:12:57,0.0,5,7.559,0.0,0.0,0.0,11.6,5.6,-2.0,1024,1024,1024,1024,0,0,0,0,74,4.671,74.66,163.057748,P-GPS,,49.7
883,369400,2026-01-09 20:12:57,0.0,5,7.559,0.0,0.0,0.0,11.6,5.7,-2.0,1024,1024,1024,1024,0,0,0,0,74,4.671,74.66,163.057748,P-GPS,,49.7
884,369500,2026-01-09 20:12:57,0.0,5,7.559,0.0,0.0,0.0,11.6,5.6,-2.0,1024,1024,1024,1024,0,0,0,0,74,4.671,74.66,162.729664,P-GPS,,49.6
885,369600,2026-01-09 20:12:57,0.0,5,7.555,0.0,0.0,0.0,11.6,5.6,-2.0,1024,1024,1024,1024,0,0,0,0,74,4.698,74.66,162.729664,P-GPS,,49.6
886,369700,2026-01-09 20:12:57,0.0,5,7.555,0.0,0.0,0.0,11.6,5.6,-1.9,1024,1024,1024,1024,0,0,0,0,74,4.698,74.66,162.729664,P-GPS,,49.6
887,369800,2026-01-09 20:12:57,0.0,5,7.555,0.0,0.0,0.0,11.6,5.5,-1.9,1024,1024,1024,1024,0,0,0,0,74,4.698,74.66,162.729664,P-GPS,,49.6
888,369900,2026-01-09 20:12:57,0.0,5,7.555,0.0,0.0,0.0,11.6,5.4,-1.8,1024,1024,1024,1024,0,0,0,0,74,4.698,74.66,162.729664,P-GPS,,49.6
889,370000,2026-01-09 20:12:58,0.0,5,7.555,0.0,0.0,0.0,11.6,5.4,-1.8,1024,1024,1024,1024,0,0,0,0,74,4.698,74.66,162.729664,P-GPS,,49.6
890,370100,2026-01-09 20:12:58,0.0,5,7.555,0.0,0.0,0.0,11.6,5.4,-1.8,1024,1024,1024,1024,0,0,0,0,74,4.698,74.66,162.729664,P-GPS,,49.6
891,370200,2026-01-09 20:12:58,0.0,5,7.555,0.0,0.0,0.0,11.6,5.3,-1.8,1024,1024,1024,1024,0,0,0,0,74,4.698,74.66,162.729664,P-GPS,,49.6
892,370300,2026-01-09 20:12:58,0.0,5,7.555,0.0,0.0,0.0,11.6,5.3,-1.8,1024,1024,1024,1024,0,0,0,0,74,4.698,74.66,162.729664,P-GPS,,49.6
893,370400,2026-01-09 20:12:58,0.0,5,7.555,0.0,0.0,0.0,11.6,5.5,-1.8,1024,1024,1024,1024,0,0,0,0,74,4.698,74.66,162.729664,P-GPS,,49.6
894,370500,2026-01-09 20:12:58,0.0,5,7.555,0.0,0.0,0.0,11.6,5.4,-2.0,1024,1024,1024,1024,0,0,0,0,74,4.698,74.66,162.729664,P-GPS,,49.6
895,370600,2026-01-09 20:12:58,0.0,5,7.555,0.0,0.0,0.0,11.6,5.5,-2.0,1024,1024,1024,1024,0,0,0,0,74,4.698,74.66,162.729664,P-GPS,,49.6
896,370700,2026-01-09 20:12:58,0.0,5,7.555,0.0,0.0,0.0,11.6,5.6,-2.0,1024,1024,1024,1024,0,0,0,0,74,4.693,74.66,162.40158,P-GPS,,49.5
897,370800,2026-01-09 20:12:58,0.0,5,7.555,0.0,0.0,0.0,11.6,5.7,-2.1,1024,1024,1024,1024,0,0,0,0,74,4.693,74.66,162.40158,P-GPS,,49.5
898,370900,2026-01-09 20:12:58,0.0,5,7.555,0.0,0.0,0.0,11.6,5.6,-2.0,1024,1024,1024,1024,0,0,0,0,74,4.693,74.66,162.40158,P-GPS,,49.5
899,371000,2026-01-09 20:12:58,0.0,5,7.555,0.0,0.0,0.0,11.6,5.7,-2.1,1024,1024,1024,1024,0,0,0,0,74,4.693,74.66,162.40158,P-GPS,,49.5
900,371100,2026-01-09 20:12:59,0.0,5,7.555,0.0,0.0,0.0,11.6,5.7,-2.1,1024,1024,1024,1024,0,0,0,0,74,4.693,74.66,162.40158,P-GPS,,49.5
901,371200,2026-01-09 20:12:59,0.0,5,7.555,0.0,0.0,0.0,11.6,5.5,-2.1,1024,1024,1024,1024,0,0,0,0,74,4.693,74.66,162.40158,P-GPS,,49.5
902,371300,2026-01-09 20:12:59,0.0,5,7.555,0.0,0.0,0.0,11.6,5.4,-2.1,1024,1024,1024,1024,0,0,0,0,74,4.693,74.66,162.40158,P-GPS,,49.5
903,371400,2026-01-09 20:12:59,0.0,5,7.555,0.0,0.0,0.0,11.6,5.5,-2.0,1024,1024,1024,1024,0,0,0,0,74,4.693,74.66,162.40158,P-GPS,,49.5
904,371500,2026-01-09 20:12:59,0.0,5,7.555,0.0,0.0,0.0,11.6,5.6,-1.9,1024,1024,1024,1024,0,0,0,0,74,4.693,74.66,162.40158,P-GPS,,49.5
905,371600,2026-01-09 20:12:59,0.0,5,7.555,0.0,0.0,0.0,11.6,5.4,-1.9,1024,1024,1024,1024,0,0,0,0,74,4.693,74.66,162.40158,P-GPS,,49.5
906,371700,2026-01-09 20:12:59,0.0,5,7.555,0.0,0.0,0.0,11.6,5.2,-2.0,1024,1024,1024,1024,0,0,0,0,74,4.693,74.66,162.40158,P-GPS,,49.5
907,371800,2026-01-09 20:12:59,0.0,5,7.553,0.0,0.0,0.0,11.6,5.4,-2.0,1024,1024,1024,1024,0,0,0,0,74,4.69,74.66,162.40158,P-GPS,,49.5
908,371900,2026-01-09 20:12:59,0.0,5,7.553,0.0,0.0,0.0,11.6,5.4,-2.1,1024,1024,1024,1024,0,0,0,0,74,4.69,74.66,162.40158,P-GPS,,49.5
909,372000,2026-01-09 20:12:59,0.0,5,7.553,0.0,0.0,0.0,11.6,5.5,-2.1,1024,1024,1024,1024,0,0,0,0,74,4.69,74.66,162.40158,P-GPS,,49.5
910,372100,2026-01-09 20:13:00,0.0,5,7.553,0.0,0.0,0.0,11.6,5.4,-2.2,1024,1024,1024,1024,0,0,0,0,74,4.69,74.66,162.40158,P-GPS,,49.5
911,372200,2026-01-09 20:13:00,0.0,5,7.553,0.0,0.0,0.0,11.6,5.3,-2.3,1024,1024,1024,1024,0,0,0,0,74,4.69,74.66,162.40158,P-GPS,,49.5
912,372300,2026-01-09 20:13:00,0.0,5,7.553,0.0,0.0,0.0,11.6,5.3,-2.3,1024,1024,1024,1024,0,0,0,0,74,4.69,74.66,162.40158,P-GPS,,49.5
913,372400,2026-01-09 20:13:00,0.0,5,7.553,0.0,0.0,0.0,11.6,5.3,-2.4,1024,1024,1024,1024,0,0,0,0,74,4.69,74.66,162.40158,P-GPS,,49.5
914,372500,2026-01-09 20:13:00,0.0,5,7.553,0.0,0.0,0.0,11.6,5.3,-2.2,1024,1024,1024,1024,0,0,0,0,74,4.69,74.66,162.40158,P-GPS,,49.5
915,372600,2026-01-09 20:13:00,0.0,5,7.553,0.0,0.0,0.0,11.6,5.2,-2.1,1024,1024,1024,1024,0,0,0,0,74,4.69,74.66,162.073496,P-GPS,,49.4
916,372700,2026-01-09 20:13:00,0.0,5,7.553,0.0,0.0,0.0,11.6,5.1,-2.1,1024,1024,1024,1024,0,0,0,0,74,4.69,74.66,162.073496,P-GPS,,49.4
917,372800,2026-01-09 20:13:00,0.0,5,7.553,0.0,0.0,0.0,11.6,5.0,-2.3,1024,1024,1024,1024,0,0,0,0,74,4.69,74.66,162.073496,P-GPS,,49.4
918,372900,2026-01-09 20:13:00,0.0,5,7.554,0.0,0.0,0.0,11.6,4.9,-2.3,1024,1024,1024,1024,0,0,0,0,74,4.693,74.66,162.073496,P-GPS,,49.4
919,373000,2026-01-09 20:13:01,0.0,5,7.554,0.0,0.0,0.0,11.6,4.9,-2.2,1024,1024,1024,1024,0,0,0,0,74,4.693,74.66,162.073496,P-GPS,,49.4
920,373100,2026-01-09 20:13:01,0.0,5,7.554,0.0,0.0,0.0,11.6,4.9,-2.2,1024,1024,1024,1024,0,0,0,0,74,4.693,74.66,162.073496,P-GPS,,49.4
921,373200,2026-01-09 20:13:01,0.0,5,7.554,0.0,0.0,0.0,11.6,5.2,-2.1,1024,1024,1024,1024,0,0,0,0,74,4.693,74.66,162.073496,P-GPS,,49.4
922,373300,2026-01-09 20:13:01,0.0,5,7.554,0.0,0.0,0.0,11.6,5.2,-2.1,1024,1024,1024,1024,0,0,0,0,74,4.693,74.66,162.073496,P-GPS,,49.4
923,373400,2026-01-09 20:13:01,0.0,5,7.554,0.0,0.0,0.0,11.6,5.1,-2.2,1024,1024,1024,1024,0,0,0,0,74,4.693,74.66,162.073496,P-GPS,,49.4
924,373500,2026-01-09 20:13:01,0.0,5,7.554,0.0,0.0,0.0,11.6,5.1,-2.1,1024,1024,1024,1024,0,0,0,0,74,4.693,74.66,162.073496,P-GPS,,49.4
925,373600,2026-01-09 20:13:01,0.0,5,7.554,0.0,0.0,0.0,11.6,5.2,-2.2,1024,1024,1024,1024,0,0,0,0,74,4.693,74.66,162.073496,P-GPS,,49.4
926,373700,2026-01-09 20:13:01,0.0,5,7.554,0.0,0.0,0.0,11.6,5.3,-2.2,1024,1024,1024,1024,0,0,0,0,74,4.693,74.66,162.073496,P-GPS,,49.4
927,373800,2026-01-09 20:13:01,0.0,5,7.554,0.0,0.0,0.0,11.6,5.3,-2.2,1024,1024,1024,1024,0,0,0,0,74,4.693,74.66,162.073496,P-GPS,,49.4
928,373900,2026-01-09 20:13:01,0.0,5,7.554,0.0,0.0,0.0,11.6,5.3,-2.1,1024,1024,1024,1024,0,0,0,0,74,4.693,74.66,162.073496,P-GPS,,49.4
929,374000,2026-01-09 20:13:01,0.0,5,7.553,0.0,0.0,0.0,11.6,5.3,-2.0,1024,1024,1024,1024,0,0,0,0,74,4.698,74.66,162.073496,P-GPS,,49.4
930,374100,2026-01-09 20:13:02,0.0,5,7.553,0.0,0.0,0.0,11.6,5.2,-1.9,1024,1024,1024,1024,0,0,0,0,74,4.698,74.66,162.073496,P-GPS,,49.4
931,374200,2026-01-09 20:13:02,0.0,5,7.553,0.0,0.0,0.0,11.6,5.2,-2.0,1024,1024,1024,1024,0,0,0,0,74,4.698,74.66,162.073496,P-GPS,,49.4
932,374300,2026-01-09 20:13:02,0.0,5,7.553,0.0,0.0,0.0,11.6,5.2,-2.0,1024,1024,1024,1024,0,0,0,0,74,4.698,74.66,162.073496,P-GPS,,49.4
933,374400,2026-01-09 20:13:02,0.0,5,7.553,0.0,0.0,0.0,11.6,5.4,-2.0,1024,1024,1024,1024,0,0,0,0,74,4.698,74.66,162.073496,P-GPS,,49.4
934,374500,2026-01-09 20:13:02,0.0,5,7.553,0.0,0.0,0.0,11.6,5.5,-2.0,1024,1024,1024,1024,0,0,0,0,74,4.698,74.66,162.073496,P-GPS,,49.4
935,374600,2026-01-09 20:13:02,0.0,5,7.553,0.0,0.0,0.0,11.6,5.6,-2.0,1024,1024,1024,1024,0,0,0,0,74,4.698,74.66,162.073496,P-GPS,,49.4
936,374700,2026-01-09 20:13:02,0.0,5,7.553,0.0,0.0,0.0,11.6,5.4,-1.9,1024,1024,1024,1024,0,0,0,0,74,4.698,74.66,162.073496,P-GPS,,49.4
937,374800,2026-01-09 20:13:02,0.0,5,7.553,0.0,0.0,0.0,11.6,5.3,-1.9,1024,1024,1024,1024,0,0,0,0,74,4.698,74.66,162.073496,P-GPS,,49.4
938,374900,2026-01-09 20:13:02,0.0,5,7.553,0.0,0.0,0.0,11.6,5.3,-2.1,1024,1024,1024,1024,0,0,0,0,74,4.698,74.66,162.073496,P-GPS,,49.4
939,375000,2026-01-09 20:13:03,0.0,5,7.553,0.0,0.0,0.0,11.6,5.7,-2.1,1024,1024,1024,1024,0,0,0,0,74,4.698,74.66,162.073496,P-GPS,,49.4
940,375100,2026-01-09 20:13:03,0.0,5,7.551,0.0,0.0,0.0,11.7,5.5,-2.1,1024,1024,1024,1024,0,0,0,0,74,4.734,74.66,162.073496,P-GPS,,49.4
941,375200,2026-01-09 20:13:03,0.0,5,7.551,0.0,0.0,0.0,11.6,5.4,-2.0,1024,1024,1024,1024,0,0,0,0,74,4.734,74.66,162.073496,P-GPS,,49.4
942,375300,2026-01-09 20:13:03,0.0,5,7.551,0.0,0.0,0.0,11.6,5.3,-1.9,1024,1024,1024,1024,0,0,0,0,74,4.734,74.66,162.073496,P-GPS,,49.4
943,375400,2026-01-09 20:13:03,0.0,5,7.551,0.0,0.0,0.0,11.6,5.4,-2.0,1024,1024,1024,1024,0,0,0,0,74,4.734,74.66,162.073496,P-GPS,,49.4
944,375500,2026-01-09 20:13:03,0.0,5,7.551,0.0,0.0,0.0,11.6,5.4,-2.0,1024,1024,1024,1024,0,0,0,0,74,4.734,74.66,162.073496,P-GPS,,49.4
945,375600,2026-01-09 20:13:03,0.0,5,7.551,0.0,0.0,0.0,11.6,5.3,-1.9,1024,1024,1024,1024,0,0,0,0,74,4.734,74.66,162.073496,P-GPS,,49.4
946,375700,2026-01-09 20:13:03,0.0,5,7.551,0.0,0.0,0.0,11.6,5.4,-1.9,1024,1024,1024,1024,0,0,0,0,74,4.734,74.66,161.745412,P-GPS,,49.3
947,375800,2026-01-09 20:13:03,0.0,5,7.551,0.0,0.0,0.0,11.6,5.3,-1.9,1024,1024,1024,1024,0,0,0,0,74,4.734,74.66,161.745412,P-GPS,,49.3
948,375900,2026-01-09 20:13:03,0.0,5,7.551,0.0,0.0,0.0,11.6,5.3,-1.8,1024,1024,1024,1024,0,0,0,0,74,4.734,74.66,161.745412,P-GPS,,49.3
949,376000,2026-01-09 20:13:04,0.0,5,7.551,0.0,0.0,0.0,11.6,5.3,-2.1,1024,1024,1024,1024,0,0,0,0,74,4.734,74.66,161.745412,P-GPS,,49.3
950,376100,2026-01-09 20:13:04,0.0,5,7.551,0.0,0.0,0.0,11.6,5.3,-2.2,1024,1024,1024,1024,0,0,0,0,74,4.734,74.66,161.745412,P-GPS,,49.3
951,376200,2026-01-09 20:13:04,0.0,5,7.553,0.0,0.0,0.0,11.6,5.5,-2.3,1024,1024,1024,1024,0,0,0,0,74,4.712,74.66,161.745412,P-GPS,,49.3
952,376300,2026-01-09 20:13:04,0.0,5,7.553,0.0,0.0,0.0,11.6,5.4,-2.1,1024,1024,1024,1024,0,0,0,0,74,4.712,74.66,161.745412,P-GPS,,49.3
953,376400,2026-01-09 20:13:04,0.0,5,7.553,0.0,0.0,0.0,11.6,5.4,-2.0,1024,1024,1024,1024,0,0,0,0,74,4.712,74.66,161.745412,P-GPS,,49.3
954,376500,2026-01-09 20:13:04,0.0,5,7.553,0.0,0.0,0.0,11.6,5.4,-1.9,1024,1024,1024,1024,0,0,0,0,74,4.712,74.66,161.745412,P-GPS,,49.3
955,376600,2026-01-09 20:13:04,0.0,5,7.553,0.0,0.0,0.0,11.6,5.4,-2.1,1024,1024,1024,1024,0,0,0,0,74,4.712,74.66,161.745412,P-GPS,,49.3
956,376700,2026-01-09 20:13:04,0.0,5,7.553,0.0,0.0,0.0,11.6,5.4,-2.2,1024,1024,1024,1024,0,0,0,0,74,4.712,74.66,161.745412,P-GPS,,49.3
957,376800,2026-01-09 20:13:04,0.0,5,7.553,0.0,0.0,0.0,11.6,5.4,-2.2,1024,1024,1024,1024,0,0,0,0,74,4.712,74.66,161.745412,P-GPS,,49.3
958,376900,2026-01-09 20:13:04,0.0,5,7.553,0.0,0.0,0.0,11.6,5.4,-2.1,1024,1024,1024,1024,0,0,0,0,74,4.712,74.66,161.745412,P-GPS,,49.3
959,377000,2026-01-09 20:13:04,0.0,5,7.553,0.0,0.0,0.0,11.6,5.4,-2.0,1024,1024,1024,1024,0,0,0,0,74,4.712,74.66,161.745412,P-GPS,,49.3
960,377100,2026-01-09 20:13:05,0.0,5,7.553,0.0,0.0,0.0,11.6,5.5,-1.9,1024,1024,1024,1024,0,0,0,0,74,4.712,74.66,161.745412,P-GPS,,49.3
961,377200,2026-01-09 20:13:05,0.0,5,7.553,0.0,0.0,0.0,11.6,5.7,-1.9,1024,1024,1024,1024,0,0,0,0,74,4.712,74.66,161.745412,P-GPS,,49.3
962,377300,2026-01-09 20:13:05,0.0,5,7.553,0.0,0.0,0.0,11.7,5.7,-1.8,1024,1024,1024,1024,0,0,0,0,74,4.712,74.66,161.745412,P-GPS,,49.3
963,377400,2026-01-09 20:13:05,0.0,5,7.553,0.0,0.0,0.0,11.7,5.6,-1.9,1024,1024,1024,1024,0,0,0,0,74,4.712,74.66,161.745412,P-GPS,,49.3
964,377500,2026-01-09 20:13:05,0.0,5,7.553,0.0,0.0,0.0,11.6,5.8,-1.8,1024,1024,1024,1024,0,0,0,0,74,4.712,74.66,161.745412,P-GPS,,49.3
965,377600,2026-01-09 20:13:05,0.0,5,7.553,0.0,0.0,0.0,11.6,5.8,-1.9,1024,1024,1024,1024,0,0,0,0,74,4.712,74.66,161.745412,P-GPS,,49.3
966,377700,2026-01-09 20:13:05,0.0,5,7.553,0.0,0.0,0.0,11.6,5.8,-1.7,1024,1024,1024,1024,0,0,0,0,74,4.712,74.66,161.745412,P-GPS,,49.3
967,377800,2026-01-09 20:13:05,0.0,5,7.553,0.0,0.0,0.0,11.6,6.0,-1.8,1024,1024,1024,1024,0,0,0,0,74,4.712,74.66,161.745412,P-GPS,,49.3
968,377900,2026-01-09 20:13:05,0.0,5,7.553,0.0,0.0,0.0,11.6,6.1,-1.6,1024,1024,1024,1024,0,0,0,0,74,4.712,74.66,161.745412,P-GPS,,49.3
969,378000,2026-01-09 20:13:06,0.0,5,7.553,0.0,0.0,0.0,11.5,6.3,-1.5,1024,1024,1024,1024,0,0,0,0,74,4.712,74.66,161.745412,P-GPS,,49.3
970,378100,2026-01-09 20:13:06,0.0,5,7.553,0.0,0.0,0.0,11.5,6.3,-1.6,1024,1024,1024,1024,0,0,0,0,74,4.712,74.66,161.745412,P-GPS,,49.3
971,378200,2026-01-09 20:13:06,0.0,5,7.553,0.0,0.0,0.0,11.6,6.2,-1.9,1024,1024,1024,1024,0,0,0,0,74,4.712,74.66,162.073496,P-GPS,,49.4
972,378300,2026-01-09 20:13:06,0.0,5,7.553,0.0,0.0,0.0,11.5,6.5,-2.1,1024,1024,1024,1024,0,0,0,0,74,4.712,74.66,162.073496,P-GPS,,49.4
973,378400,2026-01-09 20:13:06,0.0,5,7.545,0.0,0.0,0.0,11.6,6.4,-2.1,1024,1024,1024,1024,0,0,0,0,74,4.817,74.66,162.073496,P-GPS,,49.4
974,378500,2026-01-09 20:13:06,0.0,5,7.545,0.0,0.0,0.0,11.6,6.3,-2.2,1024,1024,1024,1024,0,0,0,0,74,4.817,74.66,162.073496,P-GPS,,49.4
975,378600,2026-01-09 20:13:06,0.0,5,7.545,0.0,0.0,0.0,11.6,6.4,-2.0,1024,1024,1024,1024,0,0,0,0,74,4.817,74.66,162.073496,P-GPS,,49.4
976,378700,2026-01-09 20:13:06,0.0,5,7.545,0.0,0.0,0.0,11.6,6.3,-2.0,1024,1024,1024,1024,0,0,0,0,74,4.817,74.66,162.073496,P-GPS,,49.4
977,378800,2026-01-09 20:13:06,0.0,5,7.545,0.0,0.0,0.0,11.6,6.3,-1.8,1024,1024,1024,1024,0,0,0,0,74,4.817,74.66,162.073496,P-GPS,,49.4
978,378900,2026-01-09 20:13:06,0.0,5,7.545,0.0,0.0,0.0,11.6,6.3,-1.9,1024,1024,1024,1024,0,0,0,0,74,4.817,74.66,162.073496,P-GPS,,49.4
979,379000,2026-01-09 20:13:06,0.0,5,7.545,0.0,0.0,0.0,11.5,6.5,-2.2,1024,1024,1024,1024,0,0,0,0,74,4.817,74.66,162.073496,P-GPS,,49.4
980,379100,2026-01-09 20:13:07,0.0,5,7.545,0.0,0.0,0.0,11.5,6.4,-2.2,1024,1024,1024,1024,0,0,0,0,74,4.817,74.66,162.073496,P-GPS,,49.4
981,379200,2026-01-09 20:13:07,0.0,5,7.545,0.0,0.0,0.0,11.6,6.6,-2.2,1024,1024,1024,1024,0,0,0,0,74,4.817,74.66,162.073496,P-GPS,,49.4
982,379300,2026-01-09 20:13:07,0.0,5,7.545,0.0,0.0,0.0,11.6,6.3,-1.9,1024,1024,1024,1024,0,0,0,0,74,4.817,74.66,162.073496,P-GPS,,49.4
983,379400,2026-01-09 20:13:07,0.0,5,7.545,0.0,0.0,0.0,11.6,6.3,-2.1,1024,1024,1024,1024,0,0,0,0,74,4.817,74.66,162.073496,P-GPS,,49.4
984,379500,2026-01-09 20:13:07,0.0,5,7.545,0.0,0.0,0.0,11.6,6.2,-2.1,1024,1024,1024,1024,0,0,0,0,74,4.817,74.66,162.073496,P-GPS,,49.4
985,379600,2026-01-09 20:13:07,0.0,5,7.547,0.0,0.0,0.0,11.6,6.2,-2.1,1024,1024,1024,1024,0,0,0,0,74,4.785,74.66,162.073496,P-GPS,,49.4
986,379700,2026-01-09 20:13:07,0.0,5,7.547,0.0,0.0,0.0,11.6,6.1,-2.1,1024,1024,1024,1024,0,0,0,0,74,4.785,74.66,162.073496,P-GPS,,49.4
987,379800,2026-01-09 20:13:07,0.0,5,7.547,0.0,0.0,0.0,11.6,6.1,-2.1,1024,1024,1024,1024,0,0,0,0,74,4.785,74.66,162.073496,P-GPS,,49.4
988,379900,2026-01-09 20:13:07,0.0,5,7.547,0.0,0.0,0.0,11.6,6.0,-2.1,1024,1024,1024,1024,0,0,0,0,74,4.785,74.66,162.073496,P-GPS,,49.4
989,380000,2026-01-09 20:13:08,0.0,5,7.547,0.0,0.0,0.0,11.6,6.0,-2.1,1024,1024,1024,1024,0,0,0,0,74,4.785,74.66,162.073496,P-GPS,,49.4
990,380100,2026-01-09 20:13:08,0.0,5,7.547,0.0,0.0,0.0,11.6,5.8,-2.2,1024,1024,1024,1024,0,0,0,0,74,4.785,74.66,162.073496,P-GPS,,49.4
991,380200,2026-01-09 20:13:08,0.0,5,7.547,0.0,0.0,0.0,11.6,5.7,-2.2,1024,1024,1024,1024,0,0,0,0,74,4.785,74.66,161.745412,P-GPS,,49.3
992,380300,2026-01-09 20:13:08,0.0,5,7.547,0.0,0.0,0.0,11.6,5.7,-2.2,1024,1024,1024,1024,0,0,0,0,74,4.785,74.66,161.745412,P-GPS,,49.3
993,380400,2026-01-09 20:13:08,0.0,5,7.547,0.0,0.0,0.0,11.6,5.9,-2.1,1024,1024,1024,1024,0,0,0,0,74,4.785,74.66,161.745412,P-GPS,,49.3
994,380500,2026-01-09 20:13:08,0.0,5,7.547,0.0,0.0,0.0,11.6,5.9,-2.1,1024,1024,1024,1024,0,0,0,0,74,4.785,74.66,161.745412,P-GPS,,49.3
995,380600,2026-01-09 20:13:08,0.0,5,7.547,0.0,0.0,0.0,11.6,5.7,-2.2,1024,1024,1024,1024,0,0,0,0,74,4.785,74.66,161.745412,P-GPS,,49.3
996,380700,2026-01-09 20:13:08,0.0,5,7.547,0.0,0.0,0.0,11.6,5.5,-2.2,1024,1024,1024,1024,0,0,0,0,74,4.778,74.66,161.745412,P-GPS,,49.3
997,380800,2026-01-09 20:13:08,0.0,5,7.547,0.0,0.0,0.0,11.6,5.7,-2.2,1024,1024,1024,1024,0,0,0,0,74,4.778,74.66,161.745412,P-GPS,,49.3
998,380900,2026-01-09 20:13:08,0.0,5,7.547,0.0,0.0,0.0,11.6,5.7,-2.2,1024,1024,1024,1024,0,0,0,0,74,4.778,74.66,161.745412,P-GPS,,49.3
999,381000,2026-01-09 20:13:09,0.0,5,7.547,0.0,0.0,0.0,11.6,5.8,-2.1,1024,1024,1024,1024,0,0,0,0,74,4.778,74.66,161.745412,P-GPS,,49.3
1000,381100,2026-01-09 20:13:09,0.0,5,7.547,0.0,0.0,0.0,11.6,5.8,-2.0,1024,1024,1024,1024,0,0,0,0,74,4.778,74.66,161.745412,P-GPS,,49.3
1001,381200,2026-01-09 20:13:09,0.0,5,7.547,0.0,0.0,0.0,11.7,5.7,-1.9,1024,1024,1024,1024,0,0,0,0,74,4.778,74.66,161.745412,P-GPS,,49.3
1002,381300,2026-01-09 20:13:09,0.0,5,7.547,0.0,0.0,0.0,11.6,5.7,-1.9,1024,1024,1024,1024,0,0,0,0,74,4.778,74.66,161.745412,P-GPS,,49.3
1003,381400,2026-01-09 20:13:09,0.0,5,7.547,0.0,0.0,0.0,11.6,5.5,-2.0,1024,1024,1024,1024,0,0,0,0,74,4.778,74.66,161.745412,P-GPS,,49.3
1004,381500,2026-01-09 20:13:09,0.0,5,7.547,0.0,0.0,0.0,11.6,5.3,-2.1,1024,1024,1024,1024,0,0,0,0,74,4.778,74.66,161.417328,P-GPS,,49.2
1005,381600,2026-01-09 20:13:09,0.0,5,7.547,0.0,0.0,0.0,11.6,5.2,-2.0,1024,1024,1024,1024,0,0,0,0,74,4.778,74.66,161.417328,P-GPS,,49.2
1006,381700,2026-01-09 20:13:09,0.0,5,7.547,0.0,0.0,0.0,11.6,5.1,-2.0,1024,1024,1024,1024,0,0,0,0,74,4.778,74.66,161.417328,P-GPS,,49.2
1007,381800,2026-01-09 20:13:09,0.0,5,7.542,0.0,0.0,0.0,11.6,5.3,-2.0,1024,1024,1024,1024,0,0,0,0,73,4.805,74.66,161.417328,P-GPS,,49.2
1008,381900,2026-01-09 20:13:09,0.0,5,7.542,0.0,0.0,0.0,11.6,5.3,-2.0,1024,1024,1024,1024,0,0,0,0,73,4.805,74.66,161.417328,P-GPS,,49.2
1009,382000,2026-01-09 20:13:09,0.0,5,7.542,0.0,0.0,0.0,11.6,5.4,-1.9,1024,1024,1024,1024,0,0,0,0,73,4.805,74.66,161.417328,P-GPS,,49.2
1010,382100,2026-01-09 20:13:10,0.0,5,7.542,0.0,0.0,0.0,11.6,5.4,-1.8,1024,1024,1024,1024,0,0,0,0,73,4.805,74.66,161.417328,P-GPS,,49.2
1011,382200,2026-01-09 20:13:10,0.0,5,7.542,0.0,0.0,0.0,11.7,5.4,-1.9,1024,1024,1024,1024,0,0,0,0,73,4.805,74.66,161.417328,P-GPS,,49.2
1012,382300,2026-01-09 20:13:10,0.0,5,7.542,0.0,0.0,0.0,11.6,5.4,-1.9,1024,1024,1024,1024,0,0,0,0,73,4.805,74.66,161.417328,P-GPS,,49.2
1013,382400,2026-01-09 20:13:10,0.0,5,7.542,0.0,0.0,0.0,11.6,5.4,-1.9,1024,1024,1024,1024,0,0,0,0,73,4.805,74.66,161.417328,P-GPS,,49.2
1014,382500,2026-01-09 20:13:10,0.0,5,7.542,0.0,0.0,0.0,11.6,5.5,-2.0,1024,1024,1024,1024,0,0,0,0,73,4.805,74.66,161.417328,P-GPS,,49.2
1015,382600,2026-01-09 20:13:10,0.0,5,7.542,0.0,0.0,0.0,11.6,5.7,-1.9,1024,1024,1024,1024,0,0,0,0,73,4.805,74.66,161.417328,P-GPS,,49.2
1016,382700,2026-01-09 20:13:10,0.0,5,7.542,0.0,0.0,0.0,11.6,5.6,-2.0,1024,1024,1024,1024,0,0,0,0,73,4.805,74.66,161.417328,P-GPS,,49.2
1017,382800,2026-01-09 20:13:10,0.0,5,7.542,0.0,0.0,0.0,11.6,5.5,-1.9,1024,1024,1024,1024,0,0,0,0,73,4.805,74.66,161.089244,P-GPS,,49.1
1018,382900,2026-01-09 20:13:10,0.0,5,7.542,0.0,0.0,0.0,11.7,5.4,-1.9,1024,1024,1024,1024,0,0,0,0,73,4.774,74.66,161.089244,P-GPS,,49.1
1019,383000,2026-01-09 20:13:11,0.0,5,7.542,0.0,0.0,0.0,11.6,5.6,-1.8,1024,1024,1024,1024,0,0,0,0,73,4.774,74.66,161.089244,P-GPS,,49.1
