index,time(millisecond),timestamp,speed(mph),gpslevel,voltage(v),xSpeed(mph),ySpeed(mph),zSpeed(mph),compass_heading(degrees),pitch(degrees),roll(degrees),rc_elevator,rc_aileron,rc_throttle,rc_rudder,rc_elevator(percent),rc_aileron(percent),rc_throttle(percent),rc_rudder(percent),battery_percent,current(A),battery_temperature(f),ascent(feet),flycState,message,height_above_takeoff(meters)
452,186100,2026-01-09 20:09:43,0.0,5,7.644,0.0,0.0,0.0,5.5,3.6,-1.2,1024,1024,1024,1024,0,0,0,0,86,5.748,69.44,99.081368,P-GPS,,30.2
453,186200,2026-01-09 20:09:43,0.0,5,7.644,0.0,0.0,0.0,5.5,4.0,-1.5,1024,1024,1024,1024,0,0,0,0,86,5.748,69.44,99.081368,P-GPS,,30.2
454,186300,2026-01-09 20:09:43,0.0,5,7.712,0.0,0.0,0.0,5.5,4.1,-1.4,1024,1024,1024,1024,0,0,0,0,86,4.454,69.62,99.081368,P-GPS,,30.2
455,186400,2026-01-09 20:09:43,0.0,5,7.712,0.0,0.0,0.0,5.5,4.0,-1.3,1024,1024,1024,1024,0,0,0,0,86,4.454,69.62,99.081368,P-GPS,,30.2
456,186500,2026-01-09 20:09:43,0.0,5,7.712,0.0,0.0,0.0,5.5,4.0,-1.1,1024,1024,1024,1024,0,0,0,0,86,4.454,69.62,99.081368,P-GPS,,30.2
457,186600,2026-01-09 20:09:43,0.0,5,7.712,0.0,0.0,0.0,5.5,4.1,-1.1,1024,1024,1024,1024,0,0,0,0,86,4.454,69.62,99.081368,P-GPS,,30.2
458,186700,2026-01-09 20:09:43,0.0,5,7.712,0.0,0.0,0.0,5.5,3.9,-1.0,1024,1024,1024,1024,0,0,0,0,86,4.454,69.62,99.081368,P-GPS,,30.2
459,186800,2026-01-09 20:09:43,0.0,5,7.712,0.0,0.0,0.0,5.6,3.8,-1.1,1024,1024,1024,1024,0,0,0,0,86,4.454,69.62,99.081368,P-GPS,,30.2
460,186900,2026-01-09 20:09:43,0.0,5,7.712,0.0,0.0,0.0,5.6,3.6,-1.0,1024,1024,1024,1024,0,0,0,0,86,4.454,69.62,99.081368,P-GPS,,30.2
461,187000,2026-01-09 20:09:43,0.0,5,7.712,0.0,0.0,0.0,5.6,3.6,-1.1,1024,1024,1024,1024,0,0,0,0,86,4.454,69.62,99.081368,P-GPS,,30.2
462,187100,2026-01-09 20:09:44,0.0,5,7.712,0.0,0.0,0.0,5.6,2.8,-1.0,1024,1024,1024,1024,0,0,0,0,86,4.454,69.62,99.081368,P-GPS,,30.2
463,187200,2026-01-09 20:09:44,0.0,5,7.712,0.0,0.0,0.0,5.6,2.9,-1.1,1024,1024,1024,1024,0,0,0,0,86,4.454,69.62,99.081368,P-GPS,,30.2
464,187300,2026-01-09 20:09:44,0.0,5,7.712,0.0,0.0,0.0,5.6,2.9,-1.1,1024,1024,1024,1024,0,0,0,0,86,4.454,69.62,99.081368,P-GPS,,30.2
465,187400,2026-01-09 20:09:44,0.0,5,7.712,0.0,0.0,0.0,5.5,3.2,-1.3,1024,1024,1024,1024,0,0,0,0,86,4.454,69.62,99.081368,P-GPS,,30.2
466,187500,2026-01-09 20:09:44,0.0,5,7.712,0.0,0.0,0.0,5.5,2.8,-1.2,1024,1024,1024,1024,0,0,0,0,86,4.454,69.62,99.081368,P-GPS,,30.2
467,187600,2026-01-09 20:09:44,0.0,5,7.712,0.0,0.0,0.0,5.5,2.9,-1.3,1024,1024,1024,1024,0,0,0,0,86,4.454,69.62,99.081368,P-GPS,,30.2
468,187700,2026-01-09 20:09:44,0.0,5,7.712,0.0,0.0,0.0,5.5,2.7,-1.4,1024,1024,1024,1024,0,0,0,0,86,4.454,69.62,99.081368,P-GPS,,30.2
469,187800,2026-01-09 20:09:44,0.0,5,7.712,0.0,0.0,0.0,5.5,2.9,-1.4,1024,1024,1024,1024,0,0,0,0,86,4.454,69.62,99.081368,P-GPS,,30.2
470,187900,2026-01-09 20:09:44,0.0,5,7.712,0.0,0.0,0.0,5.5,2.8,-1.0,1024,1024,1024,1024,0,0,0,0,86,4.454,69.62,99.081368,P-GPS,,30.2
471,188000,2026-01-09 20:09:45,0.0,5,7.712,0.0,0.0,0.0,5.5,2.9,-1.0,1024,1024,1024,1024,0,0,0,0,86,4.454,69.62,99.081368,P-GPS,,30.2
472,188100,2026-01-09 20:09:45,0.0,5,7.712,0.0,0.0,0.0,5.5,2.9,-0.9,1024,1024,1024,1024,0,0,0,0,86,4.454,69.62,99.081368,P-GPS,,30.2
473,188200,2026-01-09 20:09:45,0.0,5,7.712,0.0,0.0,0.0,5.5,2.9,-0.8,1024,1024,1024,1024,0,0,0,0,86,4.454,69.62,99.081368,P-GPS,,30.2
474,188300,2026-01-09 20:09:45,0.0,5,7.712,0.0,0.0,0.0,5.5,2.9,-0.4,1024,1024,1024,1024,0,0,0,0,86,4.454,69.62,99.081368,P-GPS,,30.2
475,188400,2026-01-09 20:09:45,0.0,5,7.712,0.0,0.0,0.0,5.5,3.0,-0.6,1024,1024,1024,1024,0,0,0,0,86,4.454,69.62,99.081368,P-GPS,,30.2
476,188500,2026-01-09 20:09:45,0.0,5,7.704,0.0,0.0,0.0,5.5,3.0,-0.5,1024,1024,1024,1024,0,0,0,0,86,4.8,69.62,99.081368,P-GPS,,30.2
477,188600,2026-01-09 20:09:45,0.0,5,7.704,0.0,0.0,0.0,5.5,3.2,-0.5,1024,1024,1024,1024,0,0,0,0,86,4.8,69.62,98.753284,P-GPS,,30.1
478,188700,2026-01-09 20:09:45,0.0,5,7.704,0.0,0.0,0.0,5.6,3.2,-0.5,1024,1024,1024,1024,0,0,0,0,86,4.8,69.62,98.753284,P-GPS,,30.1
479,188800,2026-01-09 20:09:45,0.0,5,7.704,0.0,0.0,0.0,5.6,3.2,-0.5,1024,1024,1024,1024,0,0,0,0,86,4.8,69.62,98.753284,P-GPS,,30.1
480,188900,2026-01-09 20:09:45,0.0,5,7.704,0.0,0.0,0.0,5.6,3.1,-0.8,1024,1024,1024,1024,0,0,0,0,86,4.8,69.62,98.753284,P-GPS,,30.1
481,189000,2026-01-09 20:09:46,0.0,5,7.704,0.0,0.0,0.0,5.6,3.1,-1.0,1024,1024,1024,1024,0,0,0,0,86,4.8,69.62,98.753284,P-GPS,,30.1
482,189100,2026-01-09 20:09:46,0.0,5,7.704,0.0,0.0,0.0,5.5,3.2,-1.2,1024,1024,1024,1024,0,0,0,0,86,4.8,69.62,98.753284,P-GPS,,30.1
483,189200,2026-01-09 20:09:46,0.0,5,7.704,0.0,0.0,0.0,5.6,3.1,-1.4,1024,1024,1024,1024,0,0,0,0,86,4.8,69.62,98.753284,P-GPS,,30.1
484,189300,2026-01-09 20:09:46,0.0,5,7.704,0.0,0.0,0.0,5.5,3.3,-1.4,1024,1024,1024,1024,0,0,0,0,86,4.8,69.62,98.753284,P-GPS,,30.1
485,189400,2026-01-09 20:09:46,0.0,5,7.704,0.0,0.0,0.0,5.5,3.7,-1.3,1024,1024,1024,1024,0,0,0,0,86,4.8,69.62,98.753284,P-GPS,,30.1
486,189500,2026-01-09 20:09:46,0.0,5,7.704,0.0,0.0,0.0,5.5,3.8,-1.3,1024,1024,1024,1024,0,0,0,0,86,4.8,69.62,98.753284,P-GPS,,30.1
487,189600,2026-01-09 20:09:46,0.0,5,7.706,0.0,0.0,0.0,5.6,3.9,-1.3,1024,1024,1024,1024,0,0,0,0,86,4.841,69.62,98.753284,P-GPS,,30.1
488,189700,2026-01-09 20:09:46,0.0,5,7.706,0.0,0.0,0.0,5.6,3.7,-1.5,1024,1024,1024,1024,0,0,0,0,86,4.841,69.62,98.753284,P-GPS,,30.1
489,189800,2026-01-09 20:09:46,0.0,5,7.706,0.0,0.0,0.0,5.5,3.8,-1.5,1024,1024,1024,1024,0,0,0,0,86,4.841,69.62,98.753284,P-GPS,,30.1
490,189900,2026-01-09 20:09:46,0.0,5,7.706,0.0,0.0,0.0,5.5,4.1,-1.6,1024,1024,1024,1024,0,0,0,0,86,4.841,69.62,98.753284,P-GPS,,30.1
491,190000,2026-01-09 20:09:47,0.0,5,7.706,0.0,0.0,0.0,5.6,4.2,-1.6,1024,1024,1024,1024,0,0,0,0,86,4.841,69.62,98.753284,P-GPS,,30.1
492,190100,2026-01-09 20:09:47,0.0,5,7.706,0.0,0.0,0.0,5.6,4.0,-1.7,1024,1024,1024,1024,0,0,0,0,86,4.841,69.62,98.753284,P-GPS,,30.1
493,190200,2026-01-09 20:09:47,0.0,5,7.706,0.0,0.0,0.0,5.5,4.0,-1.8,1024,1024,1024,1024,0,0,0,0,86,4.841,69.62,98.753284,P-GPS,,30.1
494,190300,2026-01-09 20:09:47,0.0,5,7.706,0.0,0.0,0.0,5.5,3.8,-1.7,1024,1024,1024,1024,0,0,0,0,86,4.841,69.62,98.753284,P-GPS,,30.1
495,190400,2026-01-09 20:09:47,0.0,5,7.706,0.0,0.0,0.0,5.5,3.9,-1.5,1024,1024,1024,1024,0,0,0,0,86,4.841,69.62,98.753284,P-GPS,,30.1
496,190500,2026-01-09 20:09:47,0.0,5,7.706,0.0,0.0,0.0,5.5,3.8,-1.3,1024,1024,1024,1024,0,0,0,0,86,4.841,69.62,98.753284,P-GPS,,30.1
497,190600,2026-01-09 20:09:47,0.0,5,7.706,0.0,0.0,0.0,5.5,3.8,-1.4,1024,1024,1024,1024,0,0,0,0,86,4.841,69.62,98.753284,P-GPS,,30.1
498,190700,2026-01-09 20:09:47,0.0,5,7.707,0.0,0.0,0.0,5.5,3.7,-1.4,1024,1024,1024,1024,0,0,0,0,86,4.823,69.62,98.753284,P-GPS,,30.1
499,190800,2026-01-09 20:09:47,0.0,5,7.707,0.0,0.0,0.0,5.6,3.7,-1.4,1024,1024,1024,1024,0,0,0,0,86,4.823,69.62,98.753284,P-GPS,,30.1
500,190900,2026-01-09 20:09:47,0.0,5,7.707,0.0,0.0,0.0,5.5,3.7,-1.7,1024,1024,1024,1024,0,0,0,0,86,4.823,69.62,98.753284,P-GPS,,30.1
501,191000,2026-01-09 20:09:48,0.0,5,7.707,0.0,0.0,0.0,5.5,3.9,-1.8,1024,1024,1024,1024,0,0,0,0,86,4.823,69.62,98.753284,P-GPS,,30.1
502,191100,2026-01-09 20:09:48,0.0,5,7.707,0.0,0.0,0.0,5.5,3.8,-1.7,1024,1024,1024,1024,0,0,0,0,86,4.823,69.62,98.753284,P-GPS,,30.1
503,191200,2026-01-09 20:09:48,0.0,5,7.707,0.0,0.0,0.0,5.6,3.7,-1.6,1024,1024,1024,1024,0,0,0,0,86,4.823,69.62,98.753284,P-GPS,,30.1
504,191300,2026-01-09 20:09:48,0.0,5,7.707,0.0,0.0,0.0,5.6,3.7,-1.7,1024,1024,1024,1024,0,0,0,0,86,4.823,69.62,98.753284,P-GPS,,30.1
505,191400,2026-01-09 20:09:48,0.0,5,7.707,0.0,0.0,0.0,5.6,3.7,-1.8,1024,1024,1024,1024,0,0,0,0,86,4.823,69.62,98.753284,P-GPS,,30.1
506,191500,2026-01-09 20:09:48,0.0,5,7.707,0.0,0.0,0.0,5.5,3.7,-1.6,1024,1024,1024,1024,0,0,0,0,86,4.823,69.62,98.753284,P-GPS,,30.1
507,191600,2026-01-09 20:09:48,0.0,5,7.707,0.0,0.0,0.0,5.5,3.7,-1.5,1024,1024,1024,1024,0,0,0,0,86,4.823,69.62,98.753284,P-GPS,,30.1
508,191700,2026-01-09 20:09:48,0.0,5,7.707,0.0,0.0,0.0,5.5,3.5,-1.4,1024,1024,1024,1024,0,0,0,0,86,4.823,69.62,98.753284,P-GPS,,30.1
509,191800,2026-01-09 20:09:48,0.0,5,7.707,0.0,0.0,0.0,5.5,3.6,-1.3,1024,1024,1024,1024,0,0,0,0,86,4.823,69.62,98.753284,P-GPS,,30.1
510,191900,2026-01-09 20:09:48,0.0,5,7.703,0.0,0.0,0.0,5.5,3.5,-1.4,1024,1024,1024,1024,0,0,0,0,86,4.835,69.8,98.753284,P-GPS,,30.1
511,192000,2026-01-09 20:09:48,0.0,5,7.703,0.0,0.0,0.0,5.5,3.7,-1.4,1024,1024,1024,1024,0,0,0,0,86,4.835,69.8,98.753284,P-GPS,,30.1
512,192100,2026-01-09 20:09:49,0.0,5,7.703,0.0,0.0,0.0,5.5,3.9,-1.3,1024,1024,1024,1024,0,0,0,0,86,4.835,69.8,98.753284,P-GPS,,30.1
513,192200,2026-01-09 20:09:49,0.0,5,7.703,0.0,0.0,0.0,5.5,4.2,-1.4,1024,1024,1024,1024,0,0,0,0,86,4.835,69.8,98.4252,P-GPS,,30.0
514,192300,2026-01-09 20:09:49,0.0,5,7.703,0.0,0.0,0.0,5.5,3.9,-1.4,1024,1024,1024,1024,0,0,0,0,86,4.835,69.8,98.4252,P-GPS,,30.0
515,192400,2026-01-09 20:09:49,0.0,5,7.703,0.0,0.0,0.0,5.5,3.8,-1.3,1024,1024,1024,1024,0,0,0,0,86,4.835,69.8,98.4252,P-GPS,,30.0
516,192500,2026-01-09 20:09:49,0.0,5,7.703,0.0,0.0,0.0,5.5,3.6,-1.4,1024,1024,1024,1024,0,0,0,0,86,4.835,69.8,98.4252,P-GPS,,30.0
517,192600,2026-01-09 20:09:49,0.0,5,7.703,0.0,0.0,0.0,5.5,3.7,-1.6,1024,1024,1024,1024,0,0,0,0,86,4.835,69.8,98.4252,P-GPS,,30.0
518,192700,2026-01-09 20:09:49,0.0,5,7.703,0.0,0.0,0.0,5.5,3.6,-1.5,1024,1024,1024,1024,0,0,0,0,86,4.835,69.8,98.4252,P-GPS,,30.0
519,192800,2026-01-09 20:09:49,0.0,5,7.703,0.0,0.0,0.0,5.5,3.8,-1.3,1024,1024,1024,1024,0,0,0,0,86,4.835,69.8,98.4252,P-GPS,,30.0
520,192900,2026-01-09 20:09:49,0.0,5,7.703,0.0,0.0,0.0,5.5,3.6,-1.3,1024,1024,1024,1024,0,0,0,0,86,4.835,69.8,98.4252,P-GPS,,30.0
521,193000,2026-01-09 20:09:50,0.0,5,7.704,0.0,0.0,0.0,5.5,3.7,-1.2,1024,1024,1024,1024,0,0,0,0,85,4.849,69.8,98.4252,P-GPS,,30.0
522,193100,2026-01-09 20:09:50,0.0,5,7.704,0.0,0.0,0.0,5.5,3.5,-1.3,1024,1024,1024,1024,0,0,0,0,85,4.849,69.8,98.4252,P-GPS,,30.0
523,193200,2026-01-09 20:09:50,0.0,5,7.704,0.0,0.0,0.0,5.5,3.7,-1.4,1024,1024,1024,1024,0,0,0,0,85,4.849,69.8,98.4252,P-GPS,,30.0
524,193300,2026-01-09 20:09:50,0.0,5,7.704,0.0,0.0,0.0,5.5,3.8,-1.4,1024,1024,1024,1024,0,0,0,0,85,4.849,69.8,98.4252,P-GPS,,30.0
525,193400,2026-01-09 20:09:50,0.0,5,7.704,0.0,0.0,0.0,5.5,4.0,-1.5,1024,1024,1024,1024,0,0,0,0,85,4.849,69.8,98.4252,P-GPS,,30.0
526,193500,2026-01-09 20:09:50,0.0,5,7.704,0.0,0.0,0.0,5.5,3.7,-1.5,1024,1024,1024,1024,0,0,0,0,85,4.849,69.8,98.4252,P-GPS,,30.0
527,193600,2026-01-09 20:09:50,0.0,5,7.704,0.0,0.0,0.0,5.5,3.9,-1.5,1024,1024,1024,1024,0,0,0,0,85,4.849,69.8,98.4252,P-GPS,,30.0
528,193700,2026-01-09 20:09:50,0.0,5,7.704,0.0,0.0,0.0,5.6,3.7,-1.4,1024,1024,1024,1024,0,0,0,0,85,4.849,69.8,98.097116,P-GPS,,29.9
529,193800,2026-01-09 20:09:50,0.0,5,7.704,0.0,0.0,0.0,5.6,3.7,-1.5,1024,1024,1024,1024,0,0,0,0,85,4.849,69.8,98.097116,P-GPS,,29.9
530,193900,2026-01-09 20:09:50,0.0,5,7.704,0.0,0.0,0.0,5.6,3.5,-1.5,1024,1024,1024,1024,0,0,0,0,85,4.849,69.8,98.097116,P-GPS,,29.9
531,194000,2026-01-09 20:09:50,0.0,5,7.704,0.0,0.0,0.0,5.5,3.7,-1.5,1024,1024,1024,1024,0,0,0,0,85,4.849,69.8,98.097116,P-GPS,,29.9
532,194100,2026-01-09 20:09:51,0.0,5,7.701,0.0,0.0,0.0,5.5,3.6,-1.4,1024,1024,1024,1024,0,0,0,0,85,4.828,69.8,98.097116,P-GPS,,29.9
533,194200,2026-01-09 20:09:51,0.0,5,7.701,0.0,0.0,0.0,5.5,3.6,-1.4,1024,1024,1024,1024,0,0,0,0,85,4.828,69.8,98.097116,P-GPS,,29.9
534,194300,2026-01-09 20:09:51,0.0,5,7.701,0.0,0.0,0.0,5.5,3.5,-1.1,1024,1024,1024,1024,0,0,0,0,85,4.828,69.8,98.097116,P-GPS,,29.9
535,194400,2026-01-09 20:09:51,0.0,5,7.701,0.0,0.0,0.0,5.5,3.7,-1.1,1024,1024,1024,1024,0,0,0,0,85,4.828,69.8,98.097116,P-GPS,,29.9
536,194500,2026-01-09 20:09:51,0.0,5,7.701,0.0,0.0,0.0,5.5,3.5,-1.0,1024,1024,1024,1024,0,0,0,0,85,4.828,69.8,98.097116,P-GPS,,29.9
537,194600,2026-01-09 20:09:51,0.0,5,7.701,0.0,0.0,0.0,5.5,3.7,-0.9,1024,1024,1024,1024,0,0,0,0,85,4.828,69.8,98.097116,P-GPS,,29.9
538,194700,2026-01-09 20:09:51,0.0,5,7.701,0.0,0.0,0.0,5.4,3.4,-0.9,1024,1024,1024,1024,0,0,0,0,85,4.828,69.8,98.097116,P-GPS,,29.9
539,194800,2026-01-09 20:09:51,0.0,5,7.701,0.0,0.0,0.0,5.4,3.6,-0.9,1024,1024,1024,1024,0,0,0,0,85,4.828,69.8,98.097116,P-GPS,,29.9
540,194900,2026-01-09 20:09:51,0.0,5,7.701,0.0,0.0,0.0,5.4,3.6,-1.1,1024,1024,1024,1024,0,0,0,0,85,4.828,69.8,98.097116,P-GPS,,29.9
541,195000,2026-01-09 20:09:51,0.0,5,7.701,0.0,0.0,0.0,5.5,3.7,-1.3,1024,1024,1024,1024,0,0,0,0,85,4.828,69.8,98.097116,P-GPS,,29.9
542,195100,2026-01-09 20:09:52,0.0,5,7.701,0.0,0.0,0.0,5.4,3.7,-1.4,1024,1024,1024,1024,0,0,0,0,85,4.828,69.8,98.097116,P-GPS,,29.9
543,195200,2026-01-09 20:09:52,0.0,5,7.701,0.0,0.0,0.0,5.5,3.6,-1.5,1024,1024,1024,1024,0,0,0,0,85,4.838,69.8,98.097116,P-GPS,,29.9
544,195300,2026-01-09 20:09:52,0.0,5,7.701,0.0,0.0,0.0,5.6,3.5,-1.5,1024,1024,1024,1024,0,0,0,0,85,4.838,69.8,98.097116,P-GPS,,29.9
545,195400,2026-01-09 20:09:52,0.0,5,7.701,0.0,0.0,0.0,5.6,3.5,-1.8,1024,1024,1024,1024,0,0,0,0,85,4.838,69.8,98.097116,P-GPS,,29.9
546,195500,2026-01-09 20:09:52,0.0,5,7.701,0.0,0.0,0.0,5.5,3.3,-2.0,1024,1024,1024,1024,0,0,0,0,85,4.838,69.8,98.097116,P-GPS,,29.9
547,195600,2026-01-09 20:09:52,0.0,5,7.701,0.0,0.0,0.0,5.5,3.5,-2.1,1024,1024,1024,1024,0,0,0,0,85,4.838,69.8,98.097116,P-GPS,,29.9
548,195700,2026-01-09 20:09:52,0.0,5,7.701,0.0,0.0,0.0,5.5,3.6,-2.2,1024,1024,1024,1024,0,0,0,0,85,4.838,69.8,98.097116,P-GPS,,29.9
549,195800,2026-01-09 20:09:52,0.0,5,7.701,0.0,0.0,0.0,5.5,3.8,-2.0,1024,1024,1024,1024,0,0,0,0,85,4.838,69.8,98.097116,P-GPS,,29.9
550,195900,2026-01-09 20:09:52,0.0,5,7.701,0.0,0.0,0.0,5.6,3.6,-1.8,1024,1024,1024,1024,0,0,0,0,85,4.838,69.8,98.097116,P-GPS,,29.9
551,196000,2026-01-09 20:09:53,0.0,5,7.701,0.0,0.0,0.0,5.6,3.6,-1.7,1024,1024,1024,1024,0,0,0,0,85,4.838,69.8,98.097116,P-GPS,,29.9
552,196100,2026-01-09 20:09:53,0.0,5,7.701,0.0,0.0,0.0,5.6,3.5,-1.8,1024,1024,1024,1024,0,0,0,0,85,4.838,69.8,98.097116,P-GPS,,29.9
553,196200,2026-01-09 20:09:53,0.0,5,7.701,0.0,0.0,0.0,5.6,3.6,-1.7,1024,1024,1024,1024,0,0,0,0,85,4.838,69.8,98.4252,P-GPS,,30.0
554,196300,2026-01-09 20:09:53,0.0,5,7.705,0.0,0.0,0.0,5.6,3.5,-1.9,1024,1024,1024,1024,0,0,0,0,85,4.737,69.98,98.4252,P-GPS,,30.0
555,196400,2026-01-09 20:09:53,0.0,5,7.705,0.0,0.0,0.0,5.6,3.8,-2.0,1024,1024,1024,1024,0,0,0,0,85,4.737,69.98,98.4252,P-GPS,,30.0
556,196500,2026-01-09 20:09:53,0.0,5,7.705,0.0,0.0,0.0,5.6,3.5,-1.9,1024,1024,1024,1024,0,0,0,0,85,4.737,69.98,98.4252,P-GPS,,30.0
557,196600,2026-01-09 20:09:53,0.0,5,7.705,0.0,0.0,0.0,5.7,3.7,-1.9,1024,1024,1024,1024,0,0,0,0,85,4.737,69.98,98.4252,P-GPS,,30.0
558,196700,2026-01-09 20:09:53,0.0,5,7.705,0.0,0.0,0.0,5.7,3.7,-1.9,1024,1024,1024,1024,0,0,0,0,85,4.737,69.98,98.4252,P-GPS,,30.0
559,196800,2026-01-09 20:09:53,0.0,5,7.705,0.0,0.0,0.0,5.6,4.0,-2.0,1024,1024,1024,1024,0,0,0,0,85,4.737,69.98,98.4252,P-GPS,,30.0
560,196900,2026-01-09 20:09:53,0.0,5,7.705,0.0,0.0,0.0,5.6,4.0,-2.1,1024,1024,1024,1024,0,0,0,0,85,4.737,69.98,98.4252,P-GPS,,30.0
561,197000,2026-01-09 20:09:53,0.0,5,7.705,0.0,0.0,0.0,5.6,4.1,-2.0,1024,1024,1024,1024,0,0,0,0,85,4.737,69.98,98.4252,P-GPS,,30.0
562,197100,2026-01-09 20:09:54,0.0,5,7.705,0.0,0.0,0.0,5.6,4.2,-1.9,1024,1024,1024,1024,0,0,0,0,85,4.737,69.98,98.4252,P-GPS,,30.0
563,197200,2026-01-09 20:09:54,0.0,5,7.705,0.0,0.0,0.0,5.6,4.2,-1.9,1024,1024,1024,1024,0,0,0,0,85,4.737,69.98,98.4252,P-GPS,,30.0
564,197300,2026-01-09 20:09:54,0.0,5,7.705,0.0,0.0,0.0,5.6,4.2,-1.9,1024,1024,1024,1024,0,0,0,0,85,4.737,69.98,98.4252,P-GPS,,30.0
565,197400,2026-01-09 20:09:54,0.0,5,7.705,0.0,0.0,0.0,5.6,4.3,-1.9,1024,1024,1024,1024,0,0,0,0,85,4.737,69.98,98.4252,P-GPS,,30.0
566,197500,2026-01-09 20:09:54,0.0,5,7.705,0.0,0.0,0.0,5.5,4.3,-2.1,1024,1024,1024,1024,0,0,0,0,85,4.737,69.98,98.4252,P-GPS,,30.0
567,197600,2026-01-09 20:09:54,0.0,5,7.705,0.0,0.0,0.0,5.5,4.2,-2.2,1024,1024,1024,1024,0,0,0,0,85,4.737,69.98,98.4252,P-GPS,,30.0
568,197700,2026-01-09 20:09:54,0.0,5,7.705,0.0,0.0,0.0,5.5,4.4,-2.3,1024,1024,1024,1024,0,0,0,0,85,4.737,69.98,98.4252,P-GPS,,30.0
569,197800,2026-01-09 20:09:54,0.0,5,7.705,0.0,0.0,0.0,5.5,4.4,-2.2,1024,1024,1024,1024,0,0,0,0,85,4.737,69.98,98.4252,P-GPS,,30.0
570,197900,2026-01-09 20:09:54,0.0,5,7.705,0.0,0.0,0.0,5.5,4.3,-2.1,1024,1024,1024,1024,0,0,0,0,85,4.737,69.98,98.4252,P-GPS,,30.0
571,198000,2026-01-09 20:09:54,0.0,5,7.705,0.0,0.0,0.0,5.6,4.1,-2.1,1024,1024,1024,1024,0,0,0,0,85,4.737,69.98,98.4252,P-GPS,,30.0
572,198100,2026-01-09 20:09:55,0.0,5,7.705,0.0,0.0,0.0,5.5,4.0,-2.1,1024,1024,1024,1024,0,0,0,0,85,4.737,69.98,98.4252,P-GPS,,30.0
573,198200,2026-01-09 20:09:55,0.0,5,7.705,0.0,0.0,0.0,5.5,4.1,-2.1,1024,1024,1024,1024,0,0,0,0,85,4.737,69.98,98.4252,P-GPS,,30.0
574,198300,2026-01-09 20:09:55,0.0,5,7.705,0.0,0.0,0.0,5.5,4.1,-1.9,1024,1024,1024,1024,0,0,0,0,85,4.737,69.98,98.4252,P-GPS,,30.0
575,198400,2026-01-09 20:09:55,0.0,5,7.705,0.0,0.0,0.0,5.4,4.2,-1.8,1024,1024,1024,1024,0,0,0,0,85,4.742,69.98,98.4252,P-GPS,,30.0
576,198500,2026-01-09 20:09:55,0.0,5,7.705,0.0,0.0,0.0,5.4,4.0,-1.6,1024,1024,1024,1024,0,0,0,0,85,4.742,69.98,98.4252,P-GPS,,30.0
577,198600,2026-01-09 20:09:55,0.0,5,7.705,0.0,0.0,0.0,5.4,4.0,-1.5,1024,1024,1024,1024,0,0,0,0,85,4.742,69.98,98.4252,P-GPS,,30.0
578,198700,2026-01-09 20:09:55,0.0,5,7.705,0.0,0.0,0.0,5.4,4.0,-1.5,1024,1024,1024,1024,0,0,0,0,85,4.742,69.98,98.4252,P-GPS,,30.0
579,198800,2026-01-09 20:09:55,0.0,5,7.705,0.0,0.0,0.0,5.4,3.9,-1.7,1024,1024,1024,1024,0,0,0,0,85,4.742,69.98,98.4252,P-GPS,,30.0
580,198900,2026-01-09 20:09:55,0.0,5,7.705,0.0,0.0,0.0,5.5,3.7,-1.9,1024,1024,1024,1024,0,0,0,0,85,4.742,69.98,98.4252,P-GPS,,30.0
581,199000,2026-01-09 20:09:55,0.0,5,7.705,0.0,0.0,0.0,5.4,3.7,-2.1,1024,1024,1024,1024,0,0,0,0,85,4.742,69.98,98.4252,P-GPS,,30.0
582,199100,2026-01-09 20:09:56,0.0,5,7.705,0.0,0.0,0.0,5.4,3.7,-2.2,1024,1024,1024,1024,0,0,0,0,85,4.742,69.98,98.4252,P-GPS,,30.0
583,199200,2026-01-09 20:09:56,0.0,5,7.705,0.0,0.0,0.0,5.4,3.7,-2.2,1024,1024,1024,1024,0,0,0,0,85,4.742,69.98,98.4252,P-GPS,,30.0
584,199300,2026-01-09 20:09:56,0.0,5,7.705,0.0,0.0,0.0,5.4,3.8,-2.1,1024,1024,1024,1024,0,0,0,0,85,4.742,69.98,98.4252,P-GPS,,30.0
585,199400,2026-01-09 20:09:56,0.0,5,7.705,0.0,0.0,0.0,5.5,3.9,-2.0,1024,1024,1024,1024,0,0,0,0,85,4.742,69.98,98.4252,P-GPS,,30.0
586,199500,2026-01-09 20:09:56,0.0,5,7.705,0.0,0.0,0.0,5.5,4.1,-1.8,1024,1024,1024,1024,0,0,0,0,85,4.742,69.98,98.4252,P-GPS,,30.0
587,199600,2026-01-09 20:09:56,0.0,5,7.709,0.0,0.0,0.0,5.5,4.1,-1.8,1024,1024,1024,1024,0,0,0,0,85,4.622,69.98,98.4252,P-GPS,,30.0
588,199700,2026-01-09 20:09:56,0.0,5,7.709,0.0,0.0,0.0,5.4,4.1,-1.8,1024,1024,1024,1024,0,0,0,0,85,4.622,69.98,98.4252,P-GPS,,30.0
589,199800,2026-01-09 20:09:56,0.0,5,7.709,0.0,0.0,0.0,5.4,3.9,-1.6,1024,1024,1024,1024,0,0,0,0,85,4.622,69.98,98.4252,P-GPS,,30.0
590,199900,2026-01-09 20:09:56,0.0,5,7.709,0.0,0.0,0.0,5.4,4.0,-1.5,1024,1024,1024,1024,0,0,0,0,85,4.622,69.98,98.4252,P-GPS,,30.0
591,200000,2026-01-09 20:09:57,0.0,5,7.709,0.0,0.0,0.0,5.4,4.0,-1.5,1024,1024,1024,1024,0,0,0,0,85,4.622,69.98,98.4252,P-GPS,,30.0
592,200100,2026-01-09 20:09:57,0.0,5,7.709,0.0,0.0,0.0,5.4,4.1,-1.4,1024,1024,1024,1024,0,0,0,0,85,4.622,69.98,98.097116,P-GPS,,29.9
593,200200,2026-01-09 20:09:57,0.0,5,7.709,0.0,0.0,0.0,5.4,3.8,-1.3,1024,1024,1024,1024,0,0,0,0,85,4.622,69.98,98.097116,P-GPS,,29.9
594,200300,2026-01-09 20:09:57,0.0,5,7.709,0.0,0.0,0.0,5.4,3.8,-1.2,1024,1024,1024,1024,0,0,0,0,85,4.622,69.98,98.097116,P-GPS,,29.9
595,200400,2026-01-09 20:09:57,0.0,5,7.709,0.0,0.0,0.0,5.5,3.6,-1.2,1024,1024,1024,1024,0,0,0,0,85,4.622,69.98,98.097116,P-GPS,,29.9
596,200500,2026-01-09 20:09:57,0.0,5,7.709,0.0,0.0,0.0,5.4,3.8,-1.2,1024,1024,1024,1024,0,0,0,0,85,4.622,69.98,98.097116,P-GPS,,29.9
597,200600,2026-01-09 20:09:57,0.0,5,7.709,0.0,0.0,0.0,5.4,3.7,-1.2,1024,1024,1024,1024,0,0,0,0,85,4.622,69.98,98.097116,P-GPS,,29.9
598,200700,2026-01-09 20:09:57,0.0,5,7.706,0.0,0.0,0.0,5.4,4.0,-1.3,1024,1024,1024,1024,0,0,0,0,85,4.728,69.98,98.097116,P-GPS,,29.9
599,200800,2026-01-09 20:09:57,0.0,5,7.706,0.0,0.0,0.0,5.5,3.9,-1.5,1024,1024,1024,1024,0,0,0,0,85,4.728,69.98,98.097116,P-GPS,,29.9
600,200900,2026-01-09 20:09:57,0.0,5,7.706,0.0,0.0,0.0,5.4,4.0,-1.5,1024,1024,1024,1024,0,0,0,0,85,4.728,69.98,98.097116,P-GPS,,29.9
601,201000,2026-01-09 20:09:58,0.0,5,7.706,0.0,0.0,0.0,5.5,3.8,-1.6,1024,1024,1024,1024,0,0,0,0,85,4.728,69.98,98.097116,P-GPS,,29.9
602,201100,2026-01-09 20:09:58,0.0,5,7.706,0.0,0.0,0.0,5.5,4.0,-1.5,1024,1024,1024,1024,0,0,0,0,85,4.728,69.98,98.097116,P-GPS,,29.9
603,201200,2026-01-09 20:09:58,0.0,5,7.706,0.0,0.0,0.0,5.5,3.8,-1.5,1024,1024,1024,1024,0,0,0,0,85,4.728,69.98,98.097116,P-GPS,,29.9
604,201300,2026-01-09 20:09:58,0.0,5,7.706,0.0,0.0,0.0,5.4,4.0,-1.4,1024,1024,1024,1024,0,0,0,0,85,4.728,69.98,98.097116,P-GPS,,29.9
605,201400,2026-01-09 20:09:58,0.0,5,7.706,0.0,0.0,0.0,5.4,3.8,-1.4,1024,1024,1024,1024,0,0,0,0,85,4.728,69.98,98.097116,P-GPS,,29.9
606,201500,2026-01-09 20:09:58,0.0,5,7.706,0.0,0.0,0.0,5.5,3.6,-1.3,1024,1024,1024,1024,0,0,0,0,85,4.728,69.98,98.097116,P-GPS,,29.9
607,201600,2026-01-09 20:09:58,0.0,5,7.706,0.0,0.0,0.0,5.5,3.5,-1.3,1024,1024,1024,1024,0,0,0,0,85,4.728,69.98,98.097116,P-GPS,,29.9
608,201700,2026-01-09 20:09:58,0.0,5,7.706,0.0,0.0,0.0,5.5,3.9,-1.3,1024,1024,1024,1024,0,0,0,0,85,4.728,69.98,98.097116,P-GPS,,29.9
609,201800,2026-01-09 20:09:58,0.0,5,7.708,0.0,0.0,0.0,5.5,3.8,-1.4,1024,1024,1024,1024,0,0,0,0,85,4.699,70.16,98.097116,P-GPS,,29.9
610,201900,2026-01-09 20:09:58,0.0,5,7.708,0.0,0.0,0.0,5.5,4.2,-1.4,1024,1024,1024,1024,0,0,0,0,85,4.699,70.16,98.097116,P-GPS,,29.9
611,202000,2026-01-09 20:09:58,0.0,5,7.708,0.0,0.0,0.0,5.5,4.0,-1.5,1024,1024,1024,1024,0,0,0,0,85,4.699,70.16,98.4252,P-GPS,,30.0
612,202100,2026-01-09 20:09:59,0.0,5,7.708,0.0,0.0,0.0,5.5,4.1,-1.6,1024,1024,1024,1024,0,0,0,0,85,4.699,70.16,98.4252,P-GPS,,30.0
613,202200,2026-01-09 20:09:59,0.0,5,7.708,0.0,0.0,0.0,5.5,3.9,-1.6,1024,1024,1024,1024,0,0,0,0,85,4.699,70.16,98.4252,P-GPS,,30.0
614,202300,2026-01-09 20:09:59,0.0,5,7.708,0.0,0.0,0.0,5.5,4.3,-1.5,1024,1024,1024,1024,0,0,0,0,85,4.699,70.16,98.4252,P-GPS,,30.0
615,202400,2026-01-09 20:09:59,0.0,5,7.708,0.0,0.0,0.0,5.5,3.9,-1.4,1024,1024,1024,1024,0,0,0,0,85,4.699,70.16,98.4252,P-GPS,,30.0
616,202500,2026-01-09 20:09:59,0.0,5,7.708,0.0,0.0,0.0,5.4,4.2,-1.3,1024,1024,1024,1024,0,0,0,0,85,4.699,70.16,98.4252,P-GPS,,30.0
617,202600,2026-01-09 20:09:59,0.0,5,7.708,0.0,0.0,0.0,5.4,4.0,-1.2,1024,1024,1024,1024,0,0,0,0,85,4.699,70.16,98.4252,P-GPS,,30.0
618,202700,2026-01-09 20:09:59,0.0,5,7.708,0.0,0.0,0.0,5.4,4.3,-1.1,1024,1024,1024,1024,0,0,0,0,85,4.699,70.16,98.4252,P-GPS,,30.0
619,202800,2026-01-09 20:09:59,0.0,5,7.708,0.0,0.0,0.0,5.5,3.8,-1.1,1024,1024,1024,1024,0,0,0,0,85,4.699,70.16,98.4252,P-GPS,,30.0
620,202900,2026-01-09 20:09:59,0.0,5,7.702,0.0,0.0,0.0,5.4,4.1,-1.1,1024,1024,1024,1024,0,0,0,0,85,4.733,70.16,98.4252,P-GPS,,30.0
621,203000,2026-01-09 20:10:00,0.0,5,7.702,0.0,0.0,0.0,5.5,3.8,-1.1,1024,1024,1024,1024,0,0,0,0,85,4.733,70.16,98.4252,P-GPS,,30.0
622,203100,2026-01-09 20:10:00,0.0,5,7.702,0.0,0.0,0.0,5.5,4.0,-1.0,1024,1024,1024,1024,0,0,0,0,85,4.733,70.16,98.4252,P-GPS,,30.0
623,203200,2026-01-09 20:10:00,0.223694,5,7.702,-0.223694,0.0,0.0,5.5,3.6,-0.9,1024,1024,1024,1024,0,0,0,0,85,4.733,70.16,98.4252,P-GPS,,30.0
624,203300,2026-01-09 20:10:00,0.223694,5,7.702,-0.223694,0.0,0.0,5.5,3.7,-1.0,1024,1024,1024,1024,0,0,0,0,85,4.733,70.16,98.4252,P-GPS,,30.0
625,203400,2026-01-09 20:10:00,0.0,5,7.702,0.0,0.0,0.0,5.5,3.6,-1.0,1024,1024,1024,1024,0,0,0,0,85,4.733,70.16,98.4252,P-GPS,,30.0
626,203500,2026-01-09 20:10:00,0.0,5,7.702,0.0,0.0,0.0,5.5,3.9,-1.1,1024,1024,1024,1024,0,0,0,0,85,4.733,70.16,98.4252,P-GPS,,30.0
627,203600,2026-01-09 20:10:00,0.0,5,7.702,0.0,0.0,0.0,5.5,3.6,-1.3,1024,1024,1024,1024,0,0,0,0,85,4.733,70.16,98.4252,P-GPS,,30.0
628,203700,2026-01-09 20:10:00,0.0,5,7.702,0.0,0.0,0.0,5.5,4.0,-1.2,1024,1024,1024,1024,0,0,0,0,85,4.733,70.16,98.4252,P-GPS,,30.0
629,203800,2026-01-09 20:10:00,0.223694,5,7.702,-0.223694,0.0,0.0,5.5,3.7,-1.2,1024,1024,1024,1024,0,0,0,0,85,4.733,70.16,98.4252,P-GPS,,30.0
630,203900,2026-01-09 20:10:00,0.223694,5,7.702,-0.223694,0.0,0.0,5.5,3.9,-1.1,1024,1024,1024,1024,0,0,0,0,85,4.733,70.16,98.097116,P-GPS,,29.9
631,204000,2026-01-09 20:10:00,0.0,5,7.71,0.0,0.0,0.0,5.5,3.8,-1.1,1024,1024,1024,1024,0,0,0,0,85,4.627,70.16,98.097116,P-GPS,,29.9
632,204100,2026-01-09 20:10:01,0.0,5,7.71,0.0,0.0,0.0,5.5,4.2,-1.0,1024,1024,1024,1024,0,0,0,0,85,4.627,70.16,98.097116,P-GPS,,29.9
633,204200,2026-01-09 20:10:01,0.0,5,7.71,0.0,0.0,0.0,5.5,3.8,-0.8,1024,1024,1024,1024,0,0,0,0,85,4.627,70.16,98.097116,P-GPS,,29.9
634,204300,2026-01-09 20:10:01,0.0,5,7.71,0.0,0.0,0.0,5.5,3.9,-0.6,1024,1024,1024,1024,0,0,0,0,85,4.627,70.16,98.097116,P-GPS,,29.9
635,204400,2026-01-09 20:10:01,0.0,5,7.71,0.0,0.0,0.0,5.6,3.6,-0.6,1024,1024,1024,1024,0,0,0,0,85,4.627,70.16,98.097116,P-GPS,,29.9
636,204500,2026-01-09 20:10:01,0.0,5,7.71,0.0,0.0,0.0,5.5,4.2,-0.7,1024,1024,1024,1024,0,0,0,0,85,4.627,70.16,98.097116,P-GPS,,29.9
637,204600,2026-01-09 20:10:01,0.0,5,7.71,0.0,0.0,0.0,5.6,3.7,-0.9,1024,1024,1024,1024,0,0,0,0,85,4.627,70.16,98.097116,P-GPS,,29.9
638,204700,2026-01-09 20:10:01,0.223694,5,7.71,-0.223694,0.0,0.0,5.6,4.0,-1.2,1024,1024,1024,1024,0,0,0,0,85,4.627,70.16,98.097116,P-GPS,,29.9
639,204800,2026-01-09 20:10:01,0.223694,5,7.71,-0.223694,0.0,0.0,5.6,3.7,-1.7,1024,1024,1024,1024,0,0,0,0,85,4.627,70.16,98.097116,P-GPS,,29.9
640,204900,2026-01-09 20:10:01,0.223694,5,7.71,-0.223694,0.0,0.0,5.5,4.2,-1.9,1024,1024,1024,1024,0,0,0,0,85,4.627,70.16,98.097116,P-GPS,,29.9
641,205000,2026-01-09 20:10:02,0.223694,5,7.71,-0.223694,0.0,0.0,5.5,3.9,-1.8,1024,1024,1024,1024,0,0,0,0,85,4.627,70.16,98.097116,P-GPS,,29.9
642,205100,2026-01-09 20:10:02,0.223694,5,7.708,-0.223694,0.0,0.0,5.4,3.9,-2.1,1024,1024,1024,1024,0,0,0,0,85,4.637,70.16,98.097116,P-GPS,,29.9
643,205200,2026-01-09 20:10:02,0.223694,5,7.708,-0.223694,0.0,0.0,5.5,3.3,-2.1,1024,1024,1024,1024,0,0,0,0,85,4.637,70.16,98.097116,P-GPS,,29.9
644,205300,2026-01-09 20:10:02,0.223694,5,7.708,-0.223694,0.0,0.0,5.6,3.4,-1.8,1024,1024,1024,1024,0,0,0,0,85,4.637,70.16,98.097116,P-GPS,,29.9
645,205400,2026-01-09 20:10:02,0.223694,5,7.708,-0.223694,0.0,0.0,5.7,3.1,-1.6,1024,1024,1024,1024,0,0,0,0,85,4.637,70.16,98.097116,P-GPS,,29.9
646,205500,2026-01-09 20:10:02,0.223694,5,7.708,-0.223694,0.0,0.0,5.7,3.2,-1.7,1024,1024,1024,1024,0,0,0,0,85,4.637,70.16,98.097116,P-GPS,,29.9
647,205600,2026-01-09 20:10:02,0.223694,5,7.708,-0.223694,0.0,0.0,5.7,2.8,-1.7,1024,1024,1024,1024,0,0,0,0,85,4.637,70.16,98.097116,P-GPS,,29.9
648,205700,2026-01-09 20:10:02,0.223694,5,7.708,-0.223694,0.0,0.0,5.8,2.9,-1.6,1024,1024,1024,1024,0,0,0,0,85,4.637,70.16,98.097116,P-GPS,,29.9
649,205800,2026-01-09 20:10:02,0.223694,5,7.708,-0.223694,0.0,0.0,5.8,2.6,-1.6,1024,1024,1024,1024,0,0,0,0,85,4.637,70.16,98.097116,P-GPS,,29.9
650,205900,2026-01-09 20:10:02,0.223694,5,7.708,-0.223694,0.0,0.0,5.8,3.2,-1.6,1024,1024,1024,1024,0,0,0,0,85,4.637,70.16,98.097116,P-GPS,,29.9
651,206000,2026-01-09 20:10:02,0.0,5,7.708,0.0,0.0,0.0,5.7,3.0,-1.8,1024,1024,1024,1024,0,0,0,0,85,4.637,70.16,98.097116,P-GPS,,29.9
652,206100,2026-01-09 20:10:03,0.0,5,7.708,0.0,0.0,0.0,5.7,3.2,-1.7,1024,1024,1024,1024,0,0,0,0,85,4.637,70.16,98.097116,P-GPS,,29.9
653,206200,2026-01-09 20:10:03,0.223694,5,7.703,-0.223694,0.0,0.0,5.7,3.0,-2.0,1024,1024,1024,1024,0,0,0,0,85,4.691,70.16,98.097116,P-GPS,,29.9
654,206300,2026-01-09 20:10:03,0.223694,5,7.703,-0.223694,0.0,0.0,5.6,3.5,-1.9,1024,1024,1024,1024,0,0,0,0,85,4.691,70.16,98.097116,P-GPS,,29.9
655,206400,2026-01-09 20:10:03,0.223694,5,7.703,-0.223694,0.0,0.0,5.7,3.0,-1.8,1024,1024,1024,1024,0,0,0,0,85,4.691,70.16,98.097116,P-GPS,,29.9
656,206500,2026-01-09 20:10:03,0.0,5,7.703,0.0,0.0,0.0,5.7,3.0,-1.6,1024,1024,1024,1024,0,0,0,0,85,4.691,70.16,98.097116,P-GPS,,29.9
657,206600,2026-01-09 20:10:03,0.0,5,7.703,0.0,0.0,0.0,5.7,2.9,-1.4,1024,1024,1024,1024,0,0,0,0,85,4.691,70.16,98.097116,P-GPS,,29.9
658,206700,2026-01-09 20:10:03,0.0,5,7.703,0.0,0.0,0.0,5.6,3.2,-1.3,1024,1024,1024,1024,0,0,0,0,85,4.691,70.16,98.097116,P-GPS,,29.9
659,206800,2026-01-09 20:10:03,0.0,5,7.703,0.0,0.0,0.0,5.7,3.2,-1.2,1024,1024,1024,1024,0,0,0,0,85,4.691,70.16,98.097116,P-GPS,,29.9
660,206900,2026-01-09 20:10:03,0.0,5,7.703,0.0,0.0,0.0,5.7,3.5,-1.4,1024,1024,1024,1024,0,0,0,0,85,4.691,70.16,97.769032,P-GPS,,29.8
661,207000,2026-01-09 20:10:03,0.0,5,7.703,0.0,0.0,0.0,5.6,3.0,-1.9,1024,1024,1024,1024,0,0,0,0,85,4.691,70.16,97.769032,P-GPS,,29.8
662,207100,2026-01-09 20:10:04,0.0,5,7.703,0.0,0.0,0.0,5.5,3.4,-1.8,1024,1024,1024,1024,0,0,0,0,85,4.691,70.16,97.769032,P-GPS,,29.8
663,207200,2026-01-09 20:10:04,0.0,5,7.703,0.0,0.0,0.0,5.6,3.1,-1.8,1024,1024,1024,1024,0,0,0,0,85,4.691,70.16,98.097116,P-GPS,,29.9
664,207300,2026-01-09 20:10:04,0.0,5,7.703,0.0,0.0,0.0,5.5,3.5,-1.8,1024,1024,1024,1024,0,0,0,0,85,4.691,70.16,98.097116,P-GPS,,29.9
665,207400,2026-01-09 20:10:04,0.0,5,7.703,0.0,0.0,0.0,5.5,3.1,-1.9,1024,1024,1024,1024,0,0,0,0,85,4.691,70.16,98.097116,P-GPS,,29.9
666,207500,2026-01-09 20:10:04,0.0,5,7.703,0.0,0.0,0.0,5.5,3.3,-1.8,1024,1024,1024,1024,0,0,0,0,85,4.691,70.16,98.097116,P-GPS,,29.9
667,207600,2026-01-09 20:10:04,0.223694,5,7.703,-0.223694,0.0,0.0,5.5,2.9,-1.7,1024,1024,1024,1024,0,0,0,0,85,4.691,70.16,98.097116,P-GPS,,29.9
668,207700,2026-01-09 20:10:04,0.223694,5,7.703,-0.223694,0.0,0.0,5.5,3.0,-1.5,1024,1024,1024,1024,0,0,0,0,85,4.691,70.16,97.769032,P-GPS,,29.8
669,207800,2026-01-09 20:10:04,0.0,5,7.703,0.0,0.0,0.0,5.5,2.7,-1.4,1024,1024,1024,1024,0,0,0,0,85,4.691,70.16,97.769032,P-GPS,,29.8
670,207900,2026-01-09 20:10:04,0.0,5,7.703,0.0,0.0,0.0,5.4,3.2,-1.3,1024,1024,1024,1024,0,0,0,0,85,4.691,70.16,97.769032,P-GPS,,29.8
671,208000,2026-01-09 20:10:04,0.223694,5,7.703,-0.223694,0.0,0.0,5.4,2.8,-1.4,1024,1024,1024,1024,0,0,0,0,85,4.691,70.16,97.769032,P-GPS,,29.8
672,208100,2026-01-09 20:10:05,0.223694,5,7.703,-0.223694,0.0,0.0,5.4,2.7,-1.2,1024,1024,1024,1024,0,0,0,0,85,4.691,70.16,97.769032,P-GPS,,29.8
673,208200,2026-01-09 20:10:05,0.223694,5,7.703,-0.223694,0.0,0.0,5.5,2.2,-0.9,1024,1024,1024,1024,0,0,0,0,85,4.691,70.16,97.769032,P-GPS,,29.8
674,208300,2026-01-09 20:10:05,0.223694,5,7.703,-0.223694,0.0,0.0,5.5,1.7,-0.9,1024,1024,1024,1024,0,0,0,0,85,4.691,70.16,97.769032,P-GPS,,29.8
675,208400,2026-01-09 20:10:05,0.223694,5,7.705,-0.223694,0.0,0.0,5.5,1.8,-1.0,1024,1024,1024,1024,0,0,0,0,85,4.711,70.16,97.769032,P-GPS,,29.8
676,208500,2026-01-09 20:10:05,0.0,5,7.705,0.0,0.0,0.0,5.5,2.1,-1.2,1024,1024,1024,1024,0,0,0,0,85,4.711,70.16,97.769032,P-GPS,,29.8
677,208600,2026-01-09 20:10:05,0.0,5,7.705,0.0,0.0,0.0,5.6,1.9,-1.4,1024,1024,1024,1024,0,0,0,0,85,4.711,70.16,97.769032,P-GPS,,29.8
678,208700,2026-01-09 20:10:05,0.0,5,7.705,0.0,0.0,0.0,5.5,2.4,-1.8,1024,1024,1024,1024,0,0,0,0,85,4.711,70.16,97.769032,P-GPS,,29.8
679,208800,2026-01-09 20:10:05,0.0,5,7.705,0.0,0.0,0.0,5.5,2.5,-1.9,1024,1024,1024,1024,0,0,0,0,85,4.711,70.16,97.769032,P-GPS,,29.8
680,208900,2026-01-09 20:10:05,0.0,5,7.705,0.0,0.0,0.0,5.5,2.9,-1.8,1024,1024,1024,1024,0,0,0,0,85,4.711,70.16,97.769032,P-GPS,,29.8
681,209000,2026-01-09 20:10:05,0.0,5,7.705,0.0,0.0,0.0,5.5,2.7,-1.7,1024,1024,1024,1024,0,0,0,0,85,4.711,70.16,97.769032,P-GPS,,29.8
682,209100,2026-01-09 20:10:06,0.0,5,7.705,0.0,0.0,0.0,5.5,3.0,-1.9,1024,1024,1024,1024,0,0,0,0,85,4.711,70.16,97.769032,P-GPS,,29.8
683,209200,2026-01-09 20:10:06,0.0,5,7.705,0.0,0.0,0.0,5.5,2.9,-1.8,1024,1024,1024,1024,0,0,0,0,85,4.711,70.16,97.769032,P-GPS,,29.8
684,209300,2026-01-09 20:10:06,0.0,5,7.705,0.0,0.0,0.0,5.5,3.0,-1.6,1024,1024,1024,1024,0,0,0,0,85,4.711,70.16,97.769032,P-GPS,,29.8
685,209400,2026-01-09 20:10:06,0.0,5,7.705,0.0,0.0,0.0,5.5,2.8,-1.5,1024,1024,1024,1024,0,0,0,0,85,4.711,70.16,97.769032,P-GPS,,29.8
686,209500,2026-01-09 20:10:06,0.0,5,7.705,0.0,0.0,0.0,5.5,2.8,-1.4,1024,1024,1024,1024,0,0,0,0,85,4.711,70.16,97.769032,P-GPS,,29.8
687,209600,2026-01-09 20:10:06,0.0,5,7.704,0.0,0.0,0.0,5.6,2.6,-1.4,1024,1024,1024,1024,0,0,0,0,84,4.709,70.34,97.769032,P-GPS,,29.8
688,209700,2026-01-09 20:10:06,0.0,5,7.704,0.0,0.0,0.0,5.7,2.6,-1.2,1024,1024,1024,1024,0,0,0,0,84,4.709,70.34,97.769032,P-GPS,,29.8
689,209800,2026-01-09 20:10:06,0.0,5,7.704,0.0,0.0,0.0,5.7,2.4,-1.3,1024,1024,1024,1024,0,0,0,0,84,4.709,70.34,97.769032,P-GPS,,29.8
690,209900,2026-01-09 20:10:06,0.0,5,7.704,0.0,0.0,0.0,5.7,2.8,-1.5,1024,1024,1024,1024,0,0,0,0,84,4.709,70.34,97.769032,P-GPS,,29.8
691,210000,2026-01-09 20:10:07,0.0,5,7.704,0.0,0.0,0.0,5.6,2.9,-1.8,1024,1024,1024,1024,0,0,0,0,84,4.709,70.34,97.769032,P-GPS,,29.8
692,210100,2026-01-09 20:10:07,0.0,5,7.704,0.0,0.0,0.0,5.5,3.4,-1.8,1024,1024,1024,1024,0,0,0,0,84,4.709,70.34,97.769032,P-GPS,,29.8
