index,time(millisecond),timestamp,speed(mph),gpslevel,voltage(v),xSpeed(mph),ySpeed(mph),zSpeed(mph),compass_heading(degrees),pitch(degrees),roll(degrees),rc_elevator,rc_aileron,rc_throttle,rc_rudder,rc_elevator(percent),rc_aileron(percent),rc_throttle(percent),rc_rudder(percent),battery_percent,current(A),battery_temperature(f),ascent(feet),flycState,message,height_above_takeoff(meters)
95,159300,2026-01-07 15:35:42,0.0,5,7.377,0.0,0.0,0.0,35.6,6.1,0.0,1024,1024,1024,1024,0,0,0,0,68,6.046,67.28,37.073492,P-GPS,,11.3
96,159400,2026-01-07 15:35:43,0.223694,5,7.377,-0.223694,0.0,0.0,35.7,5.9,-0.5,1024,1024,1024,1024,0,0,0,0,68,6.046,67.28,37.073492,P-GPS,,11.3
97,159500,2026-01-07 15:35:43,0.223694,5,7.377,-0.223694,0.0,0.0,35.7,6.2,-1.4,1024,1024,1024,1024,0,0,0,0,68,6.046,67.28,37.073492,P-GPS,,11.3
98,159600,2026-01-07 15:35:43,0.223694,5,7.377,-0.223694,0.0,0.0,35.6,6.5,-1.2,1024,1024,1024,1024,0,0,0,0,68,6.046,67.28,37.073492,P-GPS,,11.3
99,159700,2026-01-07 15:35:43,0.223694,5,7.377,-0.223694,0.0,0.0,35.7,5.7,-1.3,1024,1024,1024,1024,0,0,0,0,68,6.046,67.28,37.073492,P-GPS,,11.3
100,159800,2026-01-07 15:35:43,0.0,5,7.472,0.0,0.0,0.0,35.6,5.8,-0.5,1024,1024,1024,1024,0,0,0,0,68,5.361,67.28,37.073492,P-GPS,,11.3
101,159900,2026-01-07 15:35:43,0.0,5,7.472,0.0,0.0,0.0,35.5,5.8,-0.1,1024,1024,1024,1024,0,0,0,0,68,5.361,67.28,37.073492,P-GPS,,11.3
102,160000,2026-01-07 15:35:43,0.0,5,7.472,0.0,0.0,0.0,35.5,5.3,-0.2,1024,1024,1024,1024,0,0,0,0,68,5.361,67.28,37.073492,P-GPS,,11.3
103,160100,2026-01-07 15:35:43,0.0,5,7.472,0.0,0.0,0.0,35.5,5.0,0.1,1024,1024,1024,1024,0,0,0,0,68,5.361,67.28,37.073492,P-GPS,,11.3
104,160200,2026-01-07 15:35:43,0.0,5,7.472,0.0,0.0,0.0,35.5,5.1,0.4,1024,1024,1024,1024,0,0,0,0,68,5.361,67.28,37.073492,P-GPS,,11.3
105,160300,2026-01-07 15:35:43,0.0,5,7.472,0.0,0.0,0.0,35.5,4.4,1.0,1024,1024,1024,1024,0,0,0,0,68,5.361,67.28,37.073492,P-GPS,,11.3
106,160400,2026-01-07 15:35:43,0.0,5,7.472,0.0,0.0,0.0,35.6,4.2,1.6,1024,1024,1024,1024,0,0,0,0,68,5.361,67.28,37.073492,P-GPS,,11.3
107,160500,2026-01-07 15:35:44,0.0,5,7.472,0.0,0.0,0.0,35.7,3.5,1.2,1024,1024,1024,1024,0,0,0,0,68,5.361,67.28,37.073492,P-GPS,,11.3
108,160600,2026-01-07 15:35:44,0.0,5,7.472,0.0,0.0,0.0,35.6,3.3,0.3,1024,1024,1024,1024,0,0,0,0,68,5.361,67.28,37.073492,P-GPS,,11.3
109,160700,2026-01-07 15:35:44,0.0,5,7.472,0.0,0.0,0.0,35.6,3.6,0.0,1024,1024,1024,1024,0,0,0,0,68,5.361,67.28,37.073492,P-GPS,,11.3
110,160800,2026-01-07 15:35:44,0.0,5,7.472,0.0,0.0,0.0,35.8,3.6,0.1,1024,1024,1024,1024,0,0,0,0,68,5.361,67.28,37.073492,P-GPS,,11.3
111,160900,2026-01-07 15:35:44,0.0,5,7.434,0.0,0.0,0.0,35.8,3.9,-0.4,1024,1024,1024,1024,0,0,0,0,68,5.006,67.64,37.073492,P-GPS,,11.3
112,161000,2026-01-07 15:35:44,0.0,5,7.434,0.0,0.0,0.0,35.8,3.7,-0.8,1024,1024,1024,1024,0,0,0,0,68,5.006,67.64,37.073492,P-GPS,,11.3
113,161100,2026-01-07 15:35:44,0.0,5,7.434,0.0,0.0,0.0,35.6,4.1,-1.7,1024,1024,1024,1024,0,0,0,0,68,5.006,67.64,37.073492,P-GPS,,11.3
114,161200,2026-01-07 15:35:44,0.0,5,7.434,0.0,0.0,0.0,35.6,4.9,-1.8,1024,1024,1024,1024,0,0,0,0,68,5.006,67.64,37.073492,P-GPS,,11.3
115,161300,2026-01-07 15:35:44,0.223694,5,7.434,0.223694,0.0,0.0,35.6,6.0,-0.4,1024,1024,1024,1024,0,0,0,0,68,5.006,67.64,37.073492,P-GPS,,11.3
116,161400,2026-01-07 15:35:44,0.223694,5,7.434,0.223694,0.0,0.0,35.5,6.1,0.0,1024,1024,1024,1024,0,0,0,0,68,5.006,67.64,37.401576,P-GPS,,11.4
117,161500,2026-01-07 15:35:45,0.223694,5,7.434,0.223694,0.0,0.0,35.6,6.3,0.9,1024,1024,1024,1024,0,0,0,0,68,5.006,67.64,37.401576,P-GPS,,11.4
118,161600,2026-01-07 15:35:45,0.223694,5,7.434,0.223694,0.0,0.0,35.7,6.3,1.4,1024,1024,1024,1024,0,0,0,0,68,5.006,67.64,37.401576,P-GPS,,11.4
119,161700,2026-01-07 15:35:45,0.223694,5,7.434,0.223694,0.0,0.0,35.7,6.6,1.6,1024,1024,1024,1024,0,0,0,0,68,5.006,67.64,37.401576,P-GPS,,11.4
120,161800,2026-01-07 15:35:45,0.0,5,7.434,0.0,0.0,0.0,35.9,6.3,2.2,1024,1024,1024,1024,0,0,0,0,68,5.006,67.64,37.401576,P-GPS,,11.4
121,161900,2026-01-07 15:35:45,0.0,5,7.434,0.0,0.0,0.0,36.0,6.2,1.4,1024,1024,1024,1024,0,0,0,0,68,5.006,67.64,37.401576,P-GPS,,11.4
122,162000,2026-01-07 15:35:45,0.0,5,7.437,0.0,0.0,0.0,35.9,6.2,0.4,1024,1024,1024,1024,0,0,0,0,68,4.796,67.64,37.401576,P-GPS,,11.4
123,162100,2026-01-07 15:35:45,0.0,5,7.437,0.0,0.0,0.0,35.7,5.5,0.1,1024,1024,1024,1024,0,0,0,0,68,4.796,67.64,37.401576,P-GPS,,11.4
124,162200,2026-01-07 15:35:45,0.0,5,7.437,0.0,0.0,0.0,35.5,5.2,0.2,1024,1024,1024,1024,0,0,0,0,68,4.796,67.64,37.401576,P-GPS,,11.4
125,162300,2026-01-07 15:35:45,0.0,5,7.437,0.0,0.0,0.0,35.5,4.4,0.9,1024,1024,1024,1024,0,0,0,0,68,4.796,67.64,37.401576,P-GPS,,11.4
126,162400,2026-01-07 15:35:45,0.0,5,7.437,0.0,0.0,0.0,35.6,4.2,1.3,1024,1024,1024,1024,0,0,0,0,68,4.796,67.64,37.401576,P-GPS,,11.4
127,162500,2026-01-07 15:35:46,0.0,5,7.437,0.0,0.0,0.0,35.6,4.4,1.3,1024,1024,1024,1024,0,0,0,0,68,4.796,67.64,37.401576,P-GPS,,11.4
128,162600,2026-01-07 15:35:46,0.0,5,7.437,0.0,0.0,0.0,35.6,4.7,1.6,1024,1024,1024,1024,0,0,0,0,68,4.796,67.64,37.401576,P-GPS,,11.4
129,162700,2026-01-07 15:35:46,0.0,5,7.437,0.0,0.0,0.0,35.4,4.8,1.6,1024,1024,1024,1024,0,0,0,0,68,4.796,67.64,37.401576,P-GPS,,11.4
130,162800,2026-01-07 15:35:46,0.0,5,7.437,0.0,0.0,0.0,35.4,4.7,2.0,1024,1024,1024,1024,0,0,0,0,68,4.796,67.64,37.401576,P-GPS,,11.4
131,162900,2026-01-07 15:35:46,0.0,5,7.437,0.0,0.0,0.0,35.5,5.1,1.7,1024,1024,1024,1024,0,0,0,0,68,4.796,67.64,37.401576,P-GPS,,11.4
132,163000,2026-01-07 15:35:46,0.0,5,7.437,0.0,0.0,0.0,35.6,5.3,1.4,1024,1024,1024,1024,0,0,0,0,68,4.796,67.64,37.401576,P-GPS,,11.4
133,163100,2026-01-07 15:35:46,0.0,5,7.455,0.0,0.0,0.0,35.6,5.3,1.1,1024,1024,1024,1024,0,0,0,0,68,4.604,67.64,37.401576,P-GPS,,11.4
134,163200,2026-01-07 15:35:46,0.0,5,7.455,0.0,0.0,0.0,35.6,5.2,0.5,1024,1024,1024,1024,0,0,0,0,68,4.604,67.64,37.401576,P-GPS,,11.4
135,163300,2026-01-07 15:35:46,0.0,5,7.455,0.0,0.0,0.0,35.7,4.8,0.5,1024,1024,1024,1024,0,0,0,0,68,4.604,67.64,37.401576,P-GPS,,11.4
136,163400,2026-01-07 15:35:46,0.0,5,7.455,0.0,0.0,0.0,35.8,4.9,0.9,1024,1024,1024,1024,0,0,0,0,68,4.604,67.64,37.401576,P-GPS,,11.4
137,163500,2026-01-07 15:35:47,0.0,5,7.455,0.0,0.0,0.0,35.7,5.3,-0.4,1024,1024,1024,1024,0,0,0,0,68,4.604,67.64,37.401576,P-GPS,,11.4
138,163600,2026-01-07 15:35:47,0.0,5,7.455,0.0,0.0,0.0,35.5,4.7,-0.6,1024,1024,1024,1024,0,0,0,0,68,4.604,67.64,37.401576,P-GPS,,11.4
139,163700,2026-01-07 15:35:47,0.0,5,7.455,0.0,0.0,0.0,35.7,3.9,-0.4,1024,1024,1024,1024,0,0,0,0,68,4.604,67.64,37.073492,P-GPS,,11.3
140,163800,2026-01-07 15:35:47,0.0,5,7.455,0.0,0.0,0.0,35.8,4.0,-0.5,1024,1024,1024,1024,0,0,0,0,68,4.604,67.64,37.073492,P-GPS,,11.3
141,163900,2026-01-07 15:35:47,0.0,5,7.455,0.0,0.0,0.0,35.7,4.4,-0.9,1024,1024,1024,1024,0,0,0,0,68,4.604,67.64,37.073492,P-GPS,,11.3
142,164000,2026-01-07 15:35:47,0.0,5,7.455,0.0,0.0,0.0,35.6,5.2,-1.6,1024,1024,1024,1024,0,0,0,0,68,4.604,67.64,37.073492,P-GPS,,11.3
143,164100,2026-01-07 15:35:47,0.0,5,7.455,0.0,0.0,0.0,35.6,5.6,-1.5,1024,1024,1024,1024,0,0,0,0,68,4.604,67.64,37.073492,P-GPS,,11.3
144,164200,2026-01-07 15:35:47,0.0,5,7.446,0.0,0.0,0.0,35.7,5.6,-1.4,1024,1024,1024,1024,0,0,0,0,68,4.559,67.64,37.073492,P-GPS,,11.3
145,164300,2026-01-07 15:35:47,0.0,5,7.446,0.0,0.0,0.0,35.8,5.4,-1.1,1024,1024,1024,1024,0,0,0,0,68,4.559,67.64,37.073492,P-GPS,,11.3
146,164400,2026-01-07 15:35:47,0.0,5,7.446,0.0,0.0,0.0,35.8,5.9,-1.2,1024,1024,1024,1024,0,0,0,0,68,4.559,67.64,37.073492,P-GPS,,11.3
147,164500,2026-01-07 15:35:48,0.0,5,7.446,0.0,0.0,0.0,35.7,6.2,-1.4,1024,1024,1024,1024,0,0,0,0,68,4.559,67.64,37.073492,P-GPS,,11.3
148,164600,2026-01-07 15:35:48,0.0,5,7.446,0.0,0.0,0.0,35.7,6.1,-1.4,1024,1024,1024,1024,0,0,0,0,68,4.559,67.64,37.073492,P-GPS,,11.3
149,164700,2026-01-07 15:35:48,0.0,5,7.446,0.0,0.0,0.0,35.8,6.2,-1.7,1024,1024,1024,1024,0,0,0,0,68,4.559,67.64,37.073492,P-GPS,,11.3
150,164800,2026-01-07 15:35:48,0.0,5,7.446,0.0,0.0,0.0,35.8,6.3,-1.8,1024,1024,1024,1024,0,0,0,0,68,4.559,67.64,37.073492,P-GPS,,11.3
151,164900,2026-01-07 15:35:48,0.0,5,7.446,0.0,0.0,0.0,35.8,6.5,-2.0,1024,1024,1024,1024,0,0,0,0,68,4.559,67.64,37.073492,P-GPS,,11.3
152,165000,2026-01-07 15:35:48,0.0,5,7.446,0.0,0.0,0.0,35.9,6.5,-1.9,1024,1024,1024,1024,0,0,0,0,68,4.559,67.64,37.073492,P-GPS,,11.3
153,165100,2026-01-07 15:35:48,0.0,5,7.446,0.0,0.0,0.0,35.7,7.1,-2.5,1024,1024,1024,1024,0,0,0,0,68,4.559,67.64,37.073492,P-GPS,,11.3
154,165200,2026-01-07 15:35:48,0.0,5,7.446,0.0,0.0,0.0,35.5,7.3,-2.7,1024,1024,1024,1024,0,0,0,0,68,4.559,67.64,36.745408,P-GPS,,11.2
155,165300,2026-01-07 15:35:48,0.0,5,7.461,0.0,0.0,0.0,35.4,7.5,-2.5,1024,1024,1024,1024,0,0,0,0,68,4.323,67.64,36.745408,P-GPS,,11.2
156,165400,2026-01-07 15:35:48,0.0,5,7.461,0.0,0.0,0.0,35.4,8.0,-2.1,1024,1024,1024,1024,0,0,0,0,68,4.323,67.64,36.745408,P-GPS,,11.2
157,165500,2026-01-07 15:35:49,0.0,5,7.461,0.0,0.0,0.0,35.4,8.1,-1.0,1024,1024,1024,1024,0,0,0,0,68,4.323,67.64,36.745408,P-GPS,,11.2
158,165600,2026-01-07 15:35:49,0.223694,5,7.461,0.0,-0.223694,0.0,35.5,8.1,0.0,1024,1024,1024,1024,0,0,0,0,68,4.323,67.64,36.745408,P-GPS,,11.2
159,165700,2026-01-07 15:35:49,0.223694,5,7.461,0.0,-0.223694,0.0,35.5,7.3,2.1,1024,1024,1024,1024,0,0,0,0,68,4.323,67.64,36.745408,P-GPS,,11.2
160,165800,2026-01-07 15:35:49,0.223694,5,7.461,0.0,-0.223694,0.0,35.5,6.8,2.8,1024,1024,1024,1024,0,0,0,0,68,4.323,67.64,36.417324,P-GPS,,11.1
161,165900,2026-01-07 15:35:49,0.223694,5,7.461,0.0,-0.223694,0.0,35.6,6.2,2.8,1024,1024,1024,1024,0,0,0,0,68,4.323,67.64,36.417324,P-GPS,,11.1
162,166000,2026-01-07 15:35:49,0.223694,5,7.461,0.0,-0.223694,0.0,35.5,5.9,2.1,1024,1024,1024,1024,0,0,0,0,68,4.323,67.64,36.417324,P-GPS,,11.1
163,166100,2026-01-07 15:35:49,0.223694,5,7.461,0.0,-0.223694,0.0,35.5,5.6,1.5,1024,1024,1024,1024,0,0,0,0,68,4.323,67.64,36.417324,P-GPS,,11.1
164,166200,2026-01-07 15:35:49,0.0,5,7.461,0.0,0.0,0.0,35.5,5.4,1.6,1024,1024,1024,1024,0,0,0,0,68,4.323,67.64,36.417324,P-GPS,,11.1
165,166300,2026-01-07 15:35:49,0.0,5,7.461,0.0,0.0,0.0,35.6,5.3,1.1,1024,1024,1024,1024,0,0,0,0,68,4.323,67.64,36.417324,P-GPS,,11.1
166,166400,2026-01-07 15:35:49,0.0,5,7.45,0.0,0.0,0.0,35.5,5.7,0.4,1024,1024,1024,1024,0,0,0,0,68,4.438,67.64,36.417324,P-GPS,,11.1
167,166500,2026-01-07 15:35:50,0.0,5,7.45,0.0,0.0,0.0,35.4,6.2,0.1,1024,1024,1024,1024,0,0,0,0,68,4.438,67.64,36.417324,P-GPS,,11.1
168,166600,2026-01-07 15:35:50,0.0,5,7.45,0.0,0.0,0.0,35.5,6.4,0.0,1024,1024,1024,1024,0,0,0,0,68,4.438,67.64,36.417324,P-GPS,,11.1
169,166700,2026-01-07 15:35:50,0.0,5,7.45,0.0,0.0,0.0,35.6,6.9,0.5,1024,1024,1024,1024,0,0,0,0,68,4.438,67.64,36.417324,P-GPS,,11.1
170,166800,2026-01-07 15:35:50,0.0,5,7.45,0.0,0.0,0.0,35.5,5.5,0.4,1024,1024,1024,1024,0,0,0,0,68,4.438,67.64,36.417324,P-GPS,,11.1
171,166900,2026-01-07 15:35:50,0.0,5,7.45,0.0,0.0,0.0,35.7,4.9,-0.4,1024,1024,1024,1024,0,0,0,0,68,4.438,67.64,36.745408,P-GPS,,11.2
172,167000,2026-01-07 15:35:50,0.0,5,7.45,0.0,0.0,0.0,36.1,6.1,0.1,1024,1024,1024,1024,0,0,0,0,68,4.438,67.64,36.745408,P-GPS,,11.2
173,167100,2026-01-07 15:35:50,0.0,5,7.45,0.0,0.0,0.0,35.7,5.8,1.4,1024,1024,1024,1024,0,0,0,0,68,4.438,67.64,37.073492,P-GPS,,11.3
174,167200,2026-01-07 15:35:50,0.223694,5,7.45,0.0,-0.223694,0.0,35.4,5.0,1.9,1024,1024,1024,1024,0,0,0,0,68,4.438,67.64,37.073492,P-GPS,,11.3
175,167300,2026-01-07 15:35:50,0.0,5,7.45,0.0,0.0,0.0,35.3,4.9,2.1,1024,1024,1024,1024,0,0,0,0,68,4.438,67.64,37.073492,P-GPS,,11.3
176,167400,2026-01-07 15:35:50,0.0,5,7.45,0.0,0.0,0.0,35.2,4.6,1.9,1024,1024,1024,1024,0,0,0,0,68,4.438,67.64,37.073492,P-GPS,,11.3
177,167500,2026-01-07 15:35:51,0.0,5,7.446,0.0,0.0,0.0,35.4,4.5,1.5,1024,1024,1024,1024,0,0,0,0,68,4.472,67.64,37.073492,P-GPS,,11.3
178,167600,2026-01-07 15:35:51,0.0,5,7.446,0.0,0.0,0.0,35.5,4.8,0.9,1024,1024,1024,1024,0,0,0,0,68,4.472,67.64,37.073492,P-GPS,,11.3
179,167700,2026-01-07 15:35:51,0.0,5,7.446,0.0,0.0,0.0,35.6,4.8,0.6,1024,1024,1024,1024,0,0,0,0,68,4.472,67.64,37.073492,P-GPS,,11.3
180,167800,2026-01-07 15:35:51,0.0,5,7.446,0.0,0.0,0.0,35.6,5.0,0.1,1024,1024,1024,1024,0,0,0,0,68,4.472,67.64,36.745408,P-GPS,,11.2
181,167900,2026-01-07 15:35:51,0.0,5,7.446,0.0,0.0,0.0,35.6,4.7,0.0,1024,1024,1024,1024,0,0,0,0,68,4.472,67.64,36.745408,P-GPS,,11.2
182,168000,2026-01-07 15:35:51,0.0,5,7.446,0.0,0.0,0.0,35.6,4.7,-0.3,1024,1024,1024,1024,0,0,0,0,68,4.472,67.64,36.745408,P-GPS,,11.2
183,168100,2026-01-07 15:35:51,0.0,5,7.446,0.0,0.0,0.0,35.7,4.5,-0.6,1024,1024,1024,1024,0,0,0,0,68,4.472,67.64,36.745408,P-GPS,,11.2
184,168200,2026-01-07 15:35:51,0.0,5,7.446,0.0,0.0,0.0,35.7,4.8,-0.9,1024,1024,1024,1024,0,0,0,0,68,4.472,67.64,36.745408,P-GPS,,11.2
185,168300,2026-01-07 15:35:51,0.0,5,7.446,0.0,0.0,0.0,35.7,4.9,-1.1,1024,1024,1024,1024,0,0,0,0,68,4.472,67.64,36.745408,P-GPS,,11.2
186,168400,2026-01-07 15:35:51,0.0,5,7.446,0.0,0.0,0.0,35.6,5.1,-0.8,1024,1024,1024,1024,0,0,0,0,68,4.472,67.64,36.745408,P-GPS,,11.2
187,168500,2026-01-07 15:35:52,0.0,5,7.446,0.0,0.0,0.0,35.6,5.1,-0.4,1024,1024,1024,1024,0,0,0,0,68,4.472,67.64,36.745408,P-GPS,,11.2
188,168600,2026-01-07 15:35:52,0.0,5,7.449,0.0,0.0,0.0,35.7,4.8,-0.3,1024,1024,1024,1024,0,0,0,0,68,4.532,67.82,36.745408,P-GPS,,11.2
189,168700,2026-01-07 15:35:52,0.0,5,7.449,0.0,0.0,0.0,35.7,4.6,-0.7,1024,1024,1024,1024,0,0,0,0,68,4.532,67.82,36.745408,P-GPS,,11.2
190,168800,2026-01-07 15:35:52,0.0,5,7.449,0.0,0.0,0.0,35.7,4.7,-0.6,1024,1024,1024,1024,0,0,0,0,68,4.532,67.82,36.745408,P-GPS,,11.2
191,168900,2026-01-07 15:35:52,0.0,5,7.449,0.0,0.0,0.0,35.6,4.7,-0.7,1024,1024,1024,1024,0,0,0,0,68,4.532,67.82,37.073492,P-GPS,,11.3
192,169000,2026-01-07 15:35:52,0.0,5,7.449,0.0,0.0,0.0,35.6,4.8,-0.6,1024,1024,1024,1024,0,0,0,0,68,4.532,67.82,37.073492,P-GPS,,11.3
193,169100,2026-01-07 15:35:52,0.0,5,7.449,0.0,0.0,0.0,35.5,5.0,-0.8,1024,1024,1024,1024,0,0,0,0,68,4.532,67.82,37.073492,P-GPS,,11.3
194,169200,2026-01-07 15:35:52,0.0,5,7.449,0.0,0.0,0.0,35.6,4.8,-0.6,1024,1024,1024,1024,0,0,0,0,68,4.532,67.82,37.073492,P-GPS,,11.3
195,169300,2026-01-07 15:35:52,0.0,5,7.449,0.0,0.0,0.0,35.6,4.7,-0.7,1024,1024,1024,1024,0,0,0,0,68,4.532,67.82,37.073492,P-GPS,,11.3
196,169400,2026-01-07 15:35:52,0.0,5,7.449,0.0,0.0,0.0,35.7,4.7,-0.5,1024,1024,1024,1024,0,0,0,0,68,4.532,67.82,37.073492,P-GPS,,11.3
197,169500,2026-01-07 15:35:53,0.0,5,7.449,0.0,0.0,0.0,35.7,4.6,-0.7,1024,1024,1024,1024,0,0,0,0,68,4.532,67.82,37.073492,P-GPS,,11.3
198,169600,2026-01-07 15:35:53,0.0,5,7.449,0.0,0.0,0.0,35.7,4.4,-0.8,1024,1024,1024,1024,0,0,0,0,68,4.532,67.82,37.073492,P-GPS,,11.3
199,169700,2026-01-07 15:35:53,0.0,5,7.449,0.0,0.0,0.0,35.6,4.8,-0.6,1024,1024,1024,1024,0,0,0,0,68,4.532,67.82,37.073492,P-GPS,,11.3
200,169800,2026-01-07 15:35:53,0.0,5,7.449,0.0,0.0,0.0,35.6,4.6,-0.4,1024,1024,1024,1024,0,0,0,0,68,4.532,67.82,37.073492,P-GPS,,11.3
201,169900,2026-01-07 15:35:53,0.0,5,7.449,0.0,0.0,0.0,35.6,4.7,-0.4,1024,1024,1024,1024,0,0,0,0,68,4.532,67.82,37.073492,P-GPS,,11.3
202,170000,2026-01-07 15:35:53,0.0,5,7.449,0.0,0.0,0.0,35.6,4.9,-0.5,1024,1024,1024,1024,0,0,0,0,68,4.532,67.82,37.073492,P-GPS,,11.3
203,170100,2026-01-07 15:35:53,0.0,5,7.449,0.0,0.0,0.0,35.6,5.0,-0.7,1024,1024,1024,1024,0,0,0,0,68,4.532,67.82,37.073492,P-GPS,,11.3
204,170200,2026-01-07 15:35:53,0.0,5,7.449,0.0,0.0,0.0,35.5,5.0,-0.7,1024,1024,1024,1024,0,0,0,0,68,4.532,67.82,37.073492,P-GPS,,11.3
205,170300,2026-01-07 15:35:53,0.0,5,7.449,0.0,0.0,0.0,35.5,4.8,-0.5,1024,1024,1024,1024,0,0,0,0,68,4.532,67.82,37.073492,P-GPS,,11.3
206,170400,2026-01-07 15:35:53,0.0,5,7.449,0.0,0.0,0.0,35.5,4.8,-0.5,1024,1024,1024,1024,0,0,0,0,68,4.532,67.82,37.073492,P-GPS,,11.3
207,170500,2026-01-07 15:35:54,0.0,5,7.449,0.0,0.0,0.0,35.5,4.6,-0.7,1024,1024,1024,1024,0,0,0,0,68,4.532,67.82,37.073492,P-GPS,,11.3
208,170600,2026-01-07 15:35:54,0.0,5,7.449,0.0,0.0,0.0,35.5,4.8,-0.7,1024,1024,1024,1024,0,0,0,0,68,4.532,67.82,37.073492,P-GPS,,11.3
209,170700,2026-01-07 15:35:54,0.0,5,7.449,0.0,0.0,0.0,35.5,5.1,-0.6,1024,1024,1024,1024,0,0,0,0,68,4.532,67.82,37.073492,P-GPS,,11.3
210,170800,2026-01-07 15:35:54,0.0,5,7.443,0.0,0.0,0.0,35.5,5.4,-0.8,1024,1024,1024,1024,0,0,0,0,68,4.575,67.82,37.073492,P-GPS,,11.3
211,170900,2026-01-07 15:35:54,0.0,5,7.443,0.0,0.0,0.0,35.5,5.6,-0.6,1024,1024,1024,1024,0,0,0,0,68,4.575,67.82,37.073492,P-GPS,,11.3
212,171000,2026-01-07 15:35:54,0.0,5,7.443,0.0,0.0,0.0,35.5,5.5,-0.6,1024,1024,1024,1024,0,0,0,0,68,4.575,67.82,37.073492,P-GPS,,11.3
213,171100,2026-01-07 15:35:54,0.0,5,7.443,0.0,0.0,0.0,35.5,5.3,-0.8,1024,1024,1024,1024,0,0,0,0,68,4.575,67.82,37.073492,P-GPS,,11.3
214,171200,2026-01-07 15:35:54,0.0,5,7.443,0.0,0.0,0.0,35.5,5.5,-1.1,1024,1024,1024,1024,0,0,0,0,68,4.575,67.82,37.073492,P-GPS,,11.3
215,171300,2026-01-07 15:35:54,0.0,5,7.443,0.0,0.0,0.0,35.5,5.3,-1.0,1024,1024,1024,1024,0,0,0,0,68,4.575,67.82,37.073492,P-GPS,,11.3
216,171400,2026-01-07 15:35:54,0.0,5,7.443,0.0,0.0,0.0,35.5,5.0,-1.0,1024,1024,1024,1024,0,0,0,0,68,4.575,67.82,37.073492,P-GPS,,11.3
217,171500,2026-01-07 15:35:55,0.0,5,7.443,0.0,0.0,0.0,35.5,5.2,-1.1,1024,1024,1024,1024,0,0,0,0,68,4.575,67.82,37.073492,P-GPS,,11.3
218,171600,2026-01-07 15:35:55,0.0,5,7.443,0.0,0.0,0.0,35.3,5.4,-0.4,1024,1024,1024,1024,0,0,0,0,68,4.575,67.82,37.073492,P-GPS,,11.3
219,171700,2026-01-07 15:35:55,0.0,5,7.443,0.0,0.0,0.0,35.3,4.8,0.0,1024,1024,1024,1024,0,0,0,0,68,4.575,67.82,37.073492,P-GPS,,11.3
220,171800,2026-01-07 15:35:55,0.0,5,7.443,0.0,0.0,0.0,35.3,4.8,0.5,1024,1024,1024,1024,0,0,0,0,68,4.575,67.82,37.073492,P-GPS,,11.3
221,171900,2026-01-07 15:35:55,0.0,5,7.432,0.0,0.0,0.0,35.4,4.6,0.4,1024,1024,1024,1024,0,0,0,0,68,4.611,67.82,37.073492,P-GPS,,11.3
222,172000,2026-01-07 15:35:55,0.0,5,7.432,0.0,0.0,0.0,35.4,5.0,0.6,1024,1024,1024,1024,0,0,0,0,68,4.611,67.82,37.073492,P-GPS,,11.3
223,172100,2026-01-07 15:35:55,0.0,5,7.432,0.0,0.0,0.0,35.4,4.9,0.7,1024,1024,1024,1024,0,0,0,0,68,4.611,67.82,37.073492,P-GPS,,11.3
224,172200,2026-01-07 15:35:55,0.0,5,7.432,0.0,0.0,0.0,35.4,4.6,0.5,1024,1024,1024,1024,0,0,0,0,68,4.611,67.82,37.073492,P-GPS,,11.3
225,172300,2026-01-07 15:35:55,0.0,5,7.432,0.0,0.0,0.0,35.4,4.4,0.4,1024,1024,1024,1024,0,0,0,0,68,4.611,67.82,37.073492,P-GPS,,11.3
226,172400,2026-01-07 15:35:55,0.0,5,7.432,0.0,0.0,0.0,35.4,4.6,0.8,1024,1024,1024,1024,0,0,0,0,68,4.611,67.82,37.073492,P-GPS,,11.3
227,172500,2026-01-07 15:35:56,0.0,5,7.432,0.0,0.0,0.0,35.5,4.1,0.8,1024,1024,1024,1024,0,0,0,0,68,4.611,67.82,37.073492,P-GPS,,11.3
228,172600,2026-01-07 15:35:56,0.0,5,7.432,0.0,0.0,0.0,35.5,3.6,0.4,1024,1024,1024,1024,0,0,0,0,68,4.611,67.82,37.073492,P-GPS,,11.3
229,172700,2026-01-07 15:35:56,0.0,5,7.432,0.0,0.0,0.0,35.5,3.6,0.2,1024,1024,1024,1024,0,0,0,0,68,4.611,67.82,37.073492,P-GPS,,11.3
230,172800,2026-01-07 15:35:56,0.0,5,7.432,0.0,0.0,0.0,35.5,4.0,0.4,1024,1024,1024,1024,0,0,0,0,68,4.611,67.82,37.073492,P-GPS,,11.3
231,172900,2026-01-07 15:35:56,0.0,5,7.432,0.0,0.0,0.0,35.5,4.3,0.5,1024,1024,1024,1024,0,0,0,0,68,4.611,67.82,37.073492,P-GPS,,11.3
232,173000,2026-01-07 15:35:56,0.0,5,7.419,0.0,0.0,0.0,35.5,4.5,0.3,1024,1024,1024,1024,0,0,0,0,68,4.788,67.82,37.073492,P-GPS,,11.3
233,173100,2026-01-07 15:35:56,0.0,5,7.419,0.0,0.0,0.0,35.6,4.3,0.9,1024,1024,1024,1024,0,0,0,0,68,4.788,67.82,37.073492,P-GPS,,11.3
234,173200,2026-01-07 15:35:56,0.0,5,7.419,0.0,0.0,0.0,35.5,4.5,0.6,1024,1024,1024,1024,0,0,0,0,68,4.788,67.82,37.073492,P-GPS,,11.3
235,173300,2026-01-07 15:35:56,0.0,5,7.419,0.0,0.0,0.0,35.6,4.9,0.5,1024,1024,1024,1024,0,0,0,0,68,4.788,67.82,37.073492,P-GPS,,11.3
236,173400,2026-01-07 15:35:57,0.0,5,7.419,0.0,0.0,0.0,35.6,5.2,0.0,1024,1024,1024,1024,0,0,0,0,68,4.788,67.82,37.073492,P-GPS,,11.3
237,173500,2026-01-07 15:35:57,0.0,5,7.419,0.0,0.0,0.0,35.6,5.3,0.0,1024,1024,1024,1024,0,0,0,0,68,4.788,67.82,37.073492,P-GPS,,11.3
238,173600,2026-01-07 15:35:57,0.0,5,7.419,0.0,0.0,0.0,35.6,4.9,-0.3,1024,1024,1024,1024,0,0,0,0,68,4.788,67.82,37.073492,P-GPS,,11.3
239,173700,2026-01-07 15:35:57,0.0,5,7.419,0.0,0.0,0.0,35.5,5.4,-0.6,1024,1024,1024,1024,0,0,0,0,68,4.788,67.82,37.073492,P-GPS,,11.3
240,173800,2026-01-07 15:35:57,0.0,5,7.419,0.0,0.0,0.0,35.5,4.9,-0.6,1024,1024,1024,1024,0,0,0,0,68,4.788,67.82,37.073492,P-GPS,,11.3
241,173900,2026-01-07 15:35:57,0.0,5,7.419,0.0,0.0,0.0,35.5,5.0,-0.4,1024,1024,1024,1024,0,0,0,0,68,4.788,67.82,37.073492,P-GPS,,11.3
242,174000,2026-01-07 15:35:57,0.0,5,7.419,0.0,0.0,0.0,35.6,5.2,-0.4,1024,1024,1024,1024,0,0,0,0,68,4.788,67.82,37.073492,P-GPS,,11.3
243,174100,2026-01-07 15:35:57,0.0,5,7.425,0.0,0.0,0.0,35.6,5.1,-0.4,1024,1024,1024,1024,0,0,0,0,68,4.82,67.82,37.073492,P-GPS,,11.3
244,174200,2026-01-07 15:35:57,0.0,5,7.425,0.0,0.0,0.0,35.6,5.1,-0.4,1024,1024,1024,1024,0,0,0,0,68,4.82,67.82,37.073492,P-GPS,,11.3
245,174300,2026-01-07 15:35:57,0.0,5,7.425,0.0,0.0,0.0,35.6,5.5,-0.2,1024,1024,1024,1024,0,0,0,0,68,4.82,67.82,37.073492,P-GPS,,11.3
246,174400,2026-01-07 15:35:57,0.0,5,7.425,0.0,0.0,0.0,35.7,5.7,-0.3,1024,1024,1024,1024,0,0,0,0,68,4.82,67.82,37.073492,P-GPS,,11.3
247,174500,2026-01-07 15:35:58,0.0,5,7.425,0.0,0.0,0.0,35.7,6.0,-0.6,1024,1024,1024,1024,0,0,0,0,68,4.82,67.82,37.073492,P-GPS,,11.3
248,174600,2026-01-07 15:35:58,0.0,5,7.425,0.0,0.0,0.0,35.6,5.6,-0.2,1024,1024,1024,1024,0,0,0,0,68,4.82,67.82,37.073492,P-GPS,,11.3
249,174700,2026-01-07 15:35:58,0.0,5,7.425,0.0,0.0,0.0,35.6,5.0,-0.1,1024,1024,1024,1024,0,0,0,0,68,4.82,67.82,37.073492,P-GPS,,11.3
250,174800,2026-01-07 15:35:58,0.0,5,7.425,0.0,0.0,0.0,35.5,5.0,0.0,1024,1024,1024,1024,0,0,0,0,68,4.82,67.82,37.073492,P-GPS,,11.3
251,174900,2026-01-07 15:35:58,0.0,5,7.425,0.0,0.0,0.0,35.5,4.8,0.2,1024,1024,1024,1024,0,0,0,0,68,4.82,67.82,37.073492,P-GPS,,11.3
252,175000,2026-01-07 15:35:58,0.0,5,7.425,0.0,0.0,0.0,35.6,4.8,0.3,1024,1024,1024,1024,0,0,0,0,68,4.82,67.82,37.073492,P-GPS,,11.3
253,175100,2026-01-07 15:35:58,0.0,5,7.425,0.0,0.0,0.0,35.5,4.6,0.0,1024,1024,1024,1024,0,0,0,0,68,4.82,67.82,37.073492,P-GPS,,11.3
254,175200,2026-01-07 15:35:58,0.0,5,7.424,0.0,0.0,0.0,35.5,4.6,0.3,1024,1024,1024,1024,0,0,0,0,68,4.717,68.0,37.073492,P-GPS,,11.3
255,175300,2026-01-07 15:35:58,0.0,5,7.424,0.0,0.0,0.0,35.5,4.6,0.2,1024,1024,1024,1024,0,0,0,0,68,4.717,68.0,37.073492,P-GPS,,11.3
256,175400,2026-01-07 15:35:59,0.0,5,7.424,0.0,0.0,0.0,35.6,4.7,0.0,1024,1024,1024,1024,0,0,0,0,68,4.717,68.0,37.073492,P-GPS,,11.3
257,175500,2026-01-07 15:35:59,0.0,5,7.424,0.0,0.0,0.0,35.5,4.6,-0.2,1024,1024,1024,1024,0,0,0,0,68,4.717,68.0,37.073492,P-GPS,,11.3
258,175600,2026-01-07 15:35:59,0.0,5,7.424,0.0,0.0,0.0,35.6,4.9,0.0,1024,1024,1024,1024,0,0,0,0,68,4.717,68.0,37.073492,P-GPS,,11.3
259,175700,2026-01-07 15:35:59,0.0,5,7.424,0.0,0.0,0.0,35.6,5.0,-0.2,1024,1024,1024,1024,0,0,0,0,68,4.717,68.0,37.073492,P-GPS,,11.3
260,175800,2026-01-07 15:35:59,0.0,5,7.424,0.0,0.0,0.0,35.6,4.8,0.0,1024,1024,1024,1024,0,0,0,0,68,4.717,68.0,37.073492,P-GPS,,11.3
261,175900,2026-01-07 15:35:59,0.0,5,7.424,0.0,0.0,0.0,35.5,4.3,0.0,1024,1024,1024,1024,0,0,0,0,68,4.717,68.0,37.073492,P-GPS,,11.3
262,176000,2026-01-07 15:35:59,0.0,5,7.424,0.0,0.0,0.0,35.6,3.7,0.0,1024,1024,1024,1024,0,0,0,0,68,4.717,68.0,37.073492,P-GPS,,11.3
263,176100,2026-01-07 15:35:59,0.0,5,7.424,0.0,0.0,0.0,35.7,3.2,0.4,1024,1024,1024,1024,0,0,0,0,68,4.717,68.0,37.073492,P-GPS,,11.3
264,176200,2026-01-07 15:35:59,0.0,5,7.424,0.0,0.0,0.0,35.6,3.6,0.4,1024,1024,1024,1024,0,0,0,0,68,4.717,68.0,37.073492,P-GPS,,11.3
265,176300,2026-01-07 15:35:59,0.0,5,7.409,0.0,0.0,0.0,35.6,3.9,0.0,1024,1024,1024,1024,0,0,0,0,67,4.963,68.0,37.073492,P-GPS,,11.3
266,176400,2026-01-07 15:35:59,0.0,5,7.409,0.0,0.0,0.0,35.6,4.1,-0.4,1024,1024,1024,1024,0,0,0,0,67,4.963,68.0,37.073492,P-GPS,,11.3
267,176500,2026-01-07 15:36:00,0.0,5,7.409,0.0,0.0,0.0,35.6,4.6,-0.5,1024,1024,1024,1024,0,0,0,0,67,4.963,68.0,37.073492,P-GPS,,11.3
268,176600,2026-01-07 15:36:00,0.0,5,7.409,0.0,0.0,0.0,35.6,4.9,-0.9,1024,1024,1024,1024,0,0,0,0,67,4.963,68.0,37.073492,P-GPS,,11.3
269,176700,2026-01-07 15:36:00,0.0,5,7.409,0.0,0.0,0.0,35.6,5.1,-1.3,1024,1024,1024,1024,0,0,0,0,67,4.963,68.0,37.073492,P-GPS,,11.3
270,176800,2026-01-07 15:36:00,0.0,5,7.409,0.0,0.0,0.0,35.6,4.8,-1.2,1024,1024,1024,1024,0,0,0,0,67,4.963,68.0,37.073492,P-GPS,,11.3
271,176900,2026-01-07 15:36:00,0.0,5,7.409,0.0,0.0,0.0,35.6,4.7,-1.1,1024,1024,1024,1024,0,0,0,0,67,4.963,68.0,37.073492,P-GPS,,11.3
272,177000,2026-01-07 15:36:00,0.0,5,7.409,0.0,0.0,0.0,35.6,4.6,-1.1,1024,1024,1024,1024,0,0,0,0,67,4.963,68.0,37.073492,P-GPS,,11.3
273,177100,2026-01-07 15:36:00,0.0,5,7.409,0.0,0.0,0.0,35.6,4.4,-0.6,1024,1024,1024,1024,0,0,0,0,67,4.963,68.0,37.073492,P-GPS,,11.3
274,177200,2026-01-07 15:36:00,0.0,5,7.409,0.0,0.0,0.0,35.6,4.5,-0.5,1024,1024,1024,1024,0,0,0,0,67,4.963,68.0,37.073492,P-GPS,,11.3
275,177300,2026-01-07 15:36:00,0.0,5,7.409,0.0,0.0,0.0,35.6,4.5,-0.1,1024,1024,1024,1024,0,0,0,0,67,4.963,68.0,37.073492,P-GPS,,11.3
276,177400,2026-01-07 15:36:01,0.0,5,7.415,0.0,0.0,0.0,35.5,4.3,0.0,1024,1024,1024,1024,0,0,0,0,67,4.904,68.0,37.073492,P-GPS,,11.3
277,177500,2026-01-07 15:36:01,0.0,5,7.415,0.0,0.0,0.0,35.5,3.9,0.3,1024,1024,1024,1024,0,0,0,0,67,4.904,68.0,37.073492,P-GPS,,11.3
278,177600,2026-01-07 15:36:01,0.0,5,7.415,0.0,0.0,0.0,35.4,3.9,0.0,1024,1024,1024,1024,0,0,0,0,67,4.904,68.0,37.073492,P-GPS,,11.3
279,177700,2026-01-07 15:36:01,0.0,5,7.415,0.0,0.0,0.0,35.3,3.8,0.1,1024,1024,1024,1024,0,0,0,0,67,4.904,68.0,37.073492,P-GPS,,11.3
280,177800,2026-01-07 15:36:01,0.0,5,7.415,0.0,0.0,0.0,35.2,4.0,0.5,1024,1024,1024,1024,0,0,0,0,67,4.904,68.0,37.073492,P-GPS,,11.3
281,177900,2026-01-07 15:36:01,0.0,5,7.415,0.0,0.0,0.0,35.2,4.4,0.7,1024,1024,1024,1024,0,0,0,0,67,4.904,68.0,37.073492,P-GPS,,11.3
282,178000,2026-01-07 15:36:01,0.0,5,7.415,0.0,0.0,0.0,35.3,5.1,1.1,1024,1024,1024,1024,0,0,0,0,67,4.904,68.0,37.073492,P-GPS,,11.3
283,178100,2026-01-07 15:36:01,0.0,5,7.415,0.0,0.0,0.0,35.4,5.6,1.5,1024,1024,1024,1024,0,0,0,0,67,4.904,68.0,37.073492,P-GPS,,11.3
284,178200,2026-01-07 15:36:01,0.0,5,7.415,0.0,0.0,0.0,35.5,5.6,1.4,1024,1024,1024,1024,0,0,0,0,67,4.904,68.0,37.073492,P-GPS,,11.3
285,178300,2026-01-07 15:36:01,0.0,5,7.415,0.0,0.0,0.0,35.6,5.4,1.6,1024,1024,1024,1024,0,0,0,0,67,4.904,68.0,37.073492,P-GPS,,11.3
286,178400,2026-01-07 15:36:01,0.0,5,7.415,0.0,0.0,0.0,35.5,5.7,1.1,1024,1024,1024,1024,0,0,0,0,67,4.904,68.0,37.073492,P-GPS,,11.3
287,178500,2026-01-07 15:36:02,0.0,5,7.434,0.0,0.0,0.0,35.5,5.6,1.5,1024,1024,1024,1024,0,0,0,0,67,4.572,68.0,37.073492,P-GPS,,11.3
288,178600,2026-01-07 15:36:02,0.0,5,7.434,0.0,0.0,0.0,35.5,5.2,1.6,1024,1024,1024,1024,0,0,0,0,67,4.572,68.0,37.073492,P-GPS,,11.3
289,178700,2026-01-07 15:36:02,0.0,5,7.434,0.0,0.0,0.0,35.5,5.4,1.9,1024,1024,1024,1024,0,0,0,0,67,4.572,68.0,37.073492,P-GPS,,11.3
290,178800,2026-01-07 15:36:02,0.0,5,7.434,0.0,0.0,0.0,35.5,5.5,1.6,1024,1024,1024,1024,0,0,0,0,67,4.572,68.0,37.073492,P-GPS,,11.3
291,178900,2026-01-07 15:36:02,0.0,5,7.434,0.0,0.0,0.0,35.5,5.6,1.2,1024,1024,1024,1024,0,0,0,0,67,4.572,68.0,37.073492,P-GPS,,11.3
292,179000,2026-01-07 15:36:02,0.0,5,7.434,0.0,0.0,0.0,35.4,6.0,1.1,1024,1024,1024,1024,0,0,0,0,67,4.572,68.0,37.073492,P-GPS,,11.3
293,179100,2026-01-07 15:36:02,0.0,5,7.434,0.0,0.0,0.0,35.5,6.0,1.4,1024,1024,1024,1024,0,0,0,0,67,4.572,68.0,37.073492,P-GPS,,11.3
294,179200,2026-01-07 15:36:02,0.0,5,7.434,0.0,0.0,0.0,35.5,6.0,1.4,1024,1024,1024,1024,0,0,0,0,67,4.572,68.0,36.745408,P-GPS,,11.2
295,179300,2026-01-07 15:36:02,0.0,5,7.434,0.0,0.0,0.0,35.6,5.8,1.3,1024,1024,1024,1024,0,0,0,0,67,4.572,68.0,36.745408,P-GPS,,11.2
296,179400,2026-01-07 15:36:02,0.0,5,7.434,0.0,0.0,0.0,35.6,5.9,0.4,1024,1024,1024,1024,0,0,0,0,67,4.572,68.0,36.745408,P-GPS,,11.2
297,179500,2026-01-07 15:36:03,0.0,5,7.434,0.0,0.0,0.0,35.6,5.3,0.2,1024,1024,1024,1024,0,0,0,0,67,4.572,68.0,36.745408,P-GPS,,11.2
298,179600,2026-01-07 15:36:03,0.0,5,7.426,0.0,0.0,0.0,35.5,5.2,0.7,1024,1024,1024,1024,0,0,0,0,67,4.604,68.0,37.073492,P-GPS,,11.3
299,179700,2026-01-07 15:36:03,0.0,5,7.426,0.0,0.0,0.0,35.5,5.1,1.4,1024,1024,1024,1024,0,0,0,0,67,4.604,68.0,37.073492,P-GPS,,11.3
300,179800,2026-01-07 15:36:03,0.0,5,7.426,0.0,0.0,0.0,35.5,4.8,1.5,1024,1024,1024,1024,0,0,0,0,67,4.604,68.0,37.073492,P-GPS,,11.3
301,179900,2026-01-07 15:36:03,0.0,5,7.426,0.0,0.0,0.0,35.5,4.6,1.2,1024,1024,1024,1024,0,0,0,0,67,4.604,68.0,37.073492,P-GPS,,11.3
302,180000,2026-01-07 15:36:03,0.0,5,7.426,0.0,0.0,0.0,35.5,4.6,1.3,1024,1024,1024,1024,0,0,0,0,67,4.604,68.0,37.073492,P-GPS,,11.3
303,180100,2026-01-07 15:36:03,0.0,5,7.426,0.0,0.0,0.0,35.4,5.0,0.9,1024,1024,1024,1024,0,0,0,0,67,4.604,68.0,37.073492,P-GPS,,11.3
304,180200,2026-01-07 15:36:03,0.0,5,7.426,0.0,0.0,0.0,35.4,5.0,1.2,1024,1024,1024,1024,0,0,0,0,67,4.604,68.0,37.073492,P-GPS,,11.3
305,180300,2026-01-07 15:36:03,0.0,5,7.426,0.0,0.0,0.0,35.5,5.0,1.2,1024,1024,1024,1024,0,0,0,0,67,4.604,68.0,37.073492,P-GPS,,11.3
306,180400,2026-01-07 15:36:03,0.0,5,7.426,0.0,0.0,0.0,35.5,4.9,1.1,1024,1024,1024,1024,0,0,0,0,67,4.604,68.0,37.073492,P-GPS,,11.3
307,180500,2026-01-07 15:36:04,0.0,5,7.426,0.0,0.0,0.0,35.5,5.1,1.3,1024,1024,1024,1024,0,0,0,0,67,4.604,68.0,37.073492,P-GPS,,11.3
308,180600,2026-01-07 15:36:04,0.0,5,7.426,0.0,0.0,0.0,35.5,5.1,1.5,1024,1024,1024,1024,0,0,0,0,67,4.604,68.0,37.073492,P-GPS,,11.3
309,180700,2026-01-07 15:36:04,0.0,5,7.426,0.0,0.0,0.0,35.5,4.8,1.6,1024,1024,1024,1024,0,0,0,0,67,4.604,68.0,37.073492,P-GPS,,11.3
310,180800,2026-01-07 15:36:04,0.0,5,7.426,0.0,0.0,0.0,35.5,4.7,1.8,1024,1024,1024,1024,0,0,0,0,67,4.604,68.0,37.073492,P-GPS,,11.3
311,180900,2026-01-07 15:36:04,0.0,5,7.426,0.0,0.0,0.0,35.5,4.5,1.7,1024,1024,1024,1024,0,0,0,0,67,4.604,68.0,37.073492,P-GPS,,11.3
312,181000,2026-01-07 15:36:04,0.0,5,7.426,0.0,0.0,0.0,35.5,4.2,1.8,1024,1024,1024,1024,0,0,0,0,67,4.604,68.0,37.073492,P-GPS,,11.3
313,181100,2026-01-07 15:36:04,0.0,5,7.426,0.0,0.0,0.0,35.6,4.1,1.7,1024,1024,1024,1024,0,0,0,0,67,4.604,68.0,37.073492,P-GPS,,11.3
314,181200,2026-01-07 15:36:04,0.0,5,7.426,0.0,0.0,0.0,35.6,3.8,1.6,1024,1024,1024,1024,0,0,0,0,67,4.604,68.0,37.073492,P-GPS,,11.3
315,181300,2026-01-07 15:36:04,0.0,5,7.426,0.0,0.0,0.0,35.6,3.7,1.7,1024,1024,1024,1024,0,0,0,0,67,4.604,68.0,37.073492,P-GPS,,11.3
316,181400,2026-01-07 15:36:04,0.0,5,7.426,0.0,0.0,0.0,35.6,3.6,2.0,1024,1024,1024,1024,0,0,0,0,67,4.604,68.0,37.073492,P-GPS,,11.3
317,181500,2026-01-07 15:36:05,0.0,5,7.426,0.0,0.0,0.0,35.6,3.4,2.2,1024,1024,1024,1024,0,0,0,0,67,4.604,68.0,37.073492,P-GPS,,11.3
318,181600,2026-01-07 15:36:05,0.0,5,7.426,0.0,0.0,0.0,35.6,3.5,2.1,1024,1024,1024,1024,0,0,0,0,67,4.604,68.0,37.073492,P-GPS,,11.3
319,181700,2026-01-07 15:36:05,0.0,5,7.426,0.0,0.0,0.0,35.7,3.2,1.9,1024,1024,1024,1024,0,0,0,0,67,4.604,68.0,37.073492,P-GPS,,11.3
320,181800,2026-01-07 15:36:05,0.0,5,7.432,0.0,0.0,0.0,35.7,3.1,2.2,1024,1024,1024,1024,0,0,0,0,67,4.511,68.18,37.073492,P-GPS,,11.3
321,181900,2026-01-07 15:36:05,0.0,5,7.432,0.0,0.0,0.0,35.7,3.5,2.4,1024,1024,1024,1024,0,0,0,0,67,4.511,68.18,37.073492,P-GPS,,11.3
322,182000,2026-01-07 15:36:05,0.0,5,7.432,0.0,0.0,0.0,35.6,4.0,2.3,1024,1024,1024,1024,0,0,0,0,67,4.511,68.18,37.073492,P-GPS,,11.3
323,182100,2026-01-07 15:36:05,0.0,5,7.432,0.0,0.0,0.0,35.6,4.0,2.3,1024,1024,1024,1024,0,0,0,0,67,4.511,68.18,37.073492,P-GPS,,11.3
324,182200,2026-01-07 15:36:05,0.0,5,7.432,0.0,0.0,0.0,35.6,3.7,2.6,1024,1024,1024,1024,0,0,0,0,67,4.511,68.18,37.073492,P-GPS,,11.3
325,182300,2026-01-07 15:36:05,0.0,5,7.432,0.0,0.0,0.0,35.6,3.8,2.8,1024,1024,1024,1024,0,0,0,0,67,4.511,68.18,37.401576,P-GPS,,11.4
326,182400,2026-01-07 15:36:05,0.0,5,7.432,0.0,0.0,0.0,35.6,4.0,2.8,1024,1024,1024,1024,0,0,0,0,67,4.511,68.18,37.401576,P-GPS,,11.4
327,182500,2026-01-07 15:36:06,0.0,5,7.432,0.0,0.0,0.0,35.6,4.6,2.9,1024,1024,1024,1024,0,0,0,0,67,4.511,68.18,37.401576,P-GPS,,11.4
328,182600,2026-01-07 15:36:06,0.0,5,7.432,0.0,0.0,0.0,35.7,4.7,3.1,1024,1024,1024,1024,0,0,0,0,67,4.511,68.18,37.401576,P-GPS,,11.4
329,182700,2026-01-07 15:36:06,0.0,5,7.432,0.0,0.0,0.0,35.7,4.9,3.0,1024,1024,1024,1024,0,0,0,0,67,4.511,68.18,37.401576,P-GPS,,11.4
330,182800,2026-01-07 15:36:06,0.0,5,7.432,0.0,0.0,0.0,35.7,4.7,3.1,1024,1024,1024,1024,0,0,0,0,67,4.511,68.18,37.401576,P-GPS,,11.4
331,182900,2026-01-07 15:36:06,0.0,5,7.412,0.0,0.0,0.0,35.7,4.8,3.2,1024,1024,1024,1024,0,0,0,0,67,4.759,68.0,37.401576,P-GPS,,11.4
332,183000,2026-01-07 15:36:06,0.0,5,7.412,0.0,0.0,0.0,35.6,4.6,3.3,1024,1024,1024,1024,0,0,0,0,67,4.759,68.0,37.401576,P-GPS,,11.4
333,183100,2026-01-07 15:36:06,0.0,5,7.412,0.0,0.0,0.0,35.5,4.4,3.3,1024,1024,1024,1024,0,0,0,0,67,4.759,68.0,37.401576,P-GPS,,11.4
334,183200,2026-01-07 15:36:06,0.0,5,7.412,0.0,0.0,0.0,35.5,4.8,3.5,1024,1024,1024,1024,0,0,0,0,67,4.759,68.0,37.401576,P-GPS,,11.4
335,183300,2026-01-07 15:36:06,0.0,5,7.412,0.0,0.0,0.0,35.5,5.0,3.7,1024,1024,1024,1024,0,0,0,0,67,4.759,68.0,37.401576,P-GPS,,11.4
336,183400,2026-01-07 15:36:06,0.0,5,7.412,0.0,0.0,0.0,35.5,5.0,3.8,1024,1024,1024,1024,0,0,0,0,67,4.759,68.0,37.72966,P-GPS,,11.5
337,183500,2026-01-07 15:36:07,0.0,5,7.412,0.0,0.0,0.0,35.6,5.5,3.9,1024,1024,1024,1024,0,0,0,0,67,4.759,68.0,37.72966,P-GPS,,11.5
338,183600,2026-01-07 15:36:07,0.0,5,7.412,0.0,0.0,0.0,35.6,6.1,3.8,1024,1024,1024,1024,0,0,0,0,67,4.759,68.0,37.72966,P-GPS,,11.5
339,183700,2026-01-07 15:36:07,0.0,5,7.412,0.0,0.0,0.0,35.6,6.1,3.6,1024,1024,1024,1024,0,0,0,0,67,4.759,68.0,37.72966,P-GPS,,11.5
340,183800,2026-01-07 15:36:07,0.0,5,7.412,0.0,0.0,0.0,35.7,6.1,3.2,1024,1024,1024,1024,0,0,0,0,67,4.759,68.0,37.72966,P-GPS,,11.5
341,183900,2026-01-07 15:36:07,0.0,5,7.412,0.0,0.0,0.0,35.7,6.4,3.0,1024,1024,1024,1024,0,0,0,0,67,4.759,68.0,37.72966,P-GPS,,11.5
342,184000,2026-01-07 15:36:07,0.0,5,7.426,0.0,0.0,0.0,35.7,6.3,2.7,1024,1024,1024,1024,0,0,0,0,67,4.628,68.0,37.72966,P-GPS,,11.5
343,184100,2026-01-07 15:36:07,0.0,5,7.426,0.0,0.0,0.0,35.7,6.2,2.6,1024,1024,1024,1024,0,0,0,0,67,4.628,68.0,37.72966,P-GPS,,11.5
344,184200,2026-01-07 15:36:07,0.0,5,7.426,0.0,0.0,0.0,35.7,5.9,2.5,1024,1024,1024,1024,0,0,0,0,67,4.628,68.0,37.72966,P-GPS,,11.5
345,184300,2026-01-07 15:36:07,0.0,5,7.426,0.0,0.0,0.0,35.8,5.7,2.6,1024,1024,1024,1024,0,0,0,0,67,4.628,68.0,37.72966,P-GPS,,11.5
346,184400,2026-01-07 15:36:08,0.0,5,7.426,0.0,0.0,0.0,35.8,5.5,2.4,1024,1024,1024,1024,0,0,0,0,67,4.628,68.0,37.401576,P-GPS,,11.4
347,184500,2026-01-07 15:36:08,0.0,5,7.426,0.0,0.0,0.0,35.8,5.2,2.5,1024,1024,1024,1024,0,0,0,0,67,4.628,68.0,37.401576,P-GPS,,11.4
348,184600,2026-01-07 15:36:08,0.0,5,7.426,0.0,0.0,0.0,35.8,5.0,2.2,1024,1024,1024,1024,0,0,0,0,67,4.628,68.0,37.401576,P-GPS,,11.4
349,184700,2026-01-07 15:36:08,0.0,5,7.426,0.0,0.0,0.0,35.8,4.9,2.0,1024,1024,1024,1024,0,0,0,0,67,4.628,68.0,37.401576,P-GPS,,11.4
350,184800,2026-01-07 15:36:08,0.0,5,7.426,0.0,0.0,0.0,35.7,5.1,1.7,1024,1024,1024,1024,0,0,0,0,67,4.628,68.0,37.401576,P-GPS,,11.4
351,184900,2026-01-07 15:36:08,0.0,5,7.426,0.0,0.0,0.0,35.7,5.0,1.7,1024,1024,1024,1024,0,0,0,0,67,4.628,68.0,37.401576,P-GPS,,11.4
352,185000,2026-01-07 15:36:08,0.0,5,7.426,0.0,0.0,0.0,35.7,5.2,1.5,1024,1024,1024,1024,0,0,0,0,67,4.628,68.0,37.073492,P-GPS,,11.3
353,185100,2026-01-07 15:36:08,0.0,5,7.421,0.0,0.0,0.0,35.7,4.9,1.5,1024,1024,1024,1024,0,0,0,0,67,4.649,68.0,37.073492,P-GPS,,11.3
354,185200,2026-01-07 15:36:08,0.0,5,7.421,0.0,0.0,0.0,35.6,5.1,1.8,1024,1024,1024,1024,0,0,0,0,67,4.649,68.0,37.073492,P-GPS,,11.3
355,185300,2026-01-07 15:36:08,0.0,5,7.421,0.0,0.0,0.0,35.6,5.5,2.1,1024,1024,1024,1024,0,0,0,0,67,4.649,68.0,37.073492,P-GPS,,11.3
356,185400,2026-01-07 15:36:08,0.0,5,7.421,0.0,0.0,0.0,35.6,5.6,2.4,1024,1024,1024,1024,0,0,0,0,67,4.649,68.0,37.073492,P-GPS,,11.3
357,185500,2026-01-07 15:36:09,0.0,5,7.421,0.0,0.0,0.0,35.7,5.7,2.6,1024,1024,1024,1024,0,0,0,0,67,4.649,68.0,37.073492,P-GPS,,11.3
358,185600,2026-01-07 15:36:09,0.0,5,7.421,0.0,0.0,0.0,35.7,5.6,2.7,1024,1024,1024,1024,0,0,0,0,67,4.649,68.0,37.073492,P-GPS,,11.3
359,185700,2026-01-07 15:36:09,0.0,5,7.421,0.0,0.0,0.0,35.7,5.5,2.6,1024,1024,1024,1024,0,0,0,0,67,4.649,68.0,37.073492,P-GPS,,11.3
360,185800,2026-01-07 15:36:09,0.0,5,7.421,0.0,0.0,0.0,35.7,5.4,2.5,1024,1024,1024,1024,0,0,0,0,67,4.649,68.0,37.073492,P-GPS,,11.3
361,185900,2026-01-07 15:36:09,0.0,5,7.421,0.0,0.0,0.0,35.6,5.3,2.4,1024,1024,1024,1024,0,0,0,0,67,4.649,68.0,37.073492,P-GPS,,11.3
362,186000,2026-01-07 15:36:09,0.0,5,7.421,0.0,0.0,0.0,35.6,5.3,2.4,1024,1024,1024,1024,0,0,0,0,67,4.649,68.0,37.073492,P-GPS,,11.3
363,186100,2026-01-07 15:36:09,0.0,5,7.421,0.0,0.0,0.0,35.6,5.5,2.6,1024,1024,1024,1024,0,0,0,0,67,4.649,68.0,37.073492,P-GPS,,11.3
364,186200,2026-01-07 15:36:09,0.0,5,7.411,0.0,0.0,0.0,35.6,5.6,2.9,1024,1024,1024,1024,0,0,0,0,67,4.75,68.18,37.073492,P-GPS,,11.3
365,186300,2026-01-07 15:36:09,0.0,5,7.411,0.0,0.0,0.0,35.6,5.6,3.1,1024,1024,1024,1024,0,0,0,0,67,4.75,68.18,37.073492,P-GPS,,11.3
366,186400,2026-01-07 15:36:10,0.0,5,7.411,0.0,0.0,0.0,35.7,5.7,3.2,1024,1024,1024,1024,0,0,0,0,67,4.75,68.18,37.073492,P-GPS,,11.3
367,186500,2026-01-07 15:36:10,0.0,5,7.411,0.0,0.0,0.0,35.7,5.8,3.5,1024,1024,1024,1024,0,0,0,0,67,4.75,68.18,37.073492,P-GPS,,11.3
368,186600,2026-01-07 15:36:10,0.0,5,7.411,0.0,0.0,0.0,35.8,5.6,3.2,1024,1024,1024,1024,0,0,0,0,67,4.75,68.18,37.073492,P-GPS,,11.3
369,186700,2026-01-07 15:36:10,0.0,5,7.411,0.0,0.0,0.0,35.8,5.7,2.9,1024,1024,1024,1024,0,0,0,0,67,4.75,68.18,37.073492,P-GPS,,11.3
370,186800,2026-01-07 15:36:10,0.0,5,7.411,0.0,0.0,0.0,35.8,5.7,2.7,1024,1024,1024,1024,0,0,0,0,67,4.75,68.18,37.073492,P-GPS,,11.3
371,186900,2026-01-07 15:36:10,0.0,5,7.411,0.0,0.0,0.0,35.6,5.4,3.1,1024,1024,1024,1024,0,0,0,0,67,4.75,68.18,37.073492,P-GPS,,11.3
372,187000,2026-01-07 15:36:10,0.0,5,7.411,0.0,0.0,0.0,35.5,4.8,3.2,1024,1024,1024,1024,0,0,0,0,67,4.75,68.18,37.073492,P-GPS,,11.3
373,187100,2026-01-07 15:36:10,0.0,5,7.411,0.0,0.0,0.0,35.5,4.7,3.3,1024,1024,1024,1024,0,0,0,0,67,4.75,68.18,37.073492,P-GPS,,11.3
374,187200,2026-01-07 15:36:10,0.0,5,7.411,0.0,0.0,0.0,35.6,4.9,3.3,1024,1024,1024,1024,0,0,0,0,67,4.75,68.18,37.073492,P-GPS,,11.3
375,187300,2026-01-07 15:36:10,0.0,5,7.424,0.0,0.0,0.0,35.5,5.2,3.3,1024,1024,1024,1024,0,0,0,0,67,4.7,68.18,37.073492,P-GPS,,11.3
376,187400,2026-01-07 15:36:10,0.0,5,7.424,0.0,0.0,0.0,35.6,5.5,3.3,1024,1024,1024,1024,0,0,0,0,67,4.7,68.18,37.073492,P-GPS,,11.3
377,187500,2026-01-07 15:36:11,0.0,5,7.424,0.0,0.0,0.0,35.6,5.5,2.9,1024,1024,1024,1024,0,0,0,0,67,4.7,68.18,37.073492,P-GPS,,11.3
378,187600,2026-01-07 15:36:11,0.0,5,7.424,0.0,0.0,0.0,35.7,5.9,2.3,1024,1024,1024,1024,0,0,0,0,67,4.7,68.18,37.073492,P-GPS,,11.3
379,187700,2026-01-07 15:36:11,0.0,5,7.424,0.0,0.0,0.0,35.8,5.3,2.2,1024,1024,1024,1024,0,0,0,0,67,4.7,68.18,37.073492,P-GPS,,11.3
380,187800,2026-01-07 15:36:11,0.0,5,7.424,0.0,0.0,0.0,35.7,5.1,1.8,1024,1024,1024,1024,0,0,0,0,67,4.7,68.18,36.745408,P-GPS,,11.2
381,187900,2026-01-07 15:36:11,0.0,5,7.424,0.0,0.0,0.0,35.7,5.8,0.9,1024,1024,1024,1024,0,0,0,0,67,4.7,68.18,36.745408,P-GPS,,11.2
1379,287700,2026-01-07 15:37:51,0.0,5,7.315,0.0,0.0,3.802798,82.1,-0.4,3.3,1024,1024,1024,1024,0,0,0,0,60,5.083,71.06,42.322836,P-GPS,,12.9
1380,287800,2026-01-07 15:37:51,0.0,5,7.315,0.0,0.0,3.802798,82.4,0.6,3.7,1024,1024,1024,1024,0,0,0,0,60,5.083,71.06,41.994752,P-GPS,,12.8
1381,287900,2026-01-07 15:37:51,0.0,5,7.315,0.0,0.0,4.026492,82.2,-0.3,2.7,1024,1024,1024,1024,0,0,0,0,60,5.083,71.06,41.338584,P-GPS,,12.6
1382,288000,2026-01-07 15:37:51,0.0,5,7.315,0.0,0.0,3.579104,81.8,0.7,1.7,1024,1024,1024,1024,0,0,0,0,60,5.083,71.06,40.682416,P-GPS,,12.4
1383,288100,2026-01-07 15:37:51,0.0,5,7.315,0.0,0.0,3.131716,81.9,0.9,3.0,1024,1024,1024,1024,0,0,0,0,60,5.083,71.06,40.354332,P-GPS,,12.3
1384,288200,2026-01-07 15:37:51,0.0,5,7.315,0.0,0.0,2.23694,82.0,0.3,2.8,1024,1024,1024,1024,0,0,0,0,60,5.083,71.06,40.026248,P-GPS,,12.2
1385,288300,2026-01-07 15:37:51,0.0,5,7.315,0.0,0.0,1.342164,82.2,0.1,3.0,1024,1024,1024,1024,0,0,0,0,60,5.083,71.06,39.698164,P-GPS,,12.1
1386,288400,2026-01-07 15:37:52,0.0,5,7.315,0.0,0.0,0.671082,82.3,0.0,3.2,1024,1024,1024,1024,0,0,0,0,60,5.083,71.06,39.37008,P-GPS,,12.0
1387,288500,2026-01-07 15:37:52,0.0,5,7.315,0.0,0.0,0.223694,82.3,0.5,2.7,1024,1024,1024,1024,0,0,0,0,60,5.083,71.06,39.041996,P-GPS,,11.9
1388,288600,2026-01-07 15:37:52,0.0,5,7.236,0.0,0.0,0.0,82.5,1.4,2.3,1024,1024,1024,1024,0,0,0,0,60,6.249,71.06,38.713912,P-GPS,,11.8
1389,288700,2026-01-07 15:37:52,0.0,5,7.236,0.0,0.0,0.0,82.7,2.0,1.8,1024,1024,1024,1024,0,0,0,0,60,6.249,71.06,38.713912,P-GPS,,11.8
1390,288800,2026-01-07 15:37:52,0.0,5,7.236,0.0,0.0,0.0,82.7,1.6,1.4,1024,1024,1024,1024,0,0,0,0,60,6.249,71.06,38.385828,P-GPS,,11.7
1391,288900,2026-01-07 15:37:52,0.0,5,7.236,0.0,0.0,0.0,82.6,2.1,1.2,1024,1024,1024,1024,0,0,0,0,60,6.249,71.06,38.385828,P-GPS,,11.7
1392,289000,2026-01-07 15:37:52,0.0,5,7.236,0.0,0.0,0.0,82.7,1.9,1.4,1024,1024,1024,1024,0,0,0,0,60,6.249,71.06,38.057744,P-GPS,,11.6
1393,289100,2026-01-07 15:37:52,0.0,5,7.236,0.0,0.0,0.0,82.6,1.8,1.6,1024,1024,1024,1024,0,0,0,0,60,6.249,71.06,38.057744,P-GPS,,11.6
1394,289200,2026-01-07 15:37:52,0.0,5,7.236,0.0,0.0,0.0,82.5,1.8,1.6,1024,1024,1024,1024,0,0,0,0,60,6.249,71.06,38.057744,P-GPS,,11.6
1395,289300,2026-01-07 15:37:52,0.0,5,7.236,0.0,0.0,0.0,82.5,1.9,1.4,1024,1024,1024,1024,0,0,0,0,60,6.249,71.06,37.72966,P-GPS,,11.5
1396,289400,2026-01-07 15:37:52,0.0,5,7.236,0.0,0.0,0.0,82.6,1.5,1.4,1024,1024,1024,1024,0,0,0,0,60,6.249,71.06,37.72966,P-GPS,,11.5
