index,time(millisecond),timestamp,speed(mph),gpslevel,voltage(v),xSpeed(mph),ySpeed(mph),zSpeed(mph),compass_heading(degrees),pitch(degrees),roll(degrees),rc_elevator,rc_aileron,rc_throttle,rc_rudder,rc_elevator(percent),rc_aileron(percent),rc_throttle(percent),rc_rudder(percent),battery_percent,current(A),battery_temperature(f),ascent(feet),flycState,message,height_above_takeoff(meters)
418,367500,2026-01-06 16:47:49,0.0,5,7.122,0.0,0.0,0.0,10.1,2.5,-7.3,1024,1024,1024,1024,0,0,0,0,53,6.245,75.38,101.049872,P-GPS,,30.8
419,367600,2026-01-06 16:47:49,0.0,5,7.122,0.0,0.0,0.0,10.4,2.4,-7.1,1024,1024,1024,1024,0,0,0,0,53,6.245,75.38,101.377956,P-GPS,,30.9
420,367700,2026-01-06 16:47:49,0.0,5,7.122,0.0,0.0,0.0,10.4,1.9,-7.1,1024,1024,1024,1024,0,0,0,0,53,6.245,75.38,101.377956,P-GPS,,30.9
421,367800,2026-01-06 16:47:49,0.0,5,7.122,0.0,0.0,0.0,10.3,1.8,-7.3,1024,1024,1024,1024,0,0,0,0,53,6.245,75.38,101.377956,P-GPS,,30.9
422,367900,2026-01-06 16:47:49,0.0,5,7.122,0.0,0.0,0.0,10.3,2.0,-7.5,1024,1024,1024,1024,0,0,0,0,53,6.245,75.38,101.377956,P-GPS,,30.9
423,368000,2026-01-06 16:47:49,0.0,5,7.122,0.0,0.0,0.0,10.2,1.9,-7.3,1024,1024,1024,1024,0,0,0,0,53,6.245,75.38,101.377956,P-GPS,,30.9
424,368100,2026-01-06 16:47:49,0.0,5,7.158,0.0,0.0,0.0,10.1,1.7,-6.9,1024,1024,1024,1024,0,0,0,0,53,5.118,75.38,101.377956,P-GPS,,30.9
425,368200,2026-01-06 16:47:50,0.0,5,7.158,0.0,0.0,0.0,10.3,1.0,-6.8,1024,1024,1024,1024,0,0,0,0,53,5.118,75.38,101.377956,P-GPS,,30.9
426,368300,2026-01-06 16:47:50,0.0,5,7.158,0.0,0.0,0.0,10.4,0.8,-7.2,1024,1024,1024,1024,0,0,0,0,53,5.118,75.38,101.377956,P-GPS,,30.9
427,368400,2026-01-06 16:47:50,0.223694,5,7.158,-0.223694,0.0,0.0,10.6,0.0,-7.4,1024,1024,1024,1024,0,0,0,0,53,5.118,75.38,101.377956,P-GPS,,30.9
428,368500,2026-01-06 16:47:50,0.223694,5,7.158,-0.223694,0.0,0.0,10.7,-0.7,-7.5,1024,1024,1024,1024,0,0,0,0,53,5.118,75.38,101.377956,P-GPS,,30.9
429,368600,2026-01-06 16:47:50,0.0,5,7.158,0.0,0.0,0.0,10.5,-0.5,-7.5,1024,1024,1024,1024,0,0,0,0,53,5.118,75.38,101.70604,P-GPS,,31.0
430,368700,2026-01-06 16:47:50,0.0,5,7.158,0.0,0.0,0.0,10.5,-0.7,-7.8,1024,1024,1024,1024,0,0,0,0,53,5.118,75.38,101.70604,P-GPS,,31.0
431,368800,2026-01-06 16:47:50,0.223694,5,7.158,-0.223694,0.0,0.0,10.5,-1.0,-8.3,1024,1024,1024,1024,0,0,0,0,53,5.118,75.38,101.70604,P-GPS,,31.0
432,368900,2026-01-06 16:47:50,0.223694,5,7.158,0.0,0.0,0.0,10.6,-1.0,-8.4,1024,1024,1024,1024,0,0,0,0,53,5.118,75.38,101.70604,P-GPS,,31.0
433,369000,2026-01-06 16:47:50,0.0,5,7.158,0.0,0.0,0.0,10.8,-1.2,-8.4,1024,1024,1024,1024,0,0,0,0,53,5.118,75.38,101.70604,P-GPS,,31.0
434,369100,2026-01-06 16:47:50,0.0,5,7.158,0.0,0.0,0.0,10.6,-0.8,-9.3,1024,1024,1024,1024,0,0,0,0,53,5.118,75.38,101.70604,P-GPS,,31.0
435,369200,2026-01-06 16:47:51,0.0,5,7.177,0.0,0.0,0.0,10.3,0.0,-8.9,1024,1024,1024,1024,0,0,0,0,53,5.17,75.56,101.70604,P-GPS,,31.0
436,369300,2026-01-06 16:47:51,0.0,5,7.177,0.0,0.0,0.0,10.8,-0.4,-8.7,1024,1024,1024,1024,0,0,0,0,53,5.17,75.56,101.70604,P-GPS,,31.0
437,369400,2026-01-06 16:47:51,0.0,5,7.177,0.0,0.0,0.0,10.7,-0.1,-9.7,1024,1024,1024,1024,0,0,0,0,53,5.17,75.56,101.70604,P-GPS,,31.0
438,369500,2026-01-06 16:47:51,0.0,5,7.177,0.0,0.0,0.0,10.3,1.0,-10.0,1024,1024,1024,1024,0,0,0,0,53,5.17,75.56,101.70604,P-GPS,,31.0
439,369600,2026-01-06 16:47:51,0.0,5,7.177,0.0,0.0,0.0,10.2,0.9,-9.4,1024,1024,1024,1024,0,0,0,0,53,5.17,75.56,101.70604,P-GPS,,31.0
440,369700,2026-01-06 16:47:51,0.0,5,7.177,0.0,0.0,0.0,10.6,0.6,-8.4,1024,1024,1024,1024,0,0,0,0,53,5.17,75.56,101.70604,P-GPS,,31.0
441,369800,2026-01-06 16:47:51,0.0,5,7.177,0.0,0.0,0.0,10.6,0.0,-8.3,1024,1024,1024,1024,0,0,0,0,53,5.17,75.56,101.70604,P-GPS,,31.0
442,369900,2026-01-06 16:47:51,0.0,5,7.177,0.0,0.0,0.0,10.8,-0.3,-8.3,1024,1024,1024,1024,0,0,0,0,53,5.17,75.56,101.70604,P-GPS,,31.0
443,370000,2026-01-06 16:47:51,0.0,5,7.177,0.0,0.0,0.0,10.9,-0.8,-7.9,1024,1024,1024,1024,0,0,0,0,53,5.17,75.56,101.70604,P-GPS,,31.0
444,370100,2026-01-06 16:47:51,0.0,5,7.177,0.0,0.0,0.0,10.9,-0.8,-8.0,1024,1024,1024,1024,0,0,0,0,53,5.17,75.56,101.70604,P-GPS,,31.0
445,370200,2026-01-06 16:47:52,0.0,5,7.177,0.0,0.0,0.0,10.6,-0.7,-9.3,1024,1024,1024,1024,0,0,0,0,53,5.17,75.56,101.70604,P-GPS,,31.0
446,370300,2026-01-06 16:47:52,0.0,5,7.182,0.0,0.0,0.0,10.2,1.3,-10.3,1024,1024,1024,1024,0,0,0,0,53,4.978,75.56,101.70604,P-GPS,,31.0
447,370400,2026-01-06 16:47:52,0.0,5,7.182,0.0,0.0,0.0,10.3,1.7,-9.9,1024,1024,1024,1024,0,0,0,0,53,4.978,75.56,101.377956,P-GPS,,30.9
448,370500,2026-01-06 16:47:52,0.0,5,7.182,0.0,0.0,0.0,10.4,1.5,-9.5,1024,1024,1024,1024,0,0,0,0,53,4.978,75.56,101.377956,P-GPS,,30.9
449,370600,2026-01-06 16:47:52,0.0,5,7.182,0.0,0.0,0.0,10.6,0.8,-8.9,1024,1024,1024,1024,0,0,0,0,53,4.978,75.56,101.377956,P-GPS,,30.9
450,370700,2026-01-06 16:47:52,0.0,5,7.182,0.0,0.0,0.0,10.5,0.4,-9.0,1024,1024,1024,1024,0,0,0,0,53,4.978,75.56,101.049872,P-GPS,,30.8
451,370800,2026-01-06 16:47:52,0.0,5,7.182,0.0,0.0,0.0,10.4,0.5,-8.7,1024,1024,1024,1024,0,0,0,0,53,4.978,75.56,101.049872,P-GPS,,30.8
452,370900,2026-01-06 16:47:52,0.0,5,7.182,0.0,0.0,0.0,10.5,0.1,-8.6,1024,1024,1024,1024,0,0,0,0,53,4.978,75.56,101.049872,P-GPS,,30.8
453,371000,2026-01-06 16:47:52,0.0,5,7.182,0.0,0.0,0.0,10.5,0.1,-8.3,1024,1024,1024,1024,0,0,0,0,53,4.978,75.56,101.049872,P-GPS,,30.8
454,371100,2026-01-06 16:47:53,0.0,5,7.182,0.0,0.0,0.0,10.4,0.5,-8.1,1024,1024,1024,1024,0,0,0,0,53,4.978,75.56,101.049872,P-GPS,,30.8
455,371200,2026-01-06 16:47:53,0.0,5,7.182,0.0,0.0,0.0,10.5,0.0,-8.8,1024,1024,1024,1024,0,0,0,0,53,4.978,75.56,100.721788,P-GPS,,30.7
456,371300,2026-01-06 16:47:53,0.0,5,7.182,0.0,0.0,0.0,10.6,0.0,-8.9,1024,1024,1024,1024,0,0,0,0,53,4.978,75.56,100.721788,P-GPS,,30.7
457,371400,2026-01-06 16:47:53,0.0,5,7.167,0.0,0.0,0.0,10.5,-0.2,-8.9,1024,1024,1024,1024,0,0,0,0,53,5.28,75.74,100.721788,P-GPS,,30.7
458,371500,2026-01-06 16:47:53,0.0,5,7.167,0.0,0.0,0.0,10.6,-0.7,-8.5,1024,1024,1024,1024,0,0,0,0,53,5.28,75.74,100.721788,P-GPS,,30.7
459,371600,2026-01-06 16:47:53,0.0,5,7.167,0.0,0.0,0.0,10.8,-1.5,-8.1,1024,1024,1024,1024,0,0,0,0,53,5.28,75.74,100.393704,P-GPS,,30.6
460,371700,2026-01-06 16:47:53,0.0,5,7.167,0.0,0.0,0.0,11.0,-1.8,-8.4,1024,1024,1024,1024,0,0,0,0,53,5.28,75.74,100.393704,P-GPS,,30.6
461,371800,2026-01-06 16:47:53,0.0,5,7.167,0.0,0.0,0.0,10.9,-2.2,-8.0,1024,1024,1024,1024,0,0,0,0,53,5.28,75.74,100.393704,P-GPS,,30.6
462,371900,2026-01-06 16:47:53,0.0,5,7.167,0.0,0.0,0.0,10.4,-1.0,-8.2,1024,1024,1024,1024,0,0,0,0,53,5.28,75.74,100.06562,P-GPS,,30.5
463,372000,2026-01-06 16:47:53,0.0,5,7.167,0.0,0.0,0.0,10.2,-0.3,-8.5,1024,1024,1024,1024,0,0,0,0,53,5.28,75.74,100.06562,P-GPS,,30.5
464,372100,2026-01-06 16:47:54,0.0,5,7.167,0.0,0.0,0.0,10.2,0.7,-8.4,1024,1024,1024,1024,0,0,0,0,53,5.28,75.74,100.06562,P-GPS,,30.5
465,372200,2026-01-06 16:47:54,0.0,5,7.167,0.0,0.0,0.0,10.1,0.6,-8.7,1024,1024,1024,1024,0,0,0,0,53,5.28,75.74,100.06562,P-GPS,,30.5
466,372300,2026-01-06 16:47:54,0.0,5,7.167,0.0,0.0,0.0,10.1,1.0,-8.5,1024,1024,1024,1024,0,0,0,0,53,5.28,75.74,100.06562,P-GPS,,30.5
467,372400,2026-01-06 16:47:54,0.223694,5,7.167,0.223694,0.0,0.0,9.9,2.0,-8.4,1024,1024,1024,1024,0,0,0,0,53,5.28,75.74,99.737536,P-GPS,,30.4
468,372500,2026-01-06 16:47:54,0.0,5,7.155,0.0,0.0,0.0,10.1,2.0,-7.6,1024,1024,1024,1024,0,0,0,0,53,5.324,75.74,99.737536,P-GPS,,30.4
469,372600,2026-01-06 16:47:54,0.0,5,7.155,0.0,0.0,0.0,10.2,1.2,-7.3,1024,1024,1024,1024,0,0,0,0,53,5.324,75.74,99.737536,P-GPS,,30.4
470,372700,2026-01-06 16:47:54,0.0,5,7.155,0.0,0.0,0.0,10.2,1.4,-7.2,1024,1024,1024,1024,0,0,0,0,53,5.324,75.74,99.737536,P-GPS,,30.4
471,372800,2026-01-06 16:47:54,0.0,5,7.155,0.0,0.0,0.0,10.1,2.1,-7.8,1024,1024,1024,1024,0,0,0,0,53,5.324,75.74,99.737536,P-GPS,,30.4
472,372900,2026-01-06 16:47:54,0.0,5,7.155,0.0,0.0,0.0,10.0,2.3,-7.9,1024,1024,1024,1024,0,0,0,0,53,5.324,75.74,99.737536,P-GPS,,30.4
473,373000,2026-01-06 16:47:54,0.0,5,7.155,0.0,0.0,0.0,10.0,2.5,-8.1,1024,1024,1024,1024,0,0,0,0,53,5.324,75.74,99.737536,P-GPS,,30.4
474,373100,2026-01-06 16:47:55,0.0,5,7.155,0.0,0.0,0.0,10.1,1.8,-7.6,1024,1024,1024,1024,0,0,0,0,53,5.324,75.74,99.409452,P-GPS,,30.3
475,373200,2026-01-06 16:47:55,0.0,5,7.155,0.0,0.0,0.0,10.1,2.1,-7.6,1024,1024,1024,1024,0,0,0,0,53,5.324,75.74,99.409452,P-GPS,,30.3
476,373300,2026-01-06 16:47:55,0.0,5,7.155,0.0,0.0,0.0,10.0,2.6,-7.8,1024,1024,1024,1024,0,0,0,0,53,5.324,75.74,99.409452,P-GPS,,30.3
477,373400,2026-01-06 16:47:55,0.0,5,7.155,0.0,0.0,0.0,10.0,3.0,-7.9,1024,1024,1024,1024,0,0,0,0,53,5.324,75.74,99.409452,P-GPS,,30.3
478,373500,2026-01-06 16:47:55,0.0,5,7.155,0.0,0.0,0.0,10.0,3.1,-8.0,1024,1024,1024,1024,0,0,0,0,53,5.324,75.74,99.409452,P-GPS,,30.3
479,373600,2026-01-06 16:47:55,0.0,5,7.155,0.0,0.0,0.0,10.1,3.4,-8.2,1024,1024,1024,1024,0,0,0,0,53,5.324,75.74,99.409452,P-GPS,,30.3
480,373700,2026-01-06 16:47:55,0.0,5,7.152,0.0,0.0,0.0,10.1,3.2,-8.4,1024,1024,1024,1024,0,0,0,0,53,5.404,75.74,99.409452,P-GPS,,30.3
481,373800,2026-01-06 16:47:55,0.0,5,7.152,0.0,0.0,0.0,10.1,3.0,-8.5,1024,1024,1024,1024,0,0,0,0,53,5.404,75.74,99.409452,P-GPS,,30.3
482,373900,2026-01-06 16:47:55,0.0,5,7.152,0.0,0.0,0.0,10.2,2.6,-8.6,1024,1024,1024,1024,0,0,0,0,53,5.404,75.74,99.409452,P-GPS,,30.3
483,374000,2026-01-06 16:47:55,0.0,5,7.152,0.0,0.0,0.0,10.3,2.4,-8.6,1024,1024,1024,1024,0,0,0,0,53,5.404,75.74,99.737536,P-GPS,,30.4
484,374100,2026-01-06 16:47:56,0.0,5,7.152,0.0,0.0,0.0,10.2,2.5,-9.0,1024,1024,1024,1024,0,0,0,0,53,5.404,75.74,99.737536,P-GPS,,30.4
485,374200,2026-01-06 16:47:56,0.0,5,7.152,0.0,0.0,0.0,10.1,2.8,-9.4,1024,1024,1024,1024,0,0,0,0,53,5.404,75.74,99.737536,P-GPS,,30.4
486,374300,2026-01-06 16:47:56,0.0,5,7.152,0.0,0.0,0.0,10.0,3.2,-9.9,1024,1024,1024,1024,0,0,0,0,53,5.404,75.74,99.737536,P-GPS,,30.4
487,374400,2026-01-06 16:47:56,0.0,5,7.152,0.0,0.0,0.0,10.1,3.0,-9.9,1024,1024,1024,1024,0,0,0,0,53,5.404,75.74,99.737536,P-GPS,,30.4
488,374500,2026-01-06 16:47:56,0.0,5,7.152,0.0,0.0,0.0,10.4,2.4,-9.6,1024,1024,1024,1024,0,0,0,0,53,5.404,75.74,99.737536,P-GPS,,30.4
489,374600,2026-01-06 16:47:56,0.223694,5,7.152,-0.223694,0.0,0.0,10.5,1.7,-9.8,1024,1024,1024,1024,0,0,0,0,53,5.404,75.74,99.737536,P-GPS,,30.4
490,374700,2026-01-06 16:47:56,0.223694,5,7.152,-0.223694,0.0,0.0,10.5,0.3,-9.7,1024,1024,1024,1024,0,0,0,0,53,5.404,75.74,99.737536,P-GPS,,30.4
491,374800,2026-01-06 16:47:56,0.223694,5,7.165,-0.223694,0.0,0.0,10.4,0.1,-9.5,1024,1024,1024,1024,0,0,0,0,53,5.045,75.74,99.737536,P-GPS,,30.4
492,374900,2026-01-06 16:47:56,0.223694,5,7.165,-0.223694,0.0,0.0,10.4,0.3,-9.6,1024,1024,1024,1024,0,0,0,0,53,5.045,75.74,99.737536,P-GPS,,30.4
493,375000,2026-01-06 16:47:56,0.223694,5,7.165,-0.223694,0.0,0.0,10.4,0.0,-9.6,1024,1024,1024,1024,0,0,0,0,53,5.045,75.74,99.737536,P-GPS,,30.4
494,375100,2026-01-06 16:47:56,0.223694,5,7.165,-0.223694,0.0,0.0,10.4,0.0,-9.7,1024,1024,1024,1024,0,0,0,0,53,5.045,75.74,99.737536,P-GPS,,30.4
495,375200,2026-01-06 16:47:57,0.0,5,7.165,0.0,0.0,0.0,10.4,-0.1,-9.9,1024,1024,1024,1024,0,0,0,0,53,5.045,75.74,99.737536,P-GPS,,30.4
496,375300,2026-01-06 16:47:57,0.0,5,7.165,0.0,0.0,0.0,10.3,0.3,-9.9,1024,1024,1024,1024,0,0,0,0,53,5.045,75.74,99.737536,P-GPS,,30.4
497,375400,2026-01-06 16:47:57,0.0,5,7.165,0.0,0.0,0.0,10.4,0.0,-9.8,1024,1024,1024,1024,0,0,0,0,53,5.045,75.74,99.737536,P-GPS,,30.4
498,375500,2026-01-06 16:47:57,0.0,5,7.165,0.0,0.0,0.0,10.4,0.0,-9.3,1024,1024,1024,1024,0,0,0,0,53,5.045,75.74,99.737536,P-GPS,,30.4
499,375600,2026-01-06 16:47:57,0.0,5,7.165,0.0,0.0,0.0,10.4,0.0,-9.3,1024,1024,1024,1024,0,0,0,0,53,5.045,75.74,99.737536,P-GPS,,30.4
500,375700,2026-01-06 16:47:57,0.0,5,7.165,0.0,0.0,0.0,10.3,0.8,-9.5,1024,1024,1024,1024,0,0,0,0,53,5.045,75.74,99.737536,P-GPS,,30.4
501,375800,2026-01-06 16:47:57,0.0,5,7.165,0.0,0.0,0.0,10.3,1.1,-9.7,1024,1024,1024,1024,0,0,0,0,53,5.045,75.74,99.737536,P-GPS,,30.4
502,375900,2026-01-06 16:47:57,0.0,5,7.15,0.0,0.0,0.0,10.3,0.8,-9.6,1024,1024,1024,1024,0,0,0,0,53,5.49,75.74,99.737536,P-GPS,,30.4
503,376000,2026-01-06 16:47:57,0.0,5,7.15,0.0,0.0,0.0,10.3,1.0,-9.6,1024,1024,1024,1024,0,0,0,0,53,5.49,75.74,99.737536,P-GPS,,30.4
504,376100,2026-01-06 16:47:58,0.0,5,7.15,0.0,0.0,0.0,10.2,1.6,-9.4,1024,1024,1024,1024,0,0,0,0,53,5.49,75.74,99.737536,P-GPS,,30.4
505,376200,2026-01-06 16:47:58,0.0,5,7.15,0.0,0.0,0.0,10.4,1.0,-9.3,1024,1024,1024,1024,0,0,0,0,53,5.49,75.74,99.737536,P-GPS,,30.4
506,376300,2026-01-06 16:47:58,0.0,5,7.15,0.0,0.0,0.0,10.3,1.0,-8.7,1024,1024,1024,1024,0,0,0,0,53,5.49,75.74,99.737536,P-GPS,,30.4
507,376400,2026-01-06 16:47:58,0.0,5,7.15,0.0,0.0,0.0,10.3,1.2,-8.5,1024,1024,1024,1024,0,0,0,0,53,5.49,75.74,99.737536,P-GPS,,30.4
508,376500,2026-01-06 16:47:58,0.0,5,7.15,0.0,0.0,0.0,10.2,1.8,-8.8,1024,1024,1024,1024,0,0,0,0,53,5.49,75.74,99.737536,P-GPS,,30.4
509,376600,2026-01-06 16:47:58,0.0,5,7.15,0.0,0.0,0.0,10.2,2.0,-8.9,1024,1024,1024,1024,0,0,0,0,53,5.49,75.74,99.737536,P-GPS,,30.4
510,376700,2026-01-06 16:47:58,0.0,5,7.15,0.0,0.0,0.0,10.2,2.2,-8.7,1024,1024,1024,1024,0,0,0,0,53,5.49,75.74,99.737536,P-GPS,,30.4
511,376800,2026-01-06 16:47:58,0.0,5,7.15,0.0,0.0,0.0,10.3,2.4,-8.5,1024,1024,1024,1024,0,0,0,0,53,5.49,75.74,99.737536,P-GPS,,30.4
512,376900,2026-01-06 16:47:58,0.0,5,7.15,0.0,0.0,0.0,10.3,2.3,-8.7,1024,1024,1024,1024,0,0,0,0,53,5.49,75.74,99.737536,P-GPS,,30.4
513,377000,2026-01-06 16:47:58,0.0,5,7.15,0.0,0.0,0.0,10.3,2.3,-9.1,1024,1024,1024,1024,0,0,0,0,53,5.49,75.74,99.737536,P-GPS,,30.4
514,377100,2026-01-06 16:47:58,0.0,5,7.15,0.0,0.0,0.0,10.1,2.6,-9.8,1024,1024,1024,1024,0,0,0,0,53,5.49,75.74,99.737536,P-GPS,,30.4
515,377200,2026-01-06 16:47:59,0.0,5,7.15,0.0,0.0,0.0,10.1,3.1,-9.6,1024,1024,1024,1024,0,0,0,0,53,5.49,75.74,99.737536,P-GPS,,30.4
516,377300,2026-01-06 16:47:59,0.0,5,7.15,0.0,0.0,0.0,10.2,2.6,-9.7,1024,1024,1024,1024,0,0,0,0,53,5.49,75.74,99.737536,P-GPS,,30.4
517,377400,2026-01-06 16:47:59,0.0,5,7.15,0.0,0.0,0.0,10.2,2.3,-9.6,1024,1024,1024,1024,0,0,0,0,53,5.49,75.74,99.737536,P-GPS,,30.4
518,377500,2026-01-06 16:47:59,0.0,5,7.15,0.0,0.0,0.0,10.1,2.5,-9.7,1024,1024,1024,1024,0,0,0,0,53,5.49,75.74,99.737536,P-GPS,,30.4
519,377600,2026-01-06 16:47:59,0.0,5,7.15,0.0,0.0,0.0,10.1,2.6,-9.4,1024,1024,1024,1024,0,0,0,0,53,5.49,75.74,99.737536,P-GPS,,30.4
520,377700,2026-01-06 16:47:59,0.0,5,7.15,0.0,0.0,0.0,10.2,2.1,-9.4,1024,1024,1024,1024,0,0,0,0,53,5.49,75.74,99.737536,P-GPS,,30.4
521,377800,2026-01-06 16:47:59,0.0,5,7.15,0.0,0.0,0.0,10.3,1.3,-9.6,1024,1024,1024,1024,0,0,0,0,53,5.49,75.74,99.737536,P-GPS,,30.4
522,377900,2026-01-06 16:47:59,0.0,5,7.15,0.0,0.0,0.0,10.3,1.7,-9.2,1024,1024,1024,1024,0,0,0,0,53,5.49,75.74,99.737536,P-GPS,,30.4
523,378000,2026-01-06 16:47:59,0.0,5,7.15,0.0,0.0,0.0,10.2,2.2,-9.4,1024,1024,1024,1024,0,0,0,0,53,5.49,75.74,99.737536,P-GPS,,30.4
524,378100,2026-01-06 16:47:59,0.0,5,7.15,0.0,0.0,0.0,10.1,2.5,-10.2,1024,1024,1024,1024,0,0,0,0,53,5.49,75.74,99.737536,P-GPS,,30.4
525,378200,2026-01-06 16:48:00,0.0,5,7.149,0.0,0.0,0.0,10.0,3.0,-10.3,1024,1024,1024,1024,0,0,0,0,53,5.509,75.92,99.737536,P-GPS,,30.4
526,378300,2026-01-06 16:48:00,0.0,5,7.149,0.0,0.0,0.0,10.0,2.7,-9.6,1024,1024,1024,1024,0,0,0,0,53,5.509,75.92,99.409452,P-GPS,,30.3
527,378400,2026-01-06 16:48:00,0.0,5,7.149,0.0,0.0,0.0,10.1,2.7,-9.1,1024,1024,1024,1024,0,0,0,0,53,5.509,75.92,99.409452,P-GPS,,30.3
528,378500,2026-01-06 16:48:00,0.0,5,7.149,0.0,0.0,0.0,10.0,2.7,-9.1,1024,1024,1024,1024,0,0,0,0,53,5.509,75.92,99.409452,P-GPS,,30.3
529,378600,2026-01-06 16:48:00,0.0,5,7.149,0.0,0.0,0.0,10.2,2.2,-8.9,1024,1024,1024,1024,0,0,0,0,53,5.509,75.92,99.409452,P-GPS,,30.3
530,378700,2026-01-06 16:48:00,0.0,5,7.149,0.0,0.0,0.0,10.2,1.9,-9.2,1024,1024,1024,1024,0,0,0,0,53,5.509,75.92,99.409452,P-GPS,,30.3
531,378800,2026-01-06 16:48:00,0.0,5,7.149,0.0,0.0,0.0,10.1,2.1,-9.6,1024,1024,1024,1024,0,0,0,0,53,5.509,75.92,99.409452,P-GPS,,30.3
532,378900,2026-01-06 16:48:00,0.0,5,7.149,0.0,0.0,0.0,10.3,1.7,-9.2,1024,1024,1024,1024,0,0,0,0,53,5.509,75.92,99.409452,P-GPS,,30.3
533,379000,2026-01-06 16:48:00,0.0,5,7.149,0.0,0.0,0.0,10.3,1.5,-9.5,1024,1024,1024,1024,0,0,0,0,53,5.509,75.92,99.409452,P-GPS,,30.3
534,379100,2026-01-06 16:48:01,0.0,5,7.149,0.0,0.0,0.0,10.3,1.4,-10.1,1024,1024,1024,1024,0,0,0,0,53,5.509,75.92,99.409452,P-GPS,,30.3
535,379200,2026-01-06 16:48:01,0.0,5,7.149,0.0,0.0,0.0,10.2,1.2,-10.4,1024,1024,1024,1024,0,0,0,0,53,5.509,75.92,99.737536,P-GPS,,30.4
536,379300,2026-01-06 16:48:01,0.0,5,7.109,0.0,0.0,0.0,10.2,1.0,-10.0,1024,1024,1024,1024,0,0,0,0,52,5.873,75.74,99.737536,P-GPS,,30.4
537,379400,2026-01-06 16:48:01,0.0,5,7.109,0.0,0.0,0.0,10.3,0.8,-9.7,1024,1024,1024,1024,0,0,0,0,52,5.873,75.74,99.737536,P-GPS,,30.4
538,379500,2026-01-06 16:48:01,0.0,5,7.109,0.0,0.0,0.0,10.5,-0.2,-9.2,1024,1024,1024,1024,0,0,0,0,52,5.873,75.74,99.737536,P-GPS,,30.4
539,379600,2026-01-06 16:48:01,0.0,5,7.109,0.0,0.0,0.0,10.6,-0.2,-9.3,1024,1024,1024,1024,0,0,0,0,52,5.873,75.74,99.737536,P-GPS,,30.4
540,379700,2026-01-06 16:48:01,0.0,5,7.109,0.0,0.0,0.0,10.5,0.0,-9.5,1024,1024,1024,1024,0,0,0,0,52,5.873,75.74,99.737536,P-GPS,,30.4
541,379800,2026-01-06 16:48:01,0.0,5,7.109,0.0,0.0,0.0,10.4,0.6,-9.7,1024,1024,1024,1024,0,0,0,0,52,5.873,75.74,99.737536,P-GPS,,30.4
542,379900,2026-01-06 16:48:01,0.0,5,7.109,0.0,0.0,0.0,10.3,1.6,-9.5,1024,1024,1024,1024,0,0,0,0,52,5.873,75.74,99.737536,P-GPS,,30.4
543,380000,2026-01-06 16:48:01,0.0,5,7.109,0.0,0.0,0.0,10.3,1.8,-9.6,1024,1024,1024,1024,0,0,0,0,52,5.873,75.74,99.737536,P-GPS,,30.4
544,380100,2026-01-06 16:48:01,0.0,5,7.109,0.0,0.0,0.0,10.3,1.6,-9.3,1024,1024,1024,1024,0,0,0,0,52,5.873,75.74,99.737536,P-GPS,,30.4
545,380200,2026-01-06 16:48:02,0.0,5,7.109,0.0,0.0,0.0,10.3,1.8,-8.8,1024,1024,1024,1024,0,0,0,0,52,5.873,75.74,99.737536,P-GPS,,30.4
546,380300,2026-01-06 16:48:02,0.0,5,7.109,0.0,0.0,0.0,10.5,1.3,-8.7,1024,1024,1024,1024,0,0,0,0,52,5.873,75.74,99.737536,P-GPS,,30.4
547,380400,2026-01-06 16:48:02,0.0,5,7.145,0.0,0.0,0.0,10.2,2.4,-9.0,1024,1024,1024,1024,0,0,0,0,52,5.29,75.74,99.737536,P-GPS,,30.4
548,380500,2026-01-06 16:48:02,0.0,5,7.145,0.0,0.0,0.0,10.2,2.8,-9.0,1024,1024,1024,1024,0,0,0,0,52,5.29,75.74,99.737536,P-GPS,,30.4
549,380600,2026-01-06 16:48:02,0.0,5,7.145,0.0,0.0,0.0,10.4,2.0,-8.7,1024,1024,1024,1024,0,0,0,0,52,5.29,75.74,99.737536,P-GPS,,30.4
550,380700,2026-01-06 16:48:02,0.0,5,7.145,0.0,0.0,0.0,10.4,2.0,-8.9,1024,1024,1024,1024,0,0,0,0,52,5.29,75.74,99.737536,P-GPS,,30.4
551,380800,2026-01-06 16:48:02,0.0,5,7.145,0.0,0.0,0.0,10.5,1.8,-9.3,1024,1024,1024,1024,0,0,0,0,52,5.29,75.74,100.06562,P-GPS,,30.5
552,380900,2026-01-06 16:48:02,0.0,5,7.145,0.0,0.0,0.0,10.5,1.6,-9.2,1024,1024,1024,1024,0,0,0,0,52,5.29,75.74,100.06562,P-GPS,,30.5
553,381000,2026-01-06 16:48:02,0.0,5,7.145,0.0,0.0,0.0,10.5,1.6,-9.3,1024,1024,1024,1024,0,0,0,0,52,5.29,75.74,100.06562,P-GPS,,30.5
554,381100,2026-01-06 16:48:03,0.0,5,7.145,0.0,0.0,0.0,10.4,1.8,-9.4,1024,1024,1024,1024,0,0,0,0,52,5.29,75.74,100.06562,P-GPS,,30.5
555,381200,2026-01-06 16:48:03,0.0,5,7.145,0.0,0.0,0.0,10.6,0.8,-9.7,1024,1024,1024,1024,0,0,0,0,52,5.29,75.74,100.06562,P-GPS,,30.5
556,381300,2026-01-06 16:48:03,0.0,5,7.145,0.0,0.0,0.0,10.4,0.9,-10.3,1024,1024,1024,1024,0,0,0,0,52,5.29,75.74,100.06562,P-GPS,,30.5
557,381400,2026-01-06 16:48:03,0.0,5,7.145,0.0,0.0,0.0,10.2,1.5,-10.6,1024,1024,1024,1024,0,0,0,0,52,5.29,75.74,100.06562,P-GPS,,30.5
558,381500,2026-01-06 16:48:03,0.0,5,7.165,0.0,0.0,0.0,10.2,1.6,-10.4,1024,1024,1024,1024,0,0,0,0,52,5.09,75.74,100.06562,P-GPS,,30.5
559,381600,2026-01-06 16:48:03,0.0,5,7.165,0.0,0.0,0.223694,10.1,1.8,-10.1,1024,1024,1024,1024,0,0,0,0,52,5.09,75.74,100.06562,P-GPS,,30.5
560,381700,2026-01-06 16:48:03,0.0,5,7.165,0.0,0.0,0.223694,10.3,1.2,-9.3,1024,1024,1024,1024,0,0,0,0,52,5.09,75.74,100.06562,P-GPS,,30.5
561,381800,2026-01-06 16:48:03,0.0,5,7.165,0.0,0.0,0.0,10.2,0.8,-8.4,1024,1024,1024,1024,0,0,0,0,52,5.09,75.74,100.06562,P-GPS,,30.5
562,381900,2026-01-06 16:48:03,0.0,5,7.165,0.0,0.0,0.0,10.1,1.0,-9.0,1024,1024,1024,1024,0,0,0,0,52,5.09,75.74,100.06562,P-GPS,,30.5
563,382000,2026-01-06 16:48:03,0.0,5,7.165,0.0,0.0,0.0,10.2,1.0,-8.4,1024,1024,1024,1024,0,0,0,0,52,5.09,75.74,100.06562,P-GPS,,30.5
564,382100,2026-01-06 16:48:03,0.0,5,7.165,0.0,0.0,0.0,10.2,1.3,-8.2,1024,1024,1024,1024,0,0,0,0,52,5.09,75.74,100.06562,P-GPS,,30.5
565,382200,2026-01-06 16:48:04,0.0,5,7.165,0.0,0.0,0.0,10.3,1.2,-8.1,1024,1024,1024,1024,0,0,0,0,52,5.09,75.74,100.06562,P-GPS,,30.5
566,382300,2026-01-06 16:48:04,0.0,5,7.165,0.0,0.0,0.0,10.4,1.6,-8.7,1024,1024,1024,1024,0,0,0,0,52,5.09,75.74,100.06562,P-GPS,,30.5
567,382400,2026-01-06 16:48:04,0.0,5,7.165,0.0,0.0,0.0,10.4,1.3,-9.0,1024,1024,1024,1024,0,0,0,0,52,5.09,75.74,100.06562,P-GPS,,30.5
568,382500,2026-01-06 16:48:04,0.0,5,7.165,0.0,0.0,0.0,10.3,1.0,-8.0,1024,1024,1024,1024,0,0,0,0,52,5.09,75.74,100.06562,P-GPS,,30.5
569,382600,2026-01-06 16:48:04,0.0,5,7.142,0.0,0.0,0.0,10.4,1.6,-8.0,1024,1024,1024,1024,0,0,0,0,52,5.663,75.92,100.06562,P-GPS,,30.5
570,382700,2026-01-06 16:48:04,0.0,5,7.142,0.0,0.0,0.0,10.5,0.7,-8.3,1024,1024,1024,1024,0,0,0,0,52,5.663,75.92,100.06562,P-GPS,,30.5
571,382800,2026-01-06 16:48:04,0.0,5,7.142,0.0,0.0,0.0,10.2,1.9,-9.0,1024,1024,1024,1024,0,0,0,0,52,5.663,75.92,100.06562,P-GPS,,30.5
572,382900,2026-01-06 16:48:04,0.0,5,7.142,0.0,0.0,0.0,10.3,2.3,-8.8,1024,1024,1024,1024,0,0,0,0,52,5.663,75.92,100.06562,P-GPS,,30.5
573,383000,2026-01-06 16:48:04,0.0,5,7.142,0.0,0.0,0.0,10.4,1.7,-8.8,1024,1024,1024,1024,0,0,0,0,52,5.663,75.92,100.06562,P-GPS,,30.5
574,383100,2026-01-06 16:48:04,0.0,5,7.142,0.0,0.0,0.0,10.4,1.6,-8.9,1024,1024,1024,1024,0,0,0,0,52,5.663,75.92,100.06562,P-GPS,,30.5
575,383200,2026-01-06 16:48:05,0.0,5,7.142,0.0,0.0,0.0,10.5,0.9,-8.4,1024,1024,1024,1024,0,0,0,0,52,5.663,75.92,100.06562,P-GPS,,30.5
576,383300,2026-01-06 16:48:05,0.0,5,7.142,0.0,0.0,0.0,10.4,1.1,-8.4,1024,1024,1024,1024,0,0,0,0,52,5.663,75.92,100.06562,P-GPS,,30.5
577,383400,2026-01-06 16:48:05,0.0,5,7.142,0.0,0.0,0.0,10.2,1.1,-8.3,1024,1024,1024,1024,0,0,0,0,52,5.663,75.92,100.06562,P-GPS,,30.5
578,383500,2026-01-06 16:48:05,0.0,5,7.142,0.0,0.0,0.0,10.1,2.2,-8.0,1024,1024,1024,1024,0,0,0,0,52,5.663,75.92,100.06562,P-GPS,,30.5
579,383600,2026-01-06 16:48:05,0.0,5,7.142,0.0,0.0,0.0,10.1,2.9,-7.6,1024,1024,1024,1024,0,0,0,0,52,5.663,75.92,99.737536,P-GPS,,30.4
580,383700,2026-01-06 16:48:05,0.0,5,7.162,0.0,0.0,0.0,10.1,2.9,-7.6,1024,1024,1024,1024,0,0,0,0,52,4.872,75.92,99.737536,P-GPS,,30.4
581,383800,2026-01-06 16:48:05,0.0,5,7.162,0.0,0.0,0.0,10.0,3.7,-7.7,1024,1024,1024,1024,0,0,0,0,52,4.872,75.92,99.737536,P-GPS,,30.4
582,383900,2026-01-06 16:48:05,0.0,5,7.162,0.0,0.0,0.0,10.1,3.3,-7.5,1024,1024,1024,1024,0,0,0,0,52,4.872,75.92,99.737536,P-GPS,,30.4
583,384000,2026-01-06 16:48:05,0.0,5,7.162,0.0,0.0,0.0,10.2,3.6,-7.1,1024,1024,1024,1024,0,0,0,0,52,4.872,75.92,99.737536,P-GPS,,30.4
584,384100,2026-01-06 16:48:05,0.0,5,7.162,0.0,0.0,0.0,10.2,4.1,-6.9,1024,1024,1024,1024,0,0,0,0,52,4.872,75.92,99.737536,P-GPS,,30.4
585,384200,2026-01-06 16:48:06,0.0,5,7.162,0.0,0.0,0.0,10.2,4.3,-6.9,1024,1024,1024,1024,0,0,0,0,52,4.872,75.92,99.409452,P-GPS,,30.3
586,384300,2026-01-06 16:48:06,0.0,5,7.162,0.0,0.0,0.0,10.1,4.8,-7.0,1024,1024,1024,1024,0,0,0,0,52,4.872,75.92,99.409452,P-GPS,,30.3
587,384400,2026-01-06 16:48:06,0.0,5,7.162,0.0,0.0,0.0,10.1,5.0,-6.6,1024,1024,1024,1024,0,0,0,0,52,4.872,75.92,99.409452,P-GPS,,30.3
588,384500,2026-01-06 16:48:06,0.0,5,7.162,0.0,0.0,0.0,10.1,4.7,-6.7,1024,1024,1024,1024,0,0,0,0,52,4.872,75.92,99.409452,P-GPS,,30.3
589,384600,2026-01-06 16:48:06,0.0,5,7.162,0.0,0.0,0.0,10.0,4.8,-6.8,1024,1024,1024,1024,0,0,0,0,52,4.872,75.92,99.409452,P-GPS,,30.3
590,384700,2026-01-06 16:48:06,0.0,5,7.162,0.0,0.0,0.0,10.0,4.7,-7.2,1024,1024,1024,1024,0,0,0,0,52,4.872,75.92,99.409452,P-GPS,,30.3
591,384800,2026-01-06 16:48:06,0.0,5,7.162,0.0,0.0,0.0,10.0,4.1,-7.4,1024,1024,1024,1024,0,0,0,0,52,4.872,75.92,99.409452,P-GPS,,30.3
592,384900,2026-01-06 16:48:06,0.0,5,7.149,0.0,0.0,0.0,9.9,3.7,-7.8,1024,1024,1024,1024,0,0,0,0,52,5.035,75.92,99.409452,P-GPS,,30.3
593,385000,2026-01-06 16:48:06,0.0,5,7.149,0.0,0.0,0.0,10.0,2.8,-7.8,1024,1024,1024,1024,0,0,0,0,52,5.035,75.92,99.409452,P-GPS,,30.3
594,385100,2026-01-06 16:48:06,0.223694,5,7.149,-0.223694,0.0,0.0,10.1,2.4,-7.7,1024,1024,1024,1024,0,0,0,0,52,5.035,75.92,99.409452,P-GPS,,30.3
595,385200,2026-01-06 16:48:07,0.223694,5,7.149,-0.223694,0.0,0.0,10.2,1.6,-7.4,1024,1024,1024,1024,0,0,0,0,52,5.035,75.92,99.409452,P-GPS,,30.3
596,385300,2026-01-06 16:48:07,0.0,5,7.149,0.0,0.0,0.0,10.3,1.4,-7.2,1024,1024,1024,1024,0,0,0,0,52,5.035,75.92,99.409452,P-GPS,,30.3
597,385400,2026-01-06 16:48:07,0.0,5,7.149,0.0,0.0,0.0,10.2,2.0,-7.5,1024,1024,1024,1024,0,0,0,0,52,5.035,75.92,99.409452,P-GPS,,30.3
598,385500,2026-01-06 16:48:07,0.0,5,7.149,0.0,0.0,0.0,10.2,2.1,-7.4,1024,1024,1024,1024,0,0,0,0,52,5.035,75.92,99.737536,P-GPS,,30.4
599,385600,2026-01-06 16:48:07,0.0,5,7.149,0.0,0.0,0.0,10.2,2.0,-7.8,1024,1024,1024,1024,0,0,0,0,52,5.035,75.92,99.737536,P-GPS,,30.4
600,385700,2026-01-06 16:48:07,0.0,5,7.149,0.0,0.0,0.0,10.2,1.9,-8.2,1024,1024,1024,1024,0,0,0,0,52,5.035,75.92,99.737536,P-GPS,,30.4
601,385800,2026-01-06 16:48:07,0.0,5,7.149,0.0,0.0,0.0,10.2,1.6,-8.4,1024,1024,1024,1024,0,0,0,0,52,5.035,75.92,99.737536,P-GPS,,30.4
602,385900,2026-01-06 16:48:07,0.0,5,7.149,0.0,0.0,0.0,10.2,1.5,-8.2,1024,1024,1024,1024,0,0,0,0,52,5.035,75.92,99.737536,P-GPS,,30.4
603,386000,2026-01-06 16:48:07,0.0,5,7.149,0.0,0.0,0.0,10.2,1.3,-8.2,1024,1024,1024,1024,0,0,0,0,52,5.035,75.92,99.737536,P-GPS,,30.4
