index,time(millisecond),timestamp,speed(mph),gpslevel,voltage(v),xSpeed(mph),ySpeed(mph),zSpeed(mph),compass_heading(degrees),pitch(degrees),roll(degrees),rc_elevator,rc_aileron,rc_throttle,rc_rudder,rc_elevator(percent),rc_aileron(percent),rc_throttle(percent),rc_rudder(percent),battery_percent,current(A),battery_temperature(f),ascent(feet),flycState,message,height_above_takeoff(meters)
814,364100,2026-01-09 12:43:08,0.0,5,7.519,0.0,0.0,0.0,55.7,0.4,-11.9,1024,1024,1024,1024,0,0,0,0,75,6.0,74.66,166.994756,P-GPS,,50.9
815,364200,2026-01-09 12:43:08,0.0,5,7.519,0.0,0.0,0.0,55.6,0.6,-12.0,1024,1024,1024,1024,0,0,0,0,75,6.0,74.66,166.994756,P-GPS,,50.9
816,364300,2026-01-09 12:43:08,0.0,5,7.519,0.0,0.0,0.0,55.6,0.5,-11.7,1024,1024,1024,1024,0,0,0,0,75,6.0,74.66,166.994756,P-GPS,,50.9
817,364400,2026-01-09 12:43:08,0.0,5,7.519,0.0,0.0,0.0,55.7,0.2,-11.3,1024,1024,1024,1024,0,0,0,0,75,6.0,74.66,166.994756,P-GPS,,50.9
818,364500,2026-01-09 12:43:09,0.0,5,7.519,0.0,0.0,0.0,55.6,0.4,-11.0,1024,1024,1024,1024,0,0,0,0,75,6.0,74.66,167.32284,P-GPS,,51.0
819,364600,2026-01-09 12:43:09,0.0,5,7.519,0.0,0.0,0.0,55.6,0.4,-10.8,1024,1024,1024,1024,0,0,0,0,75,6.0,74.66,167.32284,P-GPS,,51.0
820,364700,2026-01-09 12:43:09,0.0,5,7.519,0.0,0.0,0.0,55.7,0.0,-10.5,1024,1024,1024,1024,0,0,0,0,75,6.0,74.66,167.32284,P-GPS,,51.0
821,364800,2026-01-09 12:43:09,0.0,5,7.502,0.0,0.0,0.0,55.7,0.0,-10.4,1024,1024,1024,1024,0,0,0,0,75,5.808,74.66,167.32284,P-GPS,,51.0
822,364900,2026-01-09 12:43:09,0.0,5,7.502,0.0,0.0,0.0,55.6,-0.2,-10.3,1024,1024,1024,1024,0,0,0,0,75,5.808,74.66,167.32284,P-GPS,,51.0
823,365000,2026-01-09 12:43:09,0.223694,5,7.502,0.0,-0.223694,0.0,55.8,-0.7,-9.6,1024,1024,1024,1024,0,0,0,0,75,5.808,74.66,167.32284,P-GPS,,51.0
824,365100,2026-01-09 12:43:09,0.223694,5,7.502,0.0,-0.223694,0.0,56.0,-1.5,-9.1,1024,1024,1024,1024,0,0,0,0,75,5.808,74.66,167.32284,P-GPS,,51.0
825,365200,2026-01-09 12:43:09,0.0,5,7.502,0.0,0.0,0.0,56.3,-2.6,-8.8,1024,1024,1024,1024,0,0,0,0,75,5.808,74.66,167.32284,P-GPS,,51.0
826,365300,2026-01-09 12:43:09,0.0,5,7.502,0.0,0.0,0.0,56.1,-1.6,-10.0,1024,1024,1024,1024,0,0,0,0,75,5.808,74.66,167.32284,P-GPS,,51.0
827,365400,2026-01-09 12:43:09,0.0,5,7.502,0.0,0.0,0.0,56.0,-0.7,-10.6,1024,1024,1024,1024,0,0,0,0,75,5.808,74.66,167.650924,P-GPS,,51.1
828,365500,2026-01-09 12:43:10,0.0,5,7.502,0.0,0.0,0.0,55.6,0.4,-10.8,1024,1024,1024,1024,0,0,0,0,75,5.808,74.66,167.650924,P-GPS,,51.1
829,365600,2026-01-09 12:43:10,0.0,5,7.502,0.0,0.0,0.0,55.6,0.3,-10.7,1024,1024,1024,1024,0,0,0,0,75,5.808,74.66,167.32284,P-GPS,,51.0
830,365700,2026-01-09 12:43:10,0.0,5,7.502,0.0,0.0,0.0,55.8,-0.2,-10.2,1024,1024,1024,1024,0,0,0,0,75,5.808,74.66,167.32284,P-GPS,,51.0
831,365800,2026-01-09 12:43:10,0.0,5,7.502,0.0,0.0,0.0,55.9,-0.6,-9.3,1024,1024,1024,1024,0,0,0,0,75,5.808,74.66,167.32284,P-GPS,,51.0
832,365900,2026-01-09 12:43:10,0.0,5,7.488,0.0,0.0,0.0,56.0,-1.0,-8.8,1024,1024,1024,1024,0,0,0,0,75,5.822,74.66,167.32284,P-GPS,,51.0
833,366000,2026-01-09 12:43:10,0.0,5,7.488,0.0,0.0,0.0,55.8,0.1,-8.9,1024,1024,1024,1024,0,0,0,0,75,5.822,74.66,167.32284,P-GPS,,51.0
834,366100,2026-01-09 12:43:10,0.0,5,7.488,0.0,0.0,0.0,55.9,0.0,-9.0,1024,1024,1024,1024,0,0,0,0,75,5.822,74.66,167.32284,P-GPS,,51.0
835,366200,2026-01-09 12:43:10,0.0,5,7.488,0.0,0.0,0.0,56.0,-0.6,-8.5,1024,1024,1024,1024,0,0,0,0,75,5.822,74.66,166.994756,P-GPS,,50.9
836,366300,2026-01-09 12:43:10,0.0,5,7.488,0.0,0.0,0.0,55.8,0.1,-8.9,1024,1024,1024,1024,0,0,0,0,75,5.822,74.66,166.994756,P-GPS,,50.9
837,366400,2026-01-09 12:43:10,0.0,5,7.488,0.0,0.0,0.0,55.7,0.5,-9.0,1024,1024,1024,1024,0,0,0,0,75,5.822,74.66,166.994756,P-GPS,,50.9
838,366500,2026-01-09 12:43:11,0.0,5,7.488,0.0,0.0,0.0,55.7,0.3,-8.7,1024,1024,1024,1024,0,0,0,0,75,5.822,74.66,166.994756,P-GPS,,50.9
839,366600,2026-01-09 12:43:11,0.0,5,7.488,0.0,0.0,0.0,55.9,-0.2,-8.9,1024,1024,1024,1024,0,0,0,0,75,5.822,74.66,166.994756,P-GPS,,50.9
840,366700,2026-01-09 12:43:11,0.0,5,7.488,0.0,0.0,0.0,55.7,-0.3,-9.1,1024,1024,1024,1024,0,0,0,0,75,5.822,74.66,166.994756,P-GPS,,50.9
841,366800,2026-01-09 12:43:11,0.0,5,7.488,0.0,0.0,0.0,55.8,-0.5,-9.2,1024,1024,1024,1024,0,0,0,0,75,5.822,74.66,166.994756,P-GPS,,50.9
842,366900,2026-01-09 12:43:11,0.0,5,7.488,0.0,0.0,0.0,55.9,-1.1,-9.2,1024,1024,1024,1024,0,0,0,0,75,5.822,74.66,166.994756,P-GPS,,50.9
843,367000,2026-01-09 12:43:11,0.0,5,7.505,0.0,0.0,0.0,55.9,-1.1,-9.1,1024,1024,1024,1024,0,0,0,0,75,5.539,74.84,166.994756,P-GPS,,50.9
844,367100,2026-01-09 12:43:11,0.0,5,7.505,0.0,0.0,0.0,55.9,-0.9,-9.2,1024,1024,1024,1024,0,0,0,0,75,5.539,74.84,166.994756,P-GPS,,50.9
845,367200,2026-01-09 12:43:11,0.0,5,7.505,0.0,0.0,0.0,55.9,-1.0,-9.0,1024,1024,1024,1024,0,0,0,0,75,5.539,74.84,166.994756,P-GPS,,50.9
846,367300,2026-01-09 12:43:11,0.0,5,7.505,0.0,0.0,0.0,55.8,-0.9,-8.9,1024,1024,1024,1024,0,0,0,0,75,5.539,74.84,166.994756,P-GPS,,50.9
847,367400,2026-01-09 12:43:11,0.0,5,7.505,0.0,0.0,0.0,56.0,-1.1,-8.7,1024,1024,1024,1024,0,0,0,0,75,5.539,74.84,166.994756,P-GPS,,50.9
848,367500,2026-01-09 12:43:12,0.0,5,7.505,0.0,0.0,0.0,56.1,-1.4,-8.8,1024,1024,1024,1024,0,0,0,0,75,5.539,74.84,166.994756,P-GPS,,50.9
849,367600,2026-01-09 12:43:12,0.0,5,7.505,0.0,0.0,0.0,56.0,-1.4,-9.0,1024,1024,1024,1024,0,0,0,0,75,5.539,74.84,166.994756,P-GPS,,50.9
850,367700,2026-01-09 12:43:12,0.0,5,7.505,0.0,0.0,0.0,56.1,-1.4,-8.8,1024,1024,1024,1024,0,0,0,0,75,5.539,74.84,166.994756,P-GPS,,50.9
851,367800,2026-01-09 12:43:12,0.0,5,7.505,0.0,0.0,0.0,56.2,-0.9,-9.0,1024,1024,1024,1024,0,0,0,0,75,5.539,74.84,166.994756,P-GPS,,50.9
852,367900,2026-01-09 12:43:12,0.0,5,7.505,0.0,0.0,0.0,56.3,-1.2,-9.4,1024,1024,1024,1024,0,0,0,0,75,5.539,74.84,166.994756,P-GPS,,50.9
853,368000,2026-01-09 12:43:12,0.0,5,7.505,0.0,0.0,0.0,56.0,-0.2,-9.9,1024,1024,1024,1024,0,0,0,0,75,5.539,74.84,166.994756,P-GPS,,50.9
854,368100,2026-01-09 12:43:12,0.0,5,7.505,0.0,0.0,0.0,55.7,0.8,-10.5,1024,1024,1024,1024,0,0,0,0,75,5.539,74.84,166.994756,P-GPS,,50.9
855,368200,2026-01-09 12:43:12,0.0,5,7.505,0.0,0.0,0.0,55.6,1.1,-10.4,1024,1024,1024,1024,0,0,0,0,75,5.539,74.84,166.994756,P-GPS,,50.9
856,368300,2026-01-09 12:43:12,0.0,5,7.505,0.0,0.0,0.0,55.5,1.7,-10.4,1024,1024,1024,1024,0,0,0,0,75,5.539,74.84,166.994756,P-GPS,,50.9
857,368400,2026-01-09 12:43:12,0.0,5,7.505,0.0,0.0,0.223694,55.5,2.0,-10.2,1024,1024,1024,1024,0,0,0,0,75,5.539,74.84,166.994756,P-GPS,,50.9
858,368500,2026-01-09 12:43:13,0.223694,5,7.505,0.0,0.223694,0.223694,55.6,1.9,-10.2,1024,1024,1024,1024,0,0,0,0,75,5.539,74.84,166.994756,P-GPS,,50.9
859,368600,2026-01-09 12:43:13,0.223694,5,7.505,0.0,0.223694,0.0,55.5,2.3,-10.2,1024,1024,1024,1024,0,0,0,0,75,5.539,74.84,166.994756,P-GPS,,50.9
860,368700,2026-01-09 12:43:13,0.223694,5,7.505,0.0,0.223694,0.0,55.4,2.8,-10.6,1024,1024,1024,1024,0,0,0,0,75,5.539,74.84,166.994756,P-GPS,,50.9
861,368800,2026-01-09 12:43:13,0.0,5,7.505,0.0,0.0,0.0,55.4,3.0,-10.5,1024,1024,1024,1024,0,0,0,0,75,5.539,74.84,166.666672,P-GPS,,50.8
862,368900,2026-01-09 12:43:13,0.0,5,7.505,0.0,0.0,0.0,55.3,3.6,-10.3,1024,1024,1024,1024,0,0,0,0,75,5.539,74.84,166.666672,P-GPS,,50.8
863,369000,2026-01-09 12:43:13,0.0,5,7.505,0.0,0.0,0.0,55.3,3.6,-10.3,1024,1024,1024,1024,0,0,0,0,75,5.539,74.84,166.666672,P-GPS,,50.8
864,369100,2026-01-09 12:43:13,0.0,5,7.505,0.0,0.0,0.223694,55.5,3.1,-9.8,1024,1024,1024,1024,0,0,0,0,75,5.539,74.84,166.666672,P-GPS,,50.8
865,369200,2026-01-09 12:43:13,0.0,5,7.542,0.0,0.0,0.0,55.4,3.3,-9.9,1024,1024,1024,1024,0,0,0,0,75,4.981,74.84,166.666672,P-GPS,,50.8
866,369300,2026-01-09 12:43:13,0.0,5,7.542,0.0,0.0,0.0,55.5,2.8,-9.8,1024,1024,1024,1024,0,0,0,0,75,4.981,74.84,166.666672,P-GPS,,50.8
867,369400,2026-01-09 12:43:13,0.0,5,7.542,0.0,0.0,0.0,55.5,3.1,-10.1,1024,1024,1024,1024,0,0,0,0,75,4.981,74.84,166.666672,P-GPS,,50.8
868,369500,2026-01-09 12:43:14,0.0,5,7.542,0.0,0.0,0.0,55.4,3.3,-10.2,1024,1024,1024,1024,0,0,0,0,75,4.981,74.84,166.666672,P-GPS,,50.8
869,369600,2026-01-09 12:43:14,0.0,5,7.542,0.0,0.0,0.0,55.3,3.4,-10.7,1024,1024,1024,1024,0,0,0,0,75,4.981,74.84,166.666672,P-GPS,,50.8
870,369700,2026-01-09 12:43:14,0.0,5,7.542,0.0,0.0,0.0,55.5,3.0,-10.8,1024,1024,1024,1024,0,0,0,0,75,4.981,74.84,166.666672,P-GPS,,50.8
871,369800,2026-01-09 12:43:14,0.0,5,7.542,0.0,0.0,0.0,55.4,3.0,-10.8,1024,1024,1024,1024,0,0,0,0,75,4.981,74.84,166.666672,P-GPS,,50.8
872,369900,2026-01-09 12:43:14,0.0,5,7.542,0.0,0.0,0.0,55.4,3.3,-10.8,1024,1024,1024,1024,0,0,0,0,75,4.981,74.84,166.666672,P-GPS,,50.8
873,370000,2026-01-09 12:43:14,0.0,5,7.542,0.0,0.0,0.0,55.3,3.3,-11.2,1024,1024,1024,1024,0,0,0,0,75,4.981,74.84,166.666672,P-GPS,,50.8
874,370100,2026-01-09 12:43:14,0.223694,5,7.542,0.0,-0.223694,0.0,55.5,2.3,-10.6,1024,1024,1024,1024,0,0,0,0,75,4.981,74.84,166.666672,P-GPS,,50.8
875,370200,2026-01-09 12:43:14,0.223694,5,7.542,0.0,-0.223694,0.0,55.9,0.5,-10.1,1024,1024,1024,1024,0,0,0,0,75,4.981,74.84,166.338588,P-GPS,,50.7
876,370300,2026-01-09 12:43:14,0.223694,5,7.542,0.0,-0.223694,0.0,56.0,-0.8,-10.0,1024,1024,1024,1024,0,0,0,0,75,4.981,74.84,166.338588,P-GPS,,50.7
877,370400,2026-01-09 12:43:14,0.223694,5,7.509,0.0,-0.223694,0.0,55.9,-1.2,-9.6,1024,1024,1024,1024,0,0,0,0,75,5.114,74.84,166.338588,P-GPS,,50.7
878,370500,2026-01-09 12:43:15,0.223694,5,7.509,0.0,-0.223694,0.0,55.8,-0.9,-9.4,1024,1024,1024,1024,0,0,0,0,75,5.114,74.84,166.338588,P-GPS,,50.7
879,370600,2026-01-09 12:43:15,0.223694,5,7.509,0.0,-0.223694,0.0,55.9,-0.8,-9.1,1024,1024,1024,1024,0,0,0,0,75,5.114,74.84,166.338588,P-GPS,,50.7
880,370700,2026-01-09 12:43:15,0.223694,5,7.509,0.0,-0.223694,0.0,56.0,-1.0,-9.1,1024,1024,1024,1024,0,0,0,0,75,5.114,74.84,166.338588,P-GPS,,50.7
881,370800,2026-01-09 12:43:15,0.223694,5,7.509,0.0,-0.223694,0.0,56.0,-1.3,-8.7,1024,1024,1024,1024,0,0,0,0,75,5.114,74.84,166.338588,P-GPS,,50.7
882,370900,2026-01-09 12:43:15,0.0,5,7.509,0.0,0.0,0.0,55.9,-0.9,-8.8,1024,1024,1024,1024,0,0,0,0,75,5.114,74.84,166.010504,P-GPS,,50.6
883,371000,2026-01-09 12:43:15,0.0,5,7.509,0.0,0.0,0.0,55.9,-1.0,-8.7,1024,1024,1024,1024,0,0,0,0,75,5.114,74.84,166.010504,P-GPS,,50.6
884,371100,2026-01-09 12:43:15,0.0,5,7.509,0.0,0.0,0.0,55.8,-0.6,-8.5,1024,1024,1024,1024,0,0,0,0,75,5.114,74.84,166.010504,P-GPS,,50.6
885,371200,2026-01-09 12:43:15,0.0,5,7.509,0.0,0.0,0.0,55.8,-1.1,-8.2,1024,1024,1024,1024,0,0,0,0,75,5.114,74.84,166.010504,P-GPS,,50.6
886,371300,2026-01-09 12:43:15,0.0,5,7.509,0.0,0.0,0.0,55.7,-1.1,-8.0,1024,1024,1024,1024,0,0,0,0,75,5.114,74.84,166.010504,P-GPS,,50.6
887,371400,2026-01-09 12:43:15,0.0,5,7.509,0.0,0.0,0.0,55.7,-0.7,-7.9,1024,1024,1024,1024,0,0,0,0,75,5.114,74.84,166.010504,P-GPS,,50.6
888,371500,2026-01-09 12:43:16,0.0,5,7.512,0.0,0.0,0.0,55.7,-0.2,-7.8,1024,1024,1024,1024,0,0,0,0,75,5.288,74.84,165.68242,P-GPS,,50.5
889,371600,2026-01-09 12:43:16,0.0,5,7.512,0.0,0.0,0.0,55.6,0.3,-7.8,1024,1024,1024,1024,0,0,0,0,75,5.288,74.84,165.68242,P-GPS,,50.5
890,371700,2026-01-09 12:43:16,0.0,5,7.512,0.0,0.0,0.0,55.5,1.0,-8.0,1024,1024,1024,1024,0,0,0,0,75,5.288,74.84,165.68242,P-GPS,,50.5
891,371800,2026-01-09 12:43:16,0.0,5,7.512,0.0,0.0,0.0,55.6,0.4,-7.7,1024,1024,1024,1024,0,0,0,0,75,5.288,74.84,165.68242,P-GPS,,50.5
892,371900,2026-01-09 12:43:16,0.0,5,7.512,0.0,0.0,0.0,55.6,0.7,-7.8,1024,1024,1024,1024,0,0,0,0,75,5.288,74.84,165.68242,P-GPS,,50.5
893,372000,2026-01-09 12:43:16,0.0,5,7.512,0.0,0.0,0.0,55.6,1.1,-7.9,1024,1024,1024,1024,0,0,0,0,75,5.288,74.84,165.68242,P-GPS,,50.5
894,372100,2026-01-09 12:43:16,0.0,5,7.512,0.0,0.0,0.0,55.6,1.2,-8.0,1024,1024,1024,1024,0,0,0,0,75,5.288,74.84,165.68242,P-GPS,,50.5
895,372200,2026-01-09 12:43:16,0.0,5,7.512,0.0,0.0,0.0,55.6,1.5,-8.0,1024,1024,1024,1024,0,0,0,0,75,5.288,74.84,165.68242,P-GPS,,50.5
896,372300,2026-01-09 12:43:16,0.0,5,7.512,0.0,0.0,0.0,55.6,1.4,-7.9,1024,1024,1024,1024,0,0,0,0,75,5.288,74.84,165.68242,P-GPS,,50.5
897,372400,2026-01-09 12:43:16,0.0,5,7.512,0.0,0.0,0.0,55.9,0.6,-7.5,1024,1024,1024,1024,0,0,0,0,75,5.288,74.84,166.010504,P-GPS,,50.6
898,372500,2026-01-09 12:43:17,0.0,5,7.512,0.0,0.0,0.0,55.9,0.7,-7.9,1024,1024,1024,1024,0,0,0,0,75,5.288,74.84,166.010504,P-GPS,,50.6
899,372600,2026-01-09 12:43:17,0.0,5,7.53,0.0,0.0,0.0,56.1,0.1,-8.5,1024,1024,1024,1024,0,0,0,0,75,4.862,74.84,166.010504,P-GPS,,50.6
900,372700,2026-01-09 12:43:17,0.0,5,7.53,0.0,0.0,0.0,56.4,-1.3,-8.3,1024,1024,1024,1024,0,0,0,0,75,4.862,74.84,166.010504,P-GPS,,50.6
901,372800,2026-01-09 12:43:17,0.0,5,7.53,0.0,0.0,0.0,56.1,-1.3,-9.6,1024,1024,1024,1024,0,0,0,0,75,4.862,74.84,166.010504,P-GPS,,50.6
902,372900,2026-01-09 12:43:17,0.0,5,7.53,0.0,0.0,0.0,56.0,-1.0,-10.0,1024,1024,1024,1024,0,0,0,0,75,4.862,74.84,166.010504,P-GPS,,50.6
903,373000,2026-01-09 12:43:17,0.0,5,7.53,0.0,0.0,0.0,56.2,-1.5,-9.5,1024,1024,1024,1024,0,0,0,0,75,4.862,74.84,166.010504,P-GPS,,50.6
904,373100,2026-01-09 12:43:17,0.0,5,7.53,-0.223694,0.0,0.0,56.3,-2.1,-9.5,1024,1024,1024,1024,0,0,0,0,75,4.862,74.84,166.010504,P-GPS,,50.6
905,373200,2026-01-09 12:43:17,0.0,5,7.53,0.0,0.0,0.0,56.1,-2.0,-9.6,1024,1024,1024,1024,0,0,0,0,75,4.862,74.84,166.010504,P-GPS,,50.6
906,373300,2026-01-09 12:43:17,0.0,5,7.53,0.0,0.0,0.0,56.1,-2.2,-9.3,1024,1024,1024,1024,0,0,0,0,75,4.862,74.84,166.010504,P-GPS,,50.6
907,373400,2026-01-09 12:43:17,0.0,5,7.53,0.0,0.0,0.0,56.3,-2.5,-9.4,1024,1024,1024,1024,0,0,0,0,75,4.862,74.84,166.010504,P-GPS,,50.6
908,373500,2026-01-09 12:43:18,0.0,5,7.53,0.0,0.0,0.0,56.4,-2.9,-9.3,1024,1024,1024,1024,0,0,0,0,75,4.862,74.84,166.010504,P-GPS,,50.6
909,373600,2026-01-09 12:43:18,0.0,5,7.53,0.0,0.0,0.0,56.4,-3.0,-9.8,1024,1024,1024,1024,0,0,0,0,75,4.862,74.84,166.010504,P-GPS,,50.6
910,373700,2026-01-09 12:43:18,0.0,5,7.52,0.0,0.0,0.0,56.4,-3.5,-10.0,1024,1024,1024,1024,0,0,0,0,75,4.949,75.02,166.010504,P-GPS,,50.6
911,373800,2026-01-09 12:43:18,0.0,5,7.52,0.0,0.0,0.0,56.3,-3.0,-10.3,1024,1024,1024,1024,0,0,0,0,75,4.949,75.02,166.010504,P-GPS,,50.6
912,373900,2026-01-09 12:43:18,0.0,5,7.52,0.0,0.0,0.0,56.2,-2.8,-9.6,1024,1024,1024,1024,0,0,0,0,75,4.949,75.02,166.010504,P-GPS,,50.6
913,374000,2026-01-09 12:43:18,0.0,5,7.52,0.0,0.0,0.0,56.3,-3.3,-8.7,1024,1024,1024,1024,0,0,0,0,75,4.949,75.02,166.010504,P-GPS,,50.6
914,374100,2026-01-09 12:43:18,0.0,5,7.52,0.0,0.0,0.0,56.2,-3.1,-8.8,1024,1024,1024,1024,0,0,0,0,75,4.949,75.02,165.68242,P-GPS,,50.5
915,374200,2026-01-09 12:43:18,0.0,5,7.52,0.0,0.0,0.0,56.4,-3.9,-8.1,1024,1024,1024,1024,0,0,0,0,75,4.949,75.02,165.68242,P-GPS,,50.5
916,374300,2026-01-09 12:43:18,0.0,5,7.52,0.0,0.0,0.0,56.1,-2.8,-8.8,1024,1024,1024,1024,0,0,0,0,75,4.949,75.02,165.68242,P-GPS,,50.5
917,374400,2026-01-09 12:43:19,0.0,5,7.52,0.0,0.0,0.0,55.9,-2.6,-8.8,1024,1024,1024,1024,0,0,0,0,75,4.949,75.02,165.68242,P-GPS,,50.5
918,374500,2026-01-09 12:43:19,0.0,5,7.52,0.0,0.0,0.0,56.0,-2.9,-8.1,1024,1024,1024,1024,0,0,0,0,75,4.949,75.02,165.68242,P-GPS,,50.5
919,374600,2026-01-09 12:43:19,0.0,5,7.52,0.0,0.0,0.0,56.0,-2.7,-7.4,1024,1024,1024,1024,0,0,0,0,75,4.949,75.02,165.354336,P-GPS,,50.4
920,374700,2026-01-09 12:43:19,0.0,5,7.52,0.0,0.0,0.0,56.0,-2.1,-7.5,1024,1024,1024,1024,0,0,0,0,75,4.949,75.02,165.354336,P-GPS,,50.4
921,374800,2026-01-09 12:43:19,0.0,5,7.523,0.0,0.0,0.0,55.8,-1.7,-7.8,1024,1024,1024,1024,0,0,0,0,75,4.956,75.02,165.354336,P-GPS,,50.4
922,374900,2026-01-09 12:43:19,0.0,5,7.523,0.0,0.0,0.0,55.8,-1.2,-7.6,1024,1024,1024,1024,0,0,0,0,75,4.956,75.02,165.354336,P-GPS,,50.4
923,375000,2026-01-09 12:43:19,0.0,5,7.523,0.0,0.0,0.0,56.0,-1.8,-7.1,1024,1024,1024,1024,0,0,0,0,75,4.956,75.02,165.354336,P-GPS,,50.4
924,375100,2026-01-09 12:43:19,0.0,5,7.523,0.0,0.0,0.0,56.0,-1.6,-7.7,1024,1024,1024,1024,0,0,0,0,75,4.956,75.02,165.354336,P-GPS,,50.4
925,375200,2026-01-09 12:43:19,0.0,5,7.523,0.0,0.0,0.0,56.0,-1.3,-8.3,1024,1024,1024,1024,0,0,0,0,75,4.956,75.02,165.354336,P-GPS,,50.4
926,375300,2026-01-09 12:43:19,0.0,5,7.523,0.0,0.0,0.0,55.9,-1.6,-8.2,1024,1024,1024,1024,0,0,0,0,75,4.956,75.02,165.354336,P-GPS,,50.4
927,375400,2026-01-09 12:43:20,0.0,5,7.523,0.0,0.0,0.0,55.8,-1.3,-8.5,1024,1024,1024,1024,0,0,0,0,75,4.956,75.02,165.354336,P-GPS,,50.4
928,375500,2026-01-09 12:43:20,0.0,5,7.523,0.0,0.0,0.0,55.8,-1.1,-8.4,1024,1024,1024,1024,0,0,0,0,75,4.956,75.02,165.354336,P-GPS,,50.4
929,375600,2026-01-09 12:43:20,0.0,5,7.523,0.0,0.0,0.0,55.8,-1.3,-8.1,1024,1024,1024,1024,0,0,0,0,75,4.956,75.02,165.354336,P-GPS,,50.4
930,375700,2026-01-09 12:43:20,0.0,5,7.523,0.0,0.0,0.0,55.7,-1.2,-8.5,1024,1024,1024,1024,0,0,0,0,75,4.956,75.02,165.354336,P-GPS,,50.4
931,375800,2026-01-09 12:43:20,0.0,5,7.523,0.0,0.0,0.0,55.5,-0.4,-8.6,1024,1024,1024,1024,0,0,0,0,75,4.956,75.02,165.354336,P-GPS,,50.4
932,375900,2026-01-09 12:43:20,0.0,5,7.525,0.0,0.0,0.0,55.7,-1.2,-7.9,1024,1024,1024,1024,0,0,0,0,75,4.91,75.02,165.354336,P-GPS,,50.4
933,376000,2026-01-09 12:43:20,0.0,5,7.525,0.0,0.0,0.0,55.7,-1.2,-8.0,1024,1024,1024,1024,0,0,0,0,75,4.91,75.02,165.354336,P-GPS,,50.4
934,376100,2026-01-09 12:43:20,0.0,5,7.525,0.0,0.0,0.0,55.6,-1.1,-8.1,1024,1024,1024,1024,0,0,0,0,75,4.91,75.02,165.354336,P-GPS,,50.4
935,376200,2026-01-09 12:43:20,0.0,5,7.525,0.0,0.0,0.0,55.7,-1.4,-7.9,1024,1024,1024,1024,0,0,0,0,75,4.91,75.02,165.354336,P-GPS,,50.4
936,376300,2026-01-09 12:43:20,0.0,5,7.525,0.0,0.0,0.0,55.6,-0.7,-7.5,1024,1024,1024,1024,0,0,0,0,75,4.91,75.02,165.354336,P-GPS,,50.4
937,376400,2026-01-09 12:43:20,0.0,5,7.525,0.0,0.0,0.0,55.7,-1.1,-7.3,1024,1024,1024,1024,0,0,0,0,75,4.91,75.02,165.354336,P-GPS,,50.4
938,376500,2026-01-09 12:43:21,0.0,5,7.525,0.0,0.0,0.0,55.6,-0.8,-7.8,1024,1024,1024,1024,0,0,0,0,75,4.91,75.02,165.354336,P-GPS,,50.4
939,376600,2026-01-09 12:43:21,0.0,5,7.525,0.0,0.0,0.0,55.6,-0.3,-7.8,1024,1024,1024,1024,0,0,0,0,75,4.91,75.02,165.68242,P-GPS,,50.5
940,376700,2026-01-09 12:43:21,0.0,5,7.525,0.0,0.0,0.0,55.6,-0.2,-8.1,1024,1024,1024,1024,0,0,0,0,75,4.91,75.02,165.68242,P-GPS,,50.5
941,376800,2026-01-09 12:43:21,0.0,5,7.525,0.0,0.0,0.0,55.6,-0.1,-8.0,1024,1024,1024,1024,0,0,0,0,75,4.91,75.02,165.68242,P-GPS,,50.5
942,376900,2026-01-09 12:43:21,0.0,5,7.525,0.0,0.0,0.0,55.7,0.3,-7.5,1024,1024,1024,1024,0,0,0,0,75,4.91,75.02,165.68242,P-GPS,,50.5
943,377000,2026-01-09 12:43:21,0.0,5,7.513,0.0,0.0,0.0,55.9,0.0,-8.2,1024,1024,1024,1024,0,0,0,0,74,5.17,75.02,165.68242,P-GPS,,50.5
944,377100,2026-01-09 12:43:21,0.0,5,7.513,0.0,0.0,0.0,56.1,-1.4,-9.2,1024,1024,1024,1024,0,0,0,0,74,5.17,75.02,165.68242,P-GPS,,50.5
945,377200,2026-01-09 12:43:21,0.0,5,7.513,0.0,0.0,0.0,56.0,-2.3,-9.4,1024,1024,1024,1024,0,0,0,0,74,5.17,75.02,165.68242,P-GPS,,50.5
946,377300,2026-01-09 12:43:21,0.0,5,7.513,0.0,0.0,0.0,55.7,-0.9,-9.1,1024,1024,1024,1024,0,0,0,0,74,5.17,75.02,165.68242,P-GPS,,50.5
947,377400,2026-01-09 12:43:21,0.223694,5,7.513,0.0,0.223694,0.0,55.5,0.3,-8.5,1024,1024,1024,1024,0,0,0,0,74,5.17,75.02,165.68242,P-GPS,,50.5
948,377500,2026-01-09 12:43:22,0.223694,5,7.513,0.0,0.223694,0.0,55.3,1.7,-8.6,1024,1024,1024,1024,0,0,0,0,74,5.17,75.02,165.68242,P-GPS,,50.5
949,377600,2026-01-09 12:43:22,0.223694,5,7.513,0.0,0.223694,0.0,55.3,2.2,-8.8,1024,1024,1024,1024,0,0,0,0,74,5.17,75.02,165.68242,P-GPS,,50.5
950,377700,2026-01-09 12:43:22,0.0,5,7.513,0.0,0.0,0.0,55.3,2.3,-8.7,1024,1024,1024,1024,0,0,0,0,74,5.17,75.02,165.68242,P-GPS,,50.5
951,377800,2026-01-09 12:43:22,0.0,5,7.513,0.0,0.0,0.0,55.5,1.5,-8.3,1024,1024,1024,1024,0,0,0,0,74,5.17,75.02,165.68242,P-GPS,,50.5
952,377900,2026-01-09 12:43:22,0.0,5,7.513,0.0,0.0,0.0,55.6,1.1,-8.4,1024,1024,1024,1024,0,0,0,0,74,5.17,75.02,165.68242,P-GPS,,50.5
953,378000,2026-01-09 12:43:22,0.0,5,7.513,0.0,0.0,0.0,55.5,0.7,-8.8,1024,1024,1024,1024,0,0,0,0,74,5.17,75.02,165.68242,P-GPS,,50.5
954,378100,2026-01-09 12:43:22,0.0,5,7.515,0.0,0.0,0.0,55.5,0.7,-9.0,1024,1024,1024,1024,0,0,0,0,74,5.182,75.02,165.68242,P-GPS,,50.5
955,378200,2026-01-09 12:43:22,0.0,5,7.515,0.0,0.0,0.0,55.6,0.4,-9.3,1024,1024,1024,1024,0,0,0,0,74,5.182,75.02,165.68242,P-GPS,,50.5
956,378300,2026-01-09 12:43:22,0.0,5,7.515,0.0,0.0,0.0,55.5,0.4,-9.6,1024,1024,1024,1024,0,0,0,0,74,5.182,75.02,166.010504,P-GPS,,50.6
957,378400,2026-01-09 12:43:22,0.0,5,7.515,0.0,0.0,0.0,55.4,0.8,-9.7,1024,1024,1024,1024,0,0,0,0,74,5.182,75.02,166.010504,P-GPS,,50.6
958,378500,2026-01-09 12:43:23,0.0,5,7.515,0.0,0.0,0.0,55.5,0.2,-9.4,1024,1024,1024,1024,0,0,0,0,74,5.182,75.02,166.010504,P-GPS,,50.6
959,378600,2026-01-09 12:43:23,0.0,5,7.515,0.0,0.0,0.0,55.6,0.2,-9.6,1024,1024,1024,1024,0,0,0,0,74,5.182,75.02,166.010504,P-GPS,,50.6
960,378700,2026-01-09 12:43:23,0.0,5,7.515,0.0,0.0,0.0,55.5,0.5,-9.5,1024,1024,1024,1024,0,0,0,0,74,5.182,75.02,166.010504,P-GPS,,50.6
961,378800,2026-01-09 12:43:23,0.0,5,7.515,0.0,0.0,0.0,55.6,0.6,-9.5,1024,1024,1024,1024,0,0,0,0,74,5.182,75.02,166.010504,P-GPS,,50.6
962,378900,2026-01-09 12:43:23,0.0,5,7.515,0.0,0.0,0.0,55.5,1.0,-9.8,1024,1024,1024,1024,0,0,0,0,74,5.182,75.02,166.010504,P-GPS,,50.6
963,379000,2026-01-09 12:43:23,0.0,5,7.515,0.0,0.0,0.0,55.4,1.6,-10.3,1024,1024,1024,1024,0,0,0,0,74,5.182,75.02,166.010504,P-GPS,,50.6
964,379100,2026-01-09 12:43:23,0.0,5,7.515,0.0,0.223694,0.0,55.4,1.7,-10.6,1024,1024,1024,1024,0,0,0,0,74,5.182,75.02,166.010504,P-GPS,,50.6
965,379200,2026-01-09 12:43:23,0.223694,5,7.516,0.0,0.223694,0.0,55.4,2.1,-10.6,1024,1024,1024,1024,0,0,0,0,74,5.277,75.02,166.010504,P-GPS,,50.6
966,379300,2026-01-09 12:43:23,0.223694,5,7.516,0.0,0.223694,0.0,55.4,2.2,-11.1,1024,1024,1024,1024,0,0,0,0,74,5.277,75.02,166.010504,P-GPS,,50.6
967,379400,2026-01-09 12:43:23,0.223694,5,7.516,0.0,0.223694,0.0,55.4,2.7,-11.3,1024,1024,1024,1024,0,0,0,0,74,5.277,75.02,166.010504,P-GPS,,50.6
968,379500,2026-01-09 12:43:24,0.0,5,7.516,0.0,0.0,0.0,55.3,2.9,-11.3,1024,1024,1024,1024,0,0,0,0,74,5.277,75.02,166.010504,P-GPS,,50.6
969,379600,2026-01-09 12:43:24,0.0,5,7.516,0.0,0.0,0.0,55.3,2.4,-11.3,1024,1024,1024,1024,0,0,0,0,74,5.277,75.02,166.010504,P-GPS,,50.6
970,379700,2026-01-09 12:43:24,0.0,5,7.516,0.0,0.0,0.0,55.1,2.5,-11.0,1024,1024,1024,1024,0,0,0,0,74,5.277,75.02,166.010504,P-GPS,,50.6
971,379800,2026-01-09 12:43:24,0.0,5,7.516,0.0,0.0,0.0,55.3,2.0,-10.4,1024,1024,1024,1024,0,0,0,0,74,5.277,75.02,166.010504,P-GPS,,50.6
972,379900,2026-01-09 12:43:24,0.0,5,7.516,0.0,0.0,0.0,55.4,1.9,-10.0,1024,1024,1024,1024,0,0,0,0,74,5.277,75.02,166.010504,P-GPS,,50.6
973,380000,2026-01-09 12:43:24,0.0,5,7.516,0.0,0.0,0.0,55.5,1.6,-9.6,1024,1024,1024,1024,0,0,0,0,74,5.277,75.02,165.68242,P-GPS,,50.5
974,380100,2026-01-09 12:43:24,0.0,5,7.516,0.0,0.0,0.0,55.6,1.3,-9.4,1024,1024,1024,1024,0,0,0,0,74,5.277,75.02,165.68242,P-GPS,,50.5
975,380200,2026-01-09 12:43:24,0.0,5,7.516,0.0,0.0,0.0,55.5,1.5,-9.4,1024,1024,1024,1024,0,0,0,0,74,5.277,75.02,165.68242,P-GPS,,50.5
976,380300,2026-01-09 12:43:24,0.0,5,7.516,0.0,0.0,0.0,55.6,1.6,-9.5,1024,1024,1024,1024,0,0,0,0,74,5.277,75.02,165.68242,P-GPS,,50.5
977,380400,2026-01-09 12:43:24,0.0,5,7.516,0.0,0.0,0.0,55.6,1.4,-9.7,1024,1024,1024,1024,0,0,0,0,74,5.277,75.02,165.68242,P-GPS,,50.5
978,380500,2026-01-09 12:43:25,0.0,5,7.516,0.0,0.0,0.0,55.5,2.3,-10.2,1024,1024,1024,1024,0,0,0,0,74,5.277,75.02,165.68242,P-GPS,,50.5
979,380600,2026-01-09 12:43:25,0.0,5,7.516,0.0,0.0,0.0,55.4,2.8,-10.3,1024,1024,1024,1024,0,0,0,0,74,5.277,75.02,165.68242,P-GPS,,50.5
980,380700,2026-01-09 12:43:25,0.0,5,7.516,0.0,0.0,0.0,55.4,2.6,-10.5,1024,1024,1024,1024,0,0,0,0,74,5.277,75.02,165.68242,P-GPS,,50.5
981,380800,2026-01-09 12:43:25,0.0,5,7.516,0.0,0.0,0.0,55.3,2.7,-10.4,1024,1024,1024,1024,0,0,0,0,74,5.277,75.02,165.68242,P-GPS,,50.5
982,380900,2026-01-09 12:43:25,0.0,5,7.516,0.0,0.0,0.0,55.4,2.5,-10.3,1024,1024,1024,1024,0,0,0,0,74,5.277,75.02,165.68242,P-GPS,,50.5
983,381000,2026-01-09 12:43:25,0.0,5,7.516,0.0,0.0,0.0,55.5,2.1,-10.1,1024,1024,1024,1024,0,0,0,0,74,5.277,75.02,165.68242,P-GPS,,50.5
984,381100,2026-01-09 12:43:25,0.0,5,7.516,0.0,0.0,0.0,55.5,1.8,-9.7,1024,1024,1024,1024,0,0,0,0,74,5.277,75.02,165.68242,P-GPS,,50.5
985,381200,2026-01-09 12:43:25,0.0,5,7.516,0.0,0.0,0.0,55.7,1.3,-9.3,1024,1024,1024,1024,0,0,0,0,74,5.277,75.02,165.68242,P-GPS,,50.5
986,381300,2026-01-09 12:43:25,0.0,5,7.516,0.0,0.0,0.0,55.6,1.6,-9.8,1024,1024,1024,1024,0,0,0,0,74,5.277,75.02,165.68242,P-GPS,,50.5
987,381400,2026-01-09 12:43:25,0.0,5,7.516,0.0,0.0,0.0,55.5,1.7,-10.1,1024,1024,1024,1024,0,0,0,0,74,5.277,75.02,165.68242,P-GPS,,50.5
988,381500,2026-01-09 12:43:26,0.0,5,7.499,0.0,0.0,0.0,55.5,1.9,-10.4,1024,1024,1024,1024,0,0,0,0,74,5.441,75.2,165.68242,P-GPS,,50.5
989,381600,2026-01-09 12:43:26,0.0,5,7.499,0.0,0.0,0.0,55.3,2.1,-10.5,1024,1024,1024,1024,0,0,0,0,74,5.441,75.2,165.68242,P-GPS,,50.5
990,381700,2026-01-09 12:43:26,0.0,5,7.499,0.0,0.0,0.0,55.3,2.2,-9.9,1024,1024,1024,1024,0,0,0,0,74,5.441,75.2,165.68242,P-GPS,,50.5
991,381800,2026-01-09 12:43:26,0.0,5,7.499,0.0,0.0,0.0,55.7,1.1,-9.7,1024,1024,1024,1024,0,0,0,0,74,5.441,75.2,165.68242,P-GPS,,50.5
992,381900,2026-01-09 12:43:26,0.0,5,7.499,0.0,0.0,0.0,55.6,1.1,-9.8,1024,1024,1024,1024,0,0,0,0,74,5.441,75.2,165.68242,P-GPS,,50.5
993,382000,2026-01-09 12:43:26,0.0,5,7.499,0.0,0.0,0.0,55.6,1.0,-10.2,1024,1024,1024,1024,0,0,0,0,74,5.441,75.2,165.68242,P-GPS,,50.5
994,382100,2026-01-09 12:43:26,0.0,5,7.499,0.0,0.0,0.0,55.6,0.6,-10.5,1024,1024,1024,1024,0,0,0,0,74,5.441,75.2,165.68242,P-GPS,,50.5
995,382200,2026-01-09 12:43:26,0.0,5,7.499,0.0,0.0,0.0,55.5,1.1,-10.8,1024,1024,1024,1024,0,0,0,0,74,5.441,75.2,165.68242,P-GPS,,50.5
996,382300,2026-01-09 12:43:26,0.0,5,7.499,0.0,0.0,0.0,55.6,0.8,-10.2,1024,1024,1024,1024,0,0,0,0,74,5.441,75.2,165.68242,P-GPS,,50.5
997,382400,2026-01-09 12:43:27,0.0,5,7.499,0.0,0.0,0.0,55.7,0.1,-10.2,1024,1024,1024,1024,0,0,0,0,74,5.441,75.2,165.68242,P-GPS,,50.5
998,382500,2026-01-09 12:43:27,0.0,5,7.499,0.0,0.0,0.0,55.6,0.4,-10.0,1024,1024,1024,1024,0,0,0,0,74,5.441,75.2,165.68242,P-GPS,,50.5
999,382600,2026-01-09 12:43:27,0.0,5,7.489,0.0,0.0,0.0,55.6,0.3,-9.7,1024,1024,1024,1024,0,0,0,0,74,5.54,75.2,165.68242,P-GPS,,50.5
1000,382700,2026-01-09 12:43:27,0.0,5,7.489,0.0,0.0,0.0,55.6,0.7,-9.6,1024,1024,1024,1024,0,0,0,0,74,5.54,75.2,165.68242,P-GPS,,50.5
1001,382800,2026-01-09 12:43:27,0.0,5,7.489,0.0,0.0,0.0,55.6,1.0,-9.6,1024,1024,1024,1024,0,0,0,0,74,5.54,75.2,165.68242,P-GPS,,50.5
1002,382900,2026-01-09 12:43:27,0.0,5,7.489,0.0,0.0,0.0,55.7,1.2,-9.4,1024,1024,1024,1024,0,0,0,0,74,5.54,75.2,165.68242,P-GPS,,50.5
1003,383000,2026-01-09 12:43:27,0.0,5,7.489,0.0,0.0,0.0,55.5,1.4,-9.7,1024,1024,1024,1024,0,0,0,0,74,5.54,75.2,165.68242,P-GPS,,50.5
1004,383100,2026-01-09 12:43:27,0.0,5,7.489,0.0,0.0,0.0,55.6,1.5,-9.4,1024,1024,1024,1024,0,0,0,0,74,5.54,75.2,165.68242,P-GPS,,50.5
1005,383200,2026-01-09 12:43:28,0.0,5,7.489,0.0,0.0,0.0,55.7,0.9,-9.7,1024,1024,1024,1024,0,0,0,0,74,5.54,75.2,165.68242,P-GPS,,50.5
1006,383300,2026-01-09 12:43:28,0.0,5,7.489,0.0,0.0,0.0,55.7,0.2,-9.7,1024,1024,1024,1024,0,0,0,0,74,5.54,75.2,165.68242,P-GPS,,50.5
1007,383400,2026-01-09 12:43:28,0.0,5,7.489,0.0,0.0,0.0,55.7,0.1,-9.8,1024,1024,1024,1024,0,0,0,0,74,5.54,75.2,165.68242,P-GPS,,50.5
1008,383500,2026-01-09 12:43:28,0.0,5,7.489,0.0,0.0,0.0,55.7,0.1,-9.5,1024,1024,1024,1024,0,0,0,0,74,5.54,75.2,165.354336,P-GPS,,50.4
1009,383600,2026-01-09 12:43:28,0.0,5,7.489,0.0,0.0,0.0,55.7,0.0,-9.3,1024,1024,1024,1024,0,0,0,0,74,5.54,75.2,165.354336,P-GPS,,50.4
1010,383700,2026-01-09 12:43:28,0.0,5,7.482,0.0,0.0,0.0,55.6,0.4,-8.9,1024,1024,1024,1024,0,0,0,0,74,5.676,75.2,165.354336,P-GPS,,50.4
1011,383800,2026-01-09 12:43:28,0.0,5,7.482,0.0,0.0,0.0,55.7,0.5,-8.7,1024,1024,1024,1024,0,0,0,0,74,5.676,75.2,165.354336,P-GPS,,50.4
1012,383900,2026-01-09 12:43:28,0.0,5,7.482,0.0,0.0,0.0,55.7,0.5,-8.8,1024,1024,1024,1024,0,0,0,0,74,5.676,75.2,165.354336,P-GPS,,50.4
1013,384000,2026-01-09 12:43:28,0.0,5,7.482,0.0,0.0,0.0,55.7,0.7,-9.2,1024,1024,1024,1024,0,0,0,0,74,5.676,75.2,165.354336,P-GPS,,50.4
1014,384100,2026-01-09 12:43:28,0.0,5,7.482,0.0,0.0,0.0,55.7,0.6,-9.2,1024,1024,1024,1024,0,0,0,0,74,5.676,75.2,165.354336,P-GPS,,50.4
1015,384200,2026-01-09 12:43:28,0.0,5,7.482,0.0,0.0,0.0,55.8,0.3,-9.2,1024,1024,1024,1024,0,0,0,0,74,5.676,75.2,165.354336,P-GPS,,50.4
1016,384300,2026-01-09 12:43:28,0.0,5,7.482,0.0,0.0,0.0,55.6,0.4,-10.4,1024,1024,1024,1024,0,0,0,0,74,5.676,75.2,165.68242,P-GPS,,50.5
1017,384400,2026-01-09 12:43:29,0.0,5,7.482,0.0,0.0,0.0,55.4,0.6,-11.2,1024,1024,1024,1024,0,0,0,0,74,5.676,75.2,165.68242,P-GPS,,50.5
1018,384500,2026-01-09 12:43:29,0.0,5,7.482,0.0,0.0,0.0,55.7,-0.4,-10.5,1024,1024,1024,1024,0,0,0,0,74,5.676,75.2,165.68242,P-GPS,,50.5
1019,384600,2026-01-09 12:43:29,0.0,5,7.482,0.0,0.0,0.0,55.7,-1.1,-9.8,1024,1024,1024,1024,0,0,0,0,74,5.676,75.2,165.68242,P-GPS,,50.5
1020,384700,2026-01-09 12:43:29,0.0,5,7.482,0.0,0.0,0.0,55.8,-1.1,-9.3,1024,1024,1024,1024,0,0,0,0,74,5.676,75.2,165.68242,P-GPS,,50.5
1021,384800,2026-01-09 12:43:29,0.0,5,7.475,0.0,0.0,-0.223694,55.8,-0.7,-9.5,1024,1024,1024,1024,0,0,0,0,74,5.755,75.2,165.68242,P-GPS,,50.5
1022,384900,2026-01-09 12:43:29,0.0,5,7.475,0.0,0.0,0.0,55.7,-0.2,-9.6,1024,1024,1024,1024,0,0,0,0,74,5.755,75.2,165.68242,P-GPS,,50.5
1023,385000,2026-01-09 12:43:29,0.0,5,7.475,0.0,0.0,0.0,55.8,0.0,-9.5,1024,1024,1024,1024,0,0,0,0,74,5.755,75.2,165.68242,P-GPS,,50.5
1024,385100,2026-01-09 12:43:29,0.0,5,7.475,0.0,0.0,0.0,55.9,0.0,-9.7,1024,1024,1024,1024,0,0,0,0,74,5.755,75.2,165.68242,P-GPS,,50.5
1025,385200,2026-01-09 12:43:29,0.0,5,7.475,0.0,0.0,0.0,55.8,0.5,-10.0,1024,1024,1024,1024,0,0,0,0,74,5.755,75.2,166.010504,P-GPS,,50.6
1026,385300,2026-01-09 12:43:29,0.0,5,7.475,0.0,0.0,0.0,55.9,0.4,-10.2,1024,1024,1024,1024,0,0,0,0,74,5.755,75.2,166.010504,P-GPS,,50.6
1027,385400,2026-01-09 12:43:29,0.0,5,7.475,0.0,0.0,0.0,55.8,0.3,-10.4,1024,1024,1024,1024,0,0,0,0,74,5.755,75.2,166.010504,P-GPS,,50.6
1028,385500,2026-01-09 12:43:30,0.0,5,7.475,0.0,0.0,0.0,55.7,0.6,-10.1,1024,1024,1024,1024,0,0,0,0,74,5.755,75.2,166.010504,P-GPS,,50.6
1029,385600,2026-01-09 12:43:30,0.0,5,7.475,0.0,0.0,0.0,55.9,0.0,-10.1,1024,1024,1024,1024,0,0,0,0,74,5.755,75.2,166.010504,P-GPS,,50.6
1030,385700,2026-01-09 12:43:30,0.0,5,7.475,0.0,0.0,0.0,55.9,-0.4,-10.3,1024,1024,1024,1024,0,0,0,0,74,5.755,75.2,166.010504,P-GPS,,50.6
1031,385800,2026-01-09 12:43:30,0.0,5,7.475,0.0,0.0,0.0,55.8,-0.8,-10.3,1024,1024,1024,1024,0,0,0,0,74,5.755,75.2,166.010504,P-GPS,,50.6
1032,385900,2026-01-09 12:43:30,0.0,5,7.502,0.0,0.0,0.0,55.7,-1.0,-9.9,1024,1024,1024,1024,0,0,0,0,74,5.347,75.2,166.010504,P-GPS,,50.6
1033,386000,2026-01-09 12:43:30,0.0,5,7.502,0.0,0.0,0.0,55.8,-0.8,-9.6,1024,1024,1024,1024,0,0,0,0,74,5.347,75.2,166.010504,P-GPS,,50.6
1034,386100,2026-01-09 12:43:30,0.0,5,7.502,0.0,0.0,0.0,55.9,-1.3,-9.4,1024,1024,1024,1024,0,0,0,0,74,5.347,75.2,166.010504,P-GPS,,50.6
1035,386200,2026-01-09 12:43:30,0.0,5,7.502,0.0,0.0,0.0,55.9,-1.4,-9.1,1024,1024,1024,1024,0,0,0,0,74,5.347,75.2,166.010504,P-GPS,,50.6
1036,386300,2026-01-09 12:43:30,0.0,5,7.502,0.0,0.0,0.0,55.9,-1.2,-8.9,1024,1024,1024,1024,0,0,0,0,74,5.347,75.2,166.010504,P-GPS,,50.6
1037,386400,2026-01-09 12:43:30,0.0,5,7.502,0.0,0.0,0.0,55.9,-1.0,-9.3,1024,1024,1024,1024,0,0,0,0,74,5.347,75.2,166.010504,P-GPS,,50.6
1038,386500,2026-01-09 12:43:31,0.0,5,7.502,0.0,0.0,0.0,55.9,-0.8,-9.4,1024,1024,1024,1024,0,0,0,0,74,5.347,75.2,166.010504,P-GPS,,50.6
1039,386600,2026-01-09 12:43:31,0.0,5,7.502,0.0,0.0,0.0,55.9,-0.8,-9.8,1024,1024,1024,1024,0,0,0,0,74,5.347,75.2,166.010504,P-GPS,,50.6
1040,386700,2026-01-09 12:43:31,0.0,5,7.502,0.0,0.0,0.0,55.8,-0.6,-10.2,1024,1024,1024,1024,0,0,0,0,74,5.347,75.2,166.010504,P-GPS,,50.6
1041,386800,2026-01-09 12:43:31,0.0,5,7.502,0.0,0.0,0.0,55.7,-0.4,-10.2,1024,1024,1024,1024,0,0,0,0,74,5.347,75.2,166.010504,P-GPS,,50.6
1042,386900,2026-01-09 12:43:31,0.0,5,7.502,0.0,0.0,0.0,55.6,0.2,-10.2,1024,1024,1024,1024,0,0,0,0,74,5.347,75.2,166.010504,P-GPS,,50.6
1043,387000,2026-01-09 12:43:31,0.0,5,7.494,0.0,0.0,0.0,55.6,0.8,-9.8,1024,1024,1024,1024,0,0,0,0,74,5.59,75.2,166.010504,P-GPS,,50.6
1044,387100,2026-01-09 12:43:31,0.0,5,7.494,0.0,0.0,0.0,55.7,0.6,-9.7,1024,1024,1024,1024,0,0,0,0,74,5.59,75.2,166.010504,P-GPS,,50.6
1045,387200,2026-01-09 12:43:31,0.0,5,7.494,0.0,0.0,0.0,55.8,0.6,-9.7,1024,1024,1024,1024,0,0,0,0,74,5.59,75.2,166.010504,P-GPS,,50.6
1046,387300,2026-01-09 12:43:31,0.0,5,7.494,0.0,0.0,0.0,55.7,1.2,-10.0,1024,1024,1024,1024,0,0,0,0,74,5.59,75.2,166.010504,P-GPS,,50.6
1047,387400,2026-01-09 12:43:31,0.0,5,7.494,0.0,0.0,0.0,55.6,1.5,-10.0,1024,1024,1024,1024,0,0,0,0,74,5.59,75.2,166.010504,P-GPS,,50.6
1048,387500,2026-01-09 12:43:32,0.0,5,7.494,0.0,0.0,0.0,55.6,1.9,-9.9,1024,1024,1024,1024,0,0,0,0,74,5.59,75.2,166.010504,P-GPS,,50.6
1049,387600,2026-01-09 12:43:32,0.0,5,7.494,0.0,0.0,0.0,55.6,2.1,-9.7,1024,1024,1024,1024,0,0,0,0,74,5.59,75.2,166.010504,P-GPS,,50.6
1050,387700,2026-01-09 12:43:32,0.0,5,7.494,0.0,0.0,0.0,55.5,2.4,-10.3,1024,1024,1024,1024,0,0,0,0,74,5.59,75.2,166.010504,P-GPS,,50.6
1051,387800,2026-01-09 12:43:32,0.0,5,7.494,0.0,0.0,0.0,55.5,2.3,-10.4,1024,1024,1024,1024,0,0,0,0,74,5.59,75.2,166.010504,P-GPS,,50.6
1052,387900,2026-01-09 12:43:32,0.0,5,7.494,0.0,0.0,0.0,55.6,1.8,-10.2,1024,1024,1024,1024,0,0,0,0,74,5.59,75.2,166.010504,P-GPS,,50.6
1053,388000,2026-01-09 12:43:32,0.0,5,7.494,0.0,0.0,0.0,55.6,1.7,-10.1,1024,1024,1024,1024,0,0,0,0,74,5.59,75.2,166.010504,P-GPS,,50.6
1054,388100,2026-01-09 12:43:32,0.0,5,7.487,0.0,0.0,0.0,55.5,1.8,-10.2,1024,1024,1024,1024,0,0,0,0,74,5.367,75.38,166.010504,P-GPS,,50.6
1055,388200,2026-01-09 12:43:32,0.0,5,7.487,0.0,0.0,0.0,55.5,1.8,-10.2,1024,1024,1024,1024,0,0,0,0,74,5.367,75.38,166.010504,P-GPS,,50.6
1056,388300,2026-01-09 12:43:32,0.0,5,7.487,0.0,0.0,0.0,55.5,1.8,-10.3,1024,1024,1024,1024,0,0,0,0,74,5.367,75.38,166.010504,P-GPS,,50.6
1057,388400,2026-01-09 12:43:32,0.0,5,7.487,0.0,0.0,0.0,55.5,1.3,-10.0,1024,1024,1024,1024,0,0,0,0,74,5.367,75.38,166.010504,P-GPS,,50.6
1058,388500,2026-01-09 12:43:33,0.0,5,7.487,0.0,0.0,0.0,55.7,0.7,-9.8,1024,1024,1024,1024,0,0,0,0,74,5.367,75.38,166.010504,P-GPS,,50.6
1059,388600,2026-01-09 12:43:33,0.0,5,7.487,0.0,0.0,0.0,55.6,1.2,-9.8,1024,1024,1024,1024,0,0,0,0,74,5.367,75.38,166.010504,P-GPS,,50.6
1060,388700,2026-01-09 12:43:33,0.0,5,7.487,0.0,0.0,0.0,55.6,1.4,-9.7,1024,1024,1024,1024,0,0,0,0,74,5.367,75.38,166.010504,P-GPS,,50.6
1061,388800,2026-01-09 12:43:33,0.0,5,7.487,0.0,0.0,0.0,55.5,1.8,-10.0,1024,1024,1024,1024,0,0,0,0,74,5.367,75.38,166.010504,P-GPS,,50.6
1062,388900,2026-01-09 12:43:33,0.0,5,7.487,0.0,0.0,0.0,55.6,1.8,-9.8,1024,1024,1024,1024,0,0,0,0,74,5.367,75.38,166.010504,P-GPS,,50.6
1063,389000,2026-01-09 12:43:33,0.0,5,7.487,0.0,0.0,0.0,55.6,1.8,-9.9,1024,1024,1024,1024,0,0,0,0,74,5.367,75.38,166.010504,P-GPS,,50.6
