index,time(millisecond),timestamp,speed(mph),gpslevel,voltage(v),xSpeed(mph),ySpeed(mph),zSpeed(mph),compass_heading(degrees),pitch(degrees),roll(degrees),rc_elevator,rc_aileron,rc_throttle,rc_rudder,rc_elevator(percent),rc_aileron(percent),rc_throttle(percent),rc_rudder(percent),battery_percent,current(A),battery_temperature(f),ascent(feet),flycState,message,height_above_takeoff(meters)
860,550800,2026-01-07 15:43:04,0.0,5,7.035,0.0,0.0,0.0,7.7,7.3,3.0,1024,1024,1024,1024,0,0,0,0,42,5.747,76.28,166.994756,P-GPS,,50.9
861,550900,2026-01-07 15:43:04,0.0,5,7.035,0.0,0.0,0.0,7.7,6.8,3.1,1024,1024,1024,1024,0,0,0,0,42,5.747,76.28,166.994756,P-GPS,,50.9
862,551000,2026-01-07 15:43:05,0.0,5,7.035,0.0,0.0,0.0,7.7,6.4,3.3,1024,1024,1024,1024,0,0,0,0,42,5.747,76.28,166.994756,P-GPS,,50.9
863,551100,2026-01-07 15:43:05,0.0,5,7.039,0.0,0.0,0.0,7.7,6.4,3.4,1024,1024,1024,1024,0,0,0,0,42,4.479,76.28,166.994756,P-GPS,,50.9
864,551200,2026-01-07 15:43:05,0.0,5,7.039,0.0,0.0,0.0,7.7,6.7,3.4,1024,1024,1024,1024,0,0,0,0,42,4.479,76.28,166.994756,P-GPS,,50.9
865,551300,2026-01-07 15:43:05,0.0,5,7.039,0.0,0.0,0.0,7.8,6.9,3.3,1024,1024,1024,1024,0,0,0,0,42,4.479,76.28,166.994756,P-GPS,,50.9
866,551400,2026-01-07 15:43:05,0.0,5,7.039,0.0,0.0,0.0,7.8,7.1,3.5,1024,1024,1024,1024,0,0,0,0,42,4.479,76.28,167.32284,P-GPS,,51.0
867,551500,2026-01-07 15:43:05,0.0,5,7.039,0.0,0.0,0.0,7.8,7.1,3.5,1024,1024,1024,1024,0,0,0,0,42,4.479,76.28,167.32284,P-GPS,,51.0
868,551600,2026-01-07 15:43:05,0.0,5,7.039,0.0,0.0,0.0,7.8,7.4,3.4,1024,1024,1024,1024,0,0,0,0,42,4.479,76.28,167.32284,P-GPS,,51.0
869,551700,2026-01-07 15:43:05,0.0,5,7.039,0.0,0.0,0.0,7.8,7.4,3.3,1024,1024,1024,1024,0,0,0,0,42,4.479,76.28,167.32284,P-GPS,,51.0
870,551800,2026-01-07 15:43:05,0.0,5,7.039,0.0,0.0,0.0,7.8,7.2,3.3,1024,1024,1024,1024,0,0,0,0,42,4.479,76.28,167.32284,P-GPS,,51.0
871,551900,2026-01-07 15:43:05,0.0,5,7.039,0.0,0.0,0.0,7.8,7.0,3.6,1024,1024,1024,1024,0,0,0,0,42,4.479,76.28,167.32284,P-GPS,,51.0
872,552000,2026-01-07 15:43:05,0.0,5,7.039,0.0,0.0,0.0,7.8,7.1,3.6,1024,1024,1024,1024,0,0,0,0,42,4.479,76.28,167.32284,P-GPS,,51.0
873,552100,2026-01-07 15:43:06,0.0,5,7.039,0.0,0.0,0.0,7.8,6.9,3.5,1024,1024,1024,1024,0,0,0,0,42,4.479,76.28,167.32284,P-GPS,,51.0
874,552200,2026-01-07 15:43:06,0.0,5,7.046,0.0,0.0,0.0,7.8,7.0,3.4,1024,1024,1024,1024,0,0,0,0,42,4.818,76.46,167.32284,P-GPS,,51.0
875,552300,2026-01-07 15:43:06,0.0,5,7.046,0.0,0.0,0.0,7.8,7.0,3.2,1024,1024,1024,1024,0,0,0,0,42,4.818,76.46,166.994756,P-GPS,,50.9
876,552400,2026-01-07 15:43:06,0.0,5,7.046,0.0,0.0,0.0,7.7,6.8,3.1,1024,1024,1024,1024,0,0,0,0,42,4.818,76.46,166.994756,P-GPS,,50.9
877,552500,2026-01-07 15:43:06,0.0,5,7.046,0.0,0.0,0.0,7.8,6.4,3.0,1024,1024,1024,1024,0,0,0,0,42,4.818,76.46,166.994756,P-GPS,,50.9
878,552600,2026-01-07 15:43:06,0.0,5,7.046,0.0,0.0,0.0,7.8,6.6,3.0,1024,1024,1024,1024,0,0,0,0,42,4.818,76.46,166.994756,P-GPS,,50.9
879,552700,2026-01-07 15:43:06,0.0,5,7.046,0.0,0.0,0.0,7.8,6.6,3.1,1024,1024,1024,1024,0,0,0,0,42,4.818,76.46,166.994756,P-GPS,,50.9
880,552800,2026-01-07 15:43:06,0.0,5,7.046,0.0,0.0,0.0,7.8,6.6,3.0,1024,1024,1024,1024,0,0,0,0,42,4.818,76.46,166.994756,P-GPS,,50.9
881,552900,2026-01-07 15:43:06,0.0,5,7.046,0.0,0.0,0.0,7.8,6.9,3.2,1024,1024,1024,1024,0,0,0,0,42,4.818,76.46,166.994756,P-GPS,,50.9
882,553000,2026-01-07 15:43:07,0.0,5,7.046,0.0,0.0,0.0,7.8,6.6,2.9,1024,1024,1024,1024,0,0,0,0,42,4.818,76.46,166.994756,P-GPS,,50.9
883,553100,2026-01-07 15:43:07,0.0,5,7.046,0.0,0.0,0.0,7.8,6.1,2.7,1024,1024,1024,1024,0,0,0,0,42,4.818,76.46,166.994756,P-GPS,,50.9
884,553200,2026-01-07 15:43:07,0.0,5,7.046,0.0,0.0,0.0,7.8,6.0,2.9,1024,1024,1024,1024,0,0,0,0,42,4.818,76.46,166.994756,P-GPS,,50.9
885,553300,2026-01-07 15:43:07,0.0,5,7.043,0.0,0.0,0.0,7.8,6.0,3.2,1024,1024,1024,1024,0,0,0,0,42,4.903,76.46,166.994756,P-GPS,,50.9
886,553400,2026-01-07 15:43:07,0.0,5,7.043,0.0,0.0,0.0,7.8,6.0,3.2,1024,1024,1024,1024,0,0,0,0,42,4.903,76.46,166.666672,P-GPS,,50.8
887,553500,2026-01-07 15:43:07,0.0,5,7.043,0.0,0.0,0.0,7.8,5.9,3.2,1024,1024,1024,1024,0,0,0,0,42,4.903,76.46,166.666672,P-GPS,,50.8
888,553600,2026-01-07 15:43:07,0.0,5,7.043,0.0,0.0,0.0,7.8,5.9,3.1,1024,1024,1024,1024,0,0,0,0,42,4.903,76.46,166.666672,P-GPS,,50.8
889,553700,2026-01-07 15:43:07,0.0,5,7.043,0.0,0.0,0.0,7.8,5.8,3.2,1024,1024,1024,1024,0,0,0,0,42,4.903,76.46,166.666672,P-GPS,,50.8
890,553800,2026-01-07 15:43:07,0.0,5,7.043,0.0,0.0,0.0,7.8,5.9,3.1,1024,1024,1024,1024,0,0,0,0,42,4.903,76.46,166.666672,P-GPS,,50.8
891,553900,2026-01-07 15:43:07,0.0,5,7.043,0.0,0.0,0.0,7.8,6.1,3.1,1024,1024,1024,1024,0,0,0,0,42,4.903,76.46,166.338588,P-GPS,,50.7
892,554000,2026-01-07 15:43:07,0.0,5,7.043,0.0,0.0,0.0,7.8,6.3,3.0,1024,1024,1024,1024,0,0,0,0,42,4.903,76.46,166.338588,P-GPS,,50.7
893,554100,2026-01-07 15:43:08,0.0,5,7.043,0.0,0.0,0.0,7.9,6.4,3.1,1024,1024,1024,1024,0,0,0,0,42,4.903,76.46,166.338588,P-GPS,,50.7
894,554200,2026-01-07 15:43:08,0.0,5,7.043,0.0,0.0,0.0,7.9,6.5,3.2,1024,1024,1024,1024,0,0,0,0,42,4.903,76.46,166.338588,P-GPS,,50.7
895,554300,2026-01-07 15:43:08,0.0,5,7.043,0.0,0.0,0.0,7.8,6.5,3.1,1024,1024,1024,1024,0,0,0,0,42,4.903,76.46,166.338588,P-GPS,,50.7
896,554400,2026-01-07 15:43:08,0.0,5,7.043,0.0,0.0,0.0,7.8,6.1,2.8,1024,1024,1024,1024,0,0,0,0,42,4.903,76.46,166.338588,P-GPS,,50.7
897,554500,2026-01-07 15:43:08,0.0,5,7.043,0.0,0.0,0.0,7.8,6.3,2.6,1024,1024,1024,1024,0,0,0,0,42,4.903,76.46,166.338588,P-GPS,,50.7
898,554600,2026-01-07 15:43:08,0.0,5,7.043,0.0,0.0,0.0,7.8,6.4,2.7,1024,1024,1024,1024,0,0,0,0,42,4.903,76.46,166.338588,P-GPS,,50.7
899,554700,2026-01-07 15:43:08,0.0,5,7.043,0.0,0.0,0.0,7.8,6.3,2.9,1024,1024,1024,1024,0,0,0,0,42,4.903,76.46,166.338588,P-GPS,,50.7
900,554800,2026-01-07 15:43:08,0.0,5,7.043,0.0,0.0,0.0,7.8,6.5,2.7,1024,1024,1024,1024,0,0,0,0,42,4.903,76.46,166.338588,P-GPS,,50.7
901,554900,2026-01-07 15:43:08,0.0,5,7.043,0.0,0.0,0.0,7.9,6.4,3.0,1024,1024,1024,1024,0,0,0,0,42,4.903,76.46,166.338588,P-GPS,,50.7
902,555000,2026-01-07 15:43:09,0.0,5,7.043,0.0,0.0,0.0,7.9,6.4,3.0,1024,1024,1024,1024,0,0,0,0,42,4.903,76.46,166.338588,P-GPS,,50.7
903,555100,2026-01-07 15:43:09,0.0,5,7.043,0.0,0.0,0.0,7.8,6.4,2.9,1024,1024,1024,1024,0,0,0,0,42,4.903,76.46,166.338588,P-GPS,,50.7
904,555200,2026-01-07 15:43:09,0.0,5,7.043,0.0,0.0,0.0,7.8,6.3,2.9,1024,1024,1024,1024,0,0,0,0,42,4.903,76.46,166.338588,P-GPS,,50.7
905,555300,2026-01-07 15:43:09,0.0,5,7.043,0.0,0.0,0.0,7.8,6.2,3.1,1024,1024,1024,1024,0,0,0,0,42,4.903,76.46,166.338588,P-GPS,,50.7
906,555400,2026-01-07 15:43:09,0.0,5,7.042,0.0,0.0,0.0,7.8,6.0,3.2,1024,1024,1024,1024,0,0,0,0,42,4.825,76.46,166.338588,P-GPS,,50.7
907,555500,2026-01-07 15:43:09,0.0,5,7.042,0.0,0.0,0.0,7.9,6.3,3.3,1024,1024,1024,1024,0,0,0,0,42,4.825,76.46,166.338588,P-GPS,,50.7
908,555600,2026-01-07 15:43:09,0.0,5,7.042,0.0,0.0,0.0,7.9,6.4,3.5,1024,1024,1024,1024,0,0,0,0,42,4.825,76.46,166.338588,P-GPS,,50.7
909,555700,2026-01-07 15:43:09,0.0,5,7.042,0.0,0.0,0.0,7.8,6.4,3.4,1024,1024,1024,1024,0,0,0,0,42,4.825,76.46,166.338588,P-GPS,,50.7
910,555800,2026-01-07 15:43:09,0.0,5,7.042,0.0,0.0,0.0,7.9,6.6,3.6,1024,1024,1024,1024,0,0,0,0,42,4.825,76.46,166.338588,P-GPS,,50.7
911,555900,2026-01-07 15:43:09,0.0,5,7.042,0.0,0.0,0.0,7.9,6.8,3.7,1024,1024,1024,1024,0,0,0,0,42,4.825,76.46,166.338588,P-GPS,,50.7
912,556000,2026-01-07 15:43:09,0.0,5,7.042,0.0,0.0,0.0,7.9,7.1,3.8,1024,1024,1024,1024,0,0,0,0,42,4.825,76.46,166.338588,P-GPS,,50.7
913,556100,2026-01-07 15:43:10,0.0,5,7.042,0.0,0.0,0.0,7.9,6.8,3.9,1024,1024,1024,1024,0,0,0,0,42,4.825,76.46,166.338588,P-GPS,,50.7
914,556200,2026-01-07 15:43:10,0.0,5,7.042,0.0,0.0,0.0,7.9,6.7,3.8,1024,1024,1024,1024,0,0,0,0,42,4.825,76.46,166.338588,P-GPS,,50.7
915,556300,2026-01-07 15:43:10,0.0,5,7.042,0.0,0.0,0.0,7.9,6.9,3.7,1024,1024,1024,1024,0,0,0,0,42,4.825,76.46,166.338588,P-GPS,,50.7
916,556400,2026-01-07 15:43:10,0.0,5,7.042,0.0,0.0,0.0,7.9,7.0,3.6,1024,1024,1024,1024,0,0,0,0,42,4.825,76.46,166.338588,P-GPS,,50.7
917,556500,2026-01-07 15:43:10,0.0,5,7.042,0.0,0.0,0.0,7.8,6.5,3.3,1024,1024,1024,1024,0,0,0,0,42,4.825,76.46,166.338588,P-GPS,,50.7
918,556600,2026-01-07 15:43:10,0.0,5,7.055,0.0,0.0,0.0,7.8,6.4,3.4,1024,1024,1024,1024,0,0,0,0,42,4.684,76.46,166.338588,P-GPS,,50.7
919,556700,2026-01-07 15:43:10,0.0,5,7.055,0.0,0.0,0.0,7.8,6.3,3.5,1024,1024,1024,1024,0,0,0,0,42,4.684,76.46,166.338588,P-GPS,,50.7
920,556800,2026-01-07 15:43:10,0.0,5,7.055,0.0,0.0,0.0,7.7,6.4,3.4,1024,1024,1024,1024,0,0,0,0,42,4.684,76.46,166.338588,P-GPS,,50.7
921,556900,2026-01-07 15:43:10,0.0,5,7.055,0.0,0.0,0.0,7.8,6.7,3.8,1024,1024,1024,1024,0,0,0,0,42,4.684,76.46,166.338588,P-GPS,,50.7
922,557000,2026-01-07 15:43:10,0.0,5,7.055,0.0,0.0,0.0,8.0,7.3,4.1,1024,1024,1024,1024,0,0,0,0,42,4.684,76.46,166.338588,P-GPS,,50.7
923,557100,2026-01-07 15:43:11,0.0,5,7.055,0.0,0.0,0.0,8.0,7.3,4.1,1024,1024,1024,1024,0,0,0,0,42,4.684,76.46,166.338588,P-GPS,,50.7
924,557200,2026-01-07 15:43:11,0.0,5,7.055,0.0,0.0,0.0,8.0,7.1,4.0,1024,1024,1024,1024,0,0,0,0,42,4.684,76.46,166.338588,P-GPS,,50.7
925,557300,2026-01-07 15:43:11,0.0,5,7.055,0.0,0.0,0.0,8.0,6.9,4.3,1024,1024,1024,1024,0,0,0,0,42,4.684,76.46,166.338588,P-GPS,,50.7
926,557400,2026-01-07 15:43:11,0.0,5,7.055,0.0,0.0,0.0,7.9,7.0,4.3,1024,1024,1024,1024,0,0,0,0,42,4.684,76.46,166.338588,P-GPS,,50.7
927,557500,2026-01-07 15:43:11,0.0,5,7.055,0.0,0.0,0.0,7.9,6.8,4.0,1024,1024,1024,1024,0,0,0,0,42,4.684,76.46,166.666672,P-GPS,,50.8
928,557600,2026-01-07 15:43:11,0.0,5,7.055,0.0,0.0,0.0,8.0,6.7,3.8,1024,1024,1024,1024,0,0,0,0,42,4.684,76.46,166.666672,P-GPS,,50.8
929,557700,2026-01-07 15:43:11,0.0,5,7.049,0.0,0.0,0.0,8.0,6.8,4.0,1024,1024,1024,1024,0,0,0,0,41,4.702,76.46,166.666672,P-GPS,,50.8
930,557800,2026-01-07 15:43:11,0.0,5,7.049,0.0,0.0,0.0,7.9,6.5,3.8,1024,1024,1024,1024,0,0,0,0,41,4.702,76.46,166.666672,P-GPS,,50.8
931,557900,2026-01-07 15:43:11,0.0,5,7.049,0.0,0.0,0.0,7.9,6.2,3.8,1024,1024,1024,1024,0,0,0,0,41,4.702,76.46,166.666672,P-GPS,,50.8
932,558000,2026-01-07 15:43:11,0.0,5,7.049,0.0,0.0,0.0,7.9,6.1,3.8,1024,1024,1024,1024,0,0,0,0,41,4.702,76.46,166.666672,P-GPS,,50.8
933,558100,2026-01-07 15:43:12,0.0,5,7.049,0.0,0.0,0.0,7.9,5.9,3.9,1024,1024,1024,1024,0,0,0,0,41,4.702,76.46,166.666672,P-GPS,,50.8
934,558200,2026-01-07 15:43:12,0.0,5,7.049,0.0,0.0,0.0,7.9,6.3,3.8,1024,1024,1024,1024,0,0,0,0,41,4.702,76.46,166.666672,P-GPS,,50.8
935,558300,2026-01-07 15:43:12,0.0,5,7.049,0.0,0.0,0.0,7.9,6.5,3.6,1024,1024,1024,1024,0,0,0,0,41,4.702,76.46,166.666672,P-GPS,,50.8
936,558400,2026-01-07 15:43:12,0.0,5,7.049,0.0,0.0,0.0,7.9,6.6,3.5,1024,1024,1024,1024,0,0,0,0,41,4.702,76.46,166.666672,P-GPS,,50.8
937,558500,2026-01-07 15:43:12,0.0,5,7.049,0.0,0.0,0.0,7.9,6.3,3.6,1024,1024,1024,1024,0,0,0,0,41,4.702,76.46,166.338588,P-GPS,,50.7
938,558600,2026-01-07 15:43:12,0.0,5,7.049,0.0,0.0,0.0,7.9,6.3,3.7,1024,1024,1024,1024,0,0,0,0,41,4.702,76.46,166.338588,P-GPS,,50.7
939,558700,2026-01-07 15:43:12,0.0,5,7.049,0.0,0.0,0.0,7.9,6.2,3.5,1024,1024,1024,1024,0,0,0,0,41,4.702,76.46,166.338588,P-GPS,,50.7
940,558800,2026-01-07 15:43:12,0.0,5,7.048,0.0,0.0,0.0,7.9,6.4,3.6,1024,1024,1024,1024,0,0,0,0,41,4.731,76.46,166.338588,P-GPS,,50.7
941,558900,2026-01-07 15:43:12,0.0,5,7.048,0.0,0.0,0.0,7.9,6.6,3.7,1024,1024,1024,1024,0,0,0,0,41,4.731,76.46,166.338588,P-GPS,,50.7
942,559000,2026-01-07 15:43:13,0.0,5,7.048,0.0,0.0,0.0,7.9,6.6,3.7,1024,1024,1024,1024,0,0,0,0,41,4.731,76.46,166.338588,P-GPS,,50.7
943,559100,2026-01-07 15:43:13,0.0,5,7.048,0.0,0.0,0.0,7.9,6.8,3.6,1024,1024,1024,1024,0,0,0,0,41,4.731,76.46,166.338588,P-GPS,,50.7
944,559200,2026-01-07 15:43:13,0.0,5,7.048,0.0,0.0,0.0,7.9,7.1,3.1,1024,1024,1024,1024,0,0,0,0,41,4.731,76.46,166.338588,P-GPS,,50.7
945,559300,2026-01-07 15:43:13,0.0,5,7.048,0.0,0.0,0.0,7.9,6.6,2.9,1024,1024,1024,1024,0,0,0,0,41,4.731,76.46,166.338588,P-GPS,,50.7
946,559400,2026-01-07 15:43:13,0.0,5,7.048,0.0,0.0,0.0,7.8,6.5,3.2,1024,1024,1024,1024,0,0,0,0,41,4.731,76.46,166.338588,P-GPS,,50.7
947,559500,2026-01-07 15:43:13,0.0,5,7.048,0.0,0.0,0.0,7.9,6.4,3.5,1024,1024,1024,1024,0,0,0,0,41,4.731,76.46,166.338588,P-GPS,,50.7
948,559600,2026-01-07 15:43:13,0.0,5,7.048,0.0,0.0,0.0,7.8,6.3,3.5,1024,1024,1024,1024,0,0,0,0,41,4.731,76.46,166.010504,P-GPS,,50.6
949,559700,2026-01-07 15:43:13,0.0,5,7.048,0.0,0.0,0.0,7.9,6.1,3.4,1024,1024,1024,1024,0,0,0,0,41,4.731,76.46,166.338588,P-GPS,,50.7
950,559800,2026-01-07 15:43:13,0.0,5,7.048,0.0,0.0,0.0,7.9,6.0,3.2,1024,1024,1024,1024,0,0,0,0,41,4.731,76.46,166.338588,P-GPS,,50.7
951,559900,2026-01-07 15:43:13,0.0,5,7.035,0.0,0.0,0.0,7.8,5.9,3.1,1024,1024,1024,1024,0,0,0,0,41,4.994,76.46,166.338588,P-GPS,,50.7
952,560000,2026-01-07 15:43:14,0.0,5,7.035,0.0,0.0,0.0,7.9,5.8,3.4,1024,1024,1024,1024,0,0,0,0,41,4.994,76.46,166.338588,P-GPS,,50.7
953,560100,2026-01-07 15:43:14,0.0,5,7.035,0.0,0.0,0.0,7.9,6.1,3.6,1024,1024,1024,1024,0,0,0,0,41,4.994,76.46,166.338588,P-GPS,,50.7
954,560200,2026-01-07 15:43:14,0.0,5,7.035,0.0,0.0,0.0,7.9,6.5,4.0,1024,1024,1024,1024,0,0,0,0,41,4.994,76.46,166.338588,P-GPS,,50.7
955,560300,2026-01-07 15:43:14,0.0,5,7.035,0.0,0.0,0.0,7.9,7.0,3.8,1024,1024,1024,1024,0,0,0,0,41,4.994,76.46,166.338588,P-GPS,,50.7
956,560400,2026-01-07 15:43:14,0.0,5,7.035,0.0,0.0,0.0,7.9,7.2,3.7,1024,1024,1024,1024,0,0,0,0,41,4.994,76.46,166.338588,P-GPS,,50.7
957,560500,2026-01-07 15:43:14,0.0,5,7.035,0.0,0.0,0.0,7.9,7.0,3.4,1024,1024,1024,1024,0,0,0,0,41,4.994,76.46,166.338588,P-GPS,,50.7
958,560600,2026-01-07 15:43:14,0.0,5,7.035,0.0,0.0,0.0,7.8,6.9,3.3,1024,1024,1024,1024,0,0,0,0,41,4.994,76.46,166.010504,P-GPS,,50.6
959,560700,2026-01-07 15:43:14,0.0,5,7.035,0.0,0.0,0.0,7.9,6.6,3.4,1024,1024,1024,1024,0,0,0,0,41,4.994,76.46,166.010504,P-GPS,,50.6
960,560800,2026-01-07 15:43:14,0.0,5,7.035,0.0,0.0,0.0,7.9,6.7,3.5,1024,1024,1024,1024,0,0,0,0,41,4.994,76.46,166.010504,P-GPS,,50.6
961,560900,2026-01-07 15:43:14,0.0,5,7.035,0.0,0.0,0.0,7.9,6.4,3.4,1024,1024,1024,1024,0,0,0,0,41,4.994,76.46,166.010504,P-GPS,,50.6
962,561000,2026-01-07 15:43:14,0.0,5,7.036,0.0,0.0,0.0,8.0,6.6,3.2,1024,1024,1024,1024,0,0,0,0,41,4.982,76.46,166.010504,P-GPS,,50.6
963,561100,2026-01-07 15:43:15,0.0,5,7.036,0.0,0.0,0.0,7.9,6.6,3.2,1024,1024,1024,1024,0,0,0,0,41,4.982,76.46,166.010504,P-GPS,,50.6
964,561200,2026-01-07 15:43:15,0.0,5,7.036,0.0,0.0,0.0,7.9,6.4,3.1,1024,1024,1024,1024,0,0,0,0,41,4.982,76.46,166.010504,P-GPS,,50.6
965,561300,2026-01-07 15:43:15,0.0,5,7.036,0.0,0.0,0.0,7.9,6.7,3.2,1024,1024,1024,1024,0,0,0,0,41,4.982,76.46,166.010504,P-GPS,,50.6
966,561400,2026-01-07 15:43:15,0.0,5,7.036,0.0,0.0,0.0,7.9,6.4,3.2,1024,1024,1024,1024,0,0,0,0,41,4.982,76.46,166.010504,P-GPS,,50.6
967,561500,2026-01-07 15:43:15,0.0,5,7.036,0.0,0.0,0.0,7.9,6.3,3.0,1024,1024,1024,1024,0,0,0,0,41,4.982,76.46,166.010504,P-GPS,,50.6
968,561600,2026-01-07 15:43:15,0.0,5,7.036,0.0,0.0,0.0,7.9,6.3,3.2,1024,1024,1024,1024,0,0,0,0,41,4.982,76.46,166.010504,P-GPS,,50.6
969,561700,2026-01-07 15:43:15,0.0,5,7.036,0.0,0.0,0.0,7.9,6.4,3.2,1024,1024,1024,1024,0,0,0,0,41,4.982,76.46,165.68242,P-GPS,,50.5
970,561800,2026-01-07 15:43:15,0.0,5,7.036,0.0,0.0,0.0,8.0,6.5,3.2,1024,1024,1024,1024,0,0,0,0,41,4.982,76.46,165.68242,P-GPS,,50.5
971,561900,2026-01-07 15:43:15,0.0,5,7.036,0.0,0.0,0.0,7.9,6.3,3.2,1024,1024,1024,1024,0,0,0,0,41,4.982,76.46,165.68242,P-GPS,,50.5
972,562000,2026-01-07 15:43:16,0.0,5,7.036,0.0,0.0,0.0,7.8,5.9,3.0,1024,1024,1024,1024,0,0,0,0,41,4.982,76.46,165.68242,P-GPS,,50.5
973,562100,2026-01-07 15:43:16,0.0,5,7.036,0.0,0.0,0.0,7.8,5.7,3.2,1024,1024,1024,1024,0,0,0,0,41,5.016,76.46,165.68242,P-GPS,,50.5
974,562200,2026-01-07 15:43:16,0.0,5,7.036,0.0,0.0,0.0,7.8,5.6,3.2,1024,1024,1024,1024,0,0,0,0,41,5.016,76.46,165.68242,P-GPS,,50.5
975,562300,2026-01-07 15:43:16,0.0,5,7.036,0.0,0.0,0.0,7.8,5.4,3.3,1024,1024,1024,1024,0,0,0,0,41,5.016,76.46,166.010504,P-GPS,,50.6
976,562400,2026-01-07 15:43:16,0.0,5,7.036,0.0,0.0,0.0,7.8,5.6,3.6,1024,1024,1024,1024,0,0,0,0,41,5.016,76.46,166.010504,P-GPS,,50.6
977,562500,2026-01-07 15:43:16,0.0,5,7.036,0.0,0.0,0.0,7.9,6.1,3.8,1024,1024,1024,1024,0,0,0,0,41,5.016,76.46,166.010504,P-GPS,,50.6
978,562600,2026-01-07 15:43:16,0.0,5,7.036,0.0,0.0,0.0,7.9,6.2,3.7,1024,1024,1024,1024,0,0,0,0,41,5.016,76.46,166.010504,P-GPS,,50.6
979,562700,2026-01-07 15:43:16,0.0,5,7.036,0.0,0.0,0.0,7.9,6.3,3.6,1024,1024,1024,1024,0,0,0,0,41,5.016,76.46,166.010504,P-GPS,,50.6
980,562800,2026-01-07 15:43:16,0.0,5,7.036,0.0,0.0,0.0,7.9,6.5,3.3,1024,1024,1024,1024,0,0,0,0,41,5.016,76.46,166.010504,P-GPS,,50.6
981,562900,2026-01-07 15:43:16,0.0,5,7.036,0.0,0.0,0.0,7.8,6.6,3.2,1024,1024,1024,1024,0,0,0,0,41,5.016,76.46,166.010504,P-GPS,,50.6
982,563000,2026-01-07 15:43:16,0.0,5,7.036,0.0,0.0,0.0,7.8,6.4,2.9,1024,1024,1024,1024,0,0,0,0,41,5.016,76.46,166.010504,P-GPS,,50.6
983,563100,2026-01-07 15:43:17,0.0,5,7.036,0.0,0.0,0.0,7.9,6.8,3.1,1024,1024,1024,1024,0,0,0,0,41,5.016,76.46,166.010504,P-GPS,,50.6
984,563200,2026-01-07 15:43:17,0.0,5,7.041,0.0,0.0,0.0,7.9,6.8,3.0,1024,1024,1024,1024,0,0,0,0,41,4.8,76.46,166.010504,P-GPS,,50.6
985,563300,2026-01-07 15:43:17,0.0,5,7.041,0.0,0.0,0.0,7.9,6.9,3.0,1024,1024,1024,1024,0,0,0,0,41,4.8,76.46,166.010504,P-GPS,,50.6
986,563400,2026-01-07 15:43:17,0.0,5,7.041,0.0,0.0,0.0,8.0,6.9,3.2,1024,1024,1024,1024,0,0,0,0,41,4.8,76.46,166.010504,P-GPS,,50.6
987,563500,2026-01-07 15:43:17,0.0,5,7.041,0.0,0.0,0.0,7.9,6.7,3.3,1024,1024,1024,1024,0,0,0,0,41,4.8,76.46,166.010504,P-GPS,,50.6
988,563600,2026-01-07 15:43:17,0.0,5,7.041,0.0,0.0,0.0,7.9,6.5,3.4,1024,1024,1024,1024,0,0,0,0,41,4.8,76.46,166.010504,P-GPS,,50.6
989,563700,2026-01-07 15:43:17,0.0,5,7.041,0.0,0.0,0.0,7.9,6.6,3.6,1024,1024,1024,1024,0,0,0,0,41,4.8,76.46,166.010504,P-GPS,,50.6
990,563800,2026-01-07 15:43:17,0.0,5,7.041,0.0,0.0,0.0,7.9,6.5,3.4,1024,1024,1024,1024,0,0,0,0,41,4.8,76.46,166.010504,P-GPS,,50.6
991,563900,2026-01-07 15:43:17,0.0,5,7.041,0.0,0.0,0.0,7.8,6.6,3.5,1024,1024,1024,1024,0,0,0,0,41,4.8,76.46,166.010504,P-GPS,,50.6
992,564000,2026-01-07 15:43:18,0.0,5,7.041,0.0,0.0,0.0,7.8,6.7,3.4,1024,1024,1024,1024,0,0,0,0,41,4.8,76.46,165.68242,P-GPS,,50.5
993,564100,2026-01-07 15:43:18,0.0,5,7.041,0.0,0.0,0.0,7.9,6.9,3.3,1024,1024,1024,1024,0,0,0,0,41,4.8,76.46,165.68242,P-GPS,,50.5
994,564200,2026-01-07 15:43:18,0.0,5,7.041,0.0,0.0,0.0,7.9,7.1,3.2,1024,1024,1024,1024,0,0,0,0,41,4.8,76.46,165.68242,P-GPS,,50.5
995,564300,2026-01-07 15:43:18,0.0,5,7.049,0.0,0.0,0.0,7.8,6.9,3.0,1024,1024,1024,1024,0,0,0,0,41,4.754,76.46,165.68242,P-GPS,,50.5
996,564400,2026-01-07 15:43:18,0.0,5,7.049,0.0,0.0,0.0,7.8,6.9,3.1,1024,1024,1024,1024,0,0,0,0,41,4.754,76.46,165.68242,P-GPS,,50.5
997,564500,2026-01-07 15:43:18,0.0,5,7.049,0.0,0.0,0.0,7.8,6.8,2.9,1024,1024,1024,1024,0,0,0,0,41,4.754,76.46,165.68242,P-GPS,,50.5
998,564600,2026-01-07 15:43:18,0.0,5,7.049,0.0,0.0,0.0,7.8,6.6,2.8,1024,1024,1024,1024,0,0,0,0,41,4.754,76.46,165.68242,P-GPS,,50.5
999,564700,2026-01-07 15:43:18,0.0,5,7.049,0.0,0.0,0.0,7.8,6.4,3.1,1024,1024,1024,1024,0,0,0,0,41,4.754,76.46,165.354336,P-GPS,,50.4
1000,564800,2026-01-07 15:43:18,0.0,5,7.049,0.0,0.0,0.0,7.8,6.6,3.3,1024,1024,1024,1024,0,0,0,0,41,4.754,76.46,165.354336,P-GPS,,50.4
1001,564900,2026-01-07 15:43:18,0.0,5,7.049,0.0,0.0,0.0,7.9,7.0,3.2,1024,1024,1024,1024,0,0,0,0,41,4.754,76.46,165.354336,P-GPS,,50.4
1002,565000,2026-01-07 15:43:18,0.0,5,7.049,0.0,0.0,0.0,7.9,6.7,3.0,1024,1024,1024,1024,0,0,0,0,41,4.754,76.46,165.354336,P-GPS,,50.4
1003,565100,2026-01-07 15:43:19,0.0,5,7.049,0.0,0.0,0.0,7.8,6.5,2.9,1024,1024,1024,1024,0,0,0,0,41,4.754,76.46,165.354336,P-GPS,,50.4
1004,565200,2026-01-07 15:43:19,0.0,5,7.049,0.0,0.0,0.0,7.8,6.7,2.9,1024,1024,1024,1024,0,0,0,0,41,4.754,76.46,165.354336,P-GPS,,50.4
1005,565300,2026-01-07 15:43:19,0.0,5,7.049,0.0,0.0,0.0,7.8,6.8,2.9,1024,1024,1024,1024,0,0,0,0,41,4.754,76.46,165.354336,P-GPS,,50.4
1006,565400,2026-01-07 15:43:19,0.0,5,7.049,0.0,0.0,0.0,7.9,7.0,2.9,1024,1024,1024,1024,0,0,0,0,41,4.754,76.46,165.354336,P-GPS,,50.4
1007,565500,2026-01-07 15:43:19,0.0,5,7.049,0.0,0.0,0.0,7.9,6.7,2.7,1024,1024,1024,1024,0,0,0,0,41,4.754,76.46,165.354336,P-GPS,,50.4
1008,565600,2026-01-07 15:43:19,0.0,5,7.049,0.0,0.0,0.0,7.9,6.8,2.7,1024,1024,1024,1024,0,0,0,0,41,4.754,76.46,165.354336,P-GPS,,50.4
1009,565700,2026-01-07 15:43:19,0.0,5,7.049,0.0,0.0,0.0,7.9,6.9,2.8,1024,1024,1024,1024,0,0,0,0,41,4.754,76.46,165.354336,P-GPS,,50.4
1010,565800,2026-01-07 15:43:19,0.0,5,7.049,0.0,0.0,0.0,7.9,7.1,2.9,1024,1024,1024,1024,0,0,0,0,41,4.754,76.46,165.354336,P-GPS,,50.4
1011,565900,2026-01-07 15:43:19,0.0,5,7.049,0.0,0.0,0.0,8.0,7.4,2.8,1024,1024,1024,1024,0,0,0,0,41,4.754,76.46,165.354336,P-GPS,,50.4
1012,566000,2026-01-07 15:43:20,0.0,5,7.049,0.0,0.0,0.0,8.0,7.4,2.9,1024,1024,1024,1024,0,0,0,0,41,4.754,76.46,165.354336,P-GPS,,50.4
1013,566100,2026-01-07 15:43:20,0.0,5,7.049,0.0,0.0,0.0,8.0,7.1,2.9,1024,1024,1024,1024,0,0,0,0,41,4.754,76.46,165.354336,P-GPS,,50.4
1014,566200,2026-01-07 15:43:20,0.0,5,7.049,0.0,0.0,0.0,8.0,7.3,2.7,1024,1024,1024,1024,0,0,0,0,41,4.754,76.46,165.354336,P-GPS,,50.4
1015,566300,2026-01-07 15:43:20,0.0,5,7.049,0.0,0.0,0.0,7.9,6.7,2.9,1024,1024,1024,1024,0,0,0,0,41,4.754,76.46,165.354336,P-GPS,,50.4
1016,566400,2026-01-07 15:43:20,0.0,5,7.049,0.0,0.0,0.0,7.9,6.0,2.7,1024,1024,1024,1024,0,0,0,0,41,4.754,76.46,165.354336,P-GPS,,50.4
1017,566500,2026-01-07 15:43:20,0.0,5,7.031,0.0,0.0,0.0,7.9,5.7,2.7,1024,1024,1024,1024,0,0,0,0,41,5.002,76.46,165.354336,P-GPS,,50.4
1018,566600,2026-01-07 15:43:20,0.0,5,7.031,0.0,0.0,0.0,7.9,6.0,2.6,1024,1024,1024,1024,0,0,0,0,41,5.002,76.46,165.354336,P-GPS,,50.4
1019,566700,2026-01-07 15:43:20,0.0,5,7.031,0.0,0.0,0.0,7.9,6.3,2.6,1024,1024,1024,1024,0,0,0,0,41,5.002,76.46,165.354336,P-GPS,,50.4
1020,566800,2026-01-07 15:43:20,0.0,5,7.031,0.0,0.0,0.0,7.9,6.4,2.5,1024,1024,1024,1024,0,0,0,0,41,5.002,76.46,165.354336,P-GPS,,50.4
1021,566900,2026-01-07 15:43:20,0.0,5,7.031,0.0,0.0,0.0,7.8,6.5,2.6,1024,1024,1024,1024,0,0,0,0,41,5.002,76.46,165.354336,P-GPS,,50.4
1022,567000,2026-01-07 15:43:20,0.0,5,7.031,0.0,0.0,0.0,7.8,6.4,2.9,1024,1024,1024,1024,0,0,0,0,41,5.002,76.46,165.68242,P-GPS,,50.5
1023,567100,2026-01-07 15:43:21,0.0,5,7.031,0.0,0.0,0.0,7.8,6.1,2.8,1024,1024,1024,1024,0,0,0,0,41,5.002,76.46,165.68242,P-GPS,,50.5
1024,567200,2026-01-07 15:43:21,0.0,5,7.031,0.0,0.0,0.0,7.8,6.3,3.1,1024,1024,1024,1024,0,0,0,0,41,5.002,76.46,165.68242,P-GPS,,50.5
1025,567300,2026-01-07 15:43:21,0.0,5,7.031,0.0,0.0,0.0,7.8,6.2,2.9,1024,1024,1024,1024,0,0,0,0,41,5.002,76.46,165.68242,P-GPS,,50.5
1026,567400,2026-01-07 15:43:21,0.0,5,7.031,0.0,0.0,0.0,7.9,6.3,2.9,1024,1024,1024,1024,0,0,0,0,41,5.002,76.46,165.68242,P-GPS,,50.5
1027,567500,2026-01-07 15:43:21,0.0,5,7.031,0.0,0.0,0.0,7.9,6.6,3.2,1024,1024,1024,1024,0,0,0,0,41,5.002,76.46,165.68242,P-GPS,,50.5
1028,567600,2026-01-07 15:43:21,0.0,5,7.034,0.0,0.0,0.0,7.9,7.0,3.5,1024,1024,1024,1024,0,0,0,0,41,5.043,76.46,165.68242,P-GPS,,50.5
1029,567700,2026-01-07 15:43:21,0.0,5,7.034,0.0,0.0,0.0,7.9,6.9,3.6,1024,1024,1024,1024,0,0,0,0,41,5.043,76.46,165.68242,P-GPS,,50.5
1030,567800,2026-01-07 15:43:21,0.0,5,7.034,0.0,0.0,0.0,7.8,6.7,3.3,1024,1024,1024,1024,0,0,0,0,41,5.043,76.46,165.68242,P-GPS,,50.5
1031,567900,2026-01-07 15:43:21,0.0,5,7.034,0.0,0.0,0.0,7.8,6.2,3.3,1024,1024,1024,1024,0,0,0,0,41,5.043,76.46,166.010504,P-GPS,,50.6
1032,568000,2026-01-07 15:43:22,0.0,5,7.034,0.0,0.0,0.0,7.8,6.2,3.6,1024,1024,1024,1024,0,0,0,0,41,5.043,76.46,166.010504,P-GPS,,50.6
1033,568100,2026-01-07 15:43:22,0.0,5,7.034,0.0,0.0,0.0,7.8,6.1,3.5,1024,1024,1024,1024,0,0,0,0,41,5.043,76.46,166.010504,P-GPS,,50.6
1034,568200,2026-01-07 15:43:22,0.0,5,7.034,0.0,0.0,0.0,7.8,6.5,3.5,1024,1024,1024,1024,0,0,0,0,41,5.043,76.46,166.010504,P-GPS,,50.6
1035,568300,2026-01-07 15:43:22,0.0,5,7.034,0.0,0.0,0.0,7.9,6.7,3.2,1024,1024,1024,1024,0,0,0,0,41,5.043,76.46,166.010504,P-GPS,,50.6
1036,568400,2026-01-07 15:43:22,0.0,5,7.034,0.0,0.0,0.0,7.9,7.2,3.1,1024,1024,1024,1024,0,0,0,0,41,5.043,76.46,166.010504,P-GPS,,50.6
1037,568500,2026-01-07 15:43:22,0.0,5,7.034,0.0,0.0,0.0,7.9,7.2,2.9,1024,1024,1024,1024,0,0,0,0,41,5.043,76.46,166.010504,P-GPS,,50.6
1038,568600,2026-01-07 15:43:22,0.0,5,7.034,0.0,0.0,0.0,7.8,6.8,3.0,1024,1024,1024,1024,0,0,0,0,41,5.043,76.46,166.010504,P-GPS,,50.6
1039,568700,2026-01-07 15:43:22,0.0,5,7.028,0.0,0.0,0.0,7.8,6.3,2.7,1024,1024,1024,1024,0,0,0,0,41,5.05,76.64,166.010504,P-GPS,,50.6
1040,568800,2026-01-07 15:43:22,0.0,5,7.028,0.0,0.0,0.0,7.8,6.6,2.9,1024,1024,1024,1024,0,0,0,0,41,5.05,76.64,166.010504,P-GPS,,50.6
1041,568900,2026-01-07 15:43:22,0.0,5,7.028,0.0,0.0,0.0,7.8,7.0,3.1,1024,1024,1024,1024,0,0,0,0,41,5.05,76.64,166.010504,P-GPS,,50.6
1042,569000,2026-01-07 15:43:22,0.0,5,7.028,0.0,0.0,0.0,7.8,7.1,3.4,1024,1024,1024,1024,0,0,0,0,41,5.05,76.64,166.010504,P-GPS,,50.6
1043,569100,2026-01-07 15:43:23,0.0,5,7.028,0.0,0.0,0.0,7.9,7.0,3.6,1024,1024,1024,1024,0,0,0,0,41,5.05,76.64,166.010504,P-GPS,,50.6
1044,569200,2026-01-07 15:43:23,0.0,5,7.028,0.0,0.0,0.0,7.9,7.2,3.7,1024,1024,1024,1024,0,0,0,0,41,5.05,76.64,166.010504,P-GPS,,50.6
1045,569300,2026-01-07 15:43:23,0.0,5,7.028,0.0,0.0,0.0,7.9,7.0,3.5,1024,1024,1024,1024,0,0,0,0,41,5.05,76.64,166.010504,P-GPS,,50.6
1046,569400,2026-01-07 15:43:23,0.0,5,7.028,0.0,0.0,0.0,7.8,7.0,3.1,1024,1024,1024,1024,0,0,0,0,41,5.05,76.64,166.010504,P-GPS,,50.6
1047,569500,2026-01-07 15:43:23,0.0,5,7.028,0.0,0.0,0.0,7.8,6.6,3.0,1024,1024,1024,1024,0,0,0,0,41,5.05,76.64,166.010504,P-GPS,,50.6
1048,569600,2026-01-07 15:43:23,0.0,5,7.028,0.0,0.0,0.0,7.9,6.8,3.2,1024,1024,1024,1024,0,0,0,0,41,5.05,76.64,166.010504,P-GPS,,50.6
1049,569700,2026-01-07 15:43:23,0.0,5,7.028,0.0,0.0,0.0,7.9,6.7,3.1,1024,1024,1024,1024,0,0,0,0,41,5.05,76.64,166.010504,P-GPS,,50.6
1050,569800,2026-01-07 15:43:23,0.0,5,7.043,0.0,0.0,0.0,7.8,6.8,3.0,1024,1024,1024,1024,0,0,0,0,41,4.821,76.64,165.68242,P-GPS,,50.5
1051,569900,2026-01-07 15:43:23,0.0,5,7.043,0.0,0.0,0.0,7.8,6.6,3.1,1024,1024,1024,1024,0,0,0,0,41,4.821,76.64,165.68242,P-GPS,,50.5
1052,570000,2026-01-07 15:43:24,0.0,5,7.043,0.0,0.0,0.0,7.8,6.6,3.2,1024,1024,1024,1024,0,0,0,0,41,4.821,76.64,165.68242,P-GPS,,50.5
1053,570100,2026-01-07 15:43:24,0.0,5,7.043,0.0,0.0,0.0,7.8,6.8,3.0,1024,1024,1024,1024,0,0,0,0,41,4.821,76.64,165.68242,P-GPS,,50.5
1054,570200,2026-01-07 15:43:24,0.0,5,7.043,0.0,0.0,0.0,7.8,7.0,2.9,1024,1024,1024,1024,0,0,0,0,41,4.821,76.64,165.68242,P-GPS,,50.5
1055,570300,2026-01-07 15:43:24,0.0,5,7.043,0.0,0.0,0.0,7.8,6.7,2.8,1024,1024,1024,1024,0,0,0,0,41,4.821,76.64,165.354336,P-GPS,,50.4
1056,570400,2026-01-07 15:43:24,0.0,5,7.043,0.0,0.0,0.0,7.8,6.8,2.7,1024,1024,1024,1024,0,0,0,0,41,4.821,76.64,165.354336,P-GPS,,50.4
1057,570500,2026-01-07 15:43:24,0.0,5,7.043,0.0,0.0,0.0,7.8,7.2,2.8,1024,1024,1024,1024,0,0,0,0,41,4.821,76.64,165.354336,P-GPS,,50.4
1058,570600,2026-01-07 15:43:24,0.0,5,7.043,0.0,0.0,0.0,7.8,7.3,2.8,1024,1024,1024,1024,0,0,0,0,41,4.821,76.64,165.354336,P-GPS,,50.4
1059,570700,2026-01-07 15:43:24,0.0,5,7.043,0.0,0.0,0.0,7.8,7.3,2.8,1024,1024,1024,1024,0,0,0,0,41,4.821,76.64,165.354336,P-GPS,,50.4
1060,570800,2026-01-07 15:43:24,0.0,5,7.043,0.0,0.0,0.0,7.8,7.3,2.8,1024,1024,1024,1024,0,0,0,0,41,4.821,76.64,165.354336,P-GPS,,50.4
1061,570900,2026-01-07 15:43:24,0.0,5,7.044,0.0,0.0,0.0,7.8,7.4,2.9,1024,1024,1024,1024,0,0,0,0,41,4.747,76.64,165.026252,P-GPS,,50.3
1062,571000,2026-01-07 15:43:25,0.0,5,7.044,0.0,0.0,0.0,7.9,7.5,2.9,1024,1024,1024,1024,0,0,0,0,41,4.747,76.64,165.026252,P-GPS,,50.3
1063,571100,2026-01-07 15:43:25,0.0,5,7.044,0.0,0.0,0.0,7.9,7.3,2.9,1024,1024,1024,1024,0,0,0,0,41,4.747,76.64,165.026252,P-GPS,,50.3
1064,571200,2026-01-07 15:43:25,0.0,5,7.044,0.0,0.0,0.0,7.9,7.3,3.0,1024,1024,1024,1024,0,0,0,0,41,4.747,76.64,165.026252,P-GPS,,50.3
1065,571300,2026-01-07 15:43:25,0.0,5,7.044,0.0,0.0,0.0,7.9,7.0,2.8,1024,1024,1024,1024,0,0,0,0,41,4.747,76.64,165.026252,P-GPS,,50.3
1066,571400,2026-01-07 15:43:25,0.0,5,7.044,0.0,0.0,0.0,7.9,6.6,2.6,1024,1024,1024,1024,0,0,0,0,41,4.747,76.64,165.026252,P-GPS,,50.3
1067,571500,2026-01-07 15:43:25,0.0,5,7.044,0.0,0.0,0.0,7.9,6.6,2.4,1024,1024,1024,1024,0,0,0,0,41,4.747,76.64,165.026252,P-GPS,,50.3
1068,571600,2026-01-07 15:43:25,0.0,5,7.044,0.0,0.0,0.0,7.8,6.8,2.6,1024,1024,1024,1024,0,0,0,0,41,4.747,76.64,165.026252,P-GPS,,50.3
1069,571700,2026-01-07 15:43:25,0.0,5,7.044,0.0,0.0,0.0,7.8,6.7,2.8,1024,1024,1024,1024,0,0,0,0,41,4.747,76.64,165.354336,P-GPS,,50.4
1070,571800,2026-01-07 15:43:25,0.0,5,7.044,0.0,0.0,0.0,8.0,7.0,3.3,1024,1024,1024,1024,0,0,0,0,41,4.747,76.64,165.354336,P-GPS,,50.4
1071,571900,2026-01-07 15:43:25,0.0,5,7.044,0.0,0.0,0.0,8.0,7.6,3.8,1024,1024,1024,1024,0,0,0,0,41,4.747,76.64,165.354336,P-GPS,,50.4
1072,572000,2026-01-07 15:43:25,0.0,5,7.045,0.0,0.0,0.0,8.0,7.6,3.7,1024,1024,1024,1024,0,0,0,0,40,4.787,76.64,165.68242,P-GPS,,50.5
1073,572100,2026-01-07 15:43:26,0.0,5,7.045,0.0,0.0,0.0,8.0,7.6,3.8,1024,1024,1024,1024,0,0,0,0,40,4.787,76.64,165.68242,P-GPS,,50.5
1074,572200,2026-01-07 15:43:26,0.0,5,7.045,0.0,0.0,0.0,7.9,7.3,3.9,1024,1024,1024,1024,0,0,0,0,40,4.787,76.64,165.68242,P-GPS,,50.5
1075,572300,2026-01-07 15:43:26,0.0,5,7.045,0.0,0.0,0.0,8.0,6.7,3.6,1024,1024,1024,1024,0,0,0,0,40,4.787,76.64,165.68242,P-GPS,,50.5
1076,572400,2026-01-07 15:43:26,0.0,5,7.045,0.0,0.0,0.0,8.0,6.7,3.4,1024,1024,1024,1024,0,0,0,0,40,4.787,76.64,165.68242,P-GPS,,50.5
1077,572500,2026-01-07 15:43:26,0.0,5,7.045,0.0,0.0,0.0,7.9,6.7,3.1,1024,1024,1024,1024,0,0,0,0,40,4.787,76.64,165.68242,P-GPS,,50.5
1078,572600,2026-01-07 15:43:26,0.0,5,7.045,0.0,0.0,0.0,7.9,6.7,2.9,1024,1024,1024,1024,0,0,0,0,40,4.787,76.64,165.68242,P-GPS,,50.5
1079,572700,2026-01-07 15:43:26,0.0,5,7.045,0.0,0.0,0.0,7.9,6.9,2.9,1024,1024,1024,1024,0,0,0,0,40,4.787,76.64,165.68242,P-GPS,,50.5
1080,572800,2026-01-07 15:43:26,0.0,5,7.045,0.0,0.0,0.0,7.9,7.1,2.9,1024,1024,1024,1024,0,0,0,0,40,4.787,76.64,165.68242,P-GPS,,50.5
1081,572900,2026-01-07 15:43:26,0.0,5,7.045,0.0,0.0,0.0,7.9,7.1,3.0,1024,1024,1024,1024,0,0,0,0,40,4.787,76.64,165.68242,P-GPS,,50.5
1082,573000,2026-01-07 15:43:26,0.0,5,7.045,0.0,0.0,0.0,7.8,6.7,3.1,1024,1024,1024,1024,0,0,0,0,40,4.787,76.64,165.68242,P-GPS,,50.5
1083,573100,2026-01-07 15:43:27,0.0,5,7.025,0.0,0.0,0.0,7.8,5.8,3.1,1024,1024,1024,1024,0,0,0,0,40,5.06,76.64,165.68242,P-GPS,,50.5
1084,573200,2026-01-07 15:43:27,0.0,5,7.025,0.0,0.0,0.0,7.8,6.0,3.2,1024,1024,1024,1024,0,0,0,0,40,5.06,76.64,165.68242,P-GPS,,50.5
1085,573300,2026-01-07 15:43:27,0.0,5,7.025,0.0,0.0,0.0,7.8,6.3,3.1,1024,1024,1024,1024,0,0,0,0,40,5.06,76.64,165.68242,P-GPS,,50.5
1086,573400,2026-01-07 15:43:27,0.0,5,7.025,0.0,0.0,0.0,7.8,6.7,2.9,1024,1024,1024,1024,0,0,0,0,40,5.06,76.64,165.68242,P-GPS,,50.5
1087,573500,2026-01-07 15:43:27,0.0,5,7.025,0.0,0.0,0.0,7.9,6.4,3.1,1024,1024,1024,1024,0,0,0,0,40,5.06,76.64,165.68242,P-GPS,,50.5
1088,573600,2026-01-07 15:43:27,0.0,5,7.025,0.0,0.0,0.0,7.9,6.5,3.3,1024,1024,1024,1024,0,0,0,0,40,5.06,76.64,165.68242,P-GPS,,50.5
1089,573700,2026-01-07 15:43:27,0.0,5,7.025,0.0,0.0,0.0,7.9,6.8,3.2,1024,1024,1024,1024,0,0,0,0,40,5.06,76.64,165.68242,P-GPS,,50.5
1090,573800,2026-01-07 15:43:27,0.0,5,7.025,0.0,0.0,0.0,7.9,6.6,3.1,1024,1024,1024,1024,0,0,0,0,40,5.06,76.64,165.68242,P-GPS,,50.5
1091,573900,2026-01-07 15:43:27,0.0,5,7.025,0.0,0.0,0.0,7.9,6.7,3.1,1024,1024,1024,1024,0,0,0,0,40,5.06,76.64,165.68242,P-GPS,,50.5
1092,574000,2026-01-07 15:43:27,0.0,5,7.025,0.0,0.0,0.0,7.9,6.9,3.1,1024,1024,1024,1024,0,0,0,0,40,5.06,76.64,165.68242,P-GPS,,50.5
1093,574100,2026-01-07 15:43:28,0.0,5,7.025,0.0,0.0,0.0,7.9,7.0,2.9,1024,1024,1024,1024,0,0,0,0,40,5.06,76.64,165.68242,P-GPS,,50.5
1094,574200,2026-01-07 15:43:28,0.0,5,7.024,0.0,0.0,0.0,7.8,6.8,2.8,1024,1024,1024,1024,0,0,0,0,40,5.103,76.64,165.68242,P-GPS,,50.5
1095,574300,2026-01-07 15:43:28,0.0,5,7.024,0.0,0.0,0.0,7.8,6.2,2.8,1024,1024,1024,1024,0,0,0,0,40,5.103,76.64,165.68242,P-GPS,,50.5
1096,574400,2026-01-07 15:43:28,0.0,5,7.024,0.0,0.0,0.0,7.8,6.1,3.0,1024,1024,1024,1024,0,0,0,0,40,5.103,76.64,166.010504,P-GPS,,50.6
1097,574500,2026-01-07 15:43:28,0.0,5,7.024,0.0,0.0,0.0,7.7,5.9,3.8,1024,1024,1024,1024,0,0,0,0,40,5.103,76.64,166.010504,P-GPS,,50.6
1098,574600,2026-01-07 15:43:28,0.0,5,7.024,0.0,0.0,0.0,7.8,6.1,4.1,1024,1024,1024,1024,0,0,0,0,40,5.103,76.64,166.010504,P-GPS,,50.6
1099,574700,2026-01-07 15:43:28,0.0,5,7.024,0.0,0.0,0.0,7.9,6.3,4.3,1024,1024,1024,1024,0,0,0,0,40,5.103,76.64,166.010504,P-GPS,,50.6
1100,574800,2026-01-07 15:43:28,0.0,5,7.024,0.0,0.0,0.0,8.0,6.7,4.5,1024,1024,1024,1024,0,0,0,0,40,5.103,76.64,166.010504,P-GPS,,50.6
1101,574900,2026-01-07 15:43:28,0.0,5,7.024,0.0,0.0,0.0,8.0,6.7,4.6,1024,1024,1024,1024,0,0,0,0,40,5.103,76.64,166.338588,P-GPS,,50.7
1102,575000,2026-01-07 15:43:28,0.0,5,7.024,0.0,0.0,0.0,7.9,6.6,4.7,1024,1024,1024,1024,0,0,0,0,40,5.103,76.64,166.338588,P-GPS,,50.7
1103,575100,2026-01-07 15:43:29,0.0,5,7.024,0.0,0.0,0.0,7.9,6.3,4.3,1024,1024,1024,1024,0,0,0,0,40,5.103,76.64,166.338588,P-GPS,,50.7
1104,575200,2026-01-07 15:43:29,0.0,5,7.024,0.0,0.0,0.0,7.8,6.0,4.1,1024,1024,1024,1024,0,0,0,0,40,5.103,76.64,166.338588,P-GPS,,50.7
1105,575300,2026-01-07 15:43:29,0.0,5,7.024,0.0,0.0,0.0,7.9,5.9,3.7,1024,1024,1024,1024,0,0,0,0,40,5.103,76.64,166.338588,P-GPS,,50.7
1106,575400,2026-01-07 15:43:29,0.0,5,7.024,0.0,0.0,0.0,7.9,6.3,3.5,1024,1024,1024,1024,0,0,0,0,40,5.103,76.64,166.010504,P-GPS,,50.6
1107,575500,2026-01-07 15:43:29,0.0,5,7.024,0.0,0.0,0.0,7.9,6.6,3.1,1024,1024,1024,1024,0,0,0,0,40,5.103,76.64,166.010504,P-GPS,,50.6
1108,575600,2026-01-07 15:43:29,0.0,5,7.024,0.0,0.0,0.0,7.9,6.9,2.7,1024,1024,1024,1024,0,0,0,0,40,5.103,76.64,166.010504,P-GPS,,50.6
1109,575700,2026-01-07 15:43:29,0.0,5,7.024,0.0,0.0,0.0,7.8,7.2,3.2,1024,1024,1024,1024,0,0,0,0,40,5.103,76.64,166.010504,P-GPS,,50.6
1110,575800,2026-01-07 15:43:29,0.0,5,7.024,0.0,0.0,0.0,7.9,6.4,3.3,1024,1024,1024,1024,0,0,0,0,40,5.103,76.64,166.010504,P-GPS,,50.6
1111,575900,2026-01-07 15:43:29,0.0,5,7.024,0.0,0.0,0.0,7.8,6.4,3.9,1024,1024,1024,1024,0,0,0,0,40,5.103,76.64,166.010504,P-GPS,,50.6
1112,576000,2026-01-07 15:43:29,0.0,5,7.024,0.0,0.0,0.0,7.8,6.4,3.9,1024,1024,1024,1024,0,0,0,0,40,5.103,76.64,166.338588,P-GPS,,50.7
1113,576100,2026-01-07 15:43:30,0.0,5,7.024,0.0,0.0,0.0,7.9,6.9,4.0,1024,1024,1024,1024,0,0,0,0,40,5.103,76.64,166.338588,P-GPS,,50.7
1114,576200,2026-01-07 15:43:30,0.0,5,7.024,0.0,0.0,0.0,7.9,7.5,4.0,1024,1024,1024,1024,0,0,0,0,40,5.103,76.64,166.338588,P-GPS,,50.7
1115,576300,2026-01-07 15:43:30,0.0,5,7.024,0.0,0.0,0.0,8.0,7.4,4.1,1024,1024,1024,1024,0,0,0,0,40,5.103,76.64,166.338588,P-GPS,,50.7
1116,576400,2026-01-07 15:43:30,0.0,5,7.025,0.0,0.0,0.0,8.0,7.6,4.0,1024,1024,1024,1024,0,0,0,0,40,4.972,76.64,166.338588,P-GPS,,50.7
1117,576500,2026-01-07 15:43:30,0.0,5,7.025,0.0,0.0,0.0,8.0,7.8,3.8,1024,1024,1024,1024,0,0,0,0,40,4.972,76.64,166.010504,P-GPS,,50.6
1118,576600,2026-01-07 15:43:30,0.0,5,7.025,0.0,0.0,0.0,8.0,7.7,3.8,1024,1024,1024,1024,0,0,0,0,40,4.972,76.64,166.010504,P-GPS,,50.6
1119,576700,2026-01-07 15:43:30,0.0,5,7.025,0.0,0.0,0.0,7.9,7.8,3.8,1024,1024,1024,1024,0,0,0,0,40,4.972,76.64,166.010504,P-GPS,,50.6
1120,576800,2026-01-07 15:43:30,0.0,5,7.025,0.0,0.0,0.0,8.0,7.9,3.6,1024,1024,1024,1024,0,0,0,0,40,4.972,76.64,166.010504,P-GPS,,50.6
1121,576900,2026-01-07 15:43:30,0.0,5,7.025,0.0,0.0,0.0,8.0,8.4,3.6,1024,1024,1024,1024,0,0,0,0,40,4.972,76.64,166.010504,P-GPS,,50.6
1122,577000,2026-01-07 15:43:30,0.0,5,7.025,0.0,0.0,0.0,7.9,7.9,3.7,1024,1024,1024,1024,0,0,0,0,40,4.972,76.64,166.010504,P-GPS,,50.6
1123,577100,2026-01-07 15:43:31,0.0,5,7.025,0.0,0.0,0.0,7.9,7.9,3.5,1024,1024,1024,1024,0,0,0,0,40,4.972,76.64,166.010504,P-GPS,,50.6
1124,577200,2026-01-07 15:43:31,0.0,5,7.025,0.0,0.0,0.0,7.9,8.1,3.7,1024,1024,1024,1024,0,0,0,0,40,4.972,76.64,166.010504,P-GPS,,50.6
1125,577300,2026-01-07 15:43:31,0.0,5,7.025,0.0,0.0,0.0,8.0,8.0,3.7,1024,1024,1024,1024,0,0,0,0,40,4.972,76.64,166.010504,P-GPS,,50.6
1126,577400,2026-01-07 15:43:31,0.0,5,7.025,0.0,0.0,0.0,7.9,7.8,3.5,1024,1024,1024,1024,0,0,0,0,40,4.972,76.64,166.010504,P-GPS,,50.6
1127,577500,2026-01-07 15:43:31,0.0,5,7.02,0.0,0.0,0.0,7.9,7.6,3.3,1024,1024,1024,1024,0,0,0,0,40,5.02,76.64,166.010504,P-GPS,,50.6
1128,577600,2026-01-07 15:43:31,0.0,5,7.02,0.0,0.0,0.0,7.8,7.7,3.7,1024,1024,1024,1024,0,0,0,0,40,5.02,76.64,166.010504,P-GPS,,50.6
1129,577700,2026-01-07 15:43:31,0.0,5,7.02,0.0,0.0,0.0,7.9,7.2,3.6,1024,1024,1024,1024,0,0,0,0,40,5.02,76.64,166.010504,P-GPS,,50.6
1130,577800,2026-01-07 15:43:31,0.0,5,7.02,0.0,0.0,0.0,7.9,6.9,3.6,1024,1024,1024,1024,0,0,0,0,40,5.02,76.64,166.010504,P-GPS,,50.6
1131,577900,2026-01-07 15:43:31,0.0,5,7.02,0.0,0.0,0.0,7.9,7.3,3.9,1024,1024,1024,1024,0,0,0,0,40,5.02,76.64,166.010504,P-GPS,,50.6
1132,578000,2026-01-07 15:43:31,0.0,5,7.02,0.0,0.0,0.0,7.9,7.1,3.9,1024,1024,1024,1024,0,0,0,0,40,5.02,76.64,166.010504,P-GPS,,50.6
1133,578100,2026-01-07 15:43:32,0.0,5,7.02,0.0,0.0,0.0,7.9,7.2,3.9,1024,1024,1024,1024,0,0,0,0,40,5.02,76.64,166.010504,P-GPS,,50.6
1134,578200,2026-01-07 15:43:32,0.0,5,7.02,0.0,0.0,0.0,7.9,7.0,3.9,1024,1024,1024,1024,0,0,0,0,40,5.02,76.64,166.010504,P-GPS,,50.6
1135,578300,2026-01-07 15:43:32,0.0,5,7.02,0.0,0.0,0.0,7.9,7.3,3.7,1024,1024,1024,1024,0,0,0,0,40,5.02,76.64,165.68242,P-GPS,,50.5
1136,578400,2026-01-07 15:43:32,0.0,5,7.02,0.0,0.0,0.0,7.9,7.6,3.7,1024,1024,1024,1024,0,0,0,0,40,5.02,76.64,165.68242,P-GPS,,50.5
1137,578500,2026-01-07 15:43:32,0.0,5,7.02,0.0,0.0,0.0,7.9,7.5,3.7,1024,1024,1024,1024,0,0,0,0,40,5.02,76.64,165.68242,P-GPS,,50.5
1138,578600,2026-01-07 15:43:32,0.0,5,7.019,0.0,0.0,0.0,7.9,7.1,3.6,1024,1024,1024,1024,0,0,0,0,40,5.05,76.64,165.68242,P-GPS,,50.5
1139,578700,2026-01-07 15:43:32,0.0,5,7.019,0.0,0.0,0.0,7.9,7.1,3.4,1024,1024,1024,1024,0,0,0,0,40,5.05,76.64,165.68242,P-GPS,,50.5
1140,578800,2026-01-07 15:43:32,0.0,5,7.019,0.0,0.0,0.0,7.9,6.9,3.2,1024,1024,1024,1024,0,0,0,0,40,5.05,76.64,165.354336,P-GPS,,50.4
1141,578900,2026-01-07 15:43:32,0.0,5,7.019,0.0,0.0,0.0,7.8,6.5,2.7,1024,1024,1024,1024,0,0,0,0,40,5.05,76.64,165.354336,P-GPS,,50.4
1142,579000,2026-01-07 15:43:32,0.0,5,7.019,0.0,0.0,0.0,7.8,6.4,2.6,1024,1024,1024,1024,0,0,0,0,40,5.05,76.64,165.354336,P-GPS,,50.4
1143,579100,2026-01-07 15:43:33,0.0,5,7.019,0.0,0.0,0.0,7.7,6.6,2.7,1024,1024,1024,1024,0,0,0,0,40,5.05,76.64,165.354336,P-GPS,,50.4
