index,time(millisecond),timestamp,speed(mph),gpslevel,voltage(v),xSpeed(mph),ySpeed(mph),zSpeed(mph),compass_heading(degrees),pitch(degrees),roll(degrees),rc_elevator,rc_aileron,rc_throttle,rc_rudder,rc_elevator(percent),rc_aileron(percent),rc_throttle(percent),rc_rudder(percent),battery_percent,current(A),battery_temperature(f),ascent(feet),flycState,message,height_above_takeoff(meters)
810,223900,2026-01-09 12:40:36,0.0,5,7.656,0.0,0.0,0.0,26.6,-7.2,-10.0,1024,1024,1024,1024,0,0,0,0,84,5.295,70.7,162.729664,P-GPS,,49.6
811,224000,2026-01-09 12:40:36,0.0,5,7.656,0.0,0.0,0.0,26.4,-6.7,-10.3,1024,1024,1024,1024,0,0,0,0,84,5.295,70.7,162.729664,P-GPS,,49.6
812,224100,2026-01-09 12:40:36,0.0,5,7.656,0.0,0.0,0.0,26.4,-6.9,-10.1,1024,1024,1024,1024,0,0,0,0,84,5.295,70.7,162.729664,P-GPS,,49.6
813,224200,2026-01-09 12:40:37,0.0,5,7.656,0.0,0.0,0.0,26.4,-6.7,-10.0,1024,1024,1024,1024,0,0,0,0,84,5.295,70.7,162.40158,P-GPS,,49.5
814,224300,2026-01-09 12:40:37,0.0,5,7.656,0.0,0.0,0.0,26.4,-6.6,-9.9,1024,1024,1024,1024,0,0,0,0,84,5.295,70.7,162.40158,P-GPS,,49.5
815,224400,2026-01-09 12:40:37,0.0,5,7.656,0.0,0.0,0.0,26.3,-6.3,-9.9,1024,1024,1024,1024,0,0,0,0,84,5.295,70.7,162.40158,P-GPS,,49.5
816,224500,2026-01-09 12:40:37,0.0,5,7.656,0.0,0.0,0.0,26.3,-6.2,-9.9,1024,1024,1024,1024,0,0,0,0,84,5.295,70.7,162.40158,P-GPS,,49.5
817,224600,2026-01-09 12:40:37,0.0,5,7.656,0.0,0.0,0.0,26.3,-6.0,-9.7,1024,1024,1024,1024,0,0,0,0,84,5.295,70.7,162.40158,P-GPS,,49.5
818,224700,2026-01-09 12:40:37,0.0,5,7.656,0.0,0.0,0.0,26.2,-5.9,-9.6,1024,1024,1024,1024,0,0,0,0,84,5.295,70.7,162.073496,P-GPS,,49.4
819,224800,2026-01-09 12:40:37,0.0,5,7.656,0.0,0.0,0.0,26.2,-5.8,-9.6,1024,1024,1024,1024,0,0,0,0,84,5.295,70.7,162.073496,P-GPS,,49.4
820,224900,2026-01-09 12:40:37,0.0,5,7.656,0.0,0.0,0.0,26.1,-5.7,-9.7,1024,1024,1024,1024,0,0,0,0,84,5.295,70.7,162.073496,P-GPS,,49.4
821,225000,2026-01-09 12:40:37,0.0,5,7.656,0.0,0.0,0.0,26.1,-5.6,-9.7,1024,1024,1024,1024,0,0,0,0,84,5.295,70.7,162.073496,P-GPS,,49.4
822,225100,2026-01-09 12:40:37,0.0,5,7.656,0.0,0.0,0.0,26.0,-5.6,-9.6,1024,1024,1024,1024,0,0,0,0,84,5.295,70.7,162.073496,P-GPS,,49.4
823,225200,2026-01-09 12:40:38,0.0,5,7.656,0.0,0.0,0.0,26.1,-5.2,-9.3,1024,1024,1024,1024,0,0,0,0,84,5.295,70.7,162.073496,P-GPS,,49.4
824,225300,2026-01-09 12:40:38,0.0,5,7.656,0.0,0.0,0.0,26.2,-5.5,-9.6,1024,1024,1024,1024,0,0,0,0,84,5.295,70.7,162.073496,P-GPS,,49.4
825,225400,2026-01-09 12:40:38,0.0,5,7.656,0.0,0.0,0.0,26.2,-5.4,-10.1,1024,1024,1024,1024,0,0,0,0,84,5.295,70.7,162.073496,P-GPS,,49.4
826,225500,2026-01-09 12:40:38,0.0,5,7.656,0.0,0.0,0.0,26.2,-5.4,-10.4,1024,1024,1024,1024,0,0,0,0,84,5.295,70.7,162.40158,P-GPS,,49.5
827,225600,2026-01-09 12:40:38,0.0,5,7.656,0.0,0.0,0.0,26.1,-5.2,-10.7,1024,1024,1024,1024,0,0,0,0,84,5.295,70.7,162.40158,P-GPS,,49.5
828,225700,2026-01-09 12:40:38,0.0,5,7.656,0.0,0.0,0.0,26.0,-5.2,-11.0,1024,1024,1024,1024,0,0,0,0,84,5.295,70.7,162.40158,P-GPS,,49.5
829,225800,2026-01-09 12:40:38,0.0,5,7.656,0.0,0.0,0.0,25.9,-4.5,-11.2,1024,1024,1024,1024,0,0,0,0,84,5.295,70.7,162.40158,P-GPS,,49.5
830,225900,2026-01-09 12:40:38,0.0,5,7.633,0.0,0.0,0.0,26.0,-4.7,-11.0,1024,1024,1024,1024,0,0,0,0,84,5.537,70.7,162.40158,P-GPS,,49.5
831,226000,2026-01-09 12:40:38,0.0,5,7.633,0.0,0.0,0.0,26.1,-4.9,-10.7,1024,1024,1024,1024,0,0,0,0,84,5.537,70.7,162.40158,P-GPS,,49.5
832,226100,2026-01-09 12:40:38,0.0,5,7.633,0.0,0.0,0.0,26.2,-5.3,-10.6,1024,1024,1024,1024,0,0,0,0,84,5.537,70.7,162.40158,P-GPS,,49.5
833,226200,2026-01-09 12:40:39,0.0,5,7.633,0.0,0.0,0.0,26.1,-5.3,-10.7,1024,1024,1024,1024,0,0,0,0,84,5.537,70.7,162.40158,P-GPS,,49.5
834,226300,2026-01-09 12:40:39,0.0,5,7.633,0.0,0.0,0.0,26.1,-5.6,-11.0,1024,1024,1024,1024,0,0,0,0,84,5.537,70.7,162.40158,P-GPS,,49.5
835,226400,2026-01-09 12:40:39,0.0,5,7.633,0.0,0.0,0.0,26.2,-5.7,-11.0,1024,1024,1024,1024,0,0,0,0,84,5.537,70.7,162.40158,P-GPS,,49.5
836,226500,2026-01-09 12:40:39,0.0,5,7.633,0.0,0.0,0.0,26.1,-5.8,-11.2,1024,1024,1024,1024,0,0,0,0,84,5.537,70.7,162.40158,P-GPS,,49.5
837,226600,2026-01-09 12:40:39,0.0,5,7.633,0.0,0.0,0.0,26.1,-5.9,-11.3,1024,1024,1024,1024,0,0,0,0,84,5.537,70.7,162.40158,P-GPS,,49.5
838,226700,2026-01-09 12:40:39,0.0,5,7.633,0.0,0.0,0.0,26.1,-5.8,-11.2,1024,1024,1024,1024,0,0,0,0,84,5.537,70.7,162.40158,P-GPS,,49.5
839,226800,2026-01-09 12:40:39,0.0,5,7.633,0.0,0.0,0.0,26.1,-5.9,-11.1,1024,1024,1024,1024,0,0,0,0,84,5.537,70.7,162.40158,P-GPS,,49.5
840,226900,2026-01-09 12:40:39,0.0,5,7.633,0.0,0.0,0.0,26.1,-5.8,-10.8,1024,1024,1024,1024,0,0,0,0,84,5.537,70.7,162.40158,P-GPS,,49.5
841,227000,2026-01-09 12:40:39,0.0,5,7.628,0.0,0.0,0.0,26.1,-5.7,-10.8,1024,1024,1024,1024,0,0,0,0,84,5.631,70.88,162.40158,P-GPS,,49.5
842,227100,2026-01-09 12:40:39,0.0,5,7.628,0.0,0.0,0.0,26.1,-5.8,-10.7,1024,1024,1024,1024,0,0,0,0,84,5.631,70.88,162.40158,P-GPS,,49.5
843,227200,2026-01-09 12:40:40,0.0,5,7.628,0.0,0.0,0.0,26.1,-6.0,-10.8,1024,1024,1024,1024,0,0,0,0,84,5.631,70.88,162.729664,P-GPS,,49.6
844,227300,2026-01-09 12:40:40,0.0,5,7.628,0.0,0.0,0.0,26.0,-6.0,-11.0,1024,1024,1024,1024,0,0,0,0,84,5.631,70.88,162.729664,P-GPS,,49.6
845,227400,2026-01-09 12:40:40,0.0,5,7.628,0.0,0.0,0.0,26.0,-6.1,-10.9,1024,1024,1024,1024,0,0,0,0,84,5.631,70.88,162.729664,P-GPS,,49.6
846,227500,2026-01-09 12:40:40,0.0,5,7.628,0.0,0.0,0.0,26.0,-6.1,-10.7,1024,1024,1024,1024,0,0,0,0,84,5.631,70.88,162.729664,P-GPS,,49.6
847,227600,2026-01-09 12:40:40,0.0,5,7.628,0.0,0.0,0.0,26.0,-6.2,-10.5,1024,1024,1024,1024,0,0,0,0,84,5.631,70.88,162.729664,P-GPS,,49.6
848,227700,2026-01-09 12:40:40,0.0,5,7.628,0.0,0.0,0.0,26.0,-6.2,-10.2,1024,1024,1024,1024,0,0,0,0,84,5.631,70.88,162.729664,P-GPS,,49.6
849,227800,2026-01-09 12:40:40,0.0,5,7.628,0.0,0.0,0.0,26.0,-6.6,-10.3,1024,1024,1024,1024,0,0,0,0,84,5.631,70.88,162.729664,P-GPS,,49.6
850,227900,2026-01-09 12:40:40,0.0,5,7.628,0.0,0.0,0.0,26.1,-6.8,-9.8,1024,1024,1024,1024,0,0,0,0,84,5.631,70.88,162.729664,P-GPS,,49.6
851,228000,2026-01-09 12:40:40,0.0,5,7.628,0.0,0.0,0.0,26.0,-6.8,-9.7,1024,1024,1024,1024,0,0,0,0,84,5.631,70.88,162.729664,P-GPS,,49.6
852,228100,2026-01-09 12:40:40,0.0,5,7.628,0.0,0.0,0.0,26.1,-7.0,-10.0,1024,1024,1024,1024,0,0,0,0,84,5.631,70.88,162.729664,P-GPS,,49.6
853,228200,2026-01-09 12:40:41,0.0,5,7.628,0.0,0.0,0.0,26.1,-7.0,-10.0,1024,1024,1024,1024,0,0,0,0,84,5.631,70.88,162.729664,P-GPS,,49.6
854,228300,2026-01-09 12:40:41,0.0,5,7.628,0.0,0.0,0.0,26.1,-6.7,-10.4,1024,1024,1024,1024,0,0,0,0,84,5.631,70.88,163.057748,P-GPS,,49.7
855,228400,2026-01-09 12:40:41,0.0,5,7.628,0.0,0.0,0.0,26.2,-6.7,-10.5,1024,1024,1024,1024,0,0,0,0,84,5.631,70.88,163.057748,P-GPS,,49.7
856,228500,2026-01-09 12:40:41,0.0,5,7.628,0.0,0.0,0.0,26.2,-6.6,-10.7,1024,1024,1024,1024,0,0,0,0,84,5.631,70.88,163.057748,P-GPS,,49.7
857,228600,2026-01-09 12:40:41,0.0,5,7.628,0.0,0.0,0.0,26.1,-6.4,-11.0,1024,1024,1024,1024,0,0,0,0,84,5.631,70.88,163.057748,P-GPS,,49.7
858,228700,2026-01-09 12:40:41,0.0,5,7.628,0.0,0.0,0.0,26.1,-6.2,-11.3,1024,1024,1024,1024,0,0,0,0,84,5.631,70.88,163.057748,P-GPS,,49.7
859,228800,2026-01-09 12:40:41,0.0,5,7.628,0.0,0.0,0.0,26.0,-5.4,-11.3,1024,1024,1024,1024,0,0,0,0,84,5.631,70.88,163.057748,P-GPS,,49.7
860,228900,2026-01-09 12:40:41,0.0,5,7.601,0.0,0.0,0.0,26.1,-5.6,-11.4,1024,1024,1024,1024,0,0,0,0,84,5.868,70.88,163.057748,P-GPS,,49.7
861,229000,2026-01-09 12:40:41,0.0,5,7.601,0.0,0.0,0.0,26.1,-5.5,-11.4,1024,1024,1024,1024,0,0,0,0,84,5.868,70.88,163.057748,P-GPS,,49.7
862,229100,2026-01-09 12:40:41,0.0,5,7.601,0.0,0.0,0.0,26.2,-5.6,-11.3,1024,1024,1024,1024,0,0,0,0,84,5.868,70.88,163.057748,P-GPS,,49.7
863,229200,2026-01-09 12:40:42,0.0,5,7.601,0.0,0.0,0.0,26.2,-5.8,-11.7,1024,1024,1024,1024,0,0,0,0,84,5.868,70.88,163.057748,P-GPS,,49.7
864,229300,2026-01-09 12:40:42,0.0,5,7.601,0.0,0.0,0.0,26.2,-5.7,-11.9,1024,1024,1024,1024,0,0,0,0,84,5.868,70.88,163.057748,P-GPS,,49.7
865,229400,2026-01-09 12:40:42,0.0,5,7.601,0.0,0.0,0.0,26.1,-5.4,-11.8,1024,1024,1024,1024,0,0,0,0,84,5.868,70.88,163.057748,P-GPS,,49.7
866,229500,2026-01-09 12:40:42,0.0,5,7.601,0.0,0.0,0.0,26.0,-5.1,-11.9,1024,1024,1024,1024,0,0,0,0,84,5.868,70.88,163.057748,P-GPS,,49.7
867,229600,2026-01-09 12:40:42,0.0,5,7.601,0.0,0.0,0.0,26.0,-5.0,-11.6,1024,1024,1024,1024,0,0,0,0,84,5.868,70.88,163.057748,P-GPS,,49.7
868,229700,2026-01-09 12:40:42,0.0,5,7.601,0.0,0.0,0.0,26.1,-5.1,-11.8,1024,1024,1024,1024,0,0,0,0,84,5.868,70.88,163.057748,P-GPS,,49.7
869,229800,2026-01-09 12:40:42,0.0,5,7.627,0.0,0.0,0.0,26.0,-5.0,-11.9,1024,1024,1024,1024,0,0,0,0,84,5.609,70.88,163.057748,P-GPS,,49.7
870,229900,2026-01-09 12:40:42,0.0,5,7.627,0.0,0.0,0.0,26.1,-5.0,-11.6,1024,1024,1024,1024,0,0,0,0,84,5.609,70.88,163.057748,P-GPS,,49.7
871,230000,2026-01-09 12:40:42,0.0,5,7.627,0.0,0.0,0.0,26.0,-4.9,-11.7,1024,1024,1024,1024,0,0,0,0,84,5.609,70.88,163.057748,P-GPS,,49.7
872,230100,2026-01-09 12:40:42,0.0,5,7.627,0.0,0.0,0.0,26.1,-5.3,-11.6,1024,1024,1024,1024,0,0,0,0,84,5.609,70.88,163.057748,P-GPS,,49.7
873,230200,2026-01-09 12:40:43,0.0,5,7.627,0.0,0.0,0.0,26.1,-5.5,-11.3,1024,1024,1024,1024,0,0,0,0,84,5.609,70.88,163.057748,P-GPS,,49.7
874,230300,2026-01-09 12:40:43,0.0,5,7.627,0.0,0.0,0.0,26.1,-5.5,-11.4,1024,1024,1024,1024,0,0,0,0,84,5.609,70.88,163.057748,P-GPS,,49.7
875,230400,2026-01-09 12:40:43,0.0,5,7.627,0.0,0.0,0.0,26.2,-5.1,-11.2,1024,1024,1024,1024,0,0,0,0,84,5.609,70.88,163.057748,P-GPS,,49.7
876,230500,2026-01-09 12:40:43,0.0,5,7.627,0.0,0.0,0.0,26.1,-5.1,-11.6,1024,1024,1024,1024,0,0,0,0,84,5.609,70.88,163.057748,P-GPS,,49.7
877,230600,2026-01-09 12:40:43,0.0,5,7.627,0.0,0.0,0.0,26.2,-5.5,-12.6,1024,1024,1024,1024,0,0,0,0,84,5.609,70.88,163.057748,P-GPS,,49.7
878,230700,2026-01-09 12:40:43,0.0,5,7.627,0.0,0.0,0.0,26.0,-5.2,-12.5,1024,1024,1024,1024,0,0,0,0,84,5.609,70.88,163.385832,P-GPS,,49.8
879,230800,2026-01-09 12:40:43,0.0,5,7.632,0.0,0.0,0.0,26.1,-5.7,-12.0,1024,1024,1024,1024,0,0,0,0,84,5.636,71.06,163.385832,P-GPS,,49.8
880,230900,2026-01-09 12:40:43,0.0,5,7.632,0.0,0.0,0.0,26.1,-5.4,-12.0,1024,1024,1024,1024,0,0,0,0,84,5.636,71.06,163.385832,P-GPS,,49.8
881,231000,2026-01-09 12:40:43,0.0,5,7.632,0.0,0.0,0.0,26.1,-5.5,-12.1,1024,1024,1024,1024,0,0,0,0,84,5.636,71.06,163.385832,P-GPS,,49.8
882,231100,2026-01-09 12:40:43,0.0,5,7.632,0.0,0.0,0.0,26.0,-5.6,-12.5,1024,1024,1024,1024,0,0,0,0,84,5.636,71.06,163.385832,P-GPS,,49.8
883,231200,2026-01-09 12:40:44,0.0,5,7.632,0.0,0.0,0.0,26.0,-6.0,-12.4,1024,1024,1024,1024,0,0,0,0,84,5.636,71.06,163.385832,P-GPS,,49.8
884,231300,2026-01-09 12:40:44,0.0,5,7.632,0.0,0.0,0.0,25.8,-5.4,-12.3,1024,1024,1024,1024,0,0,0,0,84,5.636,71.06,163.057748,P-GPS,,49.7
885,231400,2026-01-09 12:40:44,0.0,5,7.632,0.0,0.0,0.0,25.8,-5.7,-11.4,1024,1024,1024,1024,0,0,0,0,84,5.636,71.06,163.057748,P-GPS,,49.7
886,231500,2026-01-09 12:40:44,0.223694,5,7.632,0.0,-0.223694,0.0,25.8,-6.0,-10.3,1024,1024,1024,1024,0,0,0,0,84,5.636,71.06,163.057748,P-GPS,,49.7
887,231600,2026-01-09 12:40:44,0.223694,5,7.632,0.0,-0.223694,0.0,25.8,-5.8,-9.4,1024,1024,1024,1024,0,0,0,0,84,5.636,71.06,163.057748,P-GPS,,49.7
888,231700,2026-01-09 12:40:44,0.223694,5,7.632,0.0,-0.223694,0.0,25.9,-6.0,-8.7,1024,1024,1024,1024,0,0,0,0,84,5.636,71.06,163.057748,P-GPS,,49.7
889,231800,2026-01-09 12:40:44,0.223694,5,7.612,0.0,-0.223694,0.0,25.9,-6.2,-8.7,1024,1024,1024,1024,0,0,0,0,84,5.715,71.06,163.057748,P-GPS,,49.7
890,231900,2026-01-09 12:40:44,0.223694,5,7.612,0.0,-0.223694,0.0,26.0,-6.5,-8.2,1024,1024,1024,1024,0,0,0,0,84,5.715,71.06,163.057748,P-GPS,,49.7
891,232000,2026-01-09 12:40:44,0.223694,5,7.612,0.0,-0.223694,0.0,26.0,-6.6,-8.2,1024,1024,1024,1024,0,0,0,0,84,5.715,71.06,163.057748,P-GPS,,49.7
892,232100,2026-01-09 12:40:44,0.0,5,7.612,0.0,0.0,0.0,26.0,-6.6,-8.7,1024,1024,1024,1024,0,0,0,0,84,5.715,71.06,162.729664,P-GPS,,49.6
893,232200,2026-01-09 12:40:45,0.0,5,7.612,0.0,0.0,0.0,25.9,-6.8,-8.5,1024,1024,1024,1024,0,0,0,0,84,5.715,71.06,162.729664,P-GPS,,49.6
894,232300,2026-01-09 12:40:45,0.0,5,7.612,0.0,0.0,0.0,26.0,-6.5,-9.1,1024,1024,1024,1024,0,0,0,0,84,5.715,71.06,162.729664,P-GPS,,49.6
895,232400,2026-01-09 12:40:45,0.0,5,7.612,0.0,0.0,0.0,25.9,-6.1,-8.8,1024,1024,1024,1024,0,0,0,0,84,5.715,71.06,162.729664,P-GPS,,49.6
896,232500,2026-01-09 12:40:45,0.0,5,7.612,0.0,0.0,0.0,25.8,-5.9,-8.7,1024,1024,1024,1024,0,0,0,0,84,5.715,71.06,162.729664,P-GPS,,49.6
897,232600,2026-01-09 12:40:45,0.0,5,7.612,0.0,0.0,0.0,25.7,-5.2,-8.7,1024,1024,1024,1024,0,0,0,0,84,5.715,71.06,162.729664,P-GPS,,49.6
898,232700,2026-01-09 12:40:45,0.0,5,7.612,0.0,0.0,0.0,25.7,-4.9,-8.6,1024,1024,1024,1024,0,0,0,0,84,5.715,71.06,162.729664,P-GPS,,49.6
899,232800,2026-01-09 12:40:45,0.0,5,7.625,0.0,0.0,0.0,25.8,-4.9,-8.7,1024,1024,1024,1024,0,0,0,0,84,5.525,71.06,162.729664,P-GPS,,49.6
900,232900,2026-01-09 12:40:45,0.0,5,7.625,0.0,0.0,0.0,25.8,-5.3,-8.6,1024,1024,1024,1024,0,0,0,0,84,5.525,71.06,162.40158,P-GPS,,49.5
901,233000,2026-01-09 12:40:45,0.0,5,7.625,0.0,0.0,0.0,25.6,-4.8,-9.1,1024,1024,1024,1024,0,0,0,0,84,5.525,71.06,162.40158,P-GPS,,49.5
902,233100,2026-01-09 12:40:45,0.0,5,7.625,0.0,0.0,0.0,25.8,-5.5,-8.9,1024,1024,1024,1024,0,0,0,0,84,5.525,71.06,162.729664,P-GPS,,49.6
903,233200,2026-01-09 12:40:46,0.0,5,7.625,0.0,0.0,0.0,25.8,-6.0,-8.3,1024,1024,1024,1024,0,0,0,0,84,5.525,71.06,162.729664,P-GPS,,49.6
904,233300,2026-01-09 12:40:46,0.0,5,7.625,0.0,0.0,0.0,25.9,-6.9,-8.0,1024,1024,1024,1024,0,0,0,0,84,5.525,71.06,162.729664,P-GPS,,49.6
905,233400,2026-01-09 12:40:46,0.0,5,7.625,0.0,0.0,0.0,26.0,-7.2,-7.7,1024,1024,1024,1024,0,0,0,0,84,5.525,71.06,162.729664,P-GPS,,49.6
906,233500,2026-01-09 12:40:46,0.0,5,7.625,0.0,0.0,0.0,25.9,-7.2,-7.9,1024,1024,1024,1024,0,0,0,0,84,5.525,71.06,162.729664,P-GPS,,49.6
907,233600,2026-01-09 12:40:46,0.0,5,7.625,0.0,0.0,0.0,25.9,-7.2,-8.0,1024,1024,1024,1024,0,0,0,0,84,5.525,71.06,163.057748,P-GPS,,49.7
908,233700,2026-01-09 12:40:46,0.0,5,7.617,0.0,0.0,0.0,25.8,-7.1,-8.3,1024,1024,1024,1024,0,0,0,0,84,5.639,71.06,163.057748,P-GPS,,49.7
909,233800,2026-01-09 12:40:46,0.0,5,7.617,0.0,0.0,0.0,26.0,-7.2,-7.6,1024,1024,1024,1024,0,0,0,0,84,5.639,71.06,163.057748,P-GPS,,49.7
910,233900,2026-01-09 12:40:46,0.0,5,7.617,0.0,0.0,0.0,25.9,-6.9,-8.0,1024,1024,1024,1024,0,0,0,0,84,5.639,71.06,162.729664,P-GPS,,49.6
911,234000,2026-01-09 12:40:46,0.0,5,7.617,0.0,0.0,0.0,25.9,-6.7,-8.3,1024,1024,1024,1024,0,0,0,0,84,5.639,71.06,162.729664,P-GPS,,49.6
912,234100,2026-01-09 12:40:47,0.0,5,7.617,0.0,0.0,0.0,25.8,-5.8,-8.7,1024,1024,1024,1024,0,0,0,0,84,5.639,71.06,162.729664,P-GPS,,49.6
913,234200,2026-01-09 12:40:47,0.0,5,7.617,0.0,0.0,0.0,25.6,-5.3,-9.0,1024,1024,1024,1024,0,0,0,0,84,5.639,71.06,162.729664,P-GPS,,49.6
914,234300,2026-01-09 12:40:47,0.0,5,7.617,0.0,0.0,0.0,25.6,-4.9,-9.0,1024,1024,1024,1024,0,0,0,0,84,5.639,71.06,162.729664,P-GPS,,49.6
915,234400,2026-01-09 12:40:47,0.0,5,7.617,0.0,0.0,0.0,25.6,-4.8,-8.9,1024,1024,1024,1024,0,0,0,0,84,5.639,71.06,162.729664,P-GPS,,49.6
916,234500,2026-01-09 12:40:47,0.0,5,7.617,0.0,0.0,0.0,25.7,-4.8,-8.5,1024,1024,1024,1024,0,0,0,0,84,5.639,71.06,162.729664,P-GPS,,49.6
917,234600,2026-01-09 12:40:47,0.0,5,7.617,0.0,0.0,0.0,25.6,-4.5,-8.5,1024,1024,1024,1024,0,0,0,0,84,5.639,71.06,162.729664,P-GPS,,49.6
918,234700,2026-01-09 12:40:47,0.0,5,7.617,0.0,0.0,0.0,25.7,-4.4,-8.7,1024,1024,1024,1024,0,0,0,0,84,5.639,71.06,162.729664,P-GPS,,49.6
919,234800,2026-01-09 12:40:47,0.0,5,7.617,0.0,0.0,0.0,25.6,-4.6,-9.4,1024,1024,1024,1024,0,0,0,0,84,5.639,71.06,162.729664,P-GPS,,49.6
920,234900,2026-01-09 12:40:47,0.0,5,7.617,0.0,0.0,0.0,25.6,-4.7,-9.2,1024,1024,1024,1024,0,0,0,0,84,5.639,71.06,162.729664,P-GPS,,49.6
921,235000,2026-01-09 12:40:47,0.0,5,7.617,0.0,0.0,0.0,25.6,-4.1,-9.2,1024,1024,1024,1024,0,0,0,0,84,5.639,71.06,162.40158,P-GPS,,49.5
922,235100,2026-01-09 12:40:47,0.0,5,7.617,0.0,0.0,0.0,25.9,-4.9,-8.8,1024,1024,1024,1024,0,0,0,0,84,5.639,71.06,162.40158,P-GPS,,49.5
923,235200,2026-01-09 12:40:48,0.0,5,7.617,0.0,0.0,0.0,26.0,-5.3,-8.2,1024,1024,1024,1024,0,0,0,0,84,5.639,71.06,162.729664,P-GPS,,49.6
924,235300,2026-01-09 12:40:48,0.0,5,7.617,0.0,0.0,0.0,26.0,-5.8,-8.0,1024,1024,1024,1024,0,0,0,0,84,5.639,71.06,162.729664,P-GPS,,49.6
925,235400,2026-01-09 12:40:48,0.0,5,7.617,0.0,0.0,0.0,25.8,-5.8,-8.0,1024,1024,1024,1024,0,0,0,0,84,5.639,71.06,162.40158,P-GPS,,49.5
926,235500,2026-01-09 12:40:48,0.0,5,7.617,0.0,0.0,0.0,25.8,-5.8,-7.9,1024,1024,1024,1024,0,0,0,0,84,5.639,71.06,162.40158,P-GPS,,49.5
927,235600,2026-01-09 12:40:48,0.0,5,7.617,0.0,0.0,0.0,25.8,-6.0,-7.6,1024,1024,1024,1024,0,0,0,0,84,5.639,71.06,162.40158,P-GPS,,49.5
928,235700,2026-01-09 12:40:48,0.0,5,7.617,0.0,0.0,0.0,25.9,-6.1,-7.8,1024,1024,1024,1024,0,0,0,0,84,5.639,71.06,162.40158,P-GPS,,49.5
929,235800,2026-01-09 12:40:48,0.0,5,7.617,0.0,0.0,0.0,25.9,-5.7,-8.1,1024,1024,1024,1024,0,0,0,0,84,5.639,71.06,162.40158,P-GPS,,49.5
930,235900,2026-01-09 12:40:48,0.0,5,7.625,0.0,0.0,0.0,25.8,-5.5,-8.4,1024,1024,1024,1024,0,0,0,0,84,5.356,71.24,162.40158,P-GPS,,49.5
931,236000,2026-01-09 12:40:48,0.0,5,7.625,0.0,0.0,0.0,25.8,-5.7,-8.5,1024,1024,1024,1024,0,0,0,0,84,5.356,71.24,162.40158,P-GPS,,49.5
932,236100,2026-01-09 12:40:48,0.0,5,7.625,0.0,0.0,0.0,25.8,-5.7,-8.6,1024,1024,1024,1024,0,0,0,0,84,5.356,71.24,162.40158,P-GPS,,49.5
933,236200,2026-01-09 12:40:49,0.0,5,7.625,0.0,0.0,0.0,25.8,-5.7,-8.5,1024,1024,1024,1024,0,0,0,0,84,5.356,71.24,162.40158,P-GPS,,49.5
934,236300,2026-01-09 12:40:49,0.0,5,7.625,0.0,0.0,0.0,25.7,-5.4,-8.3,1024,1024,1024,1024,0,0,0,0,84,5.356,71.24,162.40158,P-GPS,,49.5
935,236400,2026-01-09 12:40:49,0.0,5,7.625,0.0,0.0,0.0,25.8,-5.3,-8.3,1024,1024,1024,1024,0,0,0,0,84,5.356,71.24,162.40158,P-GPS,,49.5
936,236500,2026-01-09 12:40:49,0.0,5,7.625,0.0,0.0,0.0,25.7,-4.9,-9.0,1024,1024,1024,1024,0,0,0,0,84,5.356,71.24,162.40158,P-GPS,,49.5
937,236600,2026-01-09 12:40:49,0.0,5,7.625,0.0,0.0,0.0,25.7,-4.7,-9.2,1024,1024,1024,1024,0,0,0,0,84,5.356,71.24,162.40158,P-GPS,,49.5
938,236700,2026-01-09 12:40:49,0.0,5,7.625,0.0,0.0,0.0,25.9,-4.9,-9.0,1024,1024,1024,1024,0,0,0,0,84,5.356,71.24,162.40158,P-GPS,,49.5
939,236800,2026-01-09 12:40:49,0.0,5,7.625,0.0,0.0,0.0,25.7,-4.3,-9.5,1024,1024,1024,1024,0,0,0,0,84,5.356,71.24,162.40158,P-GPS,,49.5
940,236900,2026-01-09 12:40:49,0.0,5,7.625,0.0,0.0,0.0,25.7,-4.1,-9.8,1024,1024,1024,1024,0,0,0,0,84,5.356,71.24,162.40158,P-GPS,,49.5
941,237000,2026-01-09 12:40:49,0.0,5,7.636,0.0,0.0,0.0,25.7,-4.1,-9.7,1024,1024,1024,1024,0,0,0,0,83,5.346,71.06,162.40158,P-GPS,,49.5
942,237100,2026-01-09 12:40:49,0.0,5,7.636,0.0,0.0,0.0,25.7,-4.1,-9.7,1024,1024,1024,1024,0,0,0,0,83,5.346,71.06,162.40158,P-GPS,,49.5
943,237200,2026-01-09 12:40:50,0.0,5,7.636,0.0,0.0,0.0,25.9,-4.4,-9.8,1024,1024,1024,1024,0,0,0,0,83,5.346,71.06,162.40158,P-GPS,,49.5
944,237300,2026-01-09 12:40:50,0.0,5,7.636,0.0,0.0,0.0,26.0,-4.9,-10.3,1024,1024,1024,1024,0,0,0,0,83,5.346,71.06,162.40158,P-GPS,,49.5
945,237400,2026-01-09 12:40:50,0.0,5,7.636,0.0,0.0,0.0,26.1,-5.1,-10.7,1024,1024,1024,1024,0,0,0,0,83,5.346,71.06,162.40158,P-GPS,,49.5
946,237500,2026-01-09 12:40:50,0.0,5,7.636,0.0,0.0,0.0,26.2,-5.7,-11.2,1024,1024,1024,1024,0,0,0,0,83,5.346,71.06,162.40158,P-GPS,,49.5
947,237600,2026-01-09 12:40:50,0.0,5,7.636,0.0,0.0,0.0,26.1,-5.5,-11.3,1024,1024,1024,1024,0,0,0,0,83,5.346,71.06,162.729664,P-GPS,,49.6
948,237700,2026-01-09 12:40:50,0.0,5,7.636,0.0,0.0,0.0,26.1,-5.2,-11.2,1024,1024,1024,1024,0,0,0,0,83,5.346,71.06,162.729664,P-GPS,,49.6
949,237800,2026-01-09 12:40:50,0.0,5,7.636,0.0,0.0,0.0,26.0,-4.6,-11.3,1024,1024,1024,1024,0,0,0,0,83,5.346,71.06,162.729664,P-GPS,,49.6
950,237900,2026-01-09 12:40:50,0.0,5,7.636,0.0,0.0,0.0,26.0,-4.4,-11.6,1024,1024,1024,1024,0,0,0,0,83,5.346,71.06,162.729664,P-GPS,,49.6
951,238000,2026-01-09 12:40:50,0.0,5,7.636,0.0,0.0,0.0,26.0,-4.3,-12.1,1024,1024,1024,1024,0,0,0,0,83,5.346,71.06,163.057748,P-GPS,,49.7
952,238100,2026-01-09 12:40:50,0.0,5,7.597,0.0,0.0,0.0,26.1,-4.5,-12.3,1024,1024,1024,1024,0,0,0,0,83,6.029,71.06,163.057748,P-GPS,,49.7
953,238200,2026-01-09 12:40:51,0.0,5,7.597,0.0,0.0,0.0,26.0,-4.3,-12.4,1024,1024,1024,1024,0,0,0,0,83,6.029,71.06,163.057748,P-GPS,,49.7
954,238300,2026-01-09 12:40:51,0.0,5,7.597,0.0,0.0,0.0,25.8,-4.2,-13.0,1024,1024,1024,1024,0,0,0,0,83,6.029,71.06,163.057748,P-GPS,,49.7
955,238400,2026-01-09 12:40:51,0.0,5,7.597,0.0,0.0,0.0,25.8,-3.9,-12.4,1024,1024,1024,1024,0,0,0,0,83,6.029,71.06,163.057748,P-GPS,,49.7
956,238500,2026-01-09 12:40:51,0.0,5,7.597,0.0,0.0,0.0,26.0,-4.2,-11.5,1024,1024,1024,1024,0,0,0,0,83,6.029,71.06,162.729664,P-GPS,,49.6
957,238600,2026-01-09 12:40:51,0.0,5,7.597,0.0,0.0,0.0,25.9,-4.2,-11.4,1024,1024,1024,1024,0,0,0,0,83,6.029,71.06,162.729664,P-GPS,,49.6
958,238700,2026-01-09 12:40:51,0.0,5,7.597,0.0,0.0,0.0,25.9,-4.1,-11.4,1024,1024,1024,1024,0,0,0,0,83,6.029,71.06,162.729664,P-GPS,,49.6
959,238800,2026-01-09 12:40:51,0.0,5,7.597,0.0,0.0,0.0,26.0,-4.3,-11.4,1024,1024,1024,1024,0,0,0,0,83,6.029,71.06,162.729664,P-GPS,,49.6
960,238900,2026-01-09 12:40:51,0.0,5,7.597,0.0,0.0,0.0,26.3,-4.9,-11.0,1024,1024,1024,1024,0,0,0,0,83,6.029,71.06,163.057748,P-GPS,,49.7
961,239000,2026-01-09 12:40:51,0.0,5,7.597,0.0,0.0,0.0,26.3,-5.4,-10.7,1024,1024,1024,1024,0,0,0,0,83,6.029,71.06,163.057748,P-GPS,,49.7
962,239100,2026-01-09 12:40:51,0.223694,5,7.597,0.0,-0.223694,0.0,26.2,-5.3,-10.6,1024,1024,1024,1024,0,0,0,0,83,6.029,71.06,163.057748,P-GPS,,49.7
963,239200,2026-01-09 12:40:52,0.223694,5,7.633,0.0,-0.223694,0.0,26.3,-6.5,-10.0,1024,1024,1024,1024,0,0,0,0,83,5.459,71.24,163.057748,P-GPS,,49.7
964,239300,2026-01-09 12:40:52,0.223694,5,7.633,0.0,-0.223694,0.0,26.1,-6.9,-9.5,1024,1024,1024,1024,0,0,0,0,83,5.459,71.24,163.057748,P-GPS,,49.7
965,239400,2026-01-09 12:40:52,0.0,5,7.633,0.0,0.0,0.0,25.9,-6.6,-9.3,1024,1024,1024,1024,0,0,0,0,83,5.459,71.24,163.057748,P-GPS,,49.7
966,239500,2026-01-09 12:40:52,0.0,5,7.633,0.0,0.0,0.0,25.8,-6.6,-9.6,1024,1024,1024,1024,0,0,0,0,83,5.459,71.24,163.057748,P-GPS,,49.7
967,239600,2026-01-09 12:40:52,0.0,5,7.633,0.0,0.0,0.0,25.7,-6.7,-9.6,1024,1024,1024,1024,0,0,0,0,83,5.459,71.24,163.057748,P-GPS,,49.7
968,239700,2026-01-09 12:40:52,0.0,5,7.633,0.0,0.0,0.0,25.6,-6.3,-9.4,1024,1024,1024,1024,0,0,0,0,83,5.459,71.24,163.057748,P-GPS,,49.7
969,239800,2026-01-09 12:40:52,0.0,5,7.633,0.0,0.0,0.0,25.7,-6.0,-8.7,1024,1024,1024,1024,0,0,0,0,83,5.459,71.24,163.057748,P-GPS,,49.7
970,239900,2026-01-09 12:40:52,0.0,5,7.633,0.0,0.0,0.0,25.7,-6.2,-8.7,1024,1024,1024,1024,0,0,0,0,83,5.459,71.24,163.057748,P-GPS,,49.7
971,240000,2026-01-09 12:40:52,0.0,5,7.633,0.0,0.0,0.0,25.7,-6.1,-8.2,1024,1024,1024,1024,0,0,0,0,83,5.459,71.24,163.057748,P-GPS,,49.7
972,240100,2026-01-09 12:40:52,0.223694,5,7.633,0.223694,0.0,0.0,25.7,-5.0,-8.3,1024,1024,1024,1024,0,0,0,0,83,5.459,71.24,163.057748,P-GPS,,49.7
973,240200,2026-01-09 12:40:53,0.223694,5,7.633,0.223694,0.0,0.0,25.7,-4.1,-8.4,1024,1024,1024,1024,0,0,0,0,83,5.459,71.24,162.729664,P-GPS,,49.6
974,240300,2026-01-09 12:40:53,0.223694,5,7.574,0.223694,0.0,0.0,25.7,-3.3,-8.6,1024,1024,1024,1024,0,0,0,0,83,6.448,71.42,162.729664,P-GPS,,49.6
975,240400,2026-01-09 12:40:53,0.0,5,7.574,0.0,0.0,0.0,25.7,-3.1,-9.3,1024,1024,1024,1024,0,0,0,0,83,6.448,71.42,162.729664,P-GPS,,49.6
976,240500,2026-01-09 12:40:53,0.0,5,7.574,0.0,0.0,0.0,25.7,-3.1,-9.8,1024,1024,1024,1024,0,0,0,0,83,6.448,71.42,162.729664,P-GPS,,49.6
977,240600,2026-01-09 12:40:53,0.0,5,7.574,0.0,0.0,0.0,25.6,-3.1,-10.2,1024,1024,1024,1024,0,0,0,0,83,6.448,71.42,162.40158,P-GPS,,49.5
978,240700,2026-01-09 12:40:53,0.0,5,7.574,0.0,0.0,0.0,25.6,-3.3,-10.6,1024,1024,1024,1024,0,0,0,0,83,6.448,71.42,162.40158,P-GPS,,49.5
979,240800,2026-01-09 12:40:53,0.0,5,7.574,0.0,0.0,0.0,25.6,-3.5,-10.7,1024,1024,1024,1024,0,0,0,0,83,6.448,71.42,162.40158,P-GPS,,49.5
980,240900,2026-01-09 12:40:53,0.0,5,7.574,0.0,0.0,0.0,25.7,-3.7,-10.4,1024,1024,1024,1024,0,0,0,0,83,6.448,71.42,162.40158,P-GPS,,49.5
981,241000,2026-01-09 12:40:53,0.0,5,7.574,0.0,0.0,0.0,25.7,-3.7,-10.2,1024,1024,1024,1024,0,0,0,0,83,6.448,71.42,162.40158,P-GPS,,49.5
982,241100,2026-01-09 12:40:54,0.0,5,7.574,0.0,0.0,0.0,25.9,-3.6,-9.8,1024,1024,1024,1024,0,0,0,0,83,6.448,71.42,162.40158,P-GPS,,49.5
983,241200,2026-01-09 12:40:54,0.0,5,7.574,0.0,0.0,0.0,25.9,-3.5,-10.2,1024,1024,1024,1024,0,0,0,0,83,6.448,71.42,162.40158,P-GPS,,49.5
984,241300,2026-01-09 12:40:54,0.0,5,7.574,0.0,0.0,0.0,25.9,-3.3,-10.7,1024,1024,1024,1024,0,0,0,0,83,6.448,71.42,162.40158,P-GPS,,49.5
985,241400,2026-01-09 12:40:54,0.0,5,7.593,0.0,0.0,0.0,25.9,-3.6,-11.4,1024,1024,1024,1024,0,0,0,0,83,5.911,71.42,162.40158,P-GPS,,49.5
986,241500,2026-01-09 12:40:54,0.0,5,7.593,0.0,0.0,0.0,25.9,-4.3,-11.7,1024,1024,1024,1024,0,0,0,0,83,5.911,71.42,162.729664,P-GPS,,49.6
987,241600,2026-01-09 12:40:54,0.0,5,7.593,0.0,0.0,0.0,25.8,-3.2,-11.3,1024,1024,1024,1024,0,0,0,0,83,5.911,71.42,162.729664,P-GPS,,49.6
988,241700,2026-01-09 12:40:54,0.0,5,7.593,0.0,0.0,-0.447388,26.0,-3.9,-10.7,1024,1024,1024,1024,0,0,0,0,83,5.911,71.42,162.729664,P-GPS,,49.6
989,241800,2026-01-09 12:40:54,0.0,5,7.593,0.0,0.0,-0.447388,26.0,-4.3,-11.0,1024,1024,1024,1024,0,0,0,0,83,5.911,71.42,162.729664,P-GPS,,49.6
990,241900,2026-01-09 12:40:54,0.0,5,7.593,0.0,0.0,-0.447388,26.0,-5.0,-11.6,1024,1024,1024,1024,0,0,0,0,83,5.911,71.42,163.057748,P-GPS,,49.7
991,242000,2026-01-09 12:40:54,0.0,5,7.593,0.0,0.0,-0.223694,26.2,-5.2,-11.6,1024,1024,1024,1024,0,0,0,0,83,5.911,71.42,163.057748,P-GPS,,49.7
992,242100,2026-01-09 12:40:54,0.0,5,7.593,0.0,0.0,0.0,25.9,-4.3,-11.2,1024,1024,1024,1024,0,0,0,0,83,5.911,71.42,163.057748,P-GPS,,49.7
993,242200,2026-01-09 12:40:55,0.0,5,7.593,0.0,0.0,0.0,25.8,-4.4,-11.0,1024,1024,1024,1024,0,0,0,0,83,5.911,71.42,162.729664,P-GPS,,49.6
994,242300,2026-01-09 12:40:55,0.0,5,7.593,0.0,0.0,0.0,25.7,-4.4,-10.4,1024,1024,1024,1024,0,0,0,0,83,5.911,71.42,162.729664,P-GPS,,49.6
995,242400,2026-01-09 12:40:55,0.0,5,7.593,0.0,0.0,0.0,25.4,-3.4,-9.9,1024,1024,1024,1024,0,0,0,0,83,5.911,71.42,162.729664,P-GPS,,49.6
996,242500,2026-01-09 12:40:55,0.223694,5,7.593,0.0,-0.223694,0.0,25.5,-4.5,-8.6,1024,1024,1024,1024,0,0,0,0,83,5.911,71.42,162.40158,P-GPS,,49.5
997,242600,2026-01-09 12:40:55,0.447388,5,7.664,0.0,-0.447388,0.0,25.7,-5.7,-6.9,1024,1024,1024,1024,0,0,0,0,83,5.243,71.42,162.40158,P-GPS,,49.5
998,242700,2026-01-09 12:40:55,0.447388,5,7.664,0.0,-0.447388,0.0,25.7,-5.8,-6.0,1024,1024,1024,1024,0,0,0,0,83,5.243,71.42,162.40158,P-GPS,,49.5
999,242800,2026-01-09 12:40:55,0.447388,5,7.664,0.0,-0.447388,0.0,25.7,-6.3,-5.3,1024,1024,1024,1024,0,0,0,0,83,5.243,71.42,162.40158,P-GPS,,49.5
1000,242900,2026-01-09 12:40:55,0.447388,5,7.664,0.0,-0.447388,0.0,25.8,-6.7,-5.1,1024,1024,1024,1024,0,0,0,0,83,5.243,71.42,162.729664,P-GPS,,49.6
1001,243000,2026-01-09 12:40:55,0.223694,5,7.664,0.0,-0.223694,0.0,25.9,-8.3,-4.6,1024,1024,1024,1024,0,0,0,0,83,5.243,71.42,162.729664,P-GPS,,49.6
1002,243100,2026-01-09 12:40:56,0.223694,5,7.664,0.0,-0.223694,0.0,25.7,-6.9,-5.0,1024,1024,1024,1024,0,0,0,0,83,5.243,71.42,162.729664,P-GPS,,49.6
1003,243200,2026-01-09 12:40:56,0.223694,5,7.664,0.0,0.0,0.0,25.6,-6.5,-5.9,1024,1024,1024,1024,0,0,0,0,83,5.243,71.42,162.729664,P-GPS,,49.6
1004,243300,2026-01-09 12:40:56,0.0,5,7.664,0.0,0.0,-0.223694,25.5,-6.1,-6.3,1024,1024,1024,1024,0,0,0,0,83,5.243,71.42,162.729664,P-GPS,,49.6
1005,243400,2026-01-09 12:40:56,0.0,5,7.664,0.0,0.0,-0.223694,25.6,-7.1,-6.1,1024,1024,1024,1024,0,0,0,0,83,5.243,71.42,162.729664,P-GPS,,49.6
1006,243500,2026-01-09 12:40:56,0.0,5,7.664,0.0,0.0,0.0,25.7,-7.4,-6.5,1024,1024,1024,1024,0,0,0,0,83,5.243,71.42,162.729664,P-GPS,,49.6
1007,243600,2026-01-09 12:40:56,0.0,5,7.664,0.0,0.0,0.0,25.7,-7.1,-6.0,1024,1024,1024,1024,0,0,0,0,83,5.243,71.42,162.729664,P-GPS,,49.6
1008,243700,2026-01-09 12:40:56,0.0,5,7.617,0.0,0.0,0.0,25.7,-6.2,-6.5,1024,1024,1024,1024,0,0,0,0,83,5.851,71.42,162.729664,P-GPS,,49.6
1009,243800,2026-01-09 12:40:56,0.0,5,7.617,0.0,0.0,0.0,25.7,-6.3,-7.1,1024,1024,1024,1024,0,0,0,0,83,5.851,71.42,162.729664,P-GPS,,49.6
1010,243900,2026-01-09 12:40:56,0.0,5,7.617,0.0,0.0,0.0,25.6,-6.8,-7.7,1024,1024,1024,1024,0,0,0,0,83,5.851,71.42,163.057748,P-GPS,,49.7
1011,244000,2026-01-09 12:40:56,0.0,5,7.617,0.0,0.0,0.0,25.7,-6.5,-6.9,1024,1024,1024,1024,0,0,0,0,83,5.851,71.42,163.057748,P-GPS,,49.7
1012,244100,2026-01-09 12:40:56,0.0,5,7.617,0.0,0.0,0.0,25.8,-6.6,-6.6,1024,1024,1024,1024,0,0,0,0,83,5.851,71.42,163.057748,P-GPS,,49.7
1013,244200,2026-01-09 12:40:57,0.0,5,7.617,0.0,0.0,0.0,25.9,-7.3,-6.3,1024,1024,1024,1024,0,0,0,0,83,5.851,71.42,163.057748,P-GPS,,49.7
1014,244300,2026-01-09 12:40:57,0.0,5,7.617,0.0,0.0,0.0,25.9,-7.8,-6.4,1024,1024,1024,1024,0,0,0,0,83,5.851,71.42,163.385832,P-GPS,,49.8
1015,244400,2026-01-09 12:40:57,0.0,5,7.617,0.0,0.0,0.0,26.0,-7.8,-6.7,1024,1024,1024,1024,0,0,0,0,83,5.851,71.42,163.385832,P-GPS,,49.8
1016,244500,2026-01-09 12:40:57,0.0,5,7.617,0.0,0.0,0.0,25.8,-7.7,-7.7,1024,1024,1024,1024,0,0,0,0,83,5.851,71.42,163.385832,P-GPS,,49.8
1017,244600,2026-01-09 12:40:57,0.0,5,7.617,0.0,0.0,0.0,25.8,-7.3,-7.3,1024,1024,1024,1024,0,0,0,0,83,5.851,71.42,163.713916,P-GPS,,49.9
1018,244700,2026-01-09 12:40:57,0.0,5,7.617,0.0,0.0,0.0,26.0,-7.7,-7.2,1024,1024,1024,1024,0,0,0,0,83,5.851,71.42,163.713916,P-GPS,,49.9
1019,244800,2026-01-09 12:40:57,0.0,5,7.617,0.0,0.0,0.0,25.9,-6.9,-7.5,1024,1024,1024,1024,0,0,0,0,83,5.851,71.42,163.713916,P-GPS,,49.9
1020,244900,2026-01-09 12:40:57,0.0,5,7.617,0.0,0.0,0.0,25.7,-6.0,-8.3,1024,1024,1024,1024,0,0,0,0,83,5.851,71.42,163.713916,P-GPS,,49.9
1021,245000,2026-01-09 12:40:57,0.0,5,7.617,0.0,0.0,0.0,25.8,-6.1,-8.0,1024,1024,1024,1024,0,0,0,0,83,5.851,71.42,163.713916,P-GPS,,49.9
1022,245100,2026-01-09 12:40:57,0.0,5,7.617,0.0,0.0,0.0,25.8,-6.7,-7.9,1024,1024,1024,1024,0,0,0,0,83,5.851,71.42,163.713916,P-GPS,,49.9
1023,245200,2026-01-09 12:40:58,0.0,5,7.617,0.0,0.0,0.0,25.8,-6.9,-7.4,1024,1024,1024,1024,0,0,0,0,83,5.851,71.42,163.713916,P-GPS,,49.9
1024,245300,2026-01-09 12:40:58,0.0,5,7.617,0.0,0.0,0.0,25.9,-7.2,-6.6,1024,1024,1024,1024,0,0,0,0,83,5.851,71.42,163.713916,P-GPS,,49.9
1025,245400,2026-01-09 12:40:58,0.0,5,7.617,0.0,0.0,0.0,25.7,-6.6,-6.8,1024,1024,1024,1024,0,0,0,0,83,5.851,71.42,163.713916,P-GPS,,49.9
1026,245500,2026-01-09 12:40:58,0.0,5,7.617,0.0,0.0,0.0,25.7,-6.2,-6.3,1024,1024,1024,1024,0,0,0,0,83,5.851,71.42,163.713916,P-GPS,,49.9
1027,245600,2026-01-09 12:40:58,0.0,5,7.617,0.0,0.0,0.0,25.8,-6.8,-5.9,1024,1024,1024,1024,0,0,0,0,83,5.851,71.42,163.713916,P-GPS,,49.9
1028,245700,2026-01-09 12:40:58,0.0,5,7.617,0.0,0.0,0.0,25.7,-6.4,-6.4,1024,1024,1024,1024,0,0,0,0,83,5.851,71.42,163.713916,P-GPS,,49.9
1029,245800,2026-01-09 12:40:58,0.0,5,7.617,0.0,0.0,0.0,25.7,-6.1,-6.4,1024,1024,1024,1024,0,0,0,0,83,5.851,71.42,163.713916,P-GPS,,49.9
1030,245900,2026-01-09 12:40:58,0.0,5,7.591,0.0,0.0,0.0,25.8,-6.0,-6.7,1024,1024,1024,1024,0,0,0,0,83,6.126,71.42,163.713916,P-GPS,,49.9
1031,246000,2026-01-09 12:40:58,0.0,5,7.591,0.0,0.0,0.0,25.7,-6.2,-6.9,1024,1024,1024,1024,0,0,0,0,83,6.126,71.42,164.042,P-GPS,,50.0
1032,246100,2026-01-09 12:40:58,0.0,5,7.591,0.0,0.0,0.0,25.7,-6.2,-7.1,1024,1024,1024,1024,0,0,0,0,83,6.126,71.42,164.042,P-GPS,,50.0
1033,246200,2026-01-09 12:40:59,0.0,5,7.591,0.0,0.0,0.0,25.8,-6.2,-6.8,1024,1024,1024,1024,0,0,0,0,83,6.126,71.42,164.042,P-GPS,,50.0
1034,246300,2026-01-09 12:40:59,0.0,5,7.591,0.0,0.0,0.0,25.8,-5.9,-7.0,1024,1024,1024,1024,0,0,0,0,83,6.126,71.42,164.042,P-GPS,,50.0
1035,246400,2026-01-09 12:40:59,0.0,5,7.591,0.0,0.0,0.0,26.2,-5.8,-6.4,1024,1024,1024,1024,0,0,0,0,83,6.126,71.42,164.042,P-GPS,,50.0
1036,246500,2026-01-09 12:40:59,0.0,5,7.591,0.0,0.0,-0.223694,26.7,-6.8,-6.5,1024,1024,1024,1024,0,0,0,0,83,6.126,71.42,164.370084,P-GPS,,50.1
1037,246600,2026-01-09 12:40:59,0.223694,5,7.591,0.0,0.223694,-0.223694,26.6,-6.0,-9.3,1024,1024,1024,1024,0,0,0,0,83,6.126,71.42,164.698168,P-GPS,,50.2
1038,246700,2026-01-09 12:40:59,0.223694,5,7.591,0.0,0.223694,-0.223694,26.7,-6.5,-9.5,1024,1024,1024,1024,0,0,0,0,83,6.126,71.42,164.698168,P-GPS,,50.2
1039,246800,2026-01-09 12:40:59,0.223694,5,7.591,0.0,0.223694,-0.223694,26.6,-6.1,-9.6,1024,1024,1024,1024,0,0,0,0,83,6.126,71.42,164.698168,P-GPS,,50.2
1040,246900,2026-01-09 12:40:59,0.223694,5,7.591,0.0,0.223694,-0.223694,26.4,-5.1,-9.6,1024,1024,1024,1024,0,0,0,0,83,6.126,71.42,164.698168,P-GPS,,50.2
1041,247000,2026-01-09 12:40:59,0.0,5,7.579,0.0,0.0,0.0,26.2,-4.5,-9.5,1024,1024,1024,1024,0,0,0,0,83,6.117,71.42,164.370084,P-GPS,,50.1
1042,247100,2026-01-09 12:41:00,0.0,5,7.579,0.0,0.0,0.0,26.1,-4.5,-8.4,1024,1024,1024,1024,0,0,0,0,83,6.117,71.42,164.370084,P-GPS,,50.1
1043,247200,2026-01-09 12:41:00,0.0,5,7.579,0.0,0.0,0.223694,25.7,-2.9,-8.3,1024,1024,1024,1024,0,0,0,0,83,6.117,71.42,164.042,P-GPS,,50.0
1044,247300,2026-01-09 12:41:00,0.0,5,7.579,0.0,0.0,0.0,25.8,-3.4,-8.0,1024,1024,1024,1024,0,0,0,0,83,6.117,71.42,164.042,P-GPS,,50.0
1045,247400,2026-01-09 12:41:00,0.0,5,7.579,0.0,0.0,0.223694,25.8,-3.4,-7.9,1024,1024,1024,1024,0,0,0,0,83,6.117,71.42,163.713916,P-GPS,,49.9
1046,247500,2026-01-09 12:41:00,0.0,5,7.579,0.0,0.0,0.0,25.5,-2.9,-7.6,1024,1024,1024,1024,0,0,0,0,83,6.117,71.42,163.713916,P-GPS,,49.9
1047,247600,2026-01-09 12:41:00,0.0,5,7.579,0.0,0.0,0.0,25.5,-2.9,-7.9,1024,1024,1024,1024,0,0,0,0,83,6.117,71.42,163.385832,P-GPS,,49.8
1048,247700,2026-01-09 12:41:00,0.0,5,7.579,0.0,0.0,0.0,25.4,-2.3,-7.9,1024,1024,1024,1024,0,0,0,0,83,6.117,71.42,163.385832,P-GPS,,49.8
1049,247800,2026-01-09 12:41:00,0.0,5,7.579,0.0,0.0,0.0,25.4,-2.3,-7.7,1024,1024,1024,1024,0,0,0,0,83,6.117,71.42,163.057748,P-GPS,,49.7
1050,247900,2026-01-09 12:41:00,0.0,5,7.579,0.0,0.0,0.0,25.3,-1.7,-8.1,1024,1024,1024,1024,0,0,0,0,83,6.117,71.42,163.057748,P-GPS,,49.7
1051,248000,2026-01-09 12:41:00,0.0,5,7.579,0.0,0.0,0.0,25.5,-2.7,-7.8,1024,1024,1024,1024,0,0,0,0,83,6.117,71.42,162.729664,P-GPS,SD card speed low SD card speed low. Normal use may be affected. Replace SD card (Code: 10028). Gimbal stuck. Make sure gimbal cover is removed and manually check whether gimbal can rotate freely (Code: 40002),49.6
1052,248100,2026-01-09 12:41:00,0.223694,5,7.643,0.0,-0.223694,0.0,25.6,-4.4,-5.9,1024,1024,1024,1024,0,0,0,0,83,4.7,71.6,162.729664,P-GPS,,49.6
1053,248200,2026-01-09 12:41:01,0.223694,5,7.643,0.0,-0.223694,0.0,25.5,-4.5,-5.2,1024,1024,1024,1024,0,0,0,0,83,4.7,71.6,162.729664,P-GPS,,49.6
1054,248300,2026-01-09 12:41:01,0.223694,5,7.643,0.0,-0.223694,0.0,25.2,-5.3,-4.4,1024,1024,1024,1024,0,0,0,0,83,4.7,71.6,162.40158,P-GPS,,49.5
1055,248400,2026-01-09 12:41:01,0.447388,5,7.643,0.0,-0.447388,0.0,25.4,-5.6,-3.8,1024,1024,1024,1024,0,0,0,0,83,4.7,71.6,162.40158,P-GPS,,49.5
1056,248500,2026-01-09 12:41:01,0.447388,5,7.643,0.0,-0.447388,0.0,25.4,-6.6,-3.1,1024,1024,1024,1024,0,0,0,0,83,4.7,71.6,162.40158,P-GPS,,49.5
1057,248600,2026-01-09 12:41:01,0.223694,5,7.643,0.0,-0.223694,0.0,25.4,-6.5,-2.8,1024,1024,1024,1024,0,0,0,0,83,4.7,71.6,162.40158,P-GPS,,49.5
1058,248700,2026-01-09 12:41:01,0.0,5,7.643,0.0,0.0,0.0,25.4,-6.2,-3.2,1024,1024,1024,1024,0,0,0,0,83,4.7,71.6,162.40158,P-GPS,,49.5
