index,time(millisecond),timestamp,speed(mph),gpslevel,voltage(v),xSpeed(mph),ySpeed(mph),zSpeed(mph),compass_heading(degrees),pitch(degrees),roll(degrees),rc_elevator,rc_aileron,rc_throttle,rc_rudder,rc_elevator(percent),rc_aileron(percent),rc_throttle(percent),rc_rudder(percent),battery_percent,current(A),battery_temperature(f),ascent(feet),flycState,message,height_above_takeoff(meters)
84,592900,2026-01-07 12:42:37,0.0,5,7.234,0.0,0.0,0.0,26.8,8.7,0.5,1024,1024,1024,1024,0,0,0,0,57,7.133,73.76,35.433072,P-GPS,,10.8
85,593000,2026-01-07 12:42:37,0.0,5,7.234,0.0,0.0,0.0,26.7,8.7,0.8,1024,1024,1024,1024,0,0,0,0,57,7.133,73.76,35.433072,P-GPS,,10.8
86,593100,2026-01-07 12:42:37,0.0,5,7.234,0.0,0.0,0.0,26.7,8.0,0.7,1024,1024,1024,1024,0,0,0,0,57,7.133,73.76,35.433072,P-GPS,,10.8
87,593200,2026-01-07 12:42:38,0.223694,5,7.234,-0.223694,0.0,0.0,26.7,7.1,0.8,1024,1024,1024,1024,0,0,0,0,57,7.133,73.76,35.433072,P-GPS,,10.8
88,593300,2026-01-07 12:42:38,0.223694,5,7.234,-0.223694,0.0,0.0,26.7,7.1,0.6,1024,1024,1024,1024,0,0,0,0,57,7.133,73.76,35.433072,P-GPS,,10.8
89,593400,2026-01-07 12:42:38,0.223694,5,7.234,-0.223694,0.0,0.0,26.7,7.0,0.3,1024,1024,1024,1024,0,0,0,0,57,7.133,73.76,35.104988,P-GPS,,10.7
90,593500,2026-01-07 12:42:38,0.223694,5,7.234,-0.223694,0.0,0.0,26.7,7.0,-0.1,1024,1024,1024,1024,0,0,0,0,57,7.133,73.76,35.104988,P-GPS,,10.7
91,593600,2026-01-07 12:42:38,0.0,5,7.363,0.0,0.0,0.0,26.7,6.9,-0.1,1024,1024,1024,1024,0,0,0,0,57,5.177,73.76,35.104988,P-GPS,,10.7
92,593700,2026-01-07 12:42:38,0.0,5,7.363,0.0,0.0,0.0,26.8,6.4,0.2,1024,1024,1024,1024,0,0,0,0,57,5.177,73.76,35.104988,P-GPS,,10.7
93,593800,2026-01-07 12:42:38,0.0,5,7.363,0.0,0.0,0.0,26.7,6.1,0.2,1024,1024,1024,1024,0,0,0,0,57,5.177,73.76,35.104988,P-GPS,,10.7
94,593900,2026-01-07 12:42:38,0.0,5,7.363,0.0,0.0,0.0,26.6,5.1,0.9,1024,1024,1024,1024,0,0,0,0,57,5.177,73.76,35.104988,P-GPS,,10.7
95,594000,2026-01-07 12:42:38,0.0,5,7.363,0.0,0.0,0.0,26.5,5.1,1.0,1024,1024,1024,1024,0,0,0,0,57,5.177,73.76,35.104988,P-GPS,,10.7
96,594100,2026-01-07 12:42:38,0.0,5,7.363,0.0,0.0,0.0,26.5,4.9,1.2,1024,1024,1024,1024,0,0,0,0,57,5.177,73.76,34.776904,P-GPS,,10.6
97,594200,2026-01-07 12:42:39,0.223694,5,7.363,0.0,-0.223694,0.0,26.5,5.2,1.2,1024,1024,1024,1024,0,0,0,0,57,5.177,73.76,34.776904,P-GPS,,10.6
98,594300,2026-01-07 12:42:39,0.223694,5,7.363,0.0,-0.223694,0.0,26.5,5.0,1.4,1024,1024,1024,1024,0,0,0,0,57,5.177,73.76,34.776904,P-GPS,,10.6
99,594400,2026-01-07 12:42:39,0.223694,5,7.363,0.0,-0.223694,0.0,26.5,5.0,2.1,1024,1024,1024,1024,0,0,0,0,57,5.177,73.76,34.776904,P-GPS,,10.6
100,594500,2026-01-07 12:42:39,0.223694,5,7.363,0.0,-0.223694,0.0,26.7,5.0,2.7,1024,1024,1024,1024,0,0,0,0,57,5.177,73.76,34.776904,P-GPS,,10.6
101,594600,2026-01-07 12:42:39,0.223694,5,7.363,0.0,-0.223694,0.0,26.7,5.0,2.8,1024,1024,1024,1024,0,0,0,0,57,5.177,73.76,34.776904,P-GPS,,10.6
102,594700,2026-01-07 12:42:39,0.223694,5,7.363,0.0,-0.223694,0.0,26.8,5.1,2.9,1024,1024,1024,1024,0,0,0,0,57,5.177,73.76,34.776904,P-GPS,,10.6
103,594800,2026-01-07 12:42:39,0.0,5,7.307,0.0,0.0,0.0,26.7,5.2,2.9,1024,1024,1024,1024,0,0,0,0,57,4.935,73.76,34.776904,P-GPS,,10.6
104,594900,2026-01-07 12:42:39,0.0,5,7.307,0.0,0.0,0.0,26.7,5.2,2.9,1024,1024,1024,1024,0,0,0,0,57,4.935,73.76,34.776904,P-GPS,,10.6
105,595000,2026-01-07 12:42:39,0.0,5,7.307,0.0,0.0,0.0,26.7,5.2,3.2,1024,1024,1024,1024,0,0,0,0,57,4.935,73.76,34.776904,P-GPS,,10.6
106,595100,2026-01-07 12:42:39,0.0,5,7.307,0.0,0.0,0.0,26.7,5.0,3.0,1024,1024,1024,1024,0,0,0,0,57,4.935,73.76,34.776904,P-GPS,,10.6
107,595200,2026-01-07 12:42:40,0.0,5,7.307,0.0,0.0,0.0,26.7,5.3,3.3,1024,1024,1024,1024,0,0,0,0,57,4.935,73.76,34.776904,P-GPS,,10.6
108,595300,2026-01-07 12:42:40,0.0,5,7.307,0.0,0.0,0.0,26.8,5.2,3.2,1024,1024,1024,1024,0,0,0,0,57,4.935,73.76,34.776904,P-GPS,,10.6
109,595400,2026-01-07 12:42:40,0.0,5,7.307,0.0,0.0,0.0,26.9,5.7,3.0,1024,1024,1024,1024,0,0,0,0,57,4.935,73.76,34.776904,P-GPS,,10.6
110,595500,2026-01-07 12:42:40,0.0,5,7.307,0.0,0.0,0.0,26.9,5.9,2.8,1024,1024,1024,1024,0,0,0,0,57,4.935,73.76,34.776904,P-GPS,,10.6
111,595600,2026-01-07 12:42:40,0.0,5,7.307,0.0,0.0,0.0,26.8,5.9,2.8,1024,1024,1024,1024,0,0,0,0,57,4.935,73.76,34.776904,P-GPS,,10.6
112,595700,2026-01-07 12:42:40,0.0,5,7.307,0.0,0.0,0.0,26.8,5.9,2.3,1024,1024,1024,1024,0,0,0,0,57,4.935,73.76,34.776904,P-GPS,,10.6
113,595800,2026-01-07 12:42:40,0.0,5,7.307,0.0,0.0,0.0,26.8,5.9,1.6,1024,1024,1024,1024,0,0,0,0,57,4.935,73.76,34.776904,P-GPS,SD card speed low. Normal use may be affected. Replace SD card (Code: 10028). Gimbal stuck. Make sure gimbal cover is removed and manually check whether gimbal can rotate freely (Code: 40002),10.6
114,595900,2026-01-07 12:42:40,0.0,5,7.31,0.0,0.0,0.0,26.8,6.0,1.4,1024,1024,1024,1024,0,0,0,0,57,4.947,73.76,34.44882,P-GPS,,10.5
115,596000,2026-01-07 12:42:40,0.0,5,7.31,0.0,0.0,0.0,26.8,6.1,0.8,1024,1024,1024,1024,0,0,0,0,57,4.947,73.76,34.44882,P-GPS,,10.5
116,596100,2026-01-07 12:42:40,0.0,5,7.31,0.0,0.0,0.0,26.7,5.6,0.6,1024,1024,1024,1024,0,0,0,0,57,4.947,73.76,34.44882,P-GPS,,10.5
117,596200,2026-01-07 12:42:41,0.0,5,7.31,0.0,0.0,0.0,26.7,5.6,0.8,1024,1024,1024,1024,0,0,0,0,57,4.947,73.76,34.44882,P-GPS,,10.5
118,596300,2026-01-07 12:42:41,0.0,5,7.31,0.0,0.0,0.0,26.8,5.5,0.3,1024,1024,1024,1024,0,0,0,0,57,4.947,73.76,34.44882,P-GPS,,10.5
119,596400,2026-01-07 12:42:41,0.0,5,7.31,0.0,0.0,0.0,26.8,5.6,0.7,1024,1024,1024,1024,0,0,0,0,57,4.947,73.76,34.44882,P-GPS,,10.5
120,596500,2026-01-07 12:42:41,0.0,5,7.31,0.0,0.0,0.0,26.8,5.7,1.2,1024,1024,1024,1024,0,0,0,0,57,4.947,73.76,34.44882,P-GPS,,10.5
121,596600,2026-01-07 12:42:41,0.0,5,7.31,0.0,0.0,0.0,26.8,5.2,1.6,1024,1024,1024,1024,0,0,0,0,57,4.947,73.76,34.44882,P-GPS,,10.5
122,596700,2026-01-07 12:42:41,0.0,5,7.31,0.0,0.0,0.0,26.8,5.9,1.2,1024,1024,1024,1024,0,0,0,0,57,4.947,73.76,34.44882,P-GPS,,10.5
123,596800,2026-01-07 12:42:41,0.0,5,7.31,0.0,0.0,0.0,26.8,6.4,1.4,1024,1024,1024,1024,0,0,0,0,57,4.947,73.76,34.44882,P-GPS,,10.5
124,596900,2026-01-07 12:42:41,0.0,5,7.31,0.0,0.0,0.0,27.0,6.2,1.7,1024,1024,1024,1024,0,0,0,0,57,4.947,73.76,34.120736,P-GPS,,10.4
125,597000,2026-01-07 12:42:41,0.0,5,7.31,0.0,0.0,0.0,27.0,5.9,1.4,1024,1024,1024,1024,0,0,0,0,57,4.947,73.76,34.120736,P-GPS,,10.4
126,597100,2026-01-07 12:42:41,0.0,5,7.311,0.0,0.0,0.0,27.0,5.7,0.5,1024,1024,1024,1024,0,0,0,0,57,4.704,73.76,34.120736,P-GPS,,10.4
127,597200,2026-01-07 12:42:42,0.0,5,7.311,0.0,0.0,0.0,27.0,5.8,0.0,1024,1024,1024,1024,0,0,0,0,57,4.704,73.76,34.120736,P-GPS,,10.4
128,597300,2026-01-07 12:42:42,0.0,5,7.311,0.0,0.0,0.0,27.0,5.9,-0.3,1024,1024,1024,1024,0,0,0,0,57,4.704,73.76,34.120736,P-GPS,,10.4
129,597400,2026-01-07 12:42:42,0.0,5,7.311,0.0,0.0,0.0,27.0,6.1,-0.3,1024,1024,1024,1024,0,0,0,0,57,4.704,73.76,34.120736,P-GPS,,10.4
130,597500,2026-01-07 12:42:42,0.0,5,7.311,0.0,0.0,0.0,26.9,6.4,-1.3,1024,1024,1024,1024,0,0,0,0,57,4.704,73.76,34.120736,P-GPS,,10.4
131,597600,2026-01-07 12:42:42,0.0,5,7.311,0.0,0.0,0.0,26.8,6.4,-1.4,1024,1024,1024,1024,0,0,0,0,57,4.704,73.76,34.120736,P-GPS,,10.4
132,597700,2026-01-07 12:42:42,0.0,5,7.311,0.0,0.0,0.0,26.7,6.7,-0.9,1024,1024,1024,1024,0,0,0,0,57,4.704,73.76,34.120736,P-GPS,,10.4
133,597800,2026-01-07 12:42:42,0.0,5,7.311,0.0,0.0,0.0,26.8,6.7,0.2,1024,1024,1024,1024,0,0,0,0,57,4.704,73.76,34.120736,P-GPS,,10.4
134,597900,2026-01-07 12:42:42,0.0,5,7.311,0.0,0.0,0.0,26.9,6.8,0.7,1024,1024,1024,1024,0,0,0,0,57,4.704,73.76,34.120736,P-GPS,,10.4
135,598000,2026-01-07 12:42:42,0.0,5,7.311,0.0,0.0,0.0,27.0,6.4,0.2,1024,1024,1024,1024,0,0,0,0,57,4.704,73.76,34.120736,P-GPS,,10.4
136,598100,2026-01-07 12:42:42,0.0,5,7.311,0.0,0.0,0.0,26.9,5.9,-0.2,1024,1024,1024,1024,0,0,0,0,57,4.704,73.76,34.120736,P-GPS,,10.4
137,598200,2026-01-07 12:42:43,0.0,5,7.307,0.0,0.0,0.0,26.8,6.0,0.0,1024,1024,1024,1024,0,0,0,0,56,4.896,73.76,34.120736,P-GPS,,10.4
138,598300,2026-01-07 12:42:43,0.0,5,7.307,0.0,0.0,0.0,27.0,6.5,-0.1,1024,1024,1024,1024,0,0,0,0,56,4.896,73.76,34.120736,P-GPS,,10.4
139,598400,2026-01-07 12:42:43,0.0,5,7.307,0.0,0.0,0.0,26.9,6.4,-0.3,1024,1024,1024,1024,0,0,0,0,56,4.896,73.76,34.120736,P-GPS,,10.4
140,598500,2026-01-07 12:42:43,0.0,5,7.307,0.0,0.0,0.0,26.8,5.6,-0.6,1024,1024,1024,1024,0,0,0,0,56,4.896,73.76,34.120736,P-GPS,,10.4
141,598600,2026-01-07 12:42:43,0.0,5,7.307,0.0,0.0,0.0,26.7,5.9,-0.4,1024,1024,1024,1024,0,0,0,0,56,4.896,73.76,34.120736,P-GPS,,10.4
142,598700,2026-01-07 12:42:43,0.0,5,7.307,0.0,0.0,0.0,26.7,6.0,0.1,1024,1024,1024,1024,0,0,0,0,56,4.896,73.76,34.120736,P-GPS,,10.4
143,598800,2026-01-07 12:42:43,0.0,5,7.307,0.0,0.0,0.0,26.8,6.9,1.4,1024,1024,1024,1024,0,0,0,0,56,4.896,73.76,34.120736,P-GPS,,10.4
144,598900,2026-01-07 12:42:43,0.0,5,7.307,0.0,0.0,0.0,26.9,6.9,0.8,1024,1024,1024,1024,0,0,0,0,56,4.896,73.76,34.120736,P-GPS,,10.4
145,599000,2026-01-07 12:42:43,0.0,5,7.307,0.0,0.0,0.0,26.9,7.0,1.3,1024,1024,1024,1024,0,0,0,0,56,4.896,73.76,34.120736,P-GPS,,10.4
146,599100,2026-01-07 12:42:43,0.0,5,7.307,0.0,0.0,0.0,26.8,7.1,0.8,1024,1024,1024,1024,0,0,0,0,56,4.896,73.76,34.120736,P-GPS,,10.4
147,599200,2026-01-07 12:42:44,0.0,5,7.307,0.0,0.0,0.0,26.8,6.9,0.4,1024,1024,1024,1024,0,0,0,0,56,4.896,73.76,34.120736,P-GPS,,10.4
148,599300,2026-01-07 12:42:44,0.0,5,7.312,0.0,0.0,0.0,26.8,6.2,0.4,1024,1024,1024,1024,0,0,0,0,56,4.795,73.76,34.120736,P-GPS,,10.4
149,599400,2026-01-07 12:42:44,0.0,5,7.312,0.0,0.0,0.0,27.0,5.7,-0.6,1024,1024,1024,1024,0,0,0,0,56,4.795,73.76,34.120736,P-GPS,,10.4
150,599500,2026-01-07 12:42:44,0.0,5,7.312,0.0,0.0,0.0,27.1,6.0,-2.0,1024,1024,1024,1024,0,0,0,0,56,4.795,73.76,34.120736,P-GPS,,10.4
151,599600,2026-01-07 12:42:44,0.0,5,7.312,0.0,0.0,0.0,27.2,5.3,-2.4,1024,1024,1024,1024,0,0,0,0,56,4.795,73.76,34.120736,P-GPS,,10.4
152,599700,2026-01-07 12:42:44,0.223694,5,7.312,0.0,0.223694,0.0,27.2,5.9,-2.7,1024,1024,1024,1024,0,0,0,0,56,4.795,73.76,34.120736,P-GPS,,10.4
153,599800,2026-01-07 12:42:44,0.223694,5,7.312,0.0,0.223694,0.0,27.1,6.7,-3.4,1024,1024,1024,1024,0,0,0,0,56,4.795,73.76,34.120736,P-GPS,,10.4
154,599900,2026-01-07 12:42:44,0.223694,5,7.312,0.0,0.223694,0.0,27.0,7.4,-3.9,1024,1024,1024,1024,0,0,0,0,56,4.795,73.76,34.120736,P-GPS,,10.4
155,600000,2026-01-07 12:42:44,0.0,5,7.312,0.0,0.0,0.0,26.9,7.5,-3.9,1024,1024,1024,1024,0,0,0,0,56,4.795,73.76,34.120736,P-GPS,,10.4
156,600100,2026-01-07 12:42:44,0.0,5,7.312,0.0,0.0,0.0,26.9,7.2,-3.9,1024,1024,1024,1024,0,0,0,0,56,4.795,73.76,34.120736,P-GPS,,10.4
157,600200,2026-01-07 12:42:44,0.0,5,7.312,0.0,0.0,0.0,26.8,7.1,-3.8,1024,1024,1024,1024,0,0,0,0,56,4.795,73.76,34.120736,P-GPS,,10.4
158,600300,2026-01-07 12:42:45,0.0,5,7.312,0.0,0.0,0.0,26.8,6.8,-3.7,1024,1024,1024,1024,0,0,0,0,56,4.795,73.76,34.120736,P-GPS,,10.4
159,600400,2026-01-07 12:42:45,0.0,5,7.318,0.0,0.0,0.0,26.8,6.6,-3.9,1024,1024,1024,1024,0,0,0,0,56,4.533,73.76,34.120736,P-GPS,,10.4
160,600500,2026-01-07 12:42:45,0.0,5,7.318,0.0,0.0,0.0,26.8,6.5,-3.1,1024,1024,1024,1024,0,0,0,0,56,4.533,73.76,34.120736,P-GPS,,10.4
161,600600,2026-01-07 12:42:45,0.0,5,7.318,0.0,0.0,0.0,26.9,6.6,-3.0,1024,1024,1024,1024,0,0,0,0,56,4.533,73.76,34.120736,P-GPS,,10.4
162,600700,2026-01-07 12:42:45,0.0,5,7.318,0.0,0.0,0.0,26.8,6.7,-2.6,1024,1024,1024,1024,0,0,0,0,56,4.533,73.76,34.120736,P-GPS,,10.4
163,600800,2026-01-07 12:42:45,0.0,5,7.318,0.0,0.0,0.0,26.9,7.1,-2.2,1024,1024,1024,1024,0,0,0,0,56,4.533,73.76,34.120736,P-GPS,,10.4
164,600900,2026-01-07 12:42:45,0.0,5,7.318,0.0,0.0,0.0,27.0,6.8,-1.4,1024,1024,1024,1024,0,0,0,0,56,4.533,73.76,34.120736,P-GPS,,10.4
165,601000,2026-01-07 12:42:45,0.0,5,7.318,0.0,0.0,0.0,27.1,7.2,-2.0,1024,1024,1024,1024,0,0,0,0,56,4.533,73.76,34.120736,P-GPS,,10.4
166,601100,2026-01-07 12:42:45,0.0,5,7.318,0.0,0.0,0.0,27.1,7.6,-2.1,1024,1024,1024,1024,0,0,0,0,56,4.533,73.76,34.120736,P-GPS,,10.4
167,601200,2026-01-07 12:42:46,0.0,5,7.318,0.0,0.0,0.0,27.0,7.7,-2.5,1024,1024,1024,1024,0,0,0,0,56,4.533,73.76,33.792652,P-GPS,,10.3
168,601300,2026-01-07 12:42:46,0.0,5,7.318,0.0,0.0,0.0,26.9,7.2,-2.6,1024,1024,1024,1024,0,0,0,0,56,4.533,73.76,33.792652,P-GPS,,10.3
169,601400,2026-01-07 12:42:46,0.0,5,7.318,0.0,0.0,0.0,26.7,7.2,-2.9,1024,1024,1024,1024,0,0,0,0,56,4.533,73.76,33.792652,P-GPS,,10.3
170,601500,2026-01-07 12:42:46,0.0,5,7.317,0.0,0.0,0.0,26.7,7.2,-2.3,1024,1024,1024,1024,0,0,0,0,56,4.454,73.76,33.792652,P-GPS,,10.3
171,601600,2026-01-07 12:42:46,0.0,5,7.317,0.0,0.0,0.0,26.7,7.7,-2.2,1024,1024,1024,1024,0,0,0,0,56,4.454,73.76,33.464568,P-GPS,,10.2
172,601700,2026-01-07 12:42:46,0.0,5,7.317,0.0,0.0,0.0,26.8,7.5,-1.4,1024,1024,1024,1024,0,0,0,0,56,4.454,73.76,33.464568,P-GPS,,10.2
173,601800,2026-01-07 12:42:46,0.0,5,7.317,0.0,0.0,0.0,26.8,7.9,-1.4,1024,1024,1024,1024,0,0,0,0,56,4.454,73.76,33.464568,P-GPS,,10.2
174,601900,2026-01-07 12:42:46,0.0,5,7.317,0.0,0.0,0.0,26.8,7.9,-1.4,1024,1024,1024,1024,0,0,0,0,56,4.454,73.76,33.464568,P-GPS,,10.2
175,602000,2026-01-07 12:42:46,0.0,5,7.317,0.0,0.0,0.0,26.7,7.8,-1.5,1024,1024,1024,1024,0,0,0,0,56,4.454,73.76,33.464568,P-GPS,,10.2
176,602100,2026-01-07 12:42:46,0.0,5,7.317,0.0,0.0,0.0,26.6,7.8,-1.5,1024,1024,1024,1024,0,0,0,0,56,4.454,73.76,33.464568,P-GPS,,10.2
177,602200,2026-01-07 12:42:47,0.0,5,7.317,0.0,0.0,0.0,26.6,7.5,-1.3,1024,1024,1024,1024,0,0,0,0,56,4.454,73.76,33.464568,P-GPS,,10.2
178,602300,2026-01-07 12:42:47,0.0,5,7.317,0.0,0.0,0.0,26.6,7.0,-1.5,1024,1024,1024,1024,0,0,0,0,56,4.454,73.76,33.464568,P-GPS,,10.2
179,602400,2026-01-07 12:42:47,0.0,5,7.317,0.0,0.0,0.0,26.6,7.2,-0.7,1024,1024,1024,1024,0,0,0,0,56,4.454,73.76,33.464568,P-GPS,,10.2
180,602500,2026-01-07 12:42:47,0.0,5,7.317,0.0,0.0,0.0,26.6,6.9,-0.8,1024,1024,1024,1024,0,0,0,0,56,4.454,73.76,33.464568,P-GPS,,10.2
181,602600,2026-01-07 12:42:47,0.0,5,7.317,0.0,0.0,0.0,26.6,6.7,-0.5,1024,1024,1024,1024,0,0,0,0,56,4.454,73.76,33.136484,P-GPS,,10.1
182,602700,2026-01-07 12:42:47,0.0,5,7.317,0.0,0.0,0.0,26.6,7.3,-0.3,1024,1024,1024,1024,0,0,0,0,56,4.454,73.76,33.136484,P-GPS,,10.1
183,602800,2026-01-07 12:42:47,0.0,5,7.317,0.0,0.0,0.0,26.7,7.3,-0.1,1024,1024,1024,1024,0,0,0,0,56,4.454,73.76,33.136484,P-GPS,,10.1
184,602900,2026-01-07 12:42:47,0.0,5,7.317,0.0,0.0,0.0,26.8,7.4,0.0,1024,1024,1024,1024,0,0,0,0,56,4.454,73.76,33.136484,P-GPS,,10.1
185,603000,2026-01-07 12:42:47,0.0,5,7.317,0.0,0.0,0.0,26.9,7.3,-0.1,1024,1024,1024,1024,0,0,0,0,56,4.454,73.76,33.136484,P-GPS,,10.1
186,603100,2026-01-07 12:42:47,0.0,5,7.317,0.0,0.0,0.0,26.6,7.1,-1.4,1024,1024,1024,1024,0,0,0,0,56,4.454,73.76,33.464568,P-GPS,,10.2
187,603200,2026-01-07 12:42:48,0.0,5,7.317,0.0,0.0,0.0,26.5,7.0,-1.8,1024,1024,1024,1024,0,0,0,0,56,4.454,73.76,33.464568,P-GPS,,10.2
188,603300,2026-01-07 12:42:48,0.0,5,7.317,0.0,0.0,0.0,26.6,6.6,-1.9,1024,1024,1024,1024,0,0,0,0,56,4.454,73.76,33.464568,P-GPS,,10.2
189,603400,2026-01-07 12:42:48,0.0,5,7.317,0.0,0.0,0.0,26.6,7.0,-2.4,1024,1024,1024,1024,0,0,0,0,56,4.454,73.76,33.464568,P-GPS,,10.2
190,603500,2026-01-07 12:42:48,0.0,5,7.317,0.0,0.0,0.0,26.5,7.0,-2.2,1024,1024,1024,1024,0,0,0,0,56,4.454,73.76,33.464568,P-GPS,,10.2
191,603600,2026-01-07 12:42:48,0.0,5,7.317,0.0,0.0,0.0,26.5,6.7,-1.9,1024,1024,1024,1024,0,0,0,0,56,4.454,73.76,33.464568,P-GPS,,10.2
192,603700,2026-01-07 12:42:48,0.0,5,7.3,0.0,0.0,0.0,26.6,6.7,-2.2,1024,1024,1024,1024,0,0,0,0,56,4.889,73.76,33.464568,P-GPS,,10.2
193,603800,2026-01-07 12:42:48,0.0,5,7.3,0.0,0.0,0.0,26.6,6.5,-2.0,1024,1024,1024,1024,0,0,0,0,56,4.889,73.76,33.464568,P-GPS,,10.2
194,603900,2026-01-07 12:42:48,0.0,5,7.3,0.0,0.0,0.0,26.6,6.5,-2.0,1024,1024,1024,1024,0,0,0,0,56,4.889,73.76,33.464568,P-GPS,,10.2
195,604000,2026-01-07 12:42:48,0.0,5,7.3,0.0,0.0,0.0,26.7,6.8,-1.9,1024,1024,1024,1024,0,0,0,0,56,4.889,73.76,33.792652,P-GPS,,10.3
196,604100,2026-01-07 12:42:48,0.0,5,7.3,0.0,0.0,0.0,26.6,7.1,-1.9,1024,1024,1024,1024,0,0,0,0,56,4.889,73.76,33.792652,P-GPS,,10.3
197,604200,2026-01-07 12:42:49,0.0,5,7.3,0.0,0.0,0.0,26.7,7.2,-1.7,1024,1024,1024,1024,0,0,0,0,56,4.889,73.76,33.792652,P-GPS,,10.3
198,604300,2026-01-07 12:42:49,0.0,5,7.3,0.0,0.0,0.0,26.7,7.5,-1.7,1024,1024,1024,1024,0,0,0,0,56,4.889,73.76,33.792652,P-GPS,,10.3
199,604400,2026-01-07 12:42:49,0.0,5,7.3,0.0,0.0,0.0,26.7,7.6,-1.8,1024,1024,1024,1024,0,0,0,0,56,4.889,73.76,33.792652,P-GPS,,10.3
200,604500,2026-01-07 12:42:49,0.0,5,7.3,0.0,0.0,0.0,26.7,7.7,-1.8,1024,1024,1024,1024,0,0,0,0,56,4.889,73.76,33.792652,P-GPS,,10.3
201,604600,2026-01-07 12:42:49,0.0,5,7.3,0.0,0.0,0.0,26.6,7.7,-1.8,1024,1024,1024,1024,0,0,0,0,56,4.889,73.76,33.792652,P-GPS,,10.3
202,604700,2026-01-07 12:42:49,0.0,5,7.3,0.0,0.0,0.0,26.6,7.7,-1.6,1024,1024,1024,1024,0,0,0,0,56,4.889,73.76,33.792652,P-GPS,,10.3
203,604800,2026-01-07 12:42:49,0.0,5,7.3,0.0,0.0,0.0,26.7,7.5,-1.1,1024,1024,1024,1024,0,0,0,0,56,4.889,73.76,33.792652,P-GPS,,10.3
204,604900,2026-01-07 12:42:49,0.0,5,7.289,0.0,0.0,0.0,26.7,7.3,-1.2,1024,1024,1024,1024,0,0,0,0,56,4.924,73.76,33.792652,P-GPS,,10.3
205,605000,2026-01-07 12:42:49,0.0,5,7.289,0.0,0.0,0.0,26.6,7.6,-1.6,1024,1024,1024,1024,0,0,0,0,56,4.924,73.76,33.792652,P-GPS,,10.3
206,605100,2026-01-07 12:42:50,0.0,5,7.289,0.0,0.0,0.0,26.6,7.8,-1.9,1024,1024,1024,1024,0,0,0,0,56,4.924,73.76,33.792652,P-GPS,,10.3
207,605200,2026-01-07 12:42:50,0.0,5,7.289,0.0,0.0,0.0,26.6,7.5,-1.8,1024,1024,1024,1024,0,0,0,0,56,4.924,73.76,33.792652,P-GPS,,10.3
208,605300,2026-01-07 12:42:50,0.0,5,7.289,0.0,0.0,0.0,26.6,7.2,-1.7,1024,1024,1024,1024,0,0,0,0,56,4.924,73.76,33.792652,P-GPS,,10.3
209,605400,2026-01-07 12:42:50,0.0,5,7.289,0.0,0.0,0.0,26.6,7.0,-1.6,1024,1024,1024,1024,0,0,0,0,56,4.924,73.76,33.792652,P-GPS,,10.3
210,605500,2026-01-07 12:42:50,0.0,5,7.289,0.0,0.0,0.0,26.5,6.6,-1.6,1024,1024,1024,1024,0,0,0,0,56,4.924,73.76,33.792652,P-GPS,,10.3
211,605600,2026-01-07 12:42:50,0.0,5,7.289,0.0,0.0,0.0,26.6,6.5,-1.4,1024,1024,1024,1024,0,0,0,0,56,4.924,73.76,33.792652,P-GPS,,10.3
212,605700,2026-01-07 12:42:50,0.0,5,7.289,0.0,0.0,0.0,26.6,6.5,-1.5,1024,1024,1024,1024,0,0,0,0,56,4.924,73.76,33.792652,P-GPS,,10.3
213,605800,2026-01-07 12:42:50,0.0,5,7.289,0.0,0.0,0.0,26.6,6.7,-1.5,1024,1024,1024,1024,0,0,0,0,56,4.924,73.76,33.792652,P-GPS,,10.3
214,605900,2026-01-07 12:42:50,0.0,5,7.289,0.0,0.0,0.0,26.6,6.4,-1.5,1024,1024,1024,1024,0,0,0,0,56,4.924,73.76,33.792652,P-GPS,,10.3
215,606000,2026-01-07 12:42:50,0.0,5,7.282,0.0,0.0,0.0,26.6,6.4,-1.5,1024,1024,1024,1024,0,0,0,0,56,4.973,73.76,33.792652,P-GPS,,10.3
216,606100,2026-01-07 12:42:50,0.0,5,7.282,0.0,0.0,0.0,26.6,6.2,-1.1,1024,1024,1024,1024,0,0,0,0,56,4.973,73.76,33.792652,P-GPS,,10.3
217,606200,2026-01-07 12:42:51,0.0,5,7.282,0.0,0.0,0.0,26.6,5.8,-0.9,1024,1024,1024,1024,0,0,0,0,56,4.973,73.76,33.792652,P-GPS,,10.3
218,606300,2026-01-07 12:42:51,0.0,5,7.282,0.0,0.0,0.0,26.6,6.1,-0.8,1024,1024,1024,1024,0,0,0,0,56,4.973,73.76,33.792652,P-GPS,,10.3
219,606400,2026-01-07 12:42:51,0.0,5,7.282,0.0,0.0,0.0,26.6,6.2,-0.6,1024,1024,1024,1024,0,0,0,0,56,4.973,73.76,33.792652,P-GPS,,10.3
220,606500,2026-01-07 12:42:51,0.0,5,7.282,0.0,0.0,0.0,26.6,6.1,-0.7,1024,1024,1024,1024,0,0,0,0,56,4.973,73.76,33.792652,P-GPS,,10.3
221,606600,2026-01-07 12:42:51,0.0,5,7.282,0.0,0.0,0.0,26.6,5.9,-1.0,1024,1024,1024,1024,0,0,0,0,56,4.973,73.76,33.792652,P-GPS,,10.3
222,606700,2026-01-07 12:42:51,0.0,5,7.282,0.0,0.0,0.0,26.6,5.9,-0.9,1024,1024,1024,1024,0,0,0,0,56,4.973,73.76,33.792652,P-GPS,,10.3
223,606800,2026-01-07 12:42:51,0.0,5,7.282,0.0,0.0,0.0,26.6,5.9,-0.8,1024,1024,1024,1024,0,0,0,0,56,4.973,73.76,33.792652,P-GPS,,10.3
224,606900,2026-01-07 12:42:51,0.0,5,7.282,0.0,0.0,0.0,26.6,6.0,-0.7,1024,1024,1024,1024,0,0,0,0,56,4.973,73.76,33.792652,P-GPS,,10.3
225,607000,2026-01-07 12:42:51,0.0,5,7.282,0.0,0.0,0.0,26.7,6.1,-0.5,1024,1024,1024,1024,0,0,0,0,56,4.973,73.76,33.792652,P-GPS,,10.3
226,607100,2026-01-07 12:42:52,0.0,5,7.269,0.0,0.0,0.0,26.7,6.0,-0.6,1024,1024,1024,1024,0,0,0,0,56,5.249,73.76,34.120736,P-GPS,,10.4
227,607200,2026-01-07 12:42:52,0.0,5,7.269,0.0,0.0,0.0,26.7,6.0,-0.6,1024,1024,1024,1024,0,0,0,0,56,5.249,73.76,34.120736,P-GPS,,10.4
228,607300,2026-01-07 12:42:52,0.0,5,7.269,0.0,0.0,0.0,26.7,6.1,-0.5,1024,1024,1024,1024,0,0,0,0,56,5.249,73.76,34.120736,P-GPS,,10.4
229,607400,2026-01-07 12:42:52,0.0,5,7.269,0.0,0.0,0.0,26.6,6.2,-0.7,1024,1024,1024,1024,0,0,0,0,56,5.249,73.76,34.120736,P-GPS,,10.4
230,607500,2026-01-07 12:42:52,0.0,5,7.269,0.0,0.0,0.0,26.7,6.2,-0.6,1024,1024,1024,1024,0,0,0,0,56,5.249,73.76,34.120736,P-GPS,,10.4
231,607600,2026-01-07 12:42:52,0.0,5,7.269,0.0,0.0,0.0,26.7,5.9,-0.6,1024,1024,1024,1024,0,0,0,0,56,5.249,73.76,34.120736,P-GPS,,10.4
232,607700,2026-01-07 12:42:52,0.0,5,7.269,0.0,0.0,0.0,26.6,6.0,-0.7,1024,1024,1024,1024,0,0,0,0,56,5.249,73.76,34.120736,P-GPS,,10.4
233,607800,2026-01-07 12:42:52,0.0,5,7.269,0.0,0.0,0.0,26.7,6.1,-0.7,1024,1024,1024,1024,0,0,0,0,56,5.249,73.76,34.120736,P-GPS,,10.4
234,607900,2026-01-07 12:42:52,0.0,5,7.269,0.0,0.0,0.0,26.7,6.3,-0.7,1024,1024,1024,1024,0,0,0,0,56,5.249,73.76,34.120736,P-GPS,,10.4
235,608000,2026-01-07 12:42:52,0.0,5,7.269,0.0,0.0,0.0,26.7,6.4,-0.8,1024,1024,1024,1024,0,0,0,0,56,5.249,73.76,34.120736,P-GPS,,10.4
236,608100,2026-01-07 12:42:52,0.0,5,7.269,0.0,0.0,0.0,26.7,6.4,-1.0,1024,1024,1024,1024,0,0,0,0,56,5.249,73.76,34.120736,P-GPS,,10.4
237,608200,2026-01-07 12:42:53,0.0,5,7.275,0.0,0.0,0.0,26.7,6.5,-1.2,1024,1024,1024,1024,0,0,0,0,56,5.103,73.76,34.120736,P-GPS,,10.4
238,608300,2026-01-07 12:42:53,0.0,5,7.275,0.0,0.0,0.0,26.7,6.7,-1.3,1024,1024,1024,1024,0,0,0,0,56,5.103,73.76,34.120736,P-GPS,,10.4
239,608400,2026-01-07 12:42:53,0.0,5,7.275,0.0,0.0,0.0,26.7,6.9,-1.2,1024,1024,1024,1024,0,0,0,0,56,5.103,73.76,34.120736,P-GPS,,10.4
240,608500,2026-01-07 12:42:53,0.0,5,7.275,0.0,0.0,0.0,26.7,7.0,-1.2,1024,1024,1024,1024,0,0,0,0,56,5.103,73.76,34.44882,P-GPS,,10.5
241,608600,2026-01-07 12:42:53,0.0,5,7.275,0.0,0.0,0.0,26.7,7.0,-1.2,1024,1024,1024,1024,0,0,0,0,56,5.103,73.76,34.44882,P-GPS,,10.5
242,608700,2026-01-07 12:42:53,0.0,5,7.275,0.0,0.0,0.0,26.7,7.0,-1.2,1024,1024,1024,1024,0,0,0,0,56,5.103,73.76,34.44882,P-GPS,,10.5
243,608800,2026-01-07 12:42:53,0.0,5,7.275,0.0,0.0,0.0,26.7,7.0,-1.2,1024,1024,1024,1024,0,0,0,0,56,5.103,73.76,34.44882,P-GPS,,10.5
244,608900,2026-01-07 12:42:53,0.0,5,7.275,0.0,0.0,0.0,26.7,6.9,-1.1,1024,1024,1024,1024,0,0,0,0,56,5.103,73.76,34.44882,P-GPS,,10.5
245,609000,2026-01-07 12:42:53,0.0,5,7.275,0.0,0.0,0.0,26.7,6.9,-0.9,1024,1024,1024,1024,0,0,0,0,56,5.103,73.76,34.44882,P-GPS,,10.5
246,609100,2026-01-07 12:42:54,0.0,5,7.275,0.0,0.0,0.0,26.7,6.8,-1.0,1024,1024,1024,1024,0,0,0,0,56,5.103,73.76,34.44882,P-GPS,,10.5
247,609200,2026-01-07 12:42:54,0.0,5,7.275,0.0,0.0,0.0,26.7,6.8,-0.8,1024,1024,1024,1024,0,0,0,0,56,5.103,73.76,34.44882,P-GPS,,10.5
248,609300,2026-01-07 12:42:54,0.0,5,7.265,0.0,0.0,0.0,26.7,6.8,-0.8,1024,1024,1024,1024,0,0,0,0,56,5.179,73.76,34.44882,P-GPS,,10.5
249,609400,2026-01-07 12:42:54,0.0,5,7.265,0.0,0.0,0.0,26.7,6.7,-0.7,1024,1024,1024,1024,0,0,0,0,56,5.179,73.76,34.44882,P-GPS,,10.5
250,609500,2026-01-07 12:42:54,0.0,5,7.265,0.0,0.0,0.0,26.7,6.7,-0.5,1024,1024,1024,1024,0,0,0,0,56,5.179,73.76,34.44882,P-GPS,,10.5
251,609600,2026-01-07 12:42:54,0.0,5,7.265,0.0,0.0,0.0,26.7,6.6,-0.4,1024,1024,1024,1024,0,0,0,0,56,5.179,73.76,34.44882,P-GPS,,10.5
252,609700,2026-01-07 12:42:54,0.0,5,7.265,0.0,0.0,0.0,26.7,6.5,-0.3,1024,1024,1024,1024,0,0,0,0,56,5.179,73.76,34.44882,P-GPS,,10.5
253,609800,2026-01-07 12:42:54,0.0,5,7.265,0.0,0.0,0.0,26.7,6.3,-0.5,1024,1024,1024,1024,0,0,0,0,56,5.179,73.76,34.44882,P-GPS,,10.5
254,609900,2026-01-07 12:42:54,0.0,5,7.265,0.0,0.0,0.0,26.6,6.2,-0.5,1024,1024,1024,1024,0,0,0,0,56,5.179,73.76,34.44882,P-GPS,,10.5
255,610000,2026-01-07 12:42:54,0.0,5,7.265,0.0,0.0,0.0,26.6,6.4,-0.4,1024,1024,1024,1024,0,0,0,0,56,5.179,73.76,34.44882,P-GPS,,10.5
256,610100,2026-01-07 12:42:54,0.0,5,7.265,0.0,0.0,0.0,26.6,6.3,-0.2,1024,1024,1024,1024,0,0,0,0,56,5.179,73.76,34.44882,P-GPS,,10.5
257,610200,2026-01-07 12:42:55,0.0,5,7.265,0.0,0.0,0.0,26.6,6.5,-0.3,1024,1024,1024,1024,0,0,0,0,56,5.179,73.76,34.44882,P-GPS,,10.5
258,610300,2026-01-07 12:42:55,0.0,5,7.265,0.0,0.0,0.0,26.6,6.5,-0.4,1024,1024,1024,1024,0,0,0,0,56,5.179,73.76,34.44882,P-GPS,,10.5
259,610400,2026-01-07 12:42:55,0.0,5,7.265,0.0,0.0,0.0,26.7,6.5,-0.6,1024,1024,1024,1024,0,0,0,0,56,5.179,73.76,34.44882,P-GPS,,10.5
260,610500,2026-01-07 12:42:55,0.0,5,7.267,0.0,0.0,0.0,26.7,6.5,-0.7,1024,1024,1024,1024,0,0,0,0,56,5.085,73.76,34.44882,P-GPS,,10.5
261,610600,2026-01-07 12:42:55,0.0,5,7.267,0.0,0.0,0.0,26.7,6.3,-0.6,1024,1024,1024,1024,0,0,0,0,56,5.085,73.76,34.44882,P-GPS,,10.5
262,610700,2026-01-07 12:42:55,0.0,5,7.267,0.0,0.0,0.0,26.7,6.0,-0.5,1024,1024,1024,1024,0,0,0,0,56,5.085,73.76,34.44882,P-GPS,,10.5
263,610800,2026-01-07 12:42:55,0.0,5,7.267,0.0,0.0,0.0,26.7,5.9,-0.5,1024,1024,1024,1024,0,0,0,0,56,5.085,73.76,34.44882,P-GPS,,10.5
264,610900,2026-01-07 12:42:55,0.0,5,7.267,0.0,0.0,0.0,26.7,5.6,-0.6,1024,1024,1024,1024,0,0,0,0,56,5.085,73.76,34.44882,P-GPS,,10.5
265,611000,2026-01-07 12:42:55,0.0,5,7.267,0.0,0.0,0.0,26.7,5.5,-0.7,1024,1024,1024,1024,0,0,0,0,56,5.085,73.76,34.44882,P-GPS,,10.5
266,611100,2026-01-07 12:42:56,0.0,5,7.267,0.0,0.0,0.0,26.7,5.5,-0.7,1024,1024,1024,1024,0,0,0,0,56,5.085,73.76,34.44882,P-GPS,,10.5
267,611200,2026-01-07 12:42:56,0.0,5,7.267,0.0,0.0,0.0,26.7,5.8,-0.8,1024,1024,1024,1024,0,0,0,0,56,5.085,73.76,34.44882,P-GPS,,10.5
268,611300,2026-01-07 12:42:56,0.0,5,7.267,0.0,0.0,0.0,26.7,5.8,-0.7,1024,1024,1024,1024,0,0,0,0,56,5.085,73.76,34.44882,P-GPS,,10.5
269,611400,2026-01-07 12:42:56,0.0,5,7.267,0.0,0.0,0.0,26.7,5.7,-0.8,1024,1024,1024,1024,0,0,0,0,56,5.085,73.76,34.44882,P-GPS,,10.5
270,611500,2026-01-07 12:42:56,0.0,5,7.267,0.0,0.0,0.0,26.7,5.5,-1.0,1024,1024,1024,1024,0,0,0,0,56,5.085,73.76,34.44882,P-GPS,,10.5
271,611600,2026-01-07 12:42:56,0.0,5,7.267,0.0,0.0,0.0,26.8,5.5,-1.0,1024,1024,1024,1024,0,0,0,0,56,5.085,73.76,34.44882,P-GPS,,10.5
272,611700,2026-01-07 12:42:56,0.0,5,7.267,0.0,0.0,0.0,26.7,5.6,-1.2,1024,1024,1024,1024,0,0,0,0,56,5.085,73.76,34.44882,P-GPS,,10.5
273,611800,2026-01-07 12:42:56,0.0,5,7.267,0.0,0.0,0.0,26.7,5.3,-1.3,1024,1024,1024,1024,0,0,0,0,56,5.085,73.76,34.44882,P-GPS,,10.5
274,611900,2026-01-07 12:42:56,0.0,5,7.267,0.0,0.0,0.0,26.7,5.4,-1.2,1024,1024,1024,1024,0,0,0,0,56,5.085,73.76,34.44882,P-GPS,,10.5
275,612000,2026-01-07 12:42:56,0.0,5,7.267,0.0,0.0,0.0,26.7,5.6,-1.5,1024,1024,1024,1024,0,0,0,0,56,5.085,73.76,34.44882,P-GPS,,10.5
276,612100,2026-01-07 12:42:56,0.0,5,7.267,0.0,0.0,0.0,26.7,5.8,-1.4,1024,1024,1024,1024,0,0,0,0,56,5.085,73.76,34.44882,P-GPS,,10.5
277,612200,2026-01-07 12:42:57,0.0,5,7.267,0.0,0.0,0.0,26.8,5.7,-1.6,1024,1024,1024,1024,0,0,0,0,56,5.085,73.76,34.44882,P-GPS,,10.5
278,612300,2026-01-07 12:42:57,0.0,5,7.267,0.0,0.0,0.0,26.8,5.6,-1.7,1024,1024,1024,1024,0,0,0,0,56,5.085,73.76,34.44882,P-GPS,,10.5
279,612400,2026-01-07 12:42:57,0.0,5,7.267,0.0,0.0,0.0,26.7,5.7,-1.6,1024,1024,1024,1024,0,0,0,0,56,5.085,73.76,34.44882,P-GPS,,10.5
280,612500,2026-01-07 12:42:57,0.0,5,7.267,0.0,0.0,0.0,26.8,5.8,-1.7,1024,1024,1024,1024,0,0,0,0,56,5.085,73.76,34.44882,P-GPS,,10.5
281,612600,2026-01-07 12:42:57,0.0,5,7.267,0.0,0.0,0.0,26.7,5.6,-1.8,1024,1024,1024,1024,0,0,0,0,56,5.085,73.76,34.44882,P-GPS,,10.5
282,612700,2026-01-07 12:42:57,0.0,5,7.269,0.0,0.0,0.0,26.7,5.4,-1.8,1024,1024,1024,1024,0,0,0,0,56,4.975,73.76,34.44882,P-GPS,,10.5
283,612800,2026-01-07 12:42:57,0.0,5,7.269,0.0,0.0,0.0,26.7,5.3,-1.7,1024,1024,1024,1024,0,0,0,0,56,4.975,73.76,34.44882,P-GPS,,10.5
284,612900,2026-01-07 12:42:57,0.0,5,7.269,0.0,0.0,0.0,26.7,5.3,-1.8,1024,1024,1024,1024,0,0,0,0,56,4.975,73.76,34.44882,P-GPS,,10.5
285,613000,2026-01-07 12:42:57,0.0,5,7.269,0.0,0.0,0.0,26.7,4.9,-1.7,1024,1024,1024,1024,0,0,0,0,56,4.975,73.76,34.44882,P-GPS,,10.5
286,613100,2026-01-07 12:42:57,0.0,5,7.269,0.0,0.0,0.0,26.7,4.8,-1.5,1024,1024,1024,1024,0,0,0,0,56,4.975,73.76,34.44882,P-GPS,,10.5
287,613200,2026-01-07 12:42:58,0.0,5,7.269,0.0,0.0,0.0,26.7,4.7,-1.5,1024,1024,1024,1024,0,0,0,0,56,4.975,73.76,34.44882,P-GPS,,10.5
288,613300,2026-01-07 12:42:58,0.0,5,7.269,0.0,0.0,0.0,26.8,5.1,-1.5,1024,1024,1024,1024,0,0,0,0,56,4.975,73.76,34.776904,P-GPS,,10.6
289,613400,2026-01-07 12:42:58,0.0,5,7.269,0.0,0.0,0.0,26.7,5.2,-1.7,1024,1024,1024,1024,0,0,0,0,56,4.975,73.76,34.776904,P-GPS,,10.6
290,613500,2026-01-07 12:42:58,0.0,5,7.269,0.0,0.0,0.0,26.7,5.4,-1.6,1024,1024,1024,1024,0,0,0,0,56,4.975,73.76,34.776904,P-GPS,,10.6
291,613600,2026-01-07 12:42:58,0.0,5,7.269,0.0,0.0,0.0,26.7,5.5,-1.5,1024,1024,1024,1024,0,0,0,0,56,4.975,73.76,34.776904,P-GPS,,10.6
292,613700,2026-01-07 12:42:58,0.0,5,7.269,0.0,0.0,0.0,26.7,5.5,-1.5,1024,1024,1024,1024,0,0,0,0,55,4.975,73.76,34.776904,P-GPS,,10.6
293,613800,2026-01-07 12:42:58,0.0,5,7.272,0.0,0.0,0.0,26.7,5.5,-1.4,1024,1024,1024,1024,0,0,0,0,55,4.812,73.94,34.776904,P-GPS,,10.6
294,613900,2026-01-07 12:42:58,0.0,5,7.272,0.0,0.0,0.0,26.7,5.6,-1.6,1024,1024,1024,1024,0,0,0,0,55,4.812,73.94,34.776904,P-GPS,,10.6
295,614000,2026-01-07 12:42:58,0.0,5,7.272,0.0,0.0,0.0,26.7,5.5,-1.6,1024,1024,1024,1024,0,0,0,0,55,4.812,73.94,34.776904,P-GPS,,10.6
296,614100,2026-01-07 12:42:58,0.0,5,7.272,0.0,0.0,0.0,26.7,5.3,-1.6,1024,1024,1024,1024,0,0,0,0,55,4.812,73.94,34.776904,P-GPS,,10.6
297,614200,2026-01-07 12:42:59,0.0,5,7.272,0.0,0.0,0.0,26.7,5.2,-1.7,1024,1024,1024,1024,0,0,0,0,55,4.812,73.94,34.776904,P-GPS,,10.6
298,614300,2026-01-07 12:42:59,0.0,5,7.272,0.0,0.0,0.0,26.7,5.4,-1.7,1024,1024,1024,1024,0,0,0,0,55,4.812,73.94,34.776904,P-GPS,,10.6
299,614400,2026-01-07 12:42:59,0.0,5,7.272,0.0,0.0,0.0,26.7,5.5,-1.6,1024,1024,1024,1024,0,0,0,0,55,4.812,73.94,34.776904,P-GPS,,10.6
300,614500,2026-01-07 12:42:59,0.0,5,7.272,0.0,0.0,0.0,26.7,5.5,-1.7,1024,1024,1024,1024,0,0,0,0,55,4.812,73.94,34.776904,P-GPS,,10.6
301,614600,2026-01-07 12:42:59,0.0,5,7.272,0.0,0.0,0.0,26.7,5.6,-1.5,1024,1024,1024,1024,0,0,0,0,55,4.812,73.94,34.776904,P-GPS,,10.6
302,614700,2026-01-07 12:42:59,0.0,5,7.272,0.0,0.0,0.0,26.7,5.6,-1.3,1024,1024,1024,1024,0,0,0,0,55,4.812,73.94,34.776904,P-GPS,,10.6
303,614800,2026-01-07 12:42:59,0.0,5,7.272,0.0,0.0,0.0,26.7,5.4,-1.4,1024,1024,1024,1024,0,0,0,0,55,4.812,73.94,34.776904,P-GPS,,10.6
304,614900,2026-01-07 12:42:59,0.0,5,7.272,0.0,0.0,0.0,26.8,5.2,-1.5,1024,1024,1024,1024,0,0,0,0,55,4.812,73.94,34.776904,P-GPS,,10.6
305,615000,2026-01-07 12:42:59,0.0,5,7.269,0.0,0.0,0.0,26.8,5.4,-1.7,1024,1024,1024,1024,0,0,0,0,55,4.867,73.94,34.776904,P-GPS,,10.6
306,615100,2026-01-07 12:42:59,0.0,5,7.269,0.0,0.0,0.0,26.7,5.6,-1.6,1024,1024,1024,1024,0,0,0,0,55,4.867,73.94,34.776904,P-GPS,,10.6
307,615200,2026-01-07 12:43:00,0.0,5,7.269,0.0,0.0,0.0,26.7,5.6,-1.4,1024,1024,1024,1024,0,0,0,0,55,4.867,73.94,34.776904,P-GPS,,10.6
308,615300,2026-01-07 12:43:00,0.0,5,7.269,0.0,0.0,0.0,26.7,5.6,-1.2,1024,1024,1024,1024,0,0,0,0,55,4.867,73.94,34.776904,P-GPS,,10.6
309,615400,2026-01-07 12:43:00,0.0,5,7.269,0.0,0.0,0.0,26.7,5.7,-1.2,1024,1024,1024,1024,0,0,0,0,55,4.867,73.94,34.776904,P-GPS,,10.6
310,615500,2026-01-07 12:43:00,0.0,5,7.269,0.0,0.0,0.0,26.7,5.7,-1.1,1024,1024,1024,1024,0,0,0,0,55,4.867,73.94,35.104988,P-GPS,,10.7
311,615600,2026-01-07 12:43:00,0.0,5,7.269,0.0,0.0,0.0,26.7,6.1,-1.0,1024,1024,1024,1024,0,0,0,0,55,4.867,73.94,35.104988,P-GPS,,10.7
312,615700,2026-01-07 12:43:00,0.0,5,7.269,0.0,0.0,0.0,26.7,6.0,-1.0,1024,1024,1024,1024,0,0,0,0,55,4.867,73.94,35.104988,P-GPS,,10.7
313,615800,2026-01-07 12:43:00,0.0,5,7.269,0.0,0.0,0.0,26.7,5.7,-1.4,1024,1024,1024,1024,0,0,0,0,55,4.867,73.94,35.104988,P-GPS,,10.7
314,615900,2026-01-07 12:43:00,0.0,5,7.269,0.0,0.0,0.0,26.7,5.7,-1.4,1024,1024,1024,1024,0,0,0,0,55,4.867,73.94,35.104988,P-GPS,,10.7
315,616000,2026-01-07 12:43:00,0.0,5,7.269,0.0,0.0,0.0,26.6,5.9,-1.2,1024,1024,1024,1024,0,0,0,0,55,4.867,73.94,35.104988,P-GPS,,10.7
316,616100,2026-01-07 12:43:00,0.0,5,7.257,0.0,0.0,0.0,26.6,5.8,-1.2,1024,1024,1024,1024,0,0,0,0,55,5.074,73.94,35.104988,P-GPS,,10.7
317,616200,2026-01-07 12:43:01,0.0,5,7.257,0.0,0.0,0.0,26.7,5.6,-1.2,1024,1024,1024,1024,0,0,0,0,55,5.074,73.94,35.104988,P-GPS,,10.7
318,616300,2026-01-07 12:43:01,0.0,5,7.257,0.0,0.0,0.0,26.7,5.6,-1.1,1024,1024,1024,1024,0,0,0,0,55,5.074,73.94,35.104988,P-GPS,,10.7
319,616400,2026-01-07 12:43:01,0.0,5,7.257,0.0,0.0,0.0,26.7,5.8,-0.9,1024,1024,1024,1024,0,0,0,0,55,5.074,73.94,35.104988,P-GPS,,10.7
320,616500,2026-01-07 12:43:01,0.0,5,7.257,0.0,0.0,0.0,26.7,5.4,-1.4,1024,1024,1024,1024,0,0,0,0,55,5.074,73.94,35.104988,P-GPS,,10.7
321,616600,2026-01-07 12:43:01,0.0,5,7.257,0.0,0.0,0.0,26.7,5.6,-1.4,1024,1024,1024,1024,0,0,0,0,55,5.074,73.94,35.433072,P-GPS,,10.8
322,616700,2026-01-07 12:43:01,0.0,5,7.257,0.0,0.0,0.0,26.7,5.6,-1.6,1024,1024,1024,1024,0,0,0,0,55,5.074,73.94,35.433072,P-GPS,,10.8
323,616800,2026-01-07 12:43:01,0.0,5,7.257,0.0,0.0,0.0,26.6,5.6,-1.5,1024,1024,1024,1024,0,0,0,0,55,5.074,73.94,35.433072,P-GPS,,10.8
324,616900,2026-01-07 12:43:01,0.0,5,7.257,0.0,0.0,0.0,26.6,5.4,-1.3,1024,1024,1024,1024,0,0,0,0,55,5.074,73.94,35.433072,P-GPS,,10.8
325,617000,2026-01-07 12:43:01,0.0,5,7.257,0.0,0.0,0.0,26.7,5.4,-1.2,1024,1024,1024,1024,0,0,0,0,55,5.074,73.94,35.433072,P-GPS,,10.8
326,617100,2026-01-07 12:43:01,0.0,5,7.257,0.0,0.0,0.0,26.7,5.3,-1.1,1024,1024,1024,1024,0,0,0,0,55,5.074,73.94,35.433072,P-GPS,,10.8
327,617200,2026-01-07 12:43:02,0.0,5,7.252,0.0,0.0,0.0,26.7,5.2,-1.1,1024,1024,1024,1024,0,0,0,0,55,5.025,73.94,35.433072,P-GPS,,10.8
328,617300,2026-01-07 12:43:02,0.0,5,7.252,0.0,0.0,0.0,26.7,5.4,-1.5,1024,1024,1024,1024,0,0,0,0,55,5.025,73.94,35.433072,P-GPS,,10.8
329,617400,2026-01-07 12:43:02,0.0,5,7.252,0.0,0.0,0.0,26.6,5.5,-1.1,1024,1024,1024,1024,0,0,0,0,55,5.025,73.94,35.433072,P-GPS,,10.8
330,617500,2026-01-07 12:43:02,0.0,5,7.252,0.0,0.0,0.0,26.6,5.0,-0.6,1024,1024,1024,1024,0,0,0,0,55,5.025,73.94,35.433072,P-GPS,,10.8
331,617600,2026-01-07 12:43:02,0.0,5,7.252,0.0,0.0,0.0,26.7,4.4,-0.5,1024,1024,1024,1024,0,0,0,0,55,5.025,73.94,35.433072,P-GPS,,10.8
332,617700,2026-01-07 12:43:02,0.0,5,7.252,0.0,0.0,0.0,26.7,4.3,-0.4,1024,1024,1024,1024,0,0,0,0,55,5.025,73.94,35.433072,P-GPS,,10.8
333,617800,2026-01-07 12:43:02,0.0,5,7.252,0.0,0.0,0.0,26.7,4.3,-0.6,1024,1024,1024,1024,0,0,0,0,55,5.025,73.94,35.433072,P-GPS,,10.8
334,617900,2026-01-07 12:43:02,0.0,5,7.252,0.0,0.0,0.0,26.7,4.4,-1.0,1024,1024,1024,1024,0,0,0,0,55,5.025,73.94,35.433072,P-GPS,,10.8
335,618000,2026-01-07 12:43:02,0.0,5,7.252,0.0,0.0,0.0,26.7,4.6,-1.4,1024,1024,1024,1024,0,0,0,0,55,5.025,73.94,35.433072,P-GPS,,10.8
336,618100,2026-01-07 12:43:02,0.0,5,7.252,0.0,0.0,0.0,26.7,4.7,-1.7,1024,1024,1024,1024,0,0,0,0,55,5.025,73.94,35.433072,P-GPS,,10.8
337,618200,2026-01-07 12:43:03,0.0,5,7.252,0.0,0.0,0.0,26.8,5.1,-1.7,1024,1024,1024,1024,0,0,0,0,55,5.025,73.94,35.433072,P-GPS,,10.8
338,618300,2026-01-07 12:43:03,0.0,5,7.265,0.0,0.0,0.0,26.8,5.1,-1.5,1024,1024,1024,1024,0,0,0,0,55,4.885,73.94,35.433072,P-GPS,,10.8
339,618400,2026-01-07 12:43:03,0.0,5,7.265,0.0,0.0,0.0,26.7,5.1,-1.3,1024,1024,1024,1024,0,0,0,0,55,4.885,73.94,35.433072,P-GPS,,10.8
340,618500,2026-01-07 12:43:03,0.0,5,7.265,0.0,0.0,0.0,26.7,5.3,-1.2,1024,1024,1024,1024,0,0,0,0,55,4.885,73.94,35.433072,P-GPS,,10.8
341,618600,2026-01-07 12:43:03,0.0,5,7.265,0.0,0.0,0.0,26.7,5.1,-1.4,1024,1024,1024,1024,0,0,0,0,55,4.885,73.94,35.433072,P-GPS,,10.8
342,618700,2026-01-07 12:43:03,0.0,5,7.265,0.0,0.0,0.0,26.6,4.9,-1.3,1024,1024,1024,1024,0,0,0,0,55,4.885,73.94,35.433072,P-GPS,,10.8
343,618800,2026-01-07 12:43:03,0.0,5,7.265,0.0,0.0,0.0,26.7,5.2,-1.0,1024,1024,1024,1024,0,0,0,0,55,4.885,73.94,35.433072,P-GPS,,10.8
344,618900,2026-01-07 12:43:03,0.0,5,7.265,0.0,0.0,0.0,26.8,5.2,-1.0,1024,1024,1024,1024,0,0,0,0,55,4.885,73.94,35.433072,P-GPS,,10.8
345,619000,2026-01-07 12:43:03,0.0,5,7.265,0.0,0.0,0.0,26.7,5.0,-1.3,1024,1024,1024,1024,0,0,0,0,55,4.885,73.94,35.433072,P-GPS,,10.8
346,619100,2026-01-07 12:43:03,0.0,5,7.265,0.0,0.0,0.0,26.7,4.9,-1.2,1024,1024,1024,1024,0,0,0,0,55,4.885,73.94,35.433072,P-GPS,,10.8
347,619200,2026-01-07 12:43:04,0.0,5,7.265,0.0,0.0,0.0,26.7,4.8,-1.2,1024,1024,1024,1024,0,0,0,0,55,4.885,73.94,35.433072,P-GPS,,10.8
348,619300,2026-01-07 12:43:04,0.0,5,7.265,0.0,0.0,0.0,26.7,4.9,-1.0,1024,1024,1024,1024,0,0,0,0,55,4.885,73.94,35.433072,P-GPS,,10.8
349,619400,2026-01-07 12:43:04,0.0,5,7.257,0.0,0.0,0.0,26.5,4.7,-1.1,1024,1024,1024,1024,0,0,0,0,55,4.989,73.94,35.433072,P-GPS,,10.8
350,619500,2026-01-07 12:43:04,0.0,5,7.257,0.0,0.0,0.0,26.5,4.2,-0.6,1024,1024,1024,1024,0,0,0,0,55,4.989,73.94,35.761156,P-GPS,,10.9
351,619600,2026-01-07 12:43:04,0.0,5,7.257,0.0,0.0,0.0,26.6,4.5,-0.2,1024,1024,1024,1024,0,0,0,0,55,4.989,73.94,35.761156,P-GPS,,10.9
352,619700,2026-01-07 12:43:04,0.0,5,7.257,0.0,0.0,0.0,26.7,4.7,-0.2,1024,1024,1024,1024,0,0,0,0,55,4.989,73.94,35.761156,P-GPS,,10.9
353,619800,2026-01-07 12:43:04,0.0,5,7.257,0.0,0.0,0.0,26.7,4.8,-0.3,1024,1024,1024,1024,0,0,0,0,55,4.989,73.94,35.761156,P-GPS,,10.9
354,619900,2026-01-07 12:43:04,0.0,5,7.257,0.0,0.0,0.0,26.7,5.0,-0.3,1024,1024,1024,1024,0,0,0,0,55,4.989,73.94,35.761156,P-GPS,,10.9
355,620000,2026-01-07 12:43:04,0.0,5,7.257,0.0,0.0,0.0,26.7,5.1,-0.2,1024,1024,1024,1024,0,0,0,0,55,4.989,73.94,35.761156,P-GPS,,10.9
356,620100,2026-01-07 12:43:04,0.0,5,7.257,0.0,0.0,0.0,26.7,5.2,-0.1,1024,1024,1024,1024,0,0,0,0,55,4.989,73.94,35.761156,P-GPS,,10.9
357,620200,2026-01-07 12:43:05,0.0,5,7.257,0.0,0.0,0.0,26.7,5.3,-0.1,1024,1024,1024,1024,0,0,0,0,55,4.989,73.94,35.761156,P-GPS,,10.9
358,620300,2026-01-07 12:43:05,0.0,5,7.257,0.0,0.0,0.0,26.7,5.4,-0.3,1024,1024,1024,1024,0,0,0,0,55,4.989,73.94,35.761156,P-GPS,,10.9
359,620400,2026-01-07 12:43:05,0.0,5,7.257,0.0,0.0,0.0,26.7,5.2,-0.7,1024,1024,1024,1024,0,0,0,0,55,4.989,73.94,35.761156,P-GPS,,10.9
360,620500,2026-01-07 12:43:05,0.0,5,7.257,0.0,0.0,0.0,26.7,5.2,-0.7,1024,1024,1024,1024,0,0,0,0,55,4.989,73.94,35.761156,P-GPS,,10.9
361,620600,2026-01-07 12:43:05,0.0,5,7.257,0.0,0.0,0.0,26.7,5.4,-0.7,1024,1024,1024,1024,0,0,0,0,55,4.989,73.94,35.761156,P-GPS,,10.9
362,620700,2026-01-07 12:43:05,0.0,5,7.257,0.0,0.0,0.0,26.7,5.3,-0.8,1024,1024,1024,1024,0,0,0,0,55,4.989,73.94,35.761156,P-GPS,,10.9
363,620800,2026-01-07 12:43:05,0.0,5,7.257,0.0,0.0,0.0,26.7,5.7,-0.8,1024,1024,1024,1024,0,0,0,0,55,4.989,73.94,35.761156,P-GPS,,10.9
364,620900,2026-01-07 12:43:05,0.0,5,7.257,0.0,0.0,0.0,26.7,5.9,-0.7,1024,1024,1024,1024,0,0,0,0,55,4.989,73.94,35.761156,P-GPS,,10.9
