index,time(millisecond),timestamp,speed(mph),gpslevel,voltage(v),xSpeed(mph),ySpeed(mph),zSpeed(mph),compass_heading(degrees),pitch(degrees),roll(degrees),rc_elevator,rc_aileron,rc_throttle,rc_rudder,rc_elevator(percent),rc_aileron(percent),rc_throttle(percent),rc_rudder(percent),battery_percent,current(A),battery_temperature(f),ascent(feet),flycState,message,height_above_takeoff(meters)
862,562000,2026-01-08 12:37:49,0.0,5,7.277,0.0,0.0,0.0,23.5,14.3,5.4,1024,1024,1024,1024,0,0,0,0,63,7.28,79.52,164.698168,P-GPS,,50.2
863,562100,2026-01-08 12:37:49,0.0,5,7.345,0.0,0.0,0.0,23.4,14.5,5.9,1024,1024,1024,1024,0,0,0,0,63,5.178,79.34,164.698168,P-GPS,,50.2
864,562200,2026-01-08 12:37:50,0.0,5,7.345,0.0,0.0,0.0,23.3,14.7,5.8,1024,1024,1024,1024,0,0,0,0,63,5.178,79.34,164.698168,P-GPS,,50.2
865,562300,2026-01-08 12:37:50,0.0,5,7.345,0.0,0.0,0.0,23.2,13.8,5.4,1024,1024,1024,1024,0,0,0,0,63,5.178,79.34,164.698168,P-GPS,,50.2
866,562400,2026-01-08 12:37:50,0.0,5,7.345,0.0,0.0,0.0,23.3,13.4,6.1,1024,1024,1024,1024,0,0,0,0,63,5.178,79.34,164.698168,P-GPS,,50.2
867,562500,2026-01-08 12:37:50,0.0,5,7.345,0.0,0.0,0.0,23.4,13.7,6.5,1024,1024,1024,1024,0,0,0,0,63,5.178,79.34,164.698168,P-GPS,,50.2
868,562600,2026-01-08 12:37:50,0.0,5,7.345,0.0,0.0,0.0,23.4,14.5,6.6,1024,1024,1024,1024,0,0,0,0,63,5.178,79.34,164.698168,P-GPS,,50.2
869,562700,2026-01-08 12:37:50,0.0,5,7.345,0.0,0.0,0.0,23.3,14.2,5.8,1024,1024,1024,1024,0,0,0,0,63,5.178,79.34,165.026252,P-GPS,,50.3
870,562800,2026-01-08 12:37:50,0.0,5,7.345,0.0,0.0,0.0,23.3,14.0,5.7,1024,1024,1024,1024,0,0,0,0,63,5.178,79.34,165.026252,P-GPS,,50.3
871,562900,2026-01-08 12:37:50,0.0,5,7.345,0.0,0.0,-0.223694,23.2,13.0,5.9,1024,1024,1024,1024,0,0,0,0,63,5.178,79.34,165.026252,P-GPS,,50.3
872,563000,2026-01-08 12:37:50,0.0,5,7.345,0.0,0.0,-0.223694,23.1,13.3,6.1,1024,1024,1024,1024,0,0,0,0,63,5.178,79.34,165.026252,P-GPS,,50.3
873,563100,2026-01-08 12:37:50,0.0,5,7.345,0.0,0.0,0.0,23.3,13.5,6.3,1024,1024,1024,1024,0,0,0,0,63,5.178,79.34,165.026252,P-GPS,,50.3
874,563200,2026-01-08 12:37:51,0.0,5,7.351,0.0,0.0,0.0,23.2,13.2,5.8,1024,1024,1024,1024,0,0,0,0,63,6.169,79.52,165.026252,P-GPS,,50.3
875,563300,2026-01-08 12:37:51,0.0,5,7.351,0.0,0.0,-0.223694,23.1,13.0,5.5,1024,1024,1024,1024,0,0,0,0,63,6.169,79.52,164.698168,P-GPS,,50.2
876,563400,2026-01-08 12:37:51,0.0,5,7.351,0.0,0.0,0.0,23.1,13.4,5.3,1024,1024,1024,1024,0,0,0,0,63,6.169,79.52,164.698168,P-GPS,,50.2
877,563500,2026-01-08 12:37:51,0.0,5,7.351,0.0,0.0,0.0,23.1,13.5,5.2,1024,1024,1024,1024,0,0,0,0,63,6.169,79.52,164.698168,P-GPS,,50.2
878,563600,2026-01-08 12:37:51,0.0,5,7.351,0.0,0.0,0.0,23.1,13.3,5.4,1024,1024,1024,1024,0,0,0,0,63,6.169,79.52,164.370084,P-GPS,,50.1
879,563700,2026-01-08 12:37:51,0.0,5,7.351,0.0,0.0,0.0,23.2,13.2,5.7,1024,1024,1024,1024,0,0,0,0,63,6.169,79.52,164.370084,P-GPS,,50.1
880,563800,2026-01-08 12:37:51,0.0,5,7.351,0.0,0.0,0.0,23.2,12.8,6.1,1024,1024,1024,1024,0,0,0,0,63,6.169,79.52,164.042,P-GPS,,50.0
881,563900,2026-01-08 12:37:51,0.0,5,7.351,0.0,0.0,0.0,23.1,12.6,6.3,1024,1024,1024,1024,0,0,0,0,63,6.169,79.52,164.042,P-GPS,,50.0
882,564000,2026-01-08 12:37:51,0.0,5,7.351,0.0,0.0,0.0,23.0,12.4,5.9,1024,1024,1024,1024,0,0,0,0,63,6.169,79.52,163.713916,P-GPS,,49.9
883,564100,2026-01-08 12:37:51,0.0,5,7.351,0.0,0.0,0.0,23.0,12.3,5.9,1024,1024,1024,1024,0,0,0,0,63,6.169,79.52,163.713916,P-GPS,,49.9
884,564200,2026-01-08 12:37:52,0.0,5,7.351,0.0,0.0,0.0,23.1,12.3,6.4,1024,1024,1024,1024,0,0,0,0,63,6.169,79.52,163.713916,P-GPS,,49.9
885,564300,2026-01-08 12:37:52,0.0,5,7.351,0.0,0.0,0.0,23.0,10.9,6.4,1024,1024,1024,1024,0,0,0,0,63,6.169,79.52,163.385832,P-GPS,,49.8
886,564400,2026-01-08 12:37:52,0.0,5,7.351,0.0,0.0,0.0,23.1,11.0,6.8,1024,1024,1024,1024,0,0,0,0,63,6.169,79.52,163.385832,P-GPS,,49.8
887,564500,2026-01-08 12:37:52,0.0,5,7.351,0.0,0.0,0.0,23.2,11.6,6.8,1024,1024,1024,1024,0,0,0,0,63,6.169,79.52,163.385832,P-GPS,,49.8
888,564600,2026-01-08 12:37:52,0.0,5,7.351,0.0,0.0,0.0,23.1,10.8,6.8,1024,1024,1024,1024,0,0,0,0,63,6.169,79.52,163.385832,P-GPS,,49.8
889,564700,2026-01-08 12:37:52,0.0,5,7.351,0.0,0.0,0.0,23.0,10.1,6.4,1024,1024,1024,1024,0,0,0,0,63,6.169,79.52,163.385832,P-GPS,,49.8
890,564800,2026-01-08 12:37:52,0.0,5,7.351,0.0,0.0,0.0,23.0,10.3,6.6,1024,1024,1024,1024,0,0,0,0,63,6.169,79.52,163.057748,P-GPS,,49.7
891,564900,2026-01-08 12:37:52,0.0,5,7.351,0.0,0.0,0.0,23.0,10.0,6.5,1024,1024,1024,1024,0,0,0,0,63,6.169,79.52,163.057748,P-GPS,,49.7
892,565000,2026-01-08 12:37:52,0.0,5,7.351,0.0,0.0,0.0,23.0,9.7,6.6,1024,1024,1024,1024,0,0,0,0,63,6.169,79.52,163.057748,P-GPS,,49.7
893,565100,2026-01-08 12:37:52,0.0,5,7.351,0.0,0.0,-0.223694,23.0,9.7,6.7,1024,1024,1024,1024,0,0,0,0,63,6.169,79.52,163.057748,P-GPS,,49.7
894,565200,2026-01-08 12:37:53,0.0,5,7.351,0.0,0.0,0.0,23.0,9.6,6.6,1024,1024,1024,1024,0,0,0,0,63,6.169,79.52,163.057748,P-GPS,,49.7
895,565300,2026-01-08 12:37:53,0.0,5,7.351,0.0,0.0,0.0,23.1,9.7,6.6,1024,1024,1024,1024,0,0,0,0,63,6.169,79.52,163.057748,P-GPS,,49.7
896,565400,2026-01-08 12:37:53,0.0,5,7.421,0.0,0.0,0.0,23.0,9.3,6.8,1024,1024,1024,1024,0,0,0,0,62,4.309,79.52,163.057748,P-GPS,,49.7
897,565500,2026-01-08 12:37:53,0.0,5,7.421,0.0,0.0,0.0,23.3,10.2,7.1,1024,1024,1024,1024,0,0,0,0,62,4.309,79.52,163.385832,P-GPS,,49.8
898,565600,2026-01-08 12:37:53,0.0,5,7.421,0.0,0.0,0.0,23.2,10.1,7.5,1024,1024,1024,1024,0,0,0,0,62,4.309,79.52,163.385832,P-GPS,,49.8
899,565700,2026-01-08 12:37:53,0.0,5,7.421,0.0,0.0,0.0,23.1,9.6,7.4,1024,1024,1024,1024,0,0,0,0,62,4.309,79.52,163.385832,P-GPS,,49.8
900,565800,2026-01-08 12:37:53,0.0,5,7.421,0.0,0.0,0.0,23.2,10.2,7.6,1024,1024,1024,1024,0,0,0,0,62,4.309,79.52,163.385832,P-GPS,,49.8
901,565900,2026-01-08 12:37:53,0.0,5,7.421,0.0,0.0,0.0,23.2,10.8,7.5,1024,1024,1024,1024,0,0,0,0,62,4.309,79.52,163.385832,P-GPS,,49.8
902,566000,2026-01-08 12:37:53,0.0,5,7.421,0.0,0.0,0.0,23.3,11.3,7.8,1024,1024,1024,1024,0,0,0,0,62,4.309,79.52,163.385832,P-GPS,,49.8
903,566100,2026-01-08 12:37:53,0.0,5,7.421,0.0,0.0,0.0,23.4,11.4,8.4,1024,1024,1024,1024,0,0,0,0,62,4.309,79.52,163.385832,P-GPS,,49.8
904,566200,2026-01-08 12:37:54,0.0,5,7.421,0.0,0.0,0.0,23.4,11.6,8.4,1024,1024,1024,1024,0,0,0,0,62,4.309,79.52,163.385832,P-GPS,,49.8
905,566300,2026-01-08 12:37:54,0.0,5,7.421,0.0,0.0,0.0,23.4,11.6,8.2,1024,1024,1024,1024,0,0,0,0,62,4.309,79.52,163.713916,P-GPS,,49.9
906,566400,2026-01-08 12:37:54,0.0,5,7.421,0.0,0.0,0.0,23.3,11.4,8.0,1024,1024,1024,1024,0,0,0,0,62,4.309,79.52,163.713916,P-GPS,,49.9
907,566500,2026-01-08 12:37:54,0.0,5,7.391,0.0,0.0,0.0,23.4,11.4,7.8,1024,1024,1024,1024,0,0,0,0,62,4.635,79.52,163.713916,P-GPS,,49.9
908,566600,2026-01-08 12:37:54,0.0,5,7.391,0.0,0.0,0.0,23.3,10.9,7.7,1024,1024,1024,1024,0,0,0,0,62,4.635,79.52,164.042,P-GPS,,50.0
909,566700,2026-01-08 12:37:54,0.0,5,7.391,0.0,0.0,0.0,23.5,11.8,7.6,1024,1024,1024,1024,0,0,0,0,62,4.635,79.52,164.042,P-GPS,,50.0
910,566800,2026-01-08 12:37:54,0.0,5,7.391,0.0,0.0,0.0,23.4,12.2,8.0,1024,1024,1024,1024,0,0,0,0,62,4.635,79.52,164.370084,P-GPS,,50.1
911,566900,2026-01-08 12:37:54,0.223694,5,7.391,0.223694,0.0,0.0,23.4,12.9,7.7,1024,1024,1024,1024,0,0,0,0,62,4.635,79.52,164.370084,P-GPS,,50.1
912,567000,2026-01-08 12:37:54,0.223694,5,7.391,0.223694,0.0,0.0,23.4,12.5,7.6,1024,1024,1024,1024,0,0,0,0,62,4.635,79.52,164.698168,P-GPS,,50.2
913,567100,2026-01-08 12:37:54,0.223694,5,7.391,0.223694,0.0,0.0,23.5,12.7,8.2,1024,1024,1024,1024,0,0,0,0,62,4.635,79.52,164.698168,P-GPS,,50.2
914,567200,2026-01-08 12:37:54,0.223694,5,7.391,0.223694,0.0,0.0,23.5,13.5,8.3,1024,1024,1024,1024,0,0,0,0,62,4.635,79.52,164.698168,P-GPS,,50.2
915,567300,2026-01-08 12:37:55,0.223694,5,7.391,0.223694,0.0,0.0,23.5,13.8,8.6,1024,1024,1024,1024,0,0,0,0,62,4.635,79.52,165.026252,P-GPS,,50.3
916,567400,2026-01-08 12:37:55,0.0,5,7.391,0.0,0.0,0.0,23.6,13.9,8.6,1024,1024,1024,1024,0,0,0,0,62,4.635,79.52,165.026252,P-GPS,,50.3
917,567500,2026-01-08 12:37:55,0.0,5,7.391,0.0,0.0,0.0,23.6,14.1,9.0,1024,1024,1024,1024,0,0,0,0,62,4.635,79.52,165.026252,P-GPS,,50.3
918,567600,2026-01-08 12:37:55,0.0,5,7.378,0.0,0.0,0.223694,23.6,13.4,8.1,1024,1024,1024,1024,0,0,0,0,62,5.768,79.7,165.026252,P-GPS,,50.3
919,567700,2026-01-08 12:37:55,0.0,5,7.378,0.0,0.0,0.223694,23.5,12.7,8.1,1024,1024,1024,1024,0,0,0,0,62,5.768,79.7,165.354336,P-GPS,,50.4
920,567800,2026-01-08 12:37:55,0.0,5,7.378,0.0,0.0,0.0,23.4,12.4,7.9,1024,1024,1024,1024,0,0,0,0,62,5.768,79.7,165.354336,P-GPS,,50.4
921,567900,2026-01-08 12:37:55,0.0,5,7.378,0.0,0.0,0.0,23.4,12.1,8.0,1024,1024,1024,1024,0,0,0,0,62,5.768,79.7,165.354336,P-GPS,,50.4
922,568000,2026-01-08 12:37:55,0.0,5,7.378,0.0,0.0,0.0,23.4,11.6,7.9,1024,1024,1024,1024,0,0,0,0,62,5.768,79.7,165.354336,P-GPS,,50.4
923,568100,2026-01-08 12:37:55,0.0,5,7.378,0.0,0.0,0.0,23.3,12.0,7.8,1024,1024,1024,1024,0,0,0,0,62,5.768,79.7,165.354336,P-GPS,,50.4
924,568200,2026-01-08 12:37:56,0.0,5,7.378,0.0,0.0,0.0,23.3,12.0,7.7,1024,1024,1024,1024,0,0,0,0,62,5.768,79.7,165.354336,P-GPS,,50.4
925,568300,2026-01-08 12:37:56,0.0,5,7.378,0.0,0.0,0.0,23.2,11.7,7.6,1024,1024,1024,1024,0,0,0,0,62,5.768,79.7,165.354336,P-GPS,,50.4
926,568400,2026-01-08 12:37:56,0.0,5,7.378,0.0,0.0,0.0,23.2,11.7,7.7,1024,1024,1024,1024,0,0,0,0,62,5.768,79.7,165.354336,P-GPS,,50.4
927,568500,2026-01-08 12:37:56,0.0,5,7.378,0.0,0.0,0.0,23.2,11.3,7.4,1024,1024,1024,1024,0,0,0,0,62,5.768,79.7,165.354336,P-GPS,,50.4
928,568600,2026-01-08 12:37:56,0.0,5,7.378,0.0,0.0,0.223694,23.1,10.9,7.4,1024,1024,1024,1024,0,0,0,0,62,5.768,79.7,165.026252,P-GPS,,50.3
929,568700,2026-01-08 12:37:56,0.0,5,7.383,0.0,0.0,0.223694,23.1,10.8,6.7,1024,1024,1024,1024,0,0,0,0,62,5.6,79.7,165.026252,P-GPS,,50.3
930,568800,2026-01-08 12:37:56,0.0,5,7.383,0.0,0.223694,0.0,23.3,10.8,5.9,1024,1024,1024,1024,0,0,0,0,62,5.6,79.7,165.026252,P-GPS,,50.3
931,568900,2026-01-08 12:37:56,0.223694,5,7.383,0.0,0.223694,0.0,23.2,11.0,4.9,1024,1024,1024,1024,0,0,0,0,62,5.6,79.7,165.026252,P-GPS,,50.3
932,569000,2026-01-08 12:37:56,0.223694,5,7.383,0.0,0.223694,0.0,23.2,11.0,4.7,1024,1024,1024,1024,0,0,0,0,62,5.6,79.7,165.026252,P-GPS,,50.3
933,569100,2026-01-08 12:37:56,0.223694,5,7.383,0.0,0.223694,0.0,23.1,11.0,4.6,1024,1024,1024,1024,0,0,0,0,62,5.6,79.7,165.026252,P-GPS,,50.3
934,569200,2026-01-08 12:37:57,0.223694,5,7.383,0.0,0.223694,0.0,23.0,11.3,4.6,1024,1024,1024,1024,0,0,0,0,62,5.6,79.7,165.026252,P-GPS,,50.3
935,569300,2026-01-08 12:37:57,0.223694,5,7.383,0.0,0.0,0.0,23.0,11.6,4.5,1024,1024,1024,1024,0,0,0,0,62,5.6,79.7,165.026252,P-GPS,,50.3
936,569400,2026-01-08 12:37:57,0.0,5,7.383,0.0,0.0,0.0,23.1,12.2,4.7,1024,1024,1024,1024,0,0,0,0,62,5.6,79.7,165.026252,P-GPS,,50.3
937,569500,2026-01-08 12:37:57,0.0,5,7.383,0.0,0.0,0.0,23.1,12.8,4.4,1024,1024,1024,1024,0,0,0,0,62,5.6,79.7,165.026252,P-GPS,,50.3
938,569600,2026-01-08 12:37:57,0.0,5,7.383,0.0,0.0,0.0,23.2,12.8,4.3,1024,1024,1024,1024,0,0,0,0,62,5.6,79.7,165.026252,P-GPS,,50.3
939,569700,2026-01-08 12:37:57,0.0,5,7.383,0.0,0.0,0.0,23.1,12.4,4.6,1024,1024,1024,1024,0,0,0,0,62,5.6,79.7,165.026252,P-GPS,,50.3
940,569800,2026-01-08 12:37:57,0.0,5,7.35,0.0,0.0,0.0,23.1,11.8,5.1,1024,1024,1024,1024,0,0,0,0,62,5.917,79.7,165.026252,P-GPS,,50.3
941,569900,2026-01-08 12:37:57,0.0,5,7.35,0.0,0.0,0.0,23.2,11.7,5.1,1024,1024,1024,1024,0,0,0,0,62,5.917,79.7,165.026252,P-GPS,,50.3
942,570000,2026-01-08 12:37:57,0.0,5,7.35,0.0,0.0,0.0,23.2,11.8,5.6,1024,1024,1024,1024,0,0,0,0,62,5.917,79.7,165.026252,P-GPS,,50.3
943,570100,2026-01-08 12:37:57,0.0,5,7.35,0.0,0.0,0.0,23.2,12.0,6.0,1024,1024,1024,1024,0,0,0,0,62,5.917,79.7,165.026252,P-GPS,,50.3
944,570200,2026-01-08 12:37:58,0.0,5,7.35,0.0,0.0,0.0,23.1,11.7,5.9,1024,1024,1024,1024,0,0,0,0,62,5.917,79.7,165.026252,P-GPS,,50.3
945,570300,2026-01-08 12:37:58,0.0,5,7.35,0.0,0.0,0.0,23.2,11.7,6.3,1024,1024,1024,1024,0,0,0,0,62,5.917,79.7,165.026252,P-GPS,,50.3
946,570400,2026-01-08 12:37:58,0.0,5,7.35,0.0,0.0,0.0,23.2,12.2,6.1,1024,1024,1024,1024,0,0,0,0,62,5.917,79.7,165.026252,P-GPS,,50.3
947,570500,2026-01-08 12:37:58,0.0,5,7.35,0.0,0.0,0.0,23.2,11.8,6.5,1024,1024,1024,1024,0,0,0,0,62,5.917,79.7,165.026252,P-GPS,,50.3
948,570600,2026-01-08 12:37:58,0.0,5,7.35,0.0,0.0,0.0,23.2,11.3,5.8,1024,1024,1024,1024,0,0,0,0,62,5.917,79.7,165.026252,P-GPS,,50.3
949,570700,2026-01-08 12:37:58,0.0,5,7.35,0.0,0.0,0.0,23.1,11.1,5.5,1024,1024,1024,1024,0,0,0,0,62,5.917,79.7,165.026252,P-GPS,,50.3
950,570800,2026-01-08 12:37:58,0.0,5,7.35,0.0,0.0,0.0,23.2,11.4,5.4,1024,1024,1024,1024,0,0,0,0,62,5.917,79.7,165.026252,P-GPS,,50.3
951,570900,2026-01-08 12:37:58,0.0,5,7.372,0.0,0.0,0.0,23.3,11.9,5.2,1024,1024,1024,1024,0,0,0,0,62,5.515,79.7,165.026252,P-GPS,,50.3
952,571000,2026-01-08 12:37:58,0.0,5,7.372,0.0,0.0,0.0,23.3,12.0,4.9,1024,1024,1024,1024,0,0,0,0,62,5.515,79.7,165.026252,P-GPS,,50.3
953,571100,2026-01-08 12:37:58,0.0,5,7.372,0.0,0.0,0.0,23.2,12.1,4.5,1024,1024,1024,1024,0,0,0,0,62,5.515,79.7,165.026252,P-GPS,,50.3
954,571200,2026-01-08 12:37:58,0.0,5,7.372,0.0,0.0,0.0,23.2,13.0,4.5,1024,1024,1024,1024,0,0,0,0,62,5.515,79.7,165.026252,P-GPS,,50.3
955,571300,2026-01-08 12:37:59,0.0,5,7.372,0.0,0.0,0.0,23.1,12.9,4.7,1024,1024,1024,1024,0,0,0,0,62,5.515,79.7,165.026252,P-GPS,,50.3
956,571400,2026-01-08 12:37:59,0.0,5,7.372,0.0,0.0,0.0,23.2,12.3,4.9,1024,1024,1024,1024,0,0,0,0,62,5.515,79.7,165.026252,P-GPS,,50.3
957,571500,2026-01-08 12:37:59,0.0,5,7.372,0.0,0.0,0.0,23.2,12.0,5.2,1024,1024,1024,1024,0,0,0,0,62,5.515,79.7,165.026252,P-GPS,,50.3
958,571600,2026-01-08 12:37:59,0.0,5,7.372,0.0,0.0,0.0,23.2,12.4,5.7,1024,1024,1024,1024,0,0,0,0,62,5.515,79.7,165.026252,P-GPS,,50.3
959,571700,2026-01-08 12:37:59,0.0,5,7.372,0.0,0.0,0.0,23.3,12.6,5.9,1024,1024,1024,1024,0,0,0,0,62,5.515,79.7,165.026252,P-GPS,,50.3
960,571800,2026-01-08 12:37:59,0.0,5,7.372,0.0,0.0,0.0,23.3,12.6,5.9,1024,1024,1024,1024,0,0,0,0,62,5.515,79.7,165.026252,P-GPS,,50.3
961,571900,2026-01-08 12:37:59,0.0,5,7.372,0.0,0.0,0.0,23.2,12.1,6.2,1024,1024,1024,1024,0,0,0,0,62,5.515,79.7,165.026252,P-GPS,,50.3
962,572000,2026-01-08 12:37:59,0.0,5,7.365,0.0,0.0,0.0,23.0,12.0,6.2,1024,1024,1024,1024,0,0,0,0,62,5.37,79.7,165.026252,P-GPS,,50.3
963,572100,2026-01-08 12:37:59,0.0,5,7.365,0.0,0.0,0.0,23.0,11.1,6.4,1024,1024,1024,1024,0,0,0,0,62,5.37,79.7,165.354336,P-GPS,,50.4
964,572200,2026-01-08 12:38:00,0.0,5,7.365,0.0,0.0,0.0,23.1,11.2,7.2,1024,1024,1024,1024,0,0,0,0,62,5.37,79.7,165.354336,P-GPS,,50.4
965,572300,2026-01-08 12:38:00,0.0,5,7.365,0.0,0.0,0.0,23.1,11.2,7.6,1024,1024,1024,1024,0,0,0,0,62,5.37,79.7,165.354336,P-GPS,,50.4
966,572400,2026-01-08 12:38:00,0.0,5,7.365,0.0,0.0,0.0,23.1,10.9,8.0,1024,1024,1024,1024,0,0,0,0,62,5.37,79.7,165.354336,P-GPS,,50.4
967,572500,2026-01-08 12:38:00,0.0,5,7.365,0.0,0.0,0.0,23.0,10.7,8.0,1024,1024,1024,1024,0,0,0,0,62,5.37,79.7,165.354336,P-GPS,,50.4
968,572600,2026-01-08 12:38:00,0.0,5,7.365,0.0,0.0,0.0,23.2,11.5,8.0,1024,1024,1024,1024,0,0,0,0,62,5.37,79.7,165.354336,P-GPS,,50.4
969,572700,2026-01-08 12:38:00,0.0,5,7.365,0.0,0.0,0.0,23.2,11.5,8.5,1024,1024,1024,1024,0,0,0,0,62,5.37,79.7,165.354336,P-GPS,,50.4
970,572800,2026-01-08 12:38:00,0.0,5,7.365,0.0,0.0,0.0,23.2,11.3,8.5,1024,1024,1024,1024,0,0,0,0,62,5.37,79.7,165.354336,P-GPS,,50.4
971,572900,2026-01-08 12:38:00,0.0,5,7.365,0.0,0.0,0.0,23.2,11.3,8.8,1024,1024,1024,1024,0,0,0,0,62,5.37,79.7,165.354336,P-GPS,,50.4
972,573000,2026-01-08 12:38:00,0.0,5,7.365,0.0,0.0,0.0,23.2,11.0,8.4,1024,1024,1024,1024,0,0,0,0,62,5.37,79.7,165.354336,P-GPS,,50.4
973,573100,2026-01-08 12:38:00,0.0,5,7.41,0.0,0.0,0.0,23.1,10.0,8.1,1024,1024,1024,1024,0,0,0,0,62,4.711,79.7,165.354336,P-GPS,,50.4
974,573200,2026-01-08 12:38:01,0.0,5,7.41,0.0,0.0,0.0,23.1,10.1,8.2,1024,1024,1024,1024,0,0,0,0,62,4.711,79.7,165.354336,P-GPS,,50.4
975,573300,2026-01-08 12:38:01,0.0,5,7.41,0.0,0.0,0.0,23.2,10.6,8.3,1024,1024,1024,1024,0,0,0,0,62,4.711,79.7,165.026252,P-GPS,,50.3
976,573400,2026-01-08 12:38:01,0.0,5,7.41,0.0,0.0,0.0,23.1,10.1,8.2,1024,1024,1024,1024,0,0,0,0,62,4.711,79.7,165.026252,P-GPS,,50.3
977,573500,2026-01-08 12:38:01,0.0,5,7.41,0.0,0.0,0.0,23.2,10.4,7.3,1024,1024,1024,1024,0,0,0,0,62,4.711,79.7,165.026252,P-GPS,,50.3
978,573600,2026-01-08 12:38:01,0.0,5,7.41,0.0,0.0,0.0,23.1,10.4,7.2,1024,1024,1024,1024,0,0,0,0,62,4.711,79.7,165.026252,P-GPS,,50.3
979,573700,2026-01-08 12:38:01,0.0,5,7.41,0.0,0.0,0.0,23.1,10.5,6.7,1024,1024,1024,1024,0,0,0,0,62,4.711,79.7,164.698168,P-GPS,,50.2
980,573800,2026-01-08 12:38:01,0.0,5,7.41,0.0,0.0,0.0,23.1,10.6,6.3,1024,1024,1024,1024,0,0,0,0,62,4.711,79.7,164.698168,P-GPS,,50.2
981,573900,2026-01-08 12:38:01,0.0,5,7.41,0.0,0.0,0.0,23.0,10.7,6.0,1024,1024,1024,1024,0,0,0,0,62,4.711,79.7,164.698168,P-GPS,,50.2
982,574000,2026-01-08 12:38:01,0.0,5,7.41,0.0,0.0,0.0,23.0,10.6,6.3,1024,1024,1024,1024,0,0,0,0,62,4.711,79.7,164.698168,P-GPS,,50.2
983,574100,2026-01-08 12:38:01,0.0,5,7.41,0.0,0.0,0.0,23.1,10.6,6.7,1024,1024,1024,1024,0,0,0,0,62,4.711,79.7,164.698168,P-GPS,,50.2
984,574200,2026-01-08 12:38:02,0.0,5,7.41,0.0,0.0,0.0,23.2,11.0,6.7,1024,1024,1024,1024,0,0,0,0,62,4.711,79.7,164.698168,P-GPS,,50.2
985,574300,2026-01-08 12:38:02,0.0,5,7.41,0.0,0.0,0.0,23.1,10.7,6.4,1024,1024,1024,1024,0,0,0,0,62,4.711,79.7,164.698168,P-GPS,,50.2
986,574400,2026-01-08 12:38:02,0.0,5,7.41,0.0,0.0,0.0,23.2,10.7,6.8,1024,1024,1024,1024,0,0,0,0,62,4.711,79.7,164.698168,P-GPS,,50.2
987,574500,2026-01-08 12:38:02,0.0,5,7.41,0.0,0.0,0.0,23.2,10.7,7.3,1024,1024,1024,1024,0,0,0,0,62,4.711,79.7,164.698168,P-GPS,,50.2
988,574600,2026-01-08 12:38:02,0.0,5,7.41,0.0,0.0,0.0,23.3,11.2,7.9,1024,1024,1024,1024,0,0,0,0,62,4.711,79.7,165.026252,P-GPS,,50.3
989,574700,2026-01-08 12:38:02,0.0,5,7.41,0.0,0.0,0.0,23.2,10.5,7.9,1024,1024,1024,1024,0,0,0,0,62,4.711,79.7,165.026252,P-GPS,,50.3
990,574800,2026-01-08 12:38:02,0.0,5,7.41,0.0,0.0,0.0,23.1,10.6,7.5,1024,1024,1024,1024,0,0,0,0,62,4.711,79.7,165.026252,P-GPS,,50.3
991,574900,2026-01-08 12:38:02,0.0,5,7.41,0.0,0.0,0.0,23.4,11.7,7.6,1024,1024,1024,1024,0,0,0,0,62,4.711,79.7,165.026252,P-GPS,,50.3
992,575000,2026-01-08 12:38:02,0.0,5,7.41,0.0,0.0,0.0,23.3,12.0,7.1,1024,1024,1024,1024,0,0,0,0,62,4.711,79.7,165.026252,P-GPS,,50.3
993,575100,2026-01-08 12:38:02,0.0,5,7.41,0.0,0.0,0.0,23.1,10.2,7.8,1024,1024,1024,1024,0,0,0,0,62,4.711,79.7,165.026252,P-GPS,,50.3
994,575200,2026-01-08 12:38:02,0.0,5,7.41,0.0,0.0,-0.223694,23.1,10.2,7.9,1024,1024,1024,1024,0,0,0,0,62,4.711,79.7,164.698168,P-GPS,,50.2
995,575300,2026-01-08 12:38:03,0.0,5,7.393,0.0,0.0,0.0,23.3,11.2,7.2,1024,1024,1024,1024,0,0,0,0,62,4.725,79.88,164.698168,P-GPS,,50.2
996,575400,2026-01-08 12:38:03,0.0,5,7.393,0.0,0.0,0.0,23.3,10.6,6.8,1024,1024,1024,1024,0,0,0,0,62,4.725,79.88,164.698168,P-GPS,,50.2
997,575500,2026-01-08 12:38:03,0.0,5,7.393,0.0,0.0,0.0,23.3,10.4,6.6,1024,1024,1024,1024,0,0,0,0,62,4.725,79.88,164.370084,P-GPS,,50.1
998,575600,2026-01-08 12:38:03,0.0,5,7.393,0.0,0.0,0.0,23.2,9.6,6.1,1024,1024,1024,1024,0,0,0,0,62,4.725,79.88,164.370084,P-GPS,,50.1
999,575700,2026-01-08 12:38:03,0.0,5,7.393,0.0,0.0,0.0,23.1,8.9,5.5,1024,1024,1024,1024,0,0,0,0,62,4.725,79.88,164.370084,P-GPS,,50.1
1000,575800,2026-01-08 12:38:03,0.0,5,7.393,0.0,0.0,0.0,23.1,9.0,5.3,1024,1024,1024,1024,0,0,0,0,62,4.725,79.88,164.042,P-GPS,,50.0
1001,575900,2026-01-08 12:38:03,0.0,5,7.393,0.0,0.0,0.0,23.1,9.1,5.2,1024,1024,1024,1024,0,0,0,0,62,4.725,79.88,164.042,P-GPS,,50.0
1002,576000,2026-01-08 12:38:03,0.0,5,7.393,0.0,0.0,0.0,23.1,8.9,5.5,1024,1024,1024,1024,0,0,0,0,62,4.725,79.88,164.042,P-GPS,,50.0
1003,576100,2026-01-08 12:38:03,0.0,5,7.393,0.0,0.0,0.0,23.1,9.4,5.7,1024,1024,1024,1024,0,0,0,0,62,4.725,79.88,164.042,P-GPS,,50.0
1004,576200,2026-01-08 12:38:04,0.0,5,7.393,0.0,0.0,0.0,23.1,9.6,5.8,1024,1024,1024,1024,0,0,0,0,62,4.725,79.88,163.713916,P-GPS,,49.9
1005,576300,2026-01-08 12:38:04,0.0,5,7.393,0.0,0.0,0.0,23.1,9.6,5.8,1024,1024,1024,1024,0,0,0,0,62,4.725,79.88,163.713916,P-GPS,,49.9
1006,576400,2026-01-08 12:38:04,0.0,5,7.42,0.0,0.0,0.0,23.0,9.6,5.8,1024,1024,1024,1024,0,0,0,0,62,4.007,79.88,163.713916,P-GPS,,49.9
1007,576500,2026-01-08 12:38:04,0.0,5,7.42,0.0,0.0,0.0,23.0,9.4,5.7,1024,1024,1024,1024,0,0,0,0,62,4.007,79.88,163.713916,P-GPS,,49.9
1008,576600,2026-01-08 12:38:04,0.0,5,7.42,0.0,0.0,0.0,23.1,10.0,6.1,1024,1024,1024,1024,0,0,0,0,62,4.007,79.88,163.713916,P-GPS,,49.9
1009,576700,2026-01-08 12:38:04,0.0,5,7.42,0.0,0.0,0.0,23.1,10.4,6.2,1024,1024,1024,1024,0,0,0,0,62,4.007,79.88,163.713916,P-GPS,,49.9
1010,576800,2026-01-08 12:38:04,0.0,5,7.42,0.0,0.0,0.0,23.1,10.5,6.2,1024,1024,1024,1024,0,0,0,0,62,4.007,79.88,163.713916,P-GPS,,49.9
1011,576900,2026-01-08 12:38:04,0.0,5,7.42,0.0,0.0,0.0,23.1,10.8,6.2,1024,1024,1024,1024,0,0,0,0,62,4.007,79.88,163.713916,P-GPS,,49.9
1012,577000,2026-01-08 12:38:04,0.0,5,7.42,0.0,0.0,0.0,23.0,10.3,6.4,1024,1024,1024,1024,0,0,0,0,62,4.007,79.88,164.042,P-GPS,,50.0
1013,577100,2026-01-08 12:38:04,0.0,5,7.42,0.0,0.0,0.0,23.2,10.9,6.7,1024,1024,1024,1024,0,0,0,0,62,4.007,79.88,164.042,P-GPS,,50.0
1014,577200,2026-01-08 12:38:05,0.0,5,7.42,0.0,0.0,0.0,23.2,10.6,6.9,1024,1024,1024,1024,0,0,0,0,62,4.007,79.88,164.042,P-GPS,,50.0
1015,577300,2026-01-08 12:38:05,0.0,5,7.42,0.0,0.0,0.0,23.3,10.4,6.9,1024,1024,1024,1024,0,0,0,0,62,4.007,79.88,164.042,P-GPS,,50.0
1016,577400,2026-01-08 12:38:05,0.0,5,7.42,0.0,0.0,0.0,23.1,10.1,6.7,1024,1024,1024,1024,0,0,0,0,62,4.007,79.88,164.042,P-GPS,,50.0
1017,577500,2026-01-08 12:38:05,0.0,5,7.429,0.0,0.0,0.0,23.1,9.2,6.5,1024,1024,1024,1024,0,0,0,0,61,4.023,79.88,164.042,P-GPS,,50.0
1018,577600,2026-01-08 12:38:05,0.0,5,7.429,0.0,0.0,0.0,23.0,9.3,6.2,1024,1024,1024,1024,0,0,0,0,61,4.023,79.88,164.042,P-GPS,,50.0
1019,577700,2026-01-08 12:38:05,0.0,5,7.429,0.0,0.0,0.0,23.1,9.4,6.1,1024,1024,1024,1024,0,0,0,0,61,4.023,79.88,164.042,P-GPS,,50.0
1020,577800,2026-01-08 12:38:05,0.0,5,7.429,0.0,0.0,0.0,23.1,9.5,5.9,1024,1024,1024,1024,0,0,0,0,61,4.023,79.88,164.042,P-GPS,,50.0
1021,577900,2026-01-08 12:38:05,0.0,5,7.429,0.0,0.0,0.0,23.1,9.7,5.8,1024,1024,1024,1024,0,0,0,0,61,4.023,79.88,164.042,P-GPS,,50.0
1022,578000,2026-01-08 12:38:05,0.0,5,7.429,0.0,0.0,0.0,23.0,8.7,5.7,1024,1024,1024,1024,0,0,0,0,61,4.023,79.88,164.042,P-GPS,,50.0
1023,578100,2026-01-08 12:38:05,0.0,5,7.429,0.0,0.0,0.0,23.1,9.6,5.9,1024,1024,1024,1024,0,0,0,0,61,4.023,79.88,164.042,P-GPS,,50.0
1024,578200,2026-01-08 12:38:06,0.0,5,7.429,0.0,0.0,0.0,23.1,9.6,6.1,1024,1024,1024,1024,0,0,0,0,61,4.023,79.88,164.042,P-GPS,,50.0
1025,578300,2026-01-08 12:38:06,0.0,5,7.429,0.0,0.0,0.0,23.1,9.3,6.1,1024,1024,1024,1024,0,0,0,0,61,4.023,79.88,164.370084,P-GPS,,50.1
1026,578400,2026-01-08 12:38:06,0.0,5,7.429,0.0,0.0,0.0,23.1,8.9,5.8,1024,1024,1024,1024,0,0,0,0,61,4.023,79.88,164.370084,P-GPS,,50.1
1027,578500,2026-01-08 12:38:06,0.0,5,7.429,0.0,0.0,0.0,22.9,8.7,5.8,1024,1024,1024,1024,0,0,0,0,61,4.023,79.88,164.370084,P-GPS,,50.1
1028,578600,2026-01-08 12:38:06,0.0,5,7.427,0.0,0.0,0.0,23.1,9.9,6.0,1024,1024,1024,1024,0,0,0,0,61,3.884,79.88,164.370084,P-GPS,,50.1
1029,578700,2026-01-08 12:38:06,0.0,5,7.427,0.0,0.0,0.0,23.1,9.8,5.8,1024,1024,1024,1024,0,0,0,0,61,3.884,79.88,164.370084,P-GPS,SD card speed low SD card speed low. Normal use may be affected. Replace SD card (Code: 10028). Gimbal stuck. Make sure gimbal cover is removed and manually check whether gimbal can rotate freely (Code: 40002),50.1
1030,578800,2026-01-08 12:38:06,0.0,5,7.427,0.0,0.0,0.0,23.1,9.4,5.8,1024,1024,1024,1024,0,0,0,0,61,3.884,79.88,164.370084,P-GPS,,50.1
1031,578900,2026-01-08 12:38:06,0.0,5,7.427,0.0,0.0,0.0,22.9,8.1,5.7,1024,1024,1024,1024,0,0,0,0,61,3.884,79.88,164.370084,P-GPS,,50.1
1032,579000,2026-01-08 12:38:06,0.0,5,7.427,0.0,0.0,0.0,23.0,9.3,5.8,1024,1024,1024,1024,0,0,0,0,61,3.884,79.88,164.370084,P-GPS,,50.1
1033,579100,2026-01-08 12:38:06,0.0,5,7.427,0.0,0.0,0.0,22.9,9.6,5.5,1024,1024,1024,1024,0,0,0,0,61,3.884,79.88,164.370084,P-GPS,,50.1
1034,579200,2026-01-08 12:38:07,0.0,5,7.427,0.0,0.0,0.0,22.9,10.0,5.2,1024,1024,1024,1024,0,0,0,0,61,3.884,79.88,164.370084,P-GPS,,50.1
1035,579300,2026-01-08 12:38:07,0.0,5,7.427,0.0,0.0,0.0,23.0,10.0,5.3,1024,1024,1024,1024,0,0,0,0,61,3.884,79.88,164.370084,P-GPS,,50.1
1036,579400,2026-01-08 12:38:07,0.0,5,7.427,0.0,0.0,0.0,23.1,10.1,5.6,1024,1024,1024,1024,0,0,0,0,61,3.884,79.88,164.370084,P-GPS,,50.1
1037,579500,2026-01-08 12:38:07,0.0,5,7.427,0.0,0.0,0.0,23.1,10.3,5.3,1024,1024,1024,1024,0,0,0,0,61,3.884,79.88,164.370084,P-GPS,,50.1
1038,579600,2026-01-08 12:38:07,0.0,5,7.427,0.0,0.0,0.0,23.0,10.8,5.0,1024,1024,1024,1024,0,0,0,0,61,3.884,79.88,164.370084,P-GPS,,50.1
1039,579700,2026-01-08 12:38:07,0.0,5,7.421,0.0,0.0,0.0,23.0,11.5,4.4,1024,1024,1024,1024,0,0,0,0,61,4.195,79.88,164.698168,P-GPS,,50.2
1040,579800,2026-01-08 12:38:07,0.223694,5,7.421,0.0,0.223694,0.0,23.0,12.0,4.0,1024,1024,1024,1024,0,0,0,0,61,4.195,79.88,164.698168,P-GPS,,50.2
1041,579900,2026-01-08 12:38:07,0.223694,5,7.421,0.0,0.223694,0.0,23.1,12.5,3.5,1024,1024,1024,1024,0,0,0,0,61,4.195,79.88,164.698168,P-GPS,,50.2
1042,580000,2026-01-08 12:38:07,0.223694,5,7.421,0.0,0.223694,0.0,23.0,12.5,3.1,1024,1024,1024,1024,0,0,0,0,61,4.195,79.88,165.026252,P-GPS,,50.3
1043,580100,2026-01-08 12:38:07,0.0,5,7.421,0.0,0.0,0.0,22.9,12.7,2.7,1024,1024,1024,1024,0,0,0,0,61,4.195,79.88,165.026252,P-GPS,,50.3
1044,580200,2026-01-08 12:38:08,0.0,5,7.421,0.0,0.0,0.0,22.9,12.2,2.8,1024,1024,1024,1024,0,0,0,0,61,4.195,79.88,165.026252,P-GPS,,50.3
1045,580300,2026-01-08 12:38:08,0.0,5,7.421,0.0,0.0,0.0,23.0,12.8,2.7,1024,1024,1024,1024,0,0,0,0,61,4.195,79.88,165.026252,P-GPS,,50.3
1046,580400,2026-01-08 12:38:08,0.0,5,7.421,0.0,0.0,0.0,22.9,11.9,3.6,1024,1024,1024,1024,0,0,0,0,61,4.195,79.88,165.026252,P-GPS,,50.3
1047,580500,2026-01-08 12:38:08,0.0,5,7.421,0.223694,0.0,0.0,23.1,12.1,4.6,1024,1024,1024,1024,0,0,0,0,61,4.195,79.88,165.354336,P-GPS,,50.4
1048,580600,2026-01-08 12:38:08,0.223694,5,7.421,0.223694,0.0,0.0,23.3,12.8,5.0,1024,1024,1024,1024,0,0,0,0,61,4.195,79.88,165.354336,P-GPS,,50.4
1049,580700,2026-01-08 12:38:08,0.223694,5,7.421,0.223694,0.0,0.0,23.2,13.4,5.0,1024,1024,1024,1024,0,0,0,0,61,4.195,79.88,165.354336,P-GPS,,50.4
1050,580800,2026-01-08 12:38:08,0.0,5,7.413,0.0,0.0,0.0,23.2,13.1,5.2,1024,1024,1024,1024,0,0,0,0,61,4.579,79.88,165.354336,P-GPS,,50.4
1051,580900,2026-01-08 12:38:08,0.0,5,7.413,0.0,0.0,0.0,23.1,12.2,5.5,1024,1024,1024,1024,0,0,0,0,61,4.579,79.88,165.354336,P-GPS,,50.4
1052,581000,2026-01-08 12:38:08,0.0,5,7.413,0.0,0.0,0.0,23.2,12.1,5.6,1024,1024,1024,1024,0,0,0,0,61,4.579,79.88,165.354336,P-GPS,,50.4
1053,581100,2026-01-08 12:38:08,0.0,5,7.413,0.0,0.0,0.0,23.2,12.5,5.7,1024,1024,1024,1024,0,0,0,0,61,4.579,79.88,165.026252,P-GPS,,50.3
1054,581200,2026-01-08 12:38:09,0.0,5,7.413,0.0,0.0,0.0,23.2,11.9,6.4,1024,1024,1024,1024,0,0,0,0,61,4.579,79.88,165.026252,P-GPS,,50.3
1055,581300,2026-01-08 12:38:09,0.0,5,7.413,0.0,0.0,0.0,23.1,11.8,6.7,1024,1024,1024,1024,0,0,0,0,61,4.579,79.88,165.026252,P-GPS,,50.3
1056,581400,2026-01-08 12:38:09,0.223694,5,7.413,0.0,-0.223694,0.0,23.1,11.6,6.7,1024,1024,1024,1024,0,0,0,0,61,4.579,79.88,165.026252,P-GPS,,50.3
1057,581500,2026-01-08 12:38:09,0.0,5,7.413,0.0,0.0,0.0,23.2,11.3,7.0,1024,1024,1024,1024,0,0,0,0,61,4.579,79.88,165.026252,P-GPS,,50.3
1058,581600,2026-01-08 12:38:09,0.0,5,7.413,0.0,0.0,0.223694,23.3,12.2,6.8,1024,1024,1024,1024,0,0,0,0,61,4.579,79.88,165.026252,P-GPS,,50.3
1059,581700,2026-01-08 12:38:09,0.0,5,7.413,0.0,0.0,0.223694,23.2,12.3,6.9,1024,1024,1024,1024,0,0,0,0,61,4.579,79.88,165.026252,P-GPS,,50.3
1060,581800,2026-01-08 12:38:09,0.0,5,7.413,0.0,0.0,0.223694,23.3,12.8,6.2,1024,1024,1024,1024,0,0,0,0,61,4.579,79.88,165.354336,P-GPS,,50.4
1061,581900,2026-01-08 12:38:09,0.0,5,7.391,0.0,0.0,0.0,23.2,12.6,5.6,1024,1024,1024,1024,0,0,0,0,61,4.36,79.88,165.354336,P-GPS,,50.4
1062,582000,2026-01-08 12:38:09,0.0,5,7.391,0.0,0.0,0.0,23.1,12.8,5.3,1024,1024,1024,1024,0,0,0,0,61,4.36,79.88,165.354336,P-GPS,,50.4
1063,582100,2026-01-08 12:38:09,0.0,5,7.391,0.0,0.0,0.0,23.0,12.7,5.1,1024,1024,1024,1024,0,0,0,0,61,4.36,79.88,165.354336,P-GPS,,50.4
1064,582200,2026-01-08 12:38:10,0.0,5,7.391,0.0,0.0,0.0,23.1,12.8,5.1,1024,1024,1024,1024,0,0,0,0,61,4.36,79.88,165.354336,P-GPS,,50.4
1065,582300,2026-01-08 12:38:10,0.0,5,7.391,0.0,0.0,0.0,23.1,12.9,5.1,1024,1024,1024,1024,0,0,0,0,61,4.36,79.88,165.354336,P-GPS,,50.4
1066,582400,2026-01-08 12:38:10,0.0,5,7.391,0.0,0.0,0.0,23.1,13.0,4.7,1024,1024,1024,1024,0,0,0,0,61,4.36,79.88,165.354336,P-GPS,,50.4
1067,582500,2026-01-08 12:38:10,0.0,5,7.391,0.0,0.0,0.0,23.1,12.9,4.6,1024,1024,1024,1024,0,0,0,0,61,4.36,79.88,165.354336,P-GPS,,50.4
1068,582600,2026-01-08 12:38:10,0.0,5,7.391,0.0,0.0,0.0,23.2,13.4,4.7,1024,1024,1024,1024,0,0,0,0,61,4.36,79.88,165.354336,P-GPS,,50.4
1069,582700,2026-01-08 12:38:10,0.0,5,7.391,0.0,0.0,0.0,23.2,13.8,4.9,1024,1024,1024,1024,0,0,0,0,61,4.36,79.88,165.354336,P-GPS,,50.4
1070,582800,2026-01-08 12:38:10,0.0,5,7.391,0.0,0.0,0.0,23.1,13.4,4.6,1024,1024,1024,1024,0,0,0,0,61,4.36,79.88,165.354336,P-GPS,,50.4
1071,582900,2026-01-08 12:38:10,0.0,5,7.391,0.0,0.0,0.0,23.0,13.5,4.6,1024,1024,1024,1024,0,0,0,0,61,4.36,79.88,165.354336,P-GPS,,50.4
1072,583000,2026-01-08 12:38:10,0.0,5,7.392,0.0,0.0,0.0,23.1,13.5,4.7,1024,1024,1024,1024,0,0,0,0,61,4.783,79.88,165.354336,P-GPS,,50.4
1073,583100,2026-01-08 12:38:10,0.0,5,7.392,0.0,0.0,0.0,23.2,13.6,4.8,1024,1024,1024,1024,0,0,0,0,61,4.783,79.88,165.354336,P-GPS,,50.4
1074,583200,2026-01-08 12:38:11,0.0,5,7.392,0.0,0.0,0.0,23.2,13.7,5.1,1024,1024,1024,1024,0,0,0,0,61,4.783,79.88,165.354336,P-GPS,,50.4
1075,583300,2026-01-08 12:38:11,0.0,5,7.392,0.0,0.0,0.0,23.2,13.6,5.0,1024,1024,1024,1024,0,0,0,0,61,4.783,79.88,165.354336,P-GPS,,50.4
1076,583400,2026-01-08 12:38:11,0.0,5,7.392,0.0,0.0,0.0,23.1,13.5,4.7,1024,1024,1024,1024,0,0,0,0,61,4.783,79.88,165.354336,P-GPS,,50.4
1077,583500,2026-01-08 12:38:11,0.0,5,7.392,0.0,0.0,0.0,23.0,13.2,4.7,1024,1024,1024,1024,0,0,0,0,61,4.783,79.88,165.354336,P-GPS,,50.4
1078,583600,2026-01-08 12:38:11,0.0,5,7.392,0.0,0.0,0.0,23.0,13.1,4.4,1024,1024,1024,1024,0,0,0,0,61,4.783,79.88,165.354336,P-GPS,,50.4
1079,583700,2026-01-08 12:38:11,0.0,5,7.392,0.0,0.0,0.0,23.1,12.9,4.2,1024,1024,1024,1024,0,0,0,0,61,4.783,79.88,165.354336,P-GPS,,50.4
1080,583800,2026-01-08 12:38:11,0.0,5,7.392,0.0,0.0,0.0,23.1,12.8,4.3,1024,1024,1024,1024,0,0,0,0,61,4.783,79.88,165.354336,P-GPS,,50.4
1081,583900,2026-01-08 12:38:11,0.0,5,7.392,0.0,0.0,0.0,23.1,12.7,4.4,1024,1024,1024,1024,0,0,0,0,61,4.783,79.88,165.026252,P-GPS,,50.3
1082,584000,2026-01-08 12:38:11,0.0,5,7.392,0.0,0.0,0.0,23.1,12.6,4.4,1024,1024,1024,1024,0,0,0,0,61,4.783,79.88,165.026252,P-GPS,,50.3
1083,584100,2026-01-08 12:38:11,0.0,5,7.41,0.0,0.0,0.0,23.1,12.5,4.9,1024,1024,1024,1024,0,0,0,0,61,4.543,80.06,165.026252,P-GPS,,50.3
1084,584200,2026-01-08 12:38:12,0.0,5,7.41,0.0,0.0,0.0,23.1,12.3,5.5,1024,1024,1024,1024,0,0,0,0,61,4.543,80.06,165.026252,P-GPS,,50.3
1085,584300,2026-01-08 12:38:12,0.0,5,7.41,0.0,0.0,0.0,23.1,12.6,6.0,1024,1024,1024,1024,0,0,0,0,61,4.543,80.06,165.026252,P-GPS,,50.3
1086,584400,2026-01-08 12:38:12,0.0,5,7.41,0.0,0.0,0.0,23.1,12.1,6.0,1024,1024,1024,1024,0,0,0,0,61,4.543,80.06,165.026252,P-GPS,,50.3
1087,584500,2026-01-08 12:38:12,0.0,5,7.41,0.0,0.0,0.0,23.3,12.6,6.2,1024,1024,1024,1024,0,0,0,0,61,4.543,80.06,165.026252,P-GPS,,50.3
1088,584600,2026-01-08 12:38:12,0.0,5,7.41,0.0,0.0,0.0,23.3,12.6,6.2,1024,1024,1024,1024,0,0,0,0,61,4.543,80.06,165.026252,P-GPS,,50.3
1089,584700,2026-01-08 12:38:12,0.0,5,7.41,0.0,0.0,0.0,23.2,12.8,6.1,1024,1024,1024,1024,0,0,0,0,61,4.543,80.06,165.026252,P-GPS,,50.3
1090,584800,2026-01-08 12:38:12,0.0,5,7.41,0.0,0.0,0.0,23.2,12.7,5.8,1024,1024,1024,1024,0,0,0,0,61,4.543,80.06,165.026252,P-GPS,,50.3
1091,584900,2026-01-08 12:38:12,0.0,5,7.41,0.0,0.0,0.0,23.2,12.6,6.0,1024,1024,1024,1024,0,0,0,0,61,4.543,80.06,165.026252,P-GPS,,50.3
1092,585000,2026-01-08 12:38:12,0.0,5,7.41,0.0,0.0,0.0,23.2,12.5,5.9,1024,1024,1024,1024,0,0,0,0,61,4.543,80.06,165.026252,P-GPS,,50.3
1093,585100,2026-01-08 12:38:12,0.0,5,7.41,0.0,0.0,0.0,23.2,12.7,6.0,1024,1024,1024,1024,0,0,0,0,61,4.543,80.06,165.026252,P-GPS,,50.3
1094,585200,2026-01-08 12:38:13,0.0,5,7.41,0.0,0.0,0.0,23.2,12.5,5.8,1024,1024,1024,1024,0,0,0,0,61,4.543,80.06,165.026252,P-GPS,,50.3
1095,585300,2026-01-08 12:38:13,0.0,5,7.41,0.0,0.0,0.0,23.1,12.4,5.9,1024,1024,1024,1024,0,0,0,0,61,4.543,80.06,165.026252,P-GPS,,50.3
1096,585400,2026-01-08 12:38:13,0.0,5,7.41,0.0,0.0,0.0,23.2,12.1,5.9,1024,1024,1024,1024,0,0,0,0,61,4.543,80.06,165.026252,P-GPS,,50.3
1097,585500,2026-01-08 12:38:13,0.0,5,7.41,0.0,0.0,0.0,23.2,12.3,6.0,1024,1024,1024,1024,0,0,0,0,61,4.543,80.06,165.026252,P-GPS,,50.3
1098,585600,2026-01-08 12:38:13,0.0,5,7.41,0.0,0.0,0.0,23.2,12.2,6.3,1024,1024,1024,1024,0,0,0,0,61,4.543,80.06,165.026252,P-GPS,,50.3
1099,585700,2026-01-08 12:38:13,0.0,5,7.41,0.0,0.0,0.0,23.3,12.7,6.5,1024,1024,1024,1024,0,0,0,0,61,4.543,80.06,165.026252,P-GPS,,50.3
1100,585800,2026-01-08 12:38:13,0.0,5,7.41,0.0,0.0,0.0,23.2,12.0,6.6,1024,1024,1024,1024,0,0,0,0,61,4.543,80.06,165.026252,P-GPS,,50.3
1101,585900,2026-01-08 12:38:13,0.0,5,7.41,0.0,0.0,0.0,23.2,12.0,6.8,1024,1024,1024,1024,0,0,0,0,61,4.543,80.06,164.698168,P-GPS,,50.2
1102,586000,2026-01-08 12:38:13,0.0,5,7.41,0.0,0.0,0.0,23.3,12.0,7.1,1024,1024,1024,1024,0,0,0,0,61,4.543,80.06,164.698168,P-GPS,,50.2
1103,586100,2026-01-08 12:38:13,0.0,5,7.41,0.0,0.0,0.0,23.2,11.9,7.1,1024,1024,1024,1024,0,0,0,0,61,4.543,80.06,164.698168,P-GPS,,50.2
1104,586200,2026-01-08 12:38:14,0.0,5,7.41,0.0,0.0,0.0,23.3,11.7,7.3,1024,1024,1024,1024,0,0,0,0,61,4.543,80.06,164.698168,P-GPS,,50.2
1105,586300,2026-01-08 12:38:14,0.223694,5,7.396,0.0,-0.223694,0.0,23.3,11.1,7.6,1024,1024,1024,1024,0,0,0,0,61,4.421,79.88,165.026252,P-GPS,,50.3
1106,586400,2026-01-08 12:38:14,0.223694,5,7.396,0.0,-0.223694,0.0,23.4,11.1,8.1,1024,1024,1024,1024,0,0,0,0,61,4.421,79.88,165.026252,P-GPS,,50.3
1107,586500,2026-01-08 12:38:14,0.223694,5,7.396,0.0,-0.223694,0.0,23.4,11.2,8.5,1024,1024,1024,1024,0,0,0,0,61,4.421,79.88,165.026252,P-GPS,,50.3
1108,586600,2026-01-08 12:38:14,0.223694,5,7.396,0.0,-0.223694,0.0,23.3,10.4,9.0,1024,1024,1024,1024,0,0,0,0,61,4.421,79.88,165.354336,P-GPS,,50.4
1109,586700,2026-01-08 12:38:14,0.223694,5,7.396,0.0,-0.223694,0.0,23.2,10.1,9.1,1024,1024,1024,1024,0,0,0,0,61,4.421,79.88,165.354336,P-GPS,,50.4
1110,586800,2026-01-08 12:38:14,0.223694,5,7.396,0.0,-0.223694,0.0,23.3,10.3,9.3,1024,1024,1024,1024,0,0,0,0,61,4.421,79.88,165.354336,P-GPS,,50.4
1111,586900,2026-01-08 12:38:14,0.0,5,7.396,0.0,0.0,0.0,23.3,10.3,9.4,1024,1024,1024,1024,0,0,0,0,61,4.421,79.88,165.354336,P-GPS,,50.4
1112,587000,2026-01-08 12:38:14,0.0,5,7.396,0.0,0.0,0.0,22.9,8.0,9.5,1024,1024,1024,1024,0,0,0,0,61,4.421,79.88,165.354336,P-GPS,,50.4
1113,587100,2026-01-08 12:38:14,0.0,5,7.396,0.0,0.0,-0.223694,23.2,11.0,8.6,1024,1024,1024,1024,0,0,0,0,61,4.421,79.88,165.354336,P-GPS,,50.4
1114,587200,2026-01-08 12:38:15,0.0,5,7.396,0.0,0.0,0.0,23.2,11.6,7.4,1024,1024,1024,1024,0,0,0,0,61,4.421,79.88,165.026252,P-GPS,,50.3
1115,587300,2026-01-08 12:38:15,0.0,5,7.396,0.0,0.0,0.0,23.2,12.9,6.6,1024,1024,1024,1024,0,0,0,0,61,4.421,79.88,165.026252,P-GPS,,50.3
1116,587400,2026-01-08 12:38:15,0.0,5,7.452,0.0,0.0,0.0,23.2,12.8,6.1,1024,1024,1024,1024,0,0,0,0,61,3.928,80.06,165.026252,P-GPS,,50.3
1117,587500,2026-01-08 12:38:15,0.0,5,7.452,0.0,0.0,0.223694,23.1,12.0,5.8,1024,1024,1024,1024,0,0,0,0,61,3.928,80.06,164.698168,P-GPS,,50.2
1118,587600,2026-01-08 12:38:15,0.0,5,7.452,0.0,0.0,0.0,23.2,11.8,5.8,1024,1024,1024,1024,0,0,0,0,61,3.928,80.06,164.370084,P-GPS,,50.1
1119,587700,2026-01-08 12:38:15,0.0,5,7.452,0.0,0.0,0.0,23.2,13.1,5.7,1024,1024,1024,1024,0,0,0,0,61,3.928,80.06,164.370084,P-GPS,Strong wind warning Strong wind warning. Aircraft unable to return to home automatically. Lower altitude immediately and return to home manually (Code: 30149). SD card speed low. Normal use may be affected. Replace SD card (Code: 10028). Gimbal stuck. Make sure gimbal c,50.1
1120,587800,2026-01-08 12:38:15,0.0,5,7.452,0.0,0.0,0.0,23.2,13.2,5.6,1024,1024,1024,1024,0,0,0,0,61,3.928,80.06,164.042,P-GPS,,50.0
1121,587900,2026-01-08 12:38:15,0.0,5,7.452,0.0,0.0,0.0,23.3,13.1,6.1,1024,1024,1024,1024,0,0,0,0,61,3.928,80.06,164.042,P-GPS,,50.0
1122,588000,2026-01-08 12:38:15,0.0,5,7.452,0.0,0.0,0.0,23.4,12.7,6.1,1024,1024,1024,1024,0,0,0,0,61,3.928,80.06,164.042,P-GPS,,50.0
1123,588100,2026-01-08 12:38:15,0.0,5,7.452,0.0,0.0,0.0,23.2,12.6,6.1,1024,1024,1024,1024,0,0,0,0,61,3.928,80.06,163.713916,P-GPS,,49.9
1124,588200,2026-01-08 12:38:16,0.0,5,7.452,0.0,0.0,0.0,23.2,12.3,5.8,1024,1024,1024,1024,0,0,0,0,61,3.928,80.06,163.713916,P-GPS,,49.9
1125,588300,2026-01-08 12:38:16,0.0,5,7.452,0.0,0.0,0.0,23.2,12.5,5.5,1024,1024,1024,1024,0,0,0,0,61,3.928,80.06,163.713916,P-GPS,,49.9
1126,588400,2026-01-08 12:38:16,0.0,5,7.452,0.0,0.0,-0.223694,23.3,12.5,5.7,1024,1024,1024,1024,0,0,0,0,61,3.928,80.06,163.713916,P-GPS,,49.9
