index,time(millisecond),timestamp,speed(mph),gpslevel,voltage(v),xSpeed(mph),ySpeed(mph),zSpeed(mph),compass_heading(degrees),pitch(degrees),roll(degrees),rc_elevator,rc_aileron,rc_throttle,rc_rudder,rc_elevator(percent),rc_aileron(percent),rc_throttle(percent),rc_rudder(percent),battery_percent,current(A),battery_temperature(f),ascent(feet),flycState,message,height_above_takeoff(meters)
800,80100,2026-01-13 12:20:30,0.0,5,7.703,0.0,0.0,0.0,1.0,8.9,-10.7,1024,1024,1024,1024,0,0,0,0,93,5.639,66.02,166.010504,P-GPS,,50.6
801,80200,2026-01-13 12:20:30,0.0,5,7.772,0.0,0.0,0.0,1.0,9.3,-10.5,1024,1024,1024,1024,0,0,0,0,93,4.061,66.02,166.010504,P-GPS,,50.6
802,80300,2026-01-13 12:20:30,0.0,5,7.772,0.0,0.0,0.0,0.9,9.8,-10.2,1024,1024,1024,1024,0,0,0,0,93,4.061,66.02,166.010504,P-GPS,,50.6
803,80400,2026-01-13 12:20:30,0.0,5,7.772,0.0,0.0,0.0,0.8,9.5,-10.1,1024,1024,1024,1024,0,0,0,0,93,4.061,66.02,166.010504,P-GPS,,50.6
804,80500,2026-01-13 12:20:30,0.0,5,7.772,0.0,0.0,0.0,0.8,9.5,-10.1,1024,1024,1024,1024,0,0,0,0,93,4.061,66.02,166.338588,P-GPS,,50.7
805,80600,2026-01-13 12:20:30,0.0,5,7.772,0.0,0.0,0.0,0.8,9.6,-10.3,1024,1024,1024,1024,0,0,0,0,93,4.061,66.02,166.338588,P-GPS,,50.7
806,80700,2026-01-13 12:20:30,0.0,5,7.772,0.0,0.0,0.0,0.8,8.9,-11.2,1024,1024,1024,1024,0,0,0,0,93,4.061,66.02,166.338588,P-GPS,,50.7
807,80800,2026-01-13 12:20:30,0.0,5,7.772,0.0,0.0,0.0,1.0,8.1,-11.6,1024,1024,1024,1024,0,0,0,0,93,4.061,66.02,166.338588,P-GPS,,50.7
808,80900,2026-01-13 12:20:31,0.0,5,7.772,0.0,0.0,0.0,0.9,8.9,-11.7,1024,1024,1024,1024,0,0,0,0,93,4.061,66.02,166.338588,P-GPS,,50.7
809,81000,2026-01-13 12:20:31,0.0,5,7.772,0.0,0.0,0.0,0.7,9.3,-10.9,1024,1024,1024,1024,0,0,0,0,93,4.061,66.02,166.338588,P-GPS,,50.7
810,81100,2026-01-13 12:20:31,0.0,5,7.772,0.0,0.0,0.0,0.7,9.2,-10.4,1024,1024,1024,1024,0,0,0,0,93,4.061,66.02,166.010504,P-GPS,,50.6
811,81200,2026-01-13 12:20:31,0.223694,5,7.772,0.0,-0.223694,0.0,0.8,9.0,-9.9,1024,1024,1024,1024,0,0,0,0,93,4.061,66.02,166.010504,P-GPS,,50.6
812,81300,2026-01-13 12:20:31,0.223694,5,7.768,0.0,-0.223694,0.0,0.9,8.5,-9.4,1024,1024,1024,1024,0,0,0,0,93,4.4,66.2,166.010504,P-GPS,,50.6
813,81400,2026-01-13 12:20:31,0.223694,5,7.768,0.0,-0.223694,0.0,0.9,8.6,-8.4,1024,1024,1024,1024,0,0,0,0,93,4.4,66.2,166.010504,P-GPS,,50.6
814,81500,2026-01-13 12:20:31,0.223694,5,7.768,0.0,-0.223694,0.0,1.0,8.2,-8.3,1024,1024,1024,1024,0,0,0,0,93,4.4,66.2,166.010504,P-GPS,,50.6
815,81600,2026-01-13 12:20:31,0.223694,5,7.768,0.0,-0.223694,0.0,0.9,9.0,-8.0,1024,1024,1024,1024,0,0,0,0,93,4.4,66.2,165.68242,P-GPS,,50.5
816,81700,2026-01-13 12:20:31,0.223694,5,7.768,0.0,-0.223694,0.0,0.9,8.4,-7.6,1024,1024,1024,1024,0,0,0,0,93,4.4,66.2,165.68242,P-GPS,,50.5
817,81800,2026-01-13 12:20:32,0.223694,5,7.768,0.0,-0.223694,0.0,0.9,8.3,-7.6,1024,1024,1024,1024,0,0,0,0,93,4.4,66.2,165.68242,P-GPS,,50.5
818,81900,2026-01-13 12:20:32,0.0,5,7.768,0.0,0.0,0.0,0.9,8.2,-8.2,1024,1024,1024,1024,0,0,0,0,93,4.4,66.2,165.68242,P-GPS,,50.5
819,82000,2026-01-13 12:20:32,0.0,5,7.768,0.0,0.0,0.0,0.7,9.2,-9.0,1024,1024,1024,1024,0,0,0,0,93,4.4,66.2,165.68242,P-GPS,,50.5
820,82100,2026-01-13 12:20:32,0.0,5,7.768,0.0,0.0,0.0,0.9,8.1,-9.0,1024,1024,1024,1024,0,0,0,0,93,4.4,66.2,165.68242,P-GPS,,50.5
821,82200,2026-01-13 12:20:32,0.223694,5,7.768,-0.223694,0.0,0.0,0.9,7.7,-9.2,1024,1024,1024,1024,0,0,0,0,93,4.4,66.2,165.68242,P-GPS,,50.5
822,82300,2026-01-13 12:20:32,0.223694,5,7.768,-0.223694,0.0,0.0,1.0,7.6,-8.8,1024,1024,1024,1024,0,0,0,0,93,4.4,66.2,165.68242,P-GPS,,50.5
823,82400,2026-01-13 12:20:32,0.223694,5,7.784,-0.223694,0.0,0.0,1.0,7.5,-9.2,1024,1024,1024,1024,0,0,0,0,93,4.55,66.2,165.68242,P-GPS,,50.5
824,82500,2026-01-13 12:20:32,0.0,5,7.784,0.0,0.0,0.0,1.0,6.9,-9.3,1024,1024,1024,1024,0,0,0,0,93,4.55,66.2,165.68242,P-GPS,,50.5
825,82600,2026-01-13 12:20:32,0.0,5,7.784,0.0,0.0,0.0,1.3,6.6,-9.3,1024,1024,1024,1024,0,0,0,0,93,4.55,66.2,165.68242,P-GPS,,50.5
826,82700,2026-01-13 12:20:32,0.0,5,7.784,0.0,0.0,0.0,1.2,7.3,-9.4,1024,1024,1024,1024,0,0,0,0,93,4.55,66.2,165.68242,P-GPS,,50.5
827,82800,2026-01-13 12:20:32,0.0,5,7.784,0.0,0.0,0.0,1.1,8.5,-8.6,1024,1024,1024,1024,0,0,0,0,93,4.55,66.2,165.68242,P-GPS,,50.5
828,82900,2026-01-13 12:20:33,0.0,5,7.784,0.0,0.0,0.0,1.0,8.8,-8.5,1024,1024,1024,1024,0,0,0,0,93,4.55,66.2,165.68242,P-GPS,,50.5
829,83000,2026-01-13 12:20:33,0.0,5,7.784,0.0,0.0,0.0,1.0,8.9,-8.2,1024,1024,1024,1024,0,0,0,0,93,4.55,66.2,165.68242,P-GPS,,50.5
830,83100,2026-01-13 12:20:33,0.0,5,7.784,0.0,0.0,0.0,1.0,8.4,-7.7,1024,1024,1024,1024,0,0,0,0,93,4.55,66.2,165.68242,P-GPS,,50.5
831,83200,2026-01-13 12:20:33,0.0,5,7.784,0.0,0.0,0.0,0.9,8.8,-7.7,1024,1024,1024,1024,0,0,0,0,93,4.55,66.2,165.68242,P-GPS,,50.5
832,83300,2026-01-13 12:20:33,0.0,5,7.784,0.0,0.0,0.0,0.9,8.3,-8.0,1024,1024,1024,1024,0,0,0,0,93,4.55,66.2,165.68242,P-GPS,,50.5
833,83400,2026-01-13 12:20:33,0.0,5,7.784,0.0,0.0,0.0,0.8,8.6,-7.9,1024,1024,1024,1024,0,0,0,0,93,4.55,66.2,165.354336,P-GPS,,50.4
834,83500,2026-01-13 12:20:33,0.0,5,7.79,0.0,0.0,0.0,0.9,7.9,-8.1,1024,1024,1024,1024,0,0,0,0,93,4.62,66.2,165.354336,P-GPS,,50.4
835,83600,2026-01-13 12:20:33,0.0,5,7.79,0.0,0.0,0.0,0.9,7.7,-7.9,1024,1024,1024,1024,0,0,0,0,93,4.62,66.2,165.354336,P-GPS,,50.4
836,83700,2026-01-13 12:20:33,0.0,5,7.79,0.0,0.0,0.0,1.0,7.4,-7.9,1024,1024,1024,1024,0,0,0,0,93,4.62,66.2,165.354336,P-GPS,,50.4
837,83800,2026-01-13 12:20:34,0.0,5,7.79,0.0,0.0,0.0,0.9,7.3,-7.7,1024,1024,1024,1024,0,0,0,0,93,4.62,66.2,165.354336,P-GPS,,50.4
838,83900,2026-01-13 12:20:34,0.0,5,7.79,0.0,0.0,0.0,0.8,7.4,-7.8,1024,1024,1024,1024,0,0,0,0,93,4.62,66.2,165.354336,P-GPS,,50.4
839,84000,2026-01-13 12:20:34,0.0,5,7.79,0.0,0.0,0.0,0.8,7.4,-7.5,1024,1024,1024,1024,0,0,0,0,93,4.62,66.2,165.026252,P-GPS,,50.3
840,84100,2026-01-13 12:20:34,0.0,5,7.79,0.0,0.0,0.0,0.9,7.1,-7.9,1024,1024,1024,1024,0,0,0,0,93,4.62,66.2,165.026252,P-GPS,,50.3
841,84200,2026-01-13 12:20:34,0.223694,5,7.79,-0.223694,0.0,0.0,1.0,5.8,-7.8,1024,1024,1024,1024,0,0,0,0,93,4.62,66.2,165.026252,P-GPS,,50.3
842,84300,2026-01-13 12:20:34,0.223694,5,7.79,-0.223694,0.0,0.0,1.1,5.2,-7.8,1024,1024,1024,1024,0,0,0,0,93,4.62,66.2,165.026252,P-GPS,,50.3
843,84400,2026-01-13 12:20:34,0.223694,5,7.79,-0.223694,0.0,0.0,1.1,5.3,-7.2,1024,1024,1024,1024,0,0,0,0,93,4.62,66.2,165.026252,P-GPS,,50.3
844,84500,2026-01-13 12:20:34,0.223694,5,7.79,-0.223694,0.0,0.0,1.1,5.0,-7.0,1024,1024,1024,1024,0,0,0,0,93,4.62,66.2,165.026252,P-GPS,,50.3
845,84600,2026-01-13 12:20:34,0.223694,5,7.784,-0.223694,0.0,0.0,1.2,4.1,-7.0,1024,1024,1024,1024,0,0,0,0,93,4.301,66.2,165.026252,P-GPS,,50.3
846,84700,2026-01-13 12:20:34,0.223694,5,7.784,-0.223694,0.0,0.0,1.1,4.7,-7.4,1024,1024,1024,1024,0,0,0,0,93,4.301,66.2,165.026252,P-GPS,,50.3
847,84800,2026-01-13 12:20:35,0.223694,5,7.784,-0.223694,0.0,0.0,1.3,3.7,-7.3,1024,1024,1024,1024,0,0,0,0,93,4.301,66.2,165.026252,P-GPS,,50.3
848,84900,2026-01-13 12:20:35,0.0,5,7.784,0.0,0.0,0.0,1.3,4.0,-7.3,1024,1024,1024,1024,0,0,0,0,93,4.301,66.2,165.026252,P-GPS,SD card speed low SD card speed low. Normal use may be affected. Replace SD card (Code: 10028). Gimbal stuck. Make sure gimbal cover is removed and manually check whether gimbal can rotate freely (Code: 40002),50.3
849,85000,2026-01-13 12:20:35,0.0,5,7.784,0.0,0.0,0.0,1.3,3.8,-7.3,1024,1024,1024,1024,0,0,0,0,93,4.301,66.2,165.026252,P-GPS,,50.3
850,85100,2026-01-13 12:20:35,0.0,5,7.784,0.0,0.0,0.0,1.2,4.5,-7.1,1024,1024,1024,1024,0,0,0,0,93,4.301,66.2,165.026252,P-GPS,,50.3
851,85200,2026-01-13 12:20:35,0.0,5,7.784,0.0,0.0,0.0,1.2,4.3,-7.0,1024,1024,1024,1024,0,0,0,0,93,4.301,66.2,165.354336,P-GPS,,50.4
852,85300,2026-01-13 12:20:35,0.0,5,7.784,0.0,0.0,0.0,1.2,4.5,-6.6,1024,1024,1024,1024,0,0,0,0,93,4.301,66.2,165.354336,P-GPS,,50.4
853,85400,2026-01-13 12:20:35,0.0,5,7.784,0.0,0.0,0.0,1.3,4.8,-6.2,1024,1024,1024,1024,0,0,0,0,93,4.301,66.2,165.354336,P-GPS,,50.4
854,85500,2026-01-13 12:20:35,0.0,5,7.784,0.0,0.0,0.0,1.2,5.6,-6.0,1024,1024,1024,1024,0,0,0,0,93,4.301,66.2,165.354336,P-GPS,,50.4
855,85600,2026-01-13 12:20:35,0.0,5,7.784,0.0,0.0,0.0,1.1,5.6,-6.0,1024,1024,1024,1024,0,0,0,0,93,4.301,66.2,165.354336,P-GPS,,50.4
856,85700,2026-01-13 12:20:35,0.0,5,7.784,0.0,0.0,0.0,1.2,6.0,-6.0,1024,1024,1024,1024,0,0,0,0,93,4.301,66.2,165.354336,P-GPS,,50.4
857,85800,2026-01-13 12:20:35,0.0,5,7.784,0.0,0.0,0.0,1.2,6.3,-5.9,1024,1024,1024,1024,0,0,0,0,93,4.301,66.2,165.68242,P-GPS,,50.5
858,85900,2026-01-13 12:20:36,0.0,5,7.784,0.0,0.0,0.0,1.2,6.3,-5.8,1024,1024,1024,1024,0,0,0,0,93,4.301,66.2,165.68242,P-GPS,,50.5
859,86000,2026-01-13 12:20:36,0.0,5,7.784,0.0,0.0,0.0,1.3,6.4,-5.9,1024,1024,1024,1024,0,0,0,0,93,4.301,66.2,165.68242,P-GPS,,50.5
860,86100,2026-01-13 12:20:36,0.0,5,7.784,0.0,0.0,0.0,1.2,6.8,-6.1,1024,1024,1024,1024,0,0,0,0,93,4.301,66.2,165.68242,P-GPS,,50.5
861,86200,2026-01-13 12:20:36,0.0,5,7.784,0.0,0.0,0.0,1.2,7.4,-6.3,1024,1024,1024,1024,0,0,0,0,93,4.301,66.2,166.010504,P-GPS,,50.6
862,86300,2026-01-13 12:20:36,0.0,5,7.784,0.0,0.0,0.0,1.1,7.8,-6.6,1024,1024,1024,1024,0,0,0,0,93,4.301,66.2,166.010504,P-GPS,,50.6
863,86400,2026-01-13 12:20:36,0.0,5,7.784,0.0,0.0,0.0,1.1,7.6,-6.4,1024,1024,1024,1024,0,0,0,0,93,4.301,66.2,166.010504,P-GPS,,50.6
864,86500,2026-01-13 12:20:36,0.0,5,7.784,0.0,0.0,0.0,1.1,7.7,-6.9,1024,1024,1024,1024,0,0,0,0,93,4.301,66.2,166.010504,P-GPS,,50.6
865,86600,2026-01-13 12:20:36,0.0,5,7.784,0.0,0.0,0.0,1.1,8.0,-6.8,1024,1024,1024,1024,0,0,0,0,93,4.301,66.2,166.010504,P-GPS,,50.6
866,86700,2026-01-13 12:20:36,0.0,5,7.784,0.0,0.0,0.0,1.1,7.7,-6.8,1024,1024,1024,1024,0,0,0,0,93,4.301,66.2,166.338588,P-GPS,,50.7
867,86800,2026-01-13 12:20:37,0.0,5,7.809,0.0,0.0,0.0,1.2,6.9,-6.5,1024,1024,1024,1024,0,0,0,0,93,4.233,66.38,166.338588,P-GPS,,50.7
868,86900,2026-01-13 12:20:37,0.0,5,7.809,0.0,0.0,0.0,1.1,5.4,-6.7,1024,1024,1024,1024,0,0,0,0,93,4.233,66.38,166.338588,P-GPS,,50.7
869,87000,2026-01-13 12:20:37,0.0,5,7.809,0.0,0.0,0.0,0.9,6.8,-7.4,1024,1024,1024,1024,0,0,0,0,93,4.233,66.38,166.338588,P-GPS,,50.7
870,87100,2026-01-13 12:20:37,0.0,5,7.809,0.0,0.0,0.0,0.9,6.2,-7.2,1024,1024,1024,1024,0,0,0,0,93,4.233,66.38,166.338588,P-GPS,,50.7
871,87200,2026-01-13 12:20:37,0.0,5,7.809,0.0,0.0,0.0,0.9,5.7,-7.9,1024,1024,1024,1024,0,0,0,0,93,4.233,66.38,166.338588,P-GPS,,50.7
872,87300,2026-01-13 12:20:37,0.0,5,7.809,0.0,0.0,0.0,1.0,5.1,-8.6,1024,1024,1024,1024,0,0,0,0,93,4.233,66.38,166.338588,P-GPS,,50.7
873,87400,2026-01-13 12:20:37,0.0,5,7.809,0.0,0.0,0.0,1.0,5.1,-9.3,1024,1024,1024,1024,0,0,0,0,93,4.233,66.38,166.338588,P-GPS,,50.7
874,87500,2026-01-13 12:20:37,0.0,5,7.809,0.0,0.0,0.0,1.0,5.8,-9.0,1024,1024,1024,1024,0,0,0,0,93,4.233,66.38,166.338588,P-GPS,,50.7
875,87600,2026-01-13 12:20:37,0.0,5,7.809,0.0,0.0,0.0,1.0,5.8,-9.3,1024,1024,1024,1024,0,0,0,0,93,4.233,66.38,166.338588,P-GPS,,50.7
876,87700,2026-01-13 12:20:37,0.0,5,7.809,0.0,0.0,0.0,1.0,6.0,-9.8,1024,1024,1024,1024,0,0,0,0,93,4.233,66.38,166.338588,P-GPS,,50.7
877,87800,2026-01-13 12:20:38,0.0,5,7.809,0.0,0.0,0.0,1.1,5.9,-10.2,1024,1024,1024,1024,0,0,0,0,93,4.233,66.38,166.666672,P-GPS,,50.8
878,87900,2026-01-13 12:20:38,0.0,5,7.821,0.0,0.0,0.0,1.2,5.6,-10.3,1024,1024,1024,1024,0,0,0,0,93,3.812,66.38,166.666672,P-GPS,,50.8
879,88000,2026-01-13 12:20:38,0.0,5,7.821,0.0,0.0,0.0,1.0,6.3,-10.1,1024,1024,1024,1024,0,0,0,0,93,3.812,66.38,166.666672,P-GPS,,50.8
880,88100,2026-01-13 12:20:38,0.0,5,7.821,0.0,0.0,0.0,1.0,6.7,-10.6,1024,1024,1024,1024,0,0,0,0,93,3.812,66.38,166.666672,P-GPS,,50.8
881,88200,2026-01-13 12:20:38,0.0,5,7.821,0.0,0.0,0.0,1.1,6.1,-10.4,1024,1024,1024,1024,0,0,0,0,93,3.812,66.38,166.666672,P-GPS,,50.8
882,88300,2026-01-13 12:20:38,0.0,5,7.821,0.0,0.0,0.0,1.2,5.9,-10.4,1024,1024,1024,1024,0,0,0,0,93,3.812,66.38,166.666672,P-GPS,,50.8
883,88400,2026-01-13 12:20:38,0.0,5,7.821,0.0,0.0,0.0,1.1,6.7,-10.7,1024,1024,1024,1024,0,0,0,0,93,3.812,66.38,166.994756,P-GPS,,50.9
884,88500,2026-01-13 12:20:38,0.0,5,7.821,0.0,0.0,0.0,1.1,6.7,-11.0,1024,1024,1024,1024,0,0,0,0,93,3.812,66.38,166.994756,P-GPS,,50.9
885,88600,2026-01-13 12:20:38,0.0,5,7.821,0.0,0.0,0.0,1.1,6.7,-10.9,1024,1024,1024,1024,0,0,0,0,93,3.812,66.38,166.994756,P-GPS,,50.9
886,88700,2026-01-13 12:20:38,0.0,5,7.821,0.0,0.0,0.0,1.0,6.9,-10.7,1024,1024,1024,1024,0,0,0,0,93,3.812,66.38,166.994756,P-GPS,,50.9
887,88800,2026-01-13 12:20:38,0.0,5,7.821,0.0,0.0,0.0,1.0,6.7,-10.7,1024,1024,1024,1024,0,0,0,0,93,3.812,66.38,166.666672,P-GPS,,50.8
888,88900,2026-01-13 12:20:39,0.0,5,7.821,0.0,0.0,0.0,1.1,6.3,-10.4,1024,1024,1024,1024,0,0,0,0,93,3.812,66.38,166.666672,P-GPS,,50.8
889,89000,2026-01-13 12:20:39,0.0,5,7.801,0.0,0.0,0.0,1.1,6.4,-10.1,1024,1024,1024,1024,0,0,0,0,93,4.113,66.38,166.666672,P-GPS,,50.8
890,89100,2026-01-13 12:20:39,0.0,5,7.801,0.0,0.0,0.0,1.3,5.7,-10.0,1024,1024,1024,1024,0,0,0,0,93,4.113,66.38,166.666672,P-GPS,,50.8
891,89200,2026-01-13 12:20:39,0.0,5,7.801,0.0,0.0,0.0,1.2,6.1,-9.8,1024,1024,1024,1024,0,0,0,0,93,4.113,66.38,166.666672,P-GPS,,50.8
892,89300,2026-01-13 12:20:39,0.0,5,7.801,0.0,0.0,0.0,1.2,6.7,-9.3,1024,1024,1024,1024,0,0,0,0,93,4.113,66.38,166.666672,P-GPS,,50.8
893,89400,2026-01-13 12:20:39,0.0,5,7.801,0.0,0.0,0.0,1.2,6.6,-8.8,1024,1024,1024,1024,0,0,0,0,93,4.113,66.38,166.338588,P-GPS,,50.7
894,89500,2026-01-13 12:20:39,0.0,5,7.801,0.0,0.0,0.0,1.1,6.4,-8.9,1024,1024,1024,1024,0,0,0,0,93,4.113,66.38,166.338588,P-GPS,,50.7
895,89600,2026-01-13 12:20:39,0.0,5,7.801,0.0,0.0,0.0,1.2,6.4,-9.0,1024,1024,1024,1024,0,0,0,0,93,4.113,66.38,166.338588,P-GPS,,50.7
896,89700,2026-01-13 12:20:39,0.0,5,7.801,0.0,0.0,0.0,1.1,7.0,-8.6,1024,1024,1024,1024,0,0,0,0,93,4.113,66.38,166.338588,P-GPS,,50.7
897,89800,2026-01-13 12:20:40,0.0,5,7.801,0.0,0.0,0.0,1.0,7.1,-8.6,1024,1024,1024,1024,0,0,0,0,93,4.113,66.38,166.338588,P-GPS,,50.7
898,89900,2026-01-13 12:20:40,0.0,5,7.801,0.0,0.0,0.0,1.0,7.0,-9.2,1024,1024,1024,1024,0,0,0,0,93,4.113,66.38,166.338588,P-GPS,,50.7
899,90000,2026-01-13 12:20:40,0.0,5,7.801,0.0,0.0,0.0,1.0,6.6,-9.4,1024,1024,1024,1024,0,0,0,0,93,4.113,66.38,166.010504,P-GPS,,50.6
900,90100,2026-01-13 12:20:40,0.0,5,7.8,0.0,0.0,0.0,1.0,6.5,-9.9,1024,1024,1024,1024,0,0,0,0,93,4.136,66.56,166.010504,P-GPS,,50.6
901,90200,2026-01-13 12:20:40,0.0,5,7.8,0.0,0.0,0.0,1.1,6.5,-10.0,1024,1024,1024,1024,0,0,0,0,93,4.136,66.56,166.010504,P-GPS,,50.6
902,90300,2026-01-13 12:20:40,0.0,5,7.8,0.0,0.0,0.0,0.9,6.8,-10.0,1024,1024,1024,1024,0,0,0,0,93,4.136,66.56,166.010504,P-GPS,,50.6
903,90400,2026-01-13 12:20:40,0.0,5,7.8,0.0,0.0,0.0,1.0,6.2,-10.2,1024,1024,1024,1024,0,0,0,0,93,4.136,66.56,166.010504,P-GPS,,50.6
904,90500,2026-01-13 12:20:40,0.0,5,7.8,0.0,0.0,0.0,1.0,5.8,-10.6,1024,1024,1024,1024,0,0,0,0,93,4.136,66.56,166.010504,P-GPS,,50.6
905,90600,2026-01-13 12:20:40,0.0,5,7.8,0.0,0.0,0.0,1.0,5.4,-10.6,1024,1024,1024,1024,0,0,0,0,93,4.136,66.56,166.010504,P-GPS,,50.6
906,90700,2026-01-13 12:20:40,0.0,5,7.8,0.0,0.0,0.0,1.0,5.3,-10.7,1024,1024,1024,1024,0,0,0,0,93,4.136,66.56,166.010504,P-GPS,,50.6
907,90800,2026-01-13 12:20:41,0.0,5,7.8,0.0,0.0,0.0,1.0,5.3,-10.6,1024,1024,1024,1024,0,0,0,0,93,4.136,66.56,166.010504,P-GPS,,50.6
908,90900,2026-01-13 12:20:41,0.0,5,7.8,0.0,0.0,0.0,1.1,5.3,-10.3,1024,1024,1024,1024,0,0,0,0,93,4.136,66.56,166.010504,P-GPS,,50.6
909,91000,2026-01-13 12:20:41,0.0,5,7.8,0.0,0.0,0.0,1.1,5.5,-10.2,1024,1024,1024,1024,0,0,0,0,93,4.136,66.56,166.010504,P-GPS,,50.6
910,91100,2026-01-13 12:20:41,0.0,5,7.8,0.0,0.0,0.0,1.0,5.8,-10.5,1024,1024,1024,1024,0,0,0,0,93,4.136,66.56,166.010504,P-GPS,,50.6
911,91200,2026-01-13 12:20:41,0.0,5,7.789,0.0,0.0,0.0,1.1,5.4,-10.5,1024,1024,1024,1024,0,0,0,0,93,4.395,66.56,166.010504,P-GPS,,50.6
912,91300,2026-01-13 12:20:41,0.0,5,7.789,0.0,0.0,0.0,1.1,5.7,-10.2,1024,1024,1024,1024,0,0,0,0,93,4.395,66.56,166.010504,P-GPS,,50.6
913,91400,2026-01-13 12:20:41,0.0,5,7.789,0.0,0.0,0.0,1.1,5.9,-10.1,1024,1024,1024,1024,0,0,0,0,93,4.395,66.56,166.010504,P-GPS,,50.6
914,91500,2026-01-13 12:20:41,0.0,5,7.789,0.0,0.0,0.0,1.0,6.4,-10.1,1024,1024,1024,1024,0,0,0,0,93,4.395,66.56,166.010504,P-GPS,,50.6
915,91600,2026-01-13 12:20:41,0.0,5,7.789,0.0,0.0,0.0,1.1,6.0,-10.3,1024,1024,1024,1024,0,0,0,0,93,4.395,66.56,166.010504,P-GPS,,50.6
916,91700,2026-01-13 12:20:41,0.0,5,7.789,0.0,0.0,0.0,1.0,6.0,-10.4,1024,1024,1024,1024,0,0,0,0,93,4.395,66.56,166.010504,P-GPS,,50.6
917,91800,2026-01-13 12:20:42,0.0,5,7.789,0.0,0.0,0.0,1.0,5.8,-10.8,1024,1024,1024,1024,0,0,0,0,93,4.395,66.56,166.010504,P-GPS,,50.6
918,91900,2026-01-13 12:20:42,0.0,5,7.789,0.0,0.0,0.0,0.9,6.0,-11.3,1024,1024,1024,1024,0,0,0,0,93,4.395,66.56,166.010504,P-GPS,,50.6
919,92000,2026-01-13 12:20:42,0.0,5,7.789,0.0,0.0,0.0,0.9,5.9,-11.5,1024,1024,1024,1024,0,0,0,0,93,4.395,66.56,166.010504,P-GPS,,50.6
920,92100,2026-01-13 12:20:42,0.0,5,7.789,0.0,0.0,0.0,1.0,5.7,-11.7,1024,1024,1024,1024,0,0,0,0,93,4.395,66.56,166.010504,P-GPS,,50.6
921,92200,2026-01-13 12:20:42,0.0,5,7.789,0.0,0.0,0.0,1.1,5.5,-11.6,1024,1024,1024,1024,0,0,0,0,93,4.395,66.56,166.010504,P-GPS,,50.6
922,92300,2026-01-13 12:20:42,0.0,5,7.764,0.0,0.0,0.0,1.1,5.3,-11.6,1024,1024,1024,1024,0,0,0,0,93,4.811,66.56,166.010504,P-GPS,,50.6
923,92400,2026-01-13 12:20:42,0.0,5,7.764,0.0,0.0,0.0,1.1,5.0,-11.6,1024,1024,1024,1024,0,0,0,0,93,4.811,66.56,166.010504,P-GPS,,50.6
924,92500,2026-01-13 12:20:42,0.0,5,7.764,0.0,0.0,0.0,1.1,4.8,-11.5,1024,1024,1024,1024,0,0,0,0,93,4.811,66.56,166.010504,P-GPS,,50.6
925,92600,2026-01-13 12:20:42,0.0,5,7.764,0.0,0.0,0.0,1.1,4.6,-11.7,1024,1024,1024,1024,0,0,0,0,93,4.811,66.56,166.010504,P-GPS,,50.6
926,92700,2026-01-13 12:20:42,0.0,5,7.764,0.0,0.0,0.0,1.2,4.2,-11.9,1024,1024,1024,1024,0,0,0,0,93,4.811,66.56,166.010504,P-GPS,,50.6
927,92800,2026-01-13 12:20:43,0.0,5,7.764,0.0,0.0,0.0,1.1,4.3,-11.2,1024,1024,1024,1024,0,0,0,0,93,4.811,66.56,166.010504,P-GPS,,50.6
928,92900,2026-01-13 12:20:43,0.0,5,7.764,0.0,0.0,0.0,1.1,4.4,-10.9,1024,1024,1024,1024,0,0,0,0,93,4.811,66.56,166.010504,P-GPS,,50.6
929,93000,2026-01-13 12:20:43,0.0,5,7.764,0.0,0.0,0.0,1.2,4.4,-10.5,1024,1024,1024,1024,0,0,0,0,93,4.811,66.56,166.010504,P-GPS,,50.6
930,93100,2026-01-13 12:20:43,0.0,5,7.764,0.0,0.0,0.0,1.1,4.9,-10.7,1024,1024,1024,1024,0,0,0,0,93,4.811,66.56,166.010504,P-GPS,,50.6
931,93200,2026-01-13 12:20:43,0.0,5,7.764,0.0,0.0,0.0,1.2,4.8,-10.7,1024,1024,1024,1024,0,0,0,0,93,4.811,66.56,166.010504,P-GPS,,50.6
932,93300,2026-01-13 12:20:43,0.0,5,7.764,0.0,0.0,0.0,1.1,5.2,-10.7,1024,1024,1024,1024,0,0,0,0,93,4.811,66.56,166.010504,P-GPS,,50.6
933,93400,2026-01-13 12:20:43,0.0,5,7.75,0.0,0.0,0.0,1.1,4.9,-10.8,1024,1024,1024,1024,0,0,0,0,93,5.173,66.74,166.010504,P-GPS,,50.6
934,93500,2026-01-13 12:20:43,0.0,5,7.75,0.0,0.0,0.0,1.1,5.0,-11.0,1024,1024,1024,1024,0,0,0,0,93,5.173,66.74,165.68242,P-GPS,,50.5
935,93600,2026-01-13 12:20:43,0.0,5,7.75,0.0,0.0,0.0,1.1,5.2,-10.8,1024,1024,1024,1024,0,0,0,0,93,5.173,66.74,165.68242,P-GPS,,50.5
936,93700,2026-01-13 12:20:43,0.0,5,7.75,0.0,0.0,0.0,1.0,5.6,-10.7,1024,1024,1024,1024,0,0,0,0,93,5.173,66.74,165.68242,P-GPS,,50.5
937,93800,2026-01-13 12:20:44,0.0,5,7.75,0.0,0.0,0.0,1.1,5.3,-10.4,1024,1024,1024,1024,0,0,0,0,93,5.173,66.74,165.68242,P-GPS,,50.5
938,93900,2026-01-13 12:20:44,0.0,5,7.75,0.0,0.0,0.0,1.1,5.4,-10.0,1024,1024,1024,1024,0,0,0,0,93,5.173,66.74,165.68242,P-GPS,,50.5
939,94000,2026-01-13 12:20:44,0.0,5,7.75,0.0,0.0,0.0,1.1,5.2,-9.5,1024,1024,1024,1024,0,0,0,0,93,5.173,66.74,165.68242,P-GPS,,50.5
940,94100,2026-01-13 12:20:44,0.0,5,7.75,0.0,0.0,0.0,1.1,4.8,-9.3,1024,1024,1024,1024,0,0,0,0,93,5.173,66.74,165.68242,P-GPS,,50.5
941,94200,2026-01-13 12:20:44,0.0,5,7.75,0.0,0.0,0.0,1.1,5.3,-9.3,1024,1024,1024,1024,0,0,0,0,93,5.173,66.74,165.68242,P-GPS,,50.5
942,94300,2026-01-13 12:20:44,0.0,5,7.75,0.0,0.0,0.0,1.1,5.1,-9.4,1024,1024,1024,1024,0,0,0,0,93,5.173,66.74,165.68242,P-GPS,,50.5
943,94400,2026-01-13 12:20:44,0.0,5,7.75,0.0,0.0,0.0,1.1,4.8,-9.5,1024,1024,1024,1024,0,0,0,0,93,5.173,66.74,165.68242,P-GPS,,50.5
944,94500,2026-01-13 12:20:44,0.0,5,7.74,0.0,0.0,0.0,1.1,5.0,-9.2,1024,1024,1024,1024,0,0,0,0,92,5.237,66.74,165.68242,P-GPS,,50.5
945,94600,2026-01-13 12:20:44,0.0,5,7.74,0.0,0.0,0.0,1.1,5.3,-9.0,1024,1024,1024,1024,0,0,0,0,92,5.237,66.74,165.68242,P-GPS,,50.5
946,94700,2026-01-13 12:20:44,0.0,5,7.74,0.0,0.0,0.0,1.2,5.4,-9.1,1024,1024,1024,1024,0,0,0,0,92,5.237,66.74,165.68242,P-GPS,,50.5
947,94800,2026-01-13 12:20:45,0.0,5,7.74,0.0,0.0,0.0,1.2,5.1,-8.9,1024,1024,1024,1024,0,0,0,0,92,5.237,66.74,165.354336,P-GPS,,50.4
948,94900,2026-01-13 12:20:45,0.0,5,7.74,0.0,0.0,0.0,1.2,4.9,-9.0,1024,1024,1024,1024,0,0,0,0,92,5.237,66.74,165.354336,P-GPS,,50.4
949,95000,2026-01-13 12:20:45,0.0,5,7.74,0.0,0.0,0.0,1.2,4.9,-9.2,1024,1024,1024,1024,0,0,0,0,92,5.237,66.74,165.354336,P-GPS,,50.4
950,95100,2026-01-13 12:20:45,0.0,5,7.74,0.0,0.0,0.0,1.1,5.2,-9.3,1024,1024,1024,1024,0,0,0,0,92,5.237,66.74,165.354336,P-GPS,,50.4
951,95200,2026-01-13 12:20:45,0.0,5,7.74,0.0,0.0,0.0,1.1,5.2,-9.3,1024,1024,1024,1024,0,0,0,0,92,5.237,66.74,165.354336,P-GPS,,50.4
952,95300,2026-01-13 12:20:45,0.0,5,7.74,0.0,0.0,0.0,1.0,5.4,-9.2,1024,1024,1024,1024,0,0,0,0,92,5.237,66.74,165.354336,P-GPS,,50.4
953,95400,2026-01-13 12:20:45,0.0,5,7.74,0.0,0.0,0.0,1.1,4.9,-8.6,1024,1024,1024,1024,0,0,0,0,92,5.237,66.74,165.354336,P-GPS,,50.4
954,95500,2026-01-13 12:20:45,0.0,5,7.74,0.0,0.0,0.0,1.1,4.9,-9.2,1024,1024,1024,1024,0,0,0,0,92,5.237,66.74,165.354336,P-GPS,,50.4
955,95600,2026-01-13 12:20:45,0.0,5,7.74,0.0,0.0,0.0,1.1,4.8,-9.3,1024,1024,1024,1024,0,0,0,0,92,5.237,66.74,165.354336,P-GPS,,50.4
956,95700,2026-01-13 12:20:45,0.0,5,7.74,0.0,0.0,0.0,1.1,4.4,-9.5,1024,1024,1024,1024,0,0,0,0,92,5.237,66.74,165.354336,P-GPS,,50.4
957,95800,2026-01-13 12:20:45,0.0,5,7.74,0.0,0.0,0.0,1.1,4.3,-9.2,1024,1024,1024,1024,0,0,0,0,92,5.237,66.74,165.354336,P-GPS,,50.4
958,95900,2026-01-13 12:20:46,0.0,5,7.74,0.0,0.0,0.0,1.2,4.0,-9.0,1024,1024,1024,1024,0,0,0,0,92,5.237,66.74,165.354336,P-GPS,,50.4
959,96000,2026-01-13 12:20:46,0.0,5,7.74,0.0,0.0,0.0,1.3,4.2,-9.2,1024,1024,1024,1024,0,0,0,0,92,5.237,66.74,165.354336,P-GPS,,50.4
960,96100,2026-01-13 12:20:46,0.0,5,7.74,0.0,0.0,0.0,1.2,4.8,-9.4,1024,1024,1024,1024,0,0,0,0,92,5.237,66.74,165.354336,P-GPS,,50.4
961,96200,2026-01-13 12:20:46,0.0,5,7.74,0.0,0.0,0.0,1.1,4.8,-9.7,1024,1024,1024,1024,0,0,0,0,92,5.237,66.74,165.68242,P-GPS,,50.5
962,96300,2026-01-13 12:20:46,0.0,5,7.74,0.0,0.0,0.0,1.1,4.5,-9.5,1024,1024,1024,1024,0,0,0,0,92,5.237,66.74,165.68242,P-GPS,,50.5
963,96400,2026-01-13 12:20:46,0.0,5,7.74,0.0,0.0,0.0,1.2,4.4,-9.6,1024,1024,1024,1024,0,0,0,0,92,5.237,66.74,165.68242,P-GPS,,50.5
964,96500,2026-01-13 12:20:46,0.0,5,7.74,0.0,0.0,0.0,1.2,4.6,-9.3,1024,1024,1024,1024,0,0,0,0,92,5.237,66.74,165.68242,P-GPS,,50.5
965,96600,2026-01-13 12:20:46,0.0,5,7.74,0.0,0.0,0.0,1.3,4.6,-9.1,1024,1024,1024,1024,0,0,0,0,92,5.237,66.74,165.68242,P-GPS,,50.5
966,96700,2026-01-13 12:20:47,0.0,5,7.769,0.0,0.0,0.0,1.2,4.6,-9.4,1024,1024,1024,1024,0,0,0,0,92,4.777,66.74,166.010504,P-GPS,,50.6
967,96800,2026-01-13 12:20:47,0.0,5,7.769,0.0,0.0,0.0,1.2,4.2,-9.0,1024,1024,1024,1024,0,0,0,0,92,4.777,66.74,166.010504,P-GPS,,50.6
968,96900,2026-01-13 12:20:47,0.0,5,7.769,0.0,0.0,-0.223694,1.4,2.6,-9.5,1024,1024,1024,1024,0,0,0,0,92,4.777,66.74,166.010504,P-GPS,,50.6
969,97000,2026-01-13 12:20:47,0.0,5,7.769,0.0,0.0,0.0,1.2,3.5,-10.2,1024,1024,1024,1024,0,0,0,0,92,4.777,66.74,166.010504,P-GPS,,50.6
970,97100,2026-01-13 12:20:47,0.0,5,7.769,0.0,0.0,0.0,1.3,3.2,-8.5,1024,1024,1024,1024,0,0,0,0,92,4.777,66.74,166.010504,P-GPS,,50.6
971,97200,2026-01-13 12:20:47,0.0,5,7.769,0.0,0.0,-0.223694,1.3,4.0,-9.3,1024,1024,1024,1024,0,0,0,0,92,4.777,66.74,166.010504,P-GPS,,50.6
972,97300,2026-01-13 12:20:47,0.223694,5,7.769,0.223694,0.0,0.0,1.1,5.3,-8.1,1024,1024,1024,1024,0,0,0,0,92,4.777,66.74,166.010504,P-GPS,,50.6
973,97400,2026-01-13 12:20:47,0.223694,5,7.769,0.223694,-0.223694,0.0,1.2,5.3,-7.3,1024,1024,1024,1024,0,0,0,0,92,4.777,66.74,165.68242,P-GPS,,50.5
974,97500,2026-01-13 12:20:47,0.3131716,5,7.769,0.223694,-0.223694,0.0,1.2,5.8,-7.1,1024,1024,1024,1024,0,0,0,0,92,4.777,66.74,165.68242,P-GPS,,50.5
975,97600,2026-01-13 12:20:47,0.3131716,5,7.769,0.223694,-0.223694,0.0,1.1,7.3,-6.7,1024,1024,1024,1024,0,0,0,0,92,4.777,66.74,165.354336,P-GPS,,50.4
976,97700,2026-01-13 12:20:48,0.3131716,5,7.769,0.223694,-0.223694,0.223694,1.1,8.0,-5.9,1024,1024,1024,1024,0,0,0,0,92,4.777,66.74,165.354336,P-GPS,,50.4
977,97800,2026-01-13 12:20:48,0.3131716,5,7.836,0.223694,-0.223694,0.223694,1.2,7.5,-5.5,1024,1024,1024,1024,0,0,0,0,92,3.765,66.74,165.354336,P-GPS,,50.4
978,97900,2026-01-13 12:20:48,0.3131716,5,7.836,0.223694,-0.223694,0.0,1.3,7.7,-5.1,1024,1024,1024,1024,0,0,0,0,92,3.765,66.74,165.354336,P-GPS,,50.4
979,98000,2026-01-13 12:20:48,0.3131716,5,7.836,0.223694,-0.223694,0.0,1.3,8.4,-4.9,1024,1024,1024,1024,0,0,0,0,92,3.765,66.74,165.354336,P-GPS,,50.4
980,98100,2026-01-13 12:20:48,0.223694,5,7.836,0.0,-0.223694,0.0,1.3,8.6,-5.1,1024,1024,1024,1024,0,0,0,0,92,3.765,66.74,165.354336,P-GPS,,50.4
981,98200,2026-01-13 12:20:48,0.0,5,7.836,0.0,0.0,0.0,1.3,8.2,-5.1,1024,1024,1024,1024,0,0,0,0,92,3.765,66.74,165.354336,P-GPS,,50.4
982,98300,2026-01-13 12:20:48,0.0,5,7.836,0.0,0.0,0.0,1.1,8.8,-5.3,1024,1024,1024,1024,0,0,0,0,92,3.765,66.74,165.354336,P-GPS,,50.4
983,98400,2026-01-13 12:20:48,0.0,5,7.836,0.0,0.0,0.0,1.2,8.4,-4.9,1024,1024,1024,1024,0,0,0,0,92,3.765,66.74,165.68242,P-GPS,,50.5
984,98500,2026-01-13 12:20:48,0.0,5,7.836,0.0,0.0,0.0,1.3,7.7,-5.6,1024,1024,1024,1024,0,0,0,0,92,3.765,66.74,165.68242,P-GPS,,50.5
985,98600,2026-01-13 12:20:48,0.0,5,7.836,0.0,0.0,0.0,1.2,7.5,-5.9,1024,1024,1024,1024,0,0,0,0,92,3.765,66.74,165.68242,P-GPS,,50.5
986,98700,2026-01-13 12:20:48,0.0,5,7.836,0.0,0.0,0.0,1.2,6.5,-6.0,1024,1024,1024,1024,0,0,0,0,92,3.765,66.74,165.68242,P-GPS,,50.5
987,98800,2026-01-13 12:20:49,0.0,5,7.836,0.0,0.0,0.0,1.0,7.1,-6.4,1024,1024,1024,1024,0,0,0,0,92,3.765,66.74,165.68242,P-GPS,,50.5
988,98900,2026-01-13 12:20:49,0.0,5,7.816,0.0,0.0,0.0,0.9,8.0,-5.7,1024,1024,1024,1024,0,0,0,0,92,4.225,66.74,165.68242,P-GPS,,50.5
989,99000,2026-01-13 12:20:49,0.223694,5,7.816,-0.223694,0.0,0.0,1.0,6.5,-5.5,1024,1024,1024,1024,0,0,0,0,92,4.225,66.74,165.68242,P-GPS,,50.5
990,99100,2026-01-13 12:20:49,0.223694,5,7.816,-0.223694,0.0,0.0,1.1,4.6,-6.9,1024,1024,1024,1024,0,0,0,0,92,4.225,66.74,165.68242,P-GPS,,50.5
991,99200,2026-01-13 12:20:49,0.3131716,5,7.816,-0.223694,0.223694,0.0,1.1,4.4,-8.5,1024,1024,1024,1024,0,0,0,0,92,4.225,66.74,165.68242,P-GPS,,50.5
992,99300,2026-01-13 12:20:49,0.3131716,5,7.816,-0.223694,0.223694,0.0,1.1,3.8,-9.3,1024,1024,1024,1024,0,0,0,0,92,4.225,66.74,165.68242,P-GPS,,50.5
993,99400,2026-01-13 12:20:49,0.3131716,5,7.816,-0.223694,0.223694,0.0,1.2,3.1,-10.0,1024,1024,1024,1024,0,0,0,0,92,4.225,66.74,166.010504,P-GPS,,50.6
994,99500,2026-01-13 12:20:49,0.3131716,5,7.816,-0.223694,0.223694,0.0,1.3,2.6,-10.2,1024,1024,1024,1024,0,0,0,0,92,4.225,66.74,166.010504,P-GPS,,50.6
995,99600,2026-01-13 12:20:49,0.3131716,5,7.816,-0.223694,0.0,0.0,1.2,2.6,-10.6,1024,1024,1024,1024,0,0,0,0,92,4.225,66.74,166.010504,P-GPS,,50.6
996,99700,2026-01-13 12:20:49,0.0,5,7.816,0.0,0.0,0.0,1.1,3.4,-9.9,1024,1024,1024,1024,0,0,0,0,92,4.225,66.74,166.010504,P-GPS,,50.6
997,99800,2026-01-13 12:20:50,0.0,5,7.816,0.0,0.0,0.0,1.0,4.1,-8.9,1024,1024,1024,1024,0,0,0,0,92,4.225,66.74,166.010504,P-GPS,,50.6
998,99900,2026-01-13 12:20:50,0.0,5,7.816,0.0,0.0,0.0,0.9,4.9,-8.5,1024,1024,1024,1024,0,0,0,0,92,4.225,66.74,166.010504,P-GPS,,50.6
999,100000,2026-01-13 12:20:50,0.0,5,7.819,0.0,0.0,0.0,0.9,5.9,-7.7,1024,1024,1024,1024,0,0,0,0,92,3.94,66.92,166.010504,P-GPS,,50.6
1000,100100,2026-01-13 12:20:50,0.0,5,7.819,0.0,0.0,0.0,1.0,5.7,-7.5,1024,1024,1024,1024,0,0,0,0,92,3.94,66.92,166.010504,P-GPS,,50.6
1001,100200,2026-01-13 12:20:50,0.0,5,7.819,0.0,0.0,0.0,0.9,5.6,-7.6,1024,1024,1024,1024,0,0,0,0,92,3.94,66.92,166.010504,P-GPS,,50.6
1002,100300,2026-01-13 12:20:50,0.0,5,7.819,0.0,0.0,0.0,0.8,6.2,-7.8,1024,1024,1024,1024,0,0,0,0,92,3.94,66.92,166.010504,P-GPS,,50.6
1003,100400,2026-01-13 12:20:50,0.0,5,7.819,0.0,0.0,0.0,0.9,6.7,-7.6,1024,1024,1024,1024,0,0,0,0,92,3.94,66.92,166.010504,P-GPS,,50.6
1004,100500,2026-01-13 12:20:50,0.0,5,7.819,0.0,0.0,0.0,1.0,6.1,-6.5,1024,1024,1024,1024,0,0,0,0,92,3.94,66.92,166.010504,P-GPS,,50.6
1005,100600,2026-01-13 12:20:50,0.0,5,7.819,0.0,0.0,0.0,1.0,5.9,-6.9,1024,1024,1024,1024,0,0,0,0,92,3.94,66.92,165.68242,P-GPS,,50.5
1006,100700,2026-01-13 12:20:50,0.0,5,7.819,0.0,0.0,0.0,0.8,7.2,-7.0,1024,1024,1024,1024,0,0,0,0,92,3.94,66.92,165.68242,P-GPS,,50.5
1007,100800,2026-01-13 12:20:51,0.0,5,7.819,0.0,0.0,0.0,0.9,7.4,-6.9,1024,1024,1024,1024,0,0,0,0,92,3.94,66.92,165.68242,P-GPS,,50.5
1008,100900,2026-01-13 12:20:51,0.0,5,7.819,0.0,0.0,0.0,0.9,7.3,-6.6,1024,1024,1024,1024,0,0,0,0,92,3.94,66.92,165.68242,P-GPS,,50.5
1009,101000,2026-01-13 12:20:51,0.0,5,7.819,0.0,0.0,0.0,0.8,7.7,-6.8,1024,1024,1024,1024,0,0,0,0,92,3.94,66.92,165.354336,P-GPS,,50.4
1010,101100,2026-01-13 12:20:51,0.0,5,7.833,0.0,0.0,0.0,0.8,7.1,-7.5,1024,1024,1024,1024,0,0,0,0,92,3.808,66.92,165.354336,P-GPS,,50.4
1011,101200,2026-01-13 12:20:51,0.0,5,7.833,0.0,0.0,0.0,0.8,7.8,-7.0,1024,1024,1024,1024,0,0,0,0,92,3.808,66.92,165.354336,P-GPS,,50.4
1012,101300,2026-01-13 12:20:51,0.0,5,7.833,0.0,0.0,0.223694,1.0,7.4,-6.9,1024,1024,1024,1024,0,0,0,0,92,3.808,66.92,165.354336,P-GPS,,50.4
1013,101400,2026-01-13 12:20:51,0.0,5,7.833,0.0,0.0,0.223694,1.1,7.7,-6.5,1024,1024,1024,1024,0,0,0,0,92,3.808,66.92,165.354336,P-GPS,,50.4
1014,101500,2026-01-13 12:20:51,0.0,5,7.833,0.0,0.0,0.0,1.1,8.2,-6.3,1024,1024,1024,1024,0,0,0,0,92,3.808,66.92,165.354336,P-GPS,,50.4
1015,101600,2026-01-13 12:20:51,0.0,5,7.833,0.0,0.0,0.0,1.1,7.8,-6.1,1024,1024,1024,1024,0,0,0,0,92,3.808,66.92,165.354336,P-GPS,,50.4
1016,101700,2026-01-13 12:20:51,0.0,5,7.833,0.0,0.0,0.0,1.2,7.9,-6.2,1024,1024,1024,1024,0,0,0,0,92,3.808,66.92,165.354336,P-GPS,,50.4
1017,101800,2026-01-13 12:20:52,0.0,5,7.833,0.0,0.0,0.0,1.3,7.7,-5.8,1024,1024,1024,1024,0,0,0,0,92,3.808,66.92,165.354336,P-GPS,,50.4
1018,101900,2026-01-13 12:20:52,0.0,5,7.833,0.0,0.0,0.0,1.2,7.9,-5.7,1024,1024,1024,1024,0,0,0,0,92,3.808,66.92,165.026252,P-GPS,,50.3
1019,102000,2026-01-13 12:20:52,0.0,5,7.833,0.0,0.0,0.0,1.1,9.4,-5.9,1024,1024,1024,1024,0,0,0,0,92,3.808,66.92,165.026252,P-GPS,,50.3
1020,102100,2026-01-13 12:20:52,0.0,5,7.833,0.0,0.0,0.0,1.2,9.1,-5.8,1024,1024,1024,1024,0,0,0,0,92,3.808,66.92,165.026252,P-GPS,,50.3
1021,102200,2026-01-13 12:20:52,0.0,5,7.812,0.0,0.0,0.0,1.3,8.9,-5.9,1024,1024,1024,1024,0,0,0,0,92,4.248,66.92,165.026252,P-GPS,,50.3
1022,102300,2026-01-13 12:20:52,0.0,5,7.812,0.0,0.0,0.0,1.3,9.1,-6.1,1024,1024,1024,1024,0,0,0,0,92,4.248,66.92,165.026252,P-GPS,,50.3
1023,102400,2026-01-13 12:20:52,0.0,5,7.812,0.0,0.0,0.0,1.3,9.3,-6.3,1024,1024,1024,1024,0,0,0,0,92,4.248,66.92,165.026252,P-GPS,,50.3
1024,102500,2026-01-13 12:20:52,0.0,5,7.812,0.0,0.0,0.0,1.2,10.0,-6.8,1024,1024,1024,1024,0,0,0,0,92,4.248,66.92,165.026252,P-GPS,,50.3
1025,102600,2026-01-13 12:20:52,0.0,5,7.812,0.0,0.0,0.0,1.3,9.4,-7.5,1024,1024,1024,1024,0,0,0,0,92,4.248,66.92,165.026252,P-GPS,,50.3
1026,102700,2026-01-13 12:20:52,0.0,5,7.812,0.0,0.0,0.0,1.2,9.9,-7.9,1024,1024,1024,1024,0,0,0,0,92,4.248,66.92,165.354336,P-GPS,,50.4
1027,102800,2026-01-13 12:20:53,0.0,5,7.812,0.0,0.0,0.0,1.1,10.2,-8.3,1024,1024,1024,1024,0,0,0,0,92,4.248,66.92,165.354336,P-GPS,,50.4
1028,102900,2026-01-13 12:20:53,0.0,5,7.812,0.0,0.0,0.0,0.9,11.1,-9.0,1024,1024,1024,1024,0,0,0,0,92,4.248,66.92,165.354336,P-GPS,,50.4
1029,103000,2026-01-13 12:20:53,0.0,5,7.812,0.0,0.0,0.0,0.8,11.0,-8.5,1024,1024,1024,1024,0,0,0,0,92,4.248,66.92,165.354336,P-GPS,,50.4
1030,103100,2026-01-13 12:20:53,0.0,5,7.812,0.0,0.0,0.0,0.8,10.7,-8.6,1024,1024,1024,1024,0,0,0,0,92,4.248,66.92,165.354336,P-GPS,,50.4
1031,103200,2026-01-13 12:20:53,0.0,5,7.812,0.0,0.0,0.0,0.9,10.0,-8.5,1024,1024,1024,1024,0,0,0,0,92,4.248,66.92,165.354336,P-GPS,,50.4
1032,103300,2026-01-13 12:20:53,0.0,5,7.753,0.0,0.0,0.0,1.2,8.8,-8.3,1024,1024,1024,1024,0,0,0,0,92,4.642,66.92,165.354336,P-GPS,,50.4
1033,103400,2026-01-13 12:20:53,0.0,5,7.753,0.0,0.0,0.0,1.2,8.5,-8.3,1024,1024,1024,1024,0,0,0,0,92,4.642,66.92,165.68242,P-GPS,,50.5
1034,103500,2026-01-13 12:20:53,0.0,5,7.753,0.0,0.0,0.0,1.1,7.9,-8.1,1024,1024,1024,1024,0,0,0,0,92,4.642,66.92,165.68242,P-GPS,,50.5
1035,103600,2026-01-13 12:20:53,0.0,5,7.753,0.0,0.0,-0.223694,1.1,7.7,-8.0,1024,1024,1024,1024,0,0,0,0,92,4.642,66.92,165.68242,P-GPS,,50.5
1036,103700,2026-01-13 12:20:53,0.0,5,7.753,0.0,0.0,-0.223694,1.0,8.3,-7.7,1024,1024,1024,1024,0,0,0,0,92,4.642,66.92,165.68242,P-GPS,,50.5
1037,103800,2026-01-13 12:20:54,0.0,5,7.753,0.0,0.0,-0.223694,1.0,8.7,-7.8,1024,1024,1024,1024,0,0,0,0,92,4.642,66.92,165.354336,P-GPS,,50.4
1038,103900,2026-01-13 12:20:54,0.0,5,7.753,0.0,0.0,0.0,0.9,10.2,-8.1,1024,1024,1024,1024,0,0,0,0,92,4.642,66.92,165.354336,P-GPS,,50.4
1039,104000,2026-01-13 12:20:54,0.0,5,7.753,0.0,0.0,0.0,1.2,9.5,-7.6,1024,1024,1024,1024,0,0,0,0,92,4.642,66.92,165.354336,P-GPS,,50.4
1040,104100,2026-01-13 12:20:54,0.0,5,7.753,0.0,0.0,0.0,1.1,9.9,-6.8,1024,1024,1024,1024,0,0,0,0,92,4.642,66.92,165.354336,P-GPS,,50.4
1041,104200,2026-01-13 12:20:54,0.0,5,7.753,0.0,0.0,0.0,1.0,11.1,-7.3,1024,1024,1024,1024,0,0,0,0,92,4.642,66.92,165.354336,P-GPS,,50.4
1042,104300,2026-01-13 12:20:54,0.0,5,7.753,0.0,0.0,0.0,1.1,10.9,-7.5,1024,1024,1024,1024,0,0,0,0,92,4.642,66.92,165.026252,P-GPS,,50.3
1043,104400,2026-01-13 12:20:54,0.0,5,7.762,0.0,0.0,0.0,1.1,11.0,-7.5,1024,1024,1024,1024,0,0,0,0,92,4.629,66.92,165.026252,P-GPS,,50.3
