time(millisecond),timestamp,speed(mph),gpslevel,voltage(v),xSpeed(mph),ySpeed(mph),zSpeed(mph),compass_heading(degrees),pitch(degrees),roll(degrees),rc_elevator,rc_aileron,rc_throttle,rc_rudder,rc_elevator(percent),rc_aileron(percent),rc_throttle(percent),rc_rudder(percent),battery_percent,current(A),battery_temperature(f),ascent(feet),flycState,message,height_above_takeoff(meters)
487100,2026-01-11 17:26:07,0.0,5,7.207,0.0,0.0,-4.47388,38.2,14.8,-9.2,1024,1024,1684,1024,0,0,100,0,67,7.21,63.86,158.136488,P-GPS,,48.2
487200,2026-01-11 17:26:07,0.0,5,7.207,0.0,0.0,-4.47388,38.2,14.2,-9.0,1024,1024,1684,1024,0,0,100,0,67,7.21,63.86,158.792656,P-GPS,,48.4
487300,2026-01-11 17:26:07,0.0,5,7.207,0.0,0.0,-4.47388,38.1,14.4,-9.1,1024,1024,1684,1024,0,0,100,0,67,7.21,63.86,159.12074,P-GPS,,48.5
487400,2026-01-11 17:26:07,0.0,5,7.207,0.0,0.0,-4.47388,38.1,14.2,-8.7,1024,1024,1684,1024,0,0,100,0,67,7.21,63.86,159.776908,P-GPS,,48.7
487500,2026-01-11 17:26:07,0.0,5,7.207,0.0,0.0,-4.47388,38.1,13.9,-8.8,1024,1024,1684,1024,0,0,100,0,67,7.21,63.86,160.104992,P-GPS,,48.8
487600,2026-01-11 17:26:07,0.0,5,7.296,0.0,0.0,-4.697574,38.1,13.9,-9.4,1024,1024,1684,1024,0,0,100,0,66,6.436,63.86,160.76116,P-GPS,,49.0
487700,2026-01-11 17:26:07,0.0,5,7.296,0.0,0.0,-4.47388,38.0,14.1,-9.9,1024,1024,1684,1024,0,0,100,0,66,6.436,63.86,161.089244,P-GPS,,49.1
487800,2026-01-11 17:26:08,0.0,5,7.296,0.0,0.0,-4.250186,37.9,14.2,-10.1,1024,1024,1024,1024,0,0,0,0,66,6.436,63.86,161.745412,P-GPS,,49.3
487900,2026-01-11 17:26:08,0.0,5,7.296,0.0,0.0,-4.250186,38.0,14.0,-10.0,1024,1024,1024,1024,0,0,0,0,66,6.436,63.86,162.073496,P-GPS,,49.4
488000,2026-01-11 17:26:08,0.0,5,7.296,0.0,0.0,-3.802798,37.9,14.1,-10.5,1024,1024,1024,1024,0,0,0,0,66,6.436,63.86,162.729664,P-GPS,,49.6
488100,2026-01-11 17:26:08,0.0,5,7.296,0.0,0.0,-3.35541,37.7,15.0,-10.9,1024,1024,1024,1024,0,0,0,0,66,6.436,63.86,163.057748,P-GPS,,49.7
488200,2026-01-11 17:26:08,0.0,5,7.296,0.0,0.0,-2.460634,37.6,15.5,-11.1,1024,1024,1024,1024,0,0,0,0,66,6.436,63.86,163.385832,P-GPS,,49.8
488300,2026-01-11 17:26:08,0.0,5,7.296,0.0,0.223694,-1.789552,37.5,15.8,-11.2,1024,1024,1024,1024,0,0,0,0,66,6.436,63.86,163.713916,P-GPS,,49.9
488400,2026-01-11 17:26:08,0.223694,5,7.296,0.0,0.223694,-1.11847,37.6,15.7,-11.2,1024,1024,1024,1024,0,0,0,0,66,6.436,63.86,163.713916,P-GPS,,49.9
488500,2026-01-11 17:26:08,0.0,5,7.296,0.0,0.0,-0.671082,37.8,15.2,-10.8,1024,1024,1024,1024,0,0,0,0,66,6.436,63.86,163.713916,P-GPS,,49.9
488600,2026-01-11 17:26:08,0.0,5,7.296,0.0,0.0,-0.223694,38.0,14.5,-10.4,1024,1024,1024,1024,0,0,0,0,66,6.436,63.86,163.385832,P-GPS,,49.8
488700,2026-01-11 17:26:08,0.0,5,7.296,0.0,0.0,-0.223694,38.2,14.0,-10.0,1024,1024,1024,1024,0,0,0,0,66,6.436,63.86,163.385832,P-GPS,,49.8
488800,2026-01-11 17:26:09,0.0,5,7.296,0.0,0.0,0.0,38.3,13.9,-9.6,1024,1024,1024,1024,0,0,0,0,66,6.436,63.86,163.385832,P-GPS,,49.8
488900,2026-01-11 17:26:09,0.0,5,7.296,0.0,0.0,0.0,38.3,13.9,-9.5,1024,1024,1024,1024,0,0,0,0,66,6.436,63.86,163.057748,P-GPS,,49.7
489000,2026-01-11 17:26:09,0.0,5,7.296,0.0,0.0,0.0,38.4,13.8,-8.9,1024,1024,1024,1024,0,0,0,0,66,6.436,63.86,163.057748,P-GPS,,49.7
489100,2026-01-11 17:26:09,0.0,5,7.296,0.0,0.0,0.0,38.4,13.2,-8.7,1024,1024,1024,1024,0,0,0,0,66,6.436,63.86,163.057748,P-GPS,,49.7
489200,2026-01-11 17:26:09,0.0,5,7.296,0.0,0.0,0.0,38.4,12.9,-8.5,1024,1024,1024,1024,0,0,0,0,66,6.436,63.86,163.057748,P-GPS,,49.7
489300,2026-01-11 17:26:09,0.0,5,7.296,0.0,0.0,0.0,38.5,12.7,-8.1,1024,1024,1024,1024,0,0,0,0,66,6.436,63.86,163.057748,P-GPS,,49.7
489400,2026-01-11 17:26:09,0.0,5,7.296,0.0,0.0,0.0,38.5,12.8,-8.0,1024,1024,1024,1024,0,0,0,0,66,6.436,63.86,163.057748,P-GPS,,49.7
489500,2026-01-11 17:26:09,0.0,5,7.296,0.0,0.0,0.0,38.5,13.1,-7.8,1024,1024,1024,1024,0,0,0,0,66,6.436,63.86,162.729664,P-GPS,,49.6
489600,2026-01-11 17:26:09,0.0,5,7.296,0.0,0.0,0.0,38.6,12.9,-7.2,1024,1024,1024,1024,0,0,0,0,66,6.436,63.86,162.729664,P-GPS,,49.6
489700,2026-01-11 17:26:09,0.0,5,7.296,0.0,0.0,0.0,38.6,12.7,-7.4,1024,1024,1024,1024,0,0,0,0,66,6.436,63.86,162.729664,P-GPS,,49.6
489800,2026-01-11 17:26:10,0.0,5,7.412,0.0,0.0,0.0,38.5,12.9,-7.5,1024,1024,1024,1024,0,0,0,0,66,4.422,63.86,162.729664,P-GPS,,49.6
489900,2026-01-11 17:26:10,0.0,5,7.412,0.0,0.0,0.0,38.3,13.3,-7.3,1024,1024,1024,1024,0,0,0,0,66,4.422,63.86,162.729664,P-GPS,,49.6
490000,2026-01-11 17:26:10,0.0,5,7.412,0.0,0.0,0.0,38.5,12.9,-6.6,1024,1024,1024,1024,0,0,0,0,66,4.422,63.86,162.729664,P-GPS,,49.6
490100,2026-01-11 17:26:10,0.0,5,7.412,0.0,0.0,0.0,38.4,13.3,-7.2,1024,1024,1024,1024,0,0,0,0,66,4.422,63.86,162.729664,P-GPS,,49.6
490200,2026-01-11 17:26:10,0.0,5,7.412,0.0,0.0,0.0,38.4,13.7,-7.2,1024,1024,1024,1024,0,0,0,0,66,4.422,63.86,163.057748,P-GPS,,49.7
490300,2026-01-11 17:26:10,0.0,5,7.412,0.0,0.0,0.0,38.5,13.4,-7.3,1024,1024,1024,1024,0,0,0,0,66,4.422,63.86,163.057748,P-GPS,,49.7
490400,2026-01-11 17:26:10,0.0,5,7.412,0.0,0.0,0.0,38.6,12.5,-7.4,1024,1024,1024,1024,0,0,0,0,66,4.422,63.86,163.057748,P-GPS,,49.7
490500,2026-01-11 17:26:10,0.0,5,7.412,0.0,0.0,0.0,38.5,12.5,-7.5,1024,1024,1024,1024,0,0,0,0,66,4.422,63.86,163.385832,P-GPS,,49.8
490600,2026-01-11 17:26:10,0.0,5,7.412,0.0,0.0,0.0,38.4,12.8,-7.9,1024,1024,1024,1024,0,0,0,0,66,4.422,63.86,163.385832,P-GPS,,49.8
490700,2026-01-11 17:26:10,0.0,5,7.412,0.0,0.0,0.0,38.5,12.7,-7.9,1024,1024,1024,1024,0,0,0,0,66,4.422,63.86,163.385832,P-GPS,,49.8
490800,2026-01-11 17:26:11,0.0,5,7.412,0.0,0.0,0.0,38.5,12.8,-7.6,1024,1024,1024,1024,0,0,0,0,66,4.422,63.86,163.385832,P-GPS,,49.8
490900,2026-01-11 17:26:11,0.0,5,7.33,0.0,0.0,0.0,38.5,13.0,-7.2,1024,1024,1024,1024,0,0,0,0,66,5.643,64.04,163.385832,P-GPS,,49.8
491000,2026-01-11 17:26:11,0.0,5,7.33,0.0,0.0,0.0,38.6,13.1,-7.4,1024,1024,1024,1024,0,0,0,0,66,5.643,64.04,163.713916,P-GPS,,49.9
491100,2026-01-11 17:26:11,0.0,5,7.33,0.0,0.0,0.0,38.5,13.0,-8.4,1024,1024,1024,1024,0,0,0,0,66,5.643,64.04,163.713916,P-GPS,,49.9
491200,2026-01-11 17:26:11,0.0,5,7.33,0.0,0.0,0.0,38.6,12.5,-8.6,1024,1024,1024,1024,0,0,0,0,66,5.643,64.04,163.713916,P-GPS,,49.9
491300,2026-01-11 17:26:11,0.0,5,7.33,0.0,0.0,0.0,38.6,12.0,-9.0,1024,1024,1024,1024,0,0,0,0,66,5.643,64.04,163.713916,P-GPS,,49.9
491400,2026-01-11 17:26:11,0.0,5,7.33,0.0,0.0,0.0,38.2,13.3,-9.7,1024,1024,1024,1024,0,0,0,0,66,5.643,64.04,164.042,P-GPS,,50.0
491500,2026-01-11 17:26:11,0.223694,5,7.33,0.0,0.223694,0.0,38.1,14.1,-9.6,1024,1024,1024,1024,0,0,0,0,66,5.643,64.04,164.042,P-GPS,,50.0
491600,2026-01-11 17:26:11,0.0,5,7.33,0.0,0.0,0.0,38.2,14.3,-9.1,1024,1024,1024,1024,0,0,0,0,66,5.643,64.04,164.042,P-GPS,,50.0
491700,2026-01-11 17:26:11,0.0,5,7.33,0.0,0.0,0.0,38.3,14.4,-8.7,1024,1024,1024,1024,0,0,0,0,66,5.643,64.04,164.042,P-GPS,,50.0
491800,2026-01-11 17:26:12,0.0,5,7.33,0.0,0.0,0.0,38.3,14.4,-8.9,1024,1024,1024,1024,0,0,0,0,66,5.643,64.04,164.042,P-GPS,,50.0
491900,2026-01-11 17:26:12,0.0,5,7.33,0.0,0.0,0.0,38.2,14.5,-9.0,1024,1024,1024,1024,0,0,0,0,66,5.643,64.04,164.042,P-GPS,,50.0
492000,2026-01-11 17:26:12,0.0,5,7.33,0.0,0.0,0.0,38.1,15.0,-8.9,1024,1024,1024,1024,0,0,0,0,66,5.643,64.04,164.370084,P-GPS,,50.1
492100,2026-01-11 17:26:12,0.0,5,7.345,0.0,0.0,0.223694,38.1,14.6,-8.9,1024,1024,1024,1024,0,0,0,0,66,5.472,64.04,164.370084,P-GPS,,50.1
492200,2026-01-11 17:26:12,0.0,5,7.345,0.0,0.0,0.0,38.1,14.7,-9.0,1024,1024,1024,1024,0,0,0,0,66,5.472,64.04,164.370084,P-GPS,,50.1
492300,2026-01-11 17:26:12,0.0,5,7.345,0.0,0.0,0.0,38.0,14.9,-8.6,1024,1024,1024,1024,0,0,0,0,66,5.472,64.04,164.370084,P-GPS,,50.1
492400,2026-01-11 17:26:12,0.0,5,7.345,0.0,0.0,0.0,38.0,14.8,-7.6,1024,1024,1024,1024,0,0,0,0,66,5.472,64.04,164.370084,P-GPS,,50.1
492500,2026-01-11 17:26:12,0.0,5,7.345,0.0,0.0,0.0,38.3,14.0,-7.1,1024,1024,1024,1024,0,0,0,0,66,5.472,64.04,164.042,P-GPS,,50.0
492600,2026-01-11 17:26:12,0.0,5,7.345,0.0,0.0,0.0,38.4,14.4,-6.9,1024,1024,1024,1024,0,0,0,0,66,5.472,64.04,164.042,P-GPS,,50.0
492700,2026-01-11 17:26:12,0.0,5,7.345,0.0,0.0,0.0,38.4,14.4,-7.3,1024,1024,1024,1024,0,0,0,0,66,5.472,64.04,164.042,P-GPS,,50.0
492800,2026-01-11 17:26:12,0.0,5,7.345,0.0,0.0,0.0,38.4,14.0,-7.7,1024,1024,1024,1024,0,0,0,0,66,5.472,64.04,164.042,P-GPS,,50.0
492900,2026-01-11 17:26:13,0.0,5,7.345,0.0,0.0,0.0,38.4,13.4,-8.3,1024,1024,1024,1024,0,0,0,0,66,5.472,64.04,164.042,P-GPS,,50.0
493000,2026-01-11 17:26:13,0.0,5,7.345,0.0,0.0,0.0,38.5,12.7,-8.2,1024,1024,1024,1024,0,0,0,0,66,5.472,64.04,164.042,P-GPS,,50.0
493100,2026-01-11 17:26:13,0.0,5,7.345,0.0,0.0,0.0,38.6,12.1,-7.6,1024,1024,1024,1024,0,0,0,0,66,5.472,64.04,163.713916,P-GPS,,49.9
493200,2026-01-11 17:26:13,0.0,5,7.409,0.0,0.0,0.0,38.7,11.7,-7.4,1024,1024,1024,1024,0,0,0,0,66,4.693,64.04,163.713916,P-GPS,,49.9
493300,2026-01-11 17:26:13,0.0,5,7.409,0.0,0.0,0.0,38.8,11.0,-7.7,1024,1024,1024,1024,0,0,0,0,66,4.693,64.04,163.713916,P-GPS,,49.9
493400,2026-01-11 17:26:13,0.0,5,7.409,0.0,0.0,0.0,38.8,11.3,-7.3,1024,1024,1024,1024,0,0,0,0,66,4.693,64.04,163.713916,P-GPS,,49.9
493500,2026-01-11 17:26:13,0.0,5,7.409,0.0,0.0,0.0,38.8,11.8,-6.8,1024,1024,1024,1024,0,0,0,0,66,4.693,64.04,163.385832,P-GPS,,49.8
493600,2026-01-11 17:26:13,0.223694,5,7.409,0.0,-0.223694,0.0,38.9,10.7,-6.2,1024,1024,1024,1024,0,0,0,0,66,4.693,64.04,163.385832,P-GPS,,49.8
493700,2026-01-11 17:26:13,0.223694,5,7.409,0.0,-0.223694,0.0,39.0,10.1,-6.1,1024,1024,1024,1024,0,0,0,0,66,4.693,64.04,163.385832,P-GPS,,49.8
493800,2026-01-11 17:26:14,0.223694,5,7.409,0.0,-0.223694,0.0,39.0,10.4,-5.8,1024,1024,1024,1024,0,0,0,0,66,4.693,64.04,163.057748,P-GPS,,49.7
493900,2026-01-11 17:26:14,0.223694,5,7.409,0.0,-0.223694,0.0,39.0,10.2,-5.6,1024,1024,1024,1024,0,0,0,0,66,4.693,64.04,163.057748,P-GPS,,49.7
494000,2026-01-11 17:26:14,0.0,5,7.409,0.0,0.0,0.0,39.0,10.0,-5.3,1024,1024,1024,1024,0,0,0,0,66,4.693,64.04,163.057748,P-GPS,,49.7
494100,2026-01-11 17:26:14,0.0,5,7.409,0.0,0.0,0.0,38.9,11.3,-5.3,1024,1024,1024,1024,0,0,0,0,66,4.693,64.04,163.057748,P-GPS,,49.7
494200,2026-01-11 17:26:14,0.0,5,7.409,0.0,0.0,0.0,39.0,11.2,-5.6,1024,1024,1024,1024,0,0,0,0,66,4.693,64.04,163.057748,P-GPS,,49.7
494300,2026-01-11 17:26:14,0.0,5,7.407,0.0,0.0,0.0,39.0,11.1,-5.1,1024,1024,1024,1024,0,0,0,0,66,3.877,64.04,163.057748,P-GPS,,49.7
494400,2026-01-11 17:26:14,0.0,5,7.407,0.0,0.0,0.0,39.0,11.0,-5.1,1024,1024,1024,1024,0,0,0,0,66,3.877,64.04,163.057748,P-GPS,,49.7
494500,2026-01-11 17:26:14,0.0,5,7.407,0.0,0.0,0.0,38.9,10.5,-5.7,1024,1024,1024,1024,0,0,0,0,66,3.877,64.04,163.385832,P-GPS,,49.8
494600,2026-01-11 17:26:14,0.0,5,7.407,0.0,0.0,0.0,38.9,10.0,-5.7,1024,1024,1024,1024,0,0,0,0,66,3.877,64.04,163.385832,P-GPS,,49.8
494700,2026-01-11 17:26:14,0.0,5,7.407,0.0,0.0,0.0,38.9,11.0,-6.0,1024,1024,1024,1024,0,0,0,0,66,3.877,64.04,163.385832,P-GPS,,49.8
494800,2026-01-11 17:26:14,0.0,5,7.407,0.0,0.0,0.0,38.7,11.5,-6.2,1024,1024,1024,1024,0,0,0,0,66,3.877,64.04,163.713916,P-GPS,,49.9
494900,2026-01-11 17:26:15,0.0,5,7.407,0.0,0.0,0.0,38.7,11.2,-6.2,1024,1024,1024,1024,0,0,0,0,66,3.877,64.04,163.713916,P-GPS,,49.9
495000,2026-01-11 17:26:15,0.0,5,7.407,0.0,0.0,0.0,38.9,10.5,-6.1,1024,1024,1024,1024,0,0,0,0,66,3.877,64.04,164.042,P-GPS,,50.0
495100,2026-01-11 17:26:15,0.0,5,7.407,0.0,0.0,0.0,38.9,10.5,-6.3,1024,1024,1024,1024,0,0,0,0,66,3.877,64.04,164.042,P-GPS,,50.0
495200,2026-01-11 17:26:15,0.0,5,7.407,0.0,0.0,0.0,38.8,10.8,-6.5,1024,1024,1024,1024,0,0,0,0,66,3.877,64.04,164.042,P-GPS,,50.0
495300,2026-01-11 17:26:15,0.0,5,7.407,0.0,0.0,0.0,39.0,10.3,-6.4,1024,1024,1024,1024,0,0,0,0,66,3.877,64.04,164.370084,P-GPS,,50.1
495400,2026-01-11 17:26:15,0.0,5,7.378,0.0,0.0,0.0,38.9,10.7,-6.5,1024,1024,1024,1024,0,0,0,0,66,4.667,64.22,164.370084,P-GPS,,50.1
495500,2026-01-11 17:26:15,0.0,5,7.378,0.0,0.0,0.0,38.7,11.2,-7.0,1024,1024,1024,1024,0,0,0,0,66,4.667,64.22,164.370084,P-GPS,,50.1
495600,2026-01-11 17:26:15,0.0,5,7.378,0.0,0.0,0.0,38.7,11.1,-7.1,1024,1024,1024,1024,0,0,0,0,66,4.667,64.22,164.698168,P-GPS,,50.2
495700,2026-01-11 17:26:15,0.0,5,7.378,0.0,0.0,0.0,38.8,11.2,-6.9,1024,1024,1024,1024,0,0,0,0,66,4.667,64.22,164.698168,P-GPS,,50.2
495800,2026-01-11 17:26:16,0.0,5,7.378,0.0,0.0,0.0,38.7,11.5,-6.8,1024,1024,1024,1024,0,0,0,0,66,4.667,64.22,164.698168,P-GPS,,50.2
495900,2026-01-11 17:26:16,0.0,5,7.378,0.0,0.0,0.0,38.7,11.8,-6.8,1024,1024,1024,1024,0,0,0,0,66,4.667,64.22,164.698168,P-GPS,,50.2
496000,2026-01-11 17:26:16,0.0,5,7.378,0.0,0.0,0.0,38.7,11.9,-6.7,1024,1024,1024,1024,0,0,0,0,66,4.667,64.22,164.698168,P-GPS,,50.2
496100,2026-01-11 17:26:16,0.0,5,7.378,0.0,0.0,0.0,38.9,11.5,-6.3,1024,1024,1024,1024,0,0,0,0,66,4.667,64.22,164.698168,P-GPS,,50.2
496200,2026-01-11 17:26:16,0.0,5,7.378,0.0,0.0,0.0,38.8,12.1,-6.3,1024,1024,1024,1024,0,0,0,0,66,4.667,64.22,164.698168,P-GPS,,50.2
496300,2026-01-11 17:26:16,0.0,5,7.378,0.0,0.0,0.0,38.8,12.7,-6.1,1024,1024,1024,1024,0,0,0,0,66,4.667,64.22,164.698168,P-GPS,,50.2
496400,2026-01-11 17:26:16,0.0,5,7.378,0.0,0.0,0.223694,38.6,13.3,-5.8,1024,1024,1024,1024,0,0,0,0,66,4.667,64.22,164.698168,P-GPS,,50.2
496500,2026-01-11 17:26:16,0.0,5,7.402,0.0,0.0,0.0,38.7,13.4,-5.4,1024,1024,1024,1024,0,0,0,0,66,4.592,64.22,164.698168,P-GPS,,50.2
496600,2026-01-11 17:26:16,0.0,5,7.402,0.0,0.0,0.0,38.8,13.2,-5.5,1024,1024,1024,1024,0,0,0,0,66,4.592,64.22,164.698168,P-GPS,,50.2
496700,2026-01-11 17:26:16,0.0,5,7.402,0.0,0.0,0.0,38.8,12.9,-5.6,1024,1024,1024,1024,0,0,0,0,66,4.592,64.22,165.026252,P-GPS,,50.3
496800,2026-01-11 17:26:17,0.0,5,7.402,0.0,0.0,0.0,38.9,12.7,-5.3,1024,1024,1024,1024,0,0,0,0,66,4.592,64.22,165.026252,P-GPS,,50.3
496900,2026-01-11 17:26:17,0.0,5,7.402,0.0,0.0,0.0,38.8,13.1,-5.8,1024,1024,1024,1024,0,0,0,0,66,4.592,64.22,165.026252,P-GPS,,50.3
497000,2026-01-11 17:26:17,0.0,5,7.402,0.0,0.0,0.0,38.8,13.0,-5.5,1024,1024,1024,1024,0,0,0,0,66,4.592,64.22,165.026252,P-GPS,,50.3
497100,2026-01-11 17:26:17,0.0,5,7.402,0.0,0.0,0.0,38.8,12.9,-5.7,1024,1024,1024,1024,0,0,0,0,66,4.592,64.22,165.026252,P-GPS,,50.3
497200,2026-01-11 17:26:17,0.0,5,7.402,0.0,0.0,0.0,38.7,13.1,-6.4,1024,1024,1024,1024,0,0,0,0,66,4.592,64.22,165.026252,P-GPS,,50.3
497300,2026-01-11 17:26:17,0.0,5,7.402,0.0,0.0,0.223694,38.6,13.3,-6.5,1024,1024,1024,1024,0,0,0,0,66,4.592,64.22,165.026252,P-GPS,,50.3
497400,2026-01-11 17:26:17,0.0,5,7.402,0.0,0.0,0.0,38.6,13.3,-6.3,1024,1024,1024,1024,0,0,0,0,66,4.592,64.22,165.354336,P-GPS,,50.4
497500,2026-01-11 17:26:17,0.0,5,7.402,0.0,0.0,0.0,38.5,13.7,-5.9,1024,1024,1024,1024,0,0,0,0,66,4.592,64.22,165.354336,P-GPS,,50.4
497600,2026-01-11 17:26:17,0.0,5,7.378,0.0,0.0,0.0,38.5,13.2,-6.3,1024,1024,1024,1024,0,0,0,0,66,4.964,64.22,165.354336,P-GPS,,50.4
497700,2026-01-11 17:26:17,0.0,5,7.378,0.0,0.0,0.0,38.5,13.0,-6.3,1024,1024,1024,1024,0,0,0,0,66,4.964,64.22,165.354336,P-GPS,,50.4
497800,2026-01-11 17:26:18,0.0,5,7.378,0.0,0.0,0.0,38.6,13.4,-5.6,1024,1024,1024,1024,0,0,0,0,66,4.964,64.22,165.354336,P-GPS,,50.4
497900,2026-01-11 17:26:18,0.0,5,7.378,0.0,0.0,0.0,38.7,13.5,-5.2,1024,1024,1024,1024,0,0,0,0,66,4.964,64.22,165.354336,P-GPS,,50.4
498000,2026-01-11 17:26:18,0.0,5,7.378,0.0,0.0,0.0,38.7,13.7,-5.5,1024,1024,1024,1024,0,0,0,0,66,4.964,64.22,165.68242,P-GPS,,50.5
498100,2026-01-11 17:26:18,0.0,5,7.378,0.0,0.0,0.0,38.6,13.8,-5.3,1024,1024,1024,1024,0,0,0,0,66,4.964,64.22,165.68242,P-GPS,,50.5
498200,2026-01-11 17:26:18,0.0,5,7.378,0.0,0.0,0.0,38.7,13.5,-4.9,1024,1024,1024,1024,0,0,0,0,66,4.964,64.22,165.68242,P-GPS,,50.5
498300,2026-01-11 17:26:18,0.0,5,7.378,0.0,0.0,0.0,38.8,13.0,-5.3,1024,1024,1024,1024,0,0,0,0,66,4.964,64.22,165.68242,P-GPS,,50.5
498400,2026-01-11 17:26:18,0.0,5,7.378,0.0,0.0,0.0,38.9,12.7,-5.3,1024,1024,1024,1024,0,0,0,0,66,4.964,64.22,165.68242,P-GPS,,50.5
498500,2026-01-11 17:26:18,0.0,5,7.378,0.0,0.0,0.0,38.8,12.8,-5.8,1024,1024,1024,1024,0,0,0,0,66,4.964,64.22,165.68242,P-GPS,,50.5
498600,2026-01-11 17:26:18,0.0,5,7.378,0.0,0.0,0.223694,38.7,12.8,-5.6,1024,1024,1024,1024,0,0,0,0,66,4.964,64.22,165.68242,P-GPS,,50.5
498700,2026-01-11 17:26:18,0.0,5,7.359,0.0,0.0,0.0,38.8,12.7,-5.3,1024,1024,1024,1024,0,0,0,0,66,5.215,64.22,165.68242,P-GPS,,50.5
498800,2026-01-11 17:26:19,0.0,5,7.359,0.0,0.0,0.0,38.9,12.0,-5.7,1024,1024,1024,1024,0,0,0,0,66,5.215,64.22,165.68242,P-GPS,,50.5
498900,2026-01-11 17:26:19,0.0,5,7.359,0.0,0.0,0.0,38.9,12.2,-5.7,1024,1024,1024,1024,0,0,0,0,66,5.215,64.22,165.68242,P-GPS,,50.5
499000,2026-01-11 17:26:19,0.0,5,7.359,0.0,0.0,0.0,39.0,12.1,-5.8,1024,1024,1024,1024,0,0,0,0,66,5.215,64.22,165.68242,P-GPS,,50.5
499100,2026-01-11 17:26:19,0.0,5,7.359,0.0,0.0,0.0,38.9,12.1,-5.6,1024,1024,1024,1024,0,0,0,0,66,5.215,64.22,165.68242,P-GPS,,50.5
499200,2026-01-11 17:26:19,0.0,5,7.359,0.0,0.0,0.0,38.9,12.1,-5.6,1024,1024,1024,1024,0,0,0,0,66,5.215,64.22,165.68242,P-GPS,,50.5
499300,2026-01-11 17:26:19,0.0,5,7.359,0.0,0.0,0.0,38.9,12.1,-5.4,1024,1024,1024,1024,0,0,0,0,66,5.215,64.22,165.68242,P-GPS,,50.5
499400,2026-01-11 17:26:19,0.0,5,7.359,0.0,0.0,0.0,39.0,11.9,-5.2,1024,1024,1024,1024,0,0,0,0,66,5.215,64.22,165.68242,P-GPS,,50.5
499500,2026-01-11 17:26:19,0.0,5,7.359,0.0,0.0,0.0,39.0,11.7,-5.2,1024,1024,1024,1024,0,0,0,0,66,5.215,64.22,165.354336,P-GPS,,50.4
499600,2026-01-11 17:26:19,0.0,5,7.359,0.0,0.0,0.223694,39.1,11.6,-5.2,1024,1024,1024,1024,0,0,0,0,66,5.215,64.22,165.354336,P-GPS,,50.4
499700,2026-01-11 17:26:19,0.0,5,7.359,0.0,0.0,0.223694,39.0,11.8,-4.8,1024,1024,1024,1024,0,0,0,0,66,5.215,64.22,165.354336,P-GPS,,50.4
499800,2026-01-11 17:26:20,0.0,5,7.359,0.0,0.0,0.223694,38.9,11.3,-4.6,1024,1024,1024,1024,0,0,0,0,66,5.215,64.22,165.354336,P-GPS,,50.4
499900,2026-01-11 17:26:20,0.0,5,7.359,0.0,0.0,0.0,38.9,11.3,-4.2,1024,1024,1024,1024,0,0,0,0,66,5.215,64.22,165.354336,P-GPS,,50.4
500000,2026-01-11 17:26:20,0.0,5,7.359,0.0,0.0,0.0,39.0,11.6,-3.9,1024,1024,1024,1024,0,0,0,0,66,5.215,64.22,165.354336,P-GPS,,50.4
500100,2026-01-11 17:26:20,0.0,5,7.359,0.0,0.0,0.0,39.2,11.7,-4.7,1024,1024,1024,1024,0,0,0,0,66,5.215,64.22,165.354336,P-GPS,,50.4
500200,2026-01-11 17:26:20,0.0,5,7.359,0.0,0.0,0.0,39.0,12.0,-4.2,1024,1024,1024,1024,0,0,0,0,66,5.215,64.22,165.354336,P-GPS,,50.4
500300,2026-01-11 17:26:20,0.0,5,7.359,0.0,0.0,0.0,38.9,12.4,-3.7,1024,1024,1024,1024,0,0,0,0,65,5.215,64.22,165.354336,P-GPS,,50.4
500400,2026-01-11 17:26:20,0.0,5,7.359,0.0,0.0,0.0,38.8,12.7,-3.6,1024,1024,1024,1024,0,0,0,0,65,5.215,64.22,165.354336,P-GPS,,50.4
500500,2026-01-11 17:26:20,0.0,5,7.359,0.0,0.0,0.0,38.9,12.1,-3.5,1024,1024,1024,1024,0,0,0,0,65,5.215,64.22,165.68242,P-GPS,,50.5
500600,2026-01-11 17:26:20,0.0,5,7.359,0.0,0.0,0.0,39.0,12.1,-3.6,1024,1024,1024,1024,0,0,0,0,65,5.215,64.22,165.68242,P-GPS,,50.5
500700,2026-01-11 17:26:20,0.0,5,7.359,0.0,0.0,0.0,38.9,12.3,-3.2,1024,1024,1024,1024,0,0,0,0,65,5.215,64.22,165.68242,P-GPS,,50.5
500800,2026-01-11 17:26:21,0.0,5,7.359,0.0,0.0,0.0,38.9,12.4,-3.3,1024,1024,1024,1024,0,0,0,0,65,5.215,64.22,165.68242,P-GPS,,50.5
500900,2026-01-11 17:26:21,0.0,5,7.351,0.0,0.0,0.0,38.9,12.4,-3.4,1024,1024,1024,1024,0,0,0,0,65,5.305,64.22,165.68242,P-GPS,,50.5
501000,2026-01-11 17:26:21,0.0,5,7.351,0.0,0.0,0.0,38.9,12.4,-3.7,1024,1024,1024,1024,0,0,0,0,65,5.305,64.22,165.68242,P-GPS,,50.5
501100,2026-01-11 17:26:21,0.0,5,7.351,0.0,0.0,0.0,38.9,12.1,-3.8,1024,1024,1024,1024,0,0,0,0,65,5.305,64.22,165.68242,P-GPS,,50.5
501200,2026-01-11 17:26:21,0.0,5,7.351,0.0,0.0,0.0,39.0,12.6,-3.9,1024,1024,1024,1024,0,0,0,0,65,5.305,64.22,165.68242,P-GPS,,50.5
501300,2026-01-11 17:26:21,0.0,5,7.351,0.0,0.0,0.0,38.8,12.9,-3.9,1024,1024,1024,1024,0,0,0,0,65,5.305,64.22,165.68242,P-GPS,,50.5
501400,2026-01-11 17:26:21,0.0,5,7.351,0.0,0.0,0.0,38.8,12.5,-4.6,1024,1024,1024,1024,0,0,0,0,65,5.305,64.22,165.68242,P-GPS,,50.5
501500,2026-01-11 17:26:21,0.0,5,7.351,0.0,0.0,0.0,38.8,12.8,-4.8,1024,1024,1024,1024,0,0,0,0,65,5.305,64.22,166.010504,P-GPS,,50.6
501600,2026-01-11 17:26:21,0.0,5,7.351,0.0,0.0,0.0,38.9,12.4,-4.8,1024,1024,1024,1024,0,0,0,0,65,5.305,64.22,166.010504,P-GPS,,50.6
501700,2026-01-11 17:26:21,0.0,5,7.351,0.0,0.0,0.0,38.9,12.2,-4.8,1024,1024,1024,1024,0,0,0,0,65,5.305,64.22,166.010504,P-GPS,,50.6
501800,2026-01-11 17:26:22,0.0,5,7.351,0.0,0.0,0.0,38.9,12.6,-4.8,1024,1024,1024,1024,0,0,0,0,65,5.305,64.22,166.010504,P-GPS,,50.6
501900,2026-01-11 17:26:22,0.0,5,7.351,0.0,0.0,0.0,38.9,12.8,-5.2,1024,1024,1024,1024,0,0,0,0,65,5.305,64.22,166.010504,P-GPS,,50.6
502000,2026-01-11 17:26:22,0.0,5,7.349,0.0,0.0,0.0,38.8,13.2,-5.2,1024,1024,1024,1024,0,0,0,0,65,5.238,64.22,166.010504,P-GPS,,50.6
502100,2026-01-11 17:26:22,0.0,5,7.349,0.0,0.0,0.223694,38.8,13.0,-5.3,1024,1024,1024,1024,0,0,0,0,65,5.238,64.22,166.010504,P-GPS,,50.6
502200,2026-01-11 17:26:22,0.0,5,7.349,0.0,0.0,0.0,38.8,13.1,-5.3,1024,1024,1024,1024,0,0,0,0,65,5.238,64.22,166.010504,P-GPS,,50.6
502300,2026-01-11 17:26:22,0.0,5,7.349,0.0,0.0,0.0,38.9,12.8,-5.2,1024,1024,1024,1024,0,0,0,0,65,5.238,64.22,166.010504,P-GPS,,50.6
502400,2026-01-11 17:26:22,0.0,5,7.349,0.0,0.0,0.0,38.8,13.7,-5.1,1024,1024,1024,1024,0,0,0,0,65,5.238,64.22,166.010504,P-GPS,,50.6
502500,2026-01-11 17:26:22,0.0,5,7.349,0.0,0.0,0.0,38.8,13.4,-5.0,1024,1024,1024,1024,0,0,0,0,65,5.238,64.22,166.010504,P-GPS,,50.6
502600,2026-01-11 17:26:22,0.0,5,7.349,0.0,0.0,0.0,38.9,13.3,-4.7,1024,1024,1024,1024,0,0,0,0,65,5.238,64.22,166.010504,P-GPS,,50.6
502700,2026-01-11 17:26:22,0.0,5,7.349,0.0,0.0,0.0,38.8,13.3,-4.3,1024,1024,1024,1024,0,0,0,0,65,5.238,64.22,166.010504,P-GPS,,50.6
502800,2026-01-11 17:26:23,0.0,5,7.349,0.0,0.0,0.0,38.8,13.2,-4.3,1024,1024,1024,1024,0,0,0,0,65,5.238,64.22,166.010504,P-GPS,,50.6
502900,2026-01-11 17:26:23,0.0,5,7.349,0.0,0.0,0.0,38.8,13.2,-4.0,1024,1024,1024,1024,0,0,0,0,65,5.238,64.22,166.010504,P-GPS,,50.6
503000,2026-01-11 17:26:23,0.0,5,7.349,0.0,0.0,0.0,38.9,12.8,-3.7,1024,1024,1024,1024,0,0,0,0,65,5.238,64.22,165.68242,P-GPS,,50.5
503100,2026-01-11 17:26:23,0.0,5,7.363,0.0,0.0,0.0,39.0,12.5,-3.6,1024,1024,1024,1024,0,0,0,0,65,5.454,64.22,165.68242,P-GPS,,50.5
503200,2026-01-11 17:26:23,0.0,5,7.363,0.0,0.0,0.0,38.9,12.5,-3.7,1024,1024,1024,1024,0,0,0,0,65,5.454,64.22,165.68242,P-GPS,,50.5
503300,2026-01-11 17:26:23,0.0,5,7.363,0.0,0.0,0.0,39.0,13.0,-3.8,1024,1024,1024,1024,0,0,0,0,65,5.454,64.22,165.68242,P-GPS,,50.5
503400,2026-01-11 17:26:23,0.0,5,7.363,0.0,0.0,0.0,39.1,12.7,-3.6,1024,1024,1024,1024,0,0,0,0,65,5.454,64.22,165.68242,P-GPS,,50.5
503500,2026-01-11 17:26:23,0.0,5,7.363,0.0,0.0,0.223694,39.3,12.5,-3.7,1024,1024,1024,1024,0,0,0,0,65,5.454,64.22,165.68242,P-GPS,,50.5
503600,2026-01-11 17:26:23,0.0,5,7.363,0.0,0.0,0.223694,39.4,12.2,-3.7,1024,1024,1024,1024,0,0,0,0,65,5.454,64.22,166.010504,P-GPS,,50.6
503700,2026-01-11 17:26:23,0.0,5,7.363,0.0,0.0,0.0,39.4,11.7,-4.0,1024,1024,1024,1024,0,0,0,0,65,5.454,64.22,166.010504,P-GPS,,50.6
503800,2026-01-11 17:26:24,0.0,5,7.363,0.0,0.0,0.0,39.3,11.7,-4.6,1024,1024,1024,1024,0,0,0,0,65,5.454,64.22,166.010504,P-GPS,,50.6
503900,2026-01-11 17:26:24,0.0,5,7.363,0.0,0.0,0.0,39.1,11.7,-4.9,1024,1024,1024,1024,0,0,0,0,65,5.454,64.22,166.010504,P-GPS,,50.6
504000,2026-01-11 17:26:24,0.0,5,7.363,0.0,0.0,0.0,39.1,11.4,-5.0,1024,1024,1024,1024,0,0,0,0,65,5.454,64.22,166.338588,P-GPS,,50.7
504100,2026-01-11 17:26:24,0.0,5,7.363,0.0,0.0,0.0,39.2,11.2,-4.9,1024,1024,1024,1024,0,0,0,0,65,5.454,64.22,166.338588,P-GPS,,50.7
504200,2026-01-11 17:26:24,0.0,5,7.314,0.0,0.0,0.0,39.0,11.5,-5.3,1024,1024,1024,1024,0,0,0,0,65,5.957,64.22,166.338588,P-GPS,,50.7
504300,2026-01-11 17:26:24,0.0,5,7.314,0.0,0.0,0.0,38.9,12.1,-5.6,1024,1024,1024,1024,0,0,0,0,65,5.957,64.22,166.338588,P-GPS,,50.7
504400,2026-01-11 17:26:24,0.0,5,7.314,0.0,0.0,0.0,38.8,12.6,-5.7,1024,1024,1024,1024,0,0,0,0,65,5.957,64.22,166.338588,P-GPS,,50.7
504500,2026-01-11 17:26:24,0.0,5,7.314,0.0,0.0,0.0,38.8,12.5,-5.9,1024,1024,1024,1024,0,0,0,0,65,5.957,64.22,166.338588,P-GPS,,50.7
504600,2026-01-11 17:26:24,0.0,5,7.314,0.0,0.0,0.0,38.7,12.3,-6.1,1024,1024,1024,1024,0,0,0,0,65,5.957,64.22,166.338588,P-GPS,,50.7
504700,2026-01-11 17:26:24,0.0,5,7.314,0.0,0.0,0.0,38.8,12.7,-5.5,1024,1024,1024,1024,0,0,0,0,65,5.957,64.22,166.338588,P-GPS,,50.7
504800,2026-01-11 17:26:25,0.0,5,7.314,0.0,0.0,0.0,38.8,12.7,-5.4,1024,1024,1024,1024,0,0,0,0,65,5.957,64.22,166.338588,P-GPS,,50.7
504900,2026-01-11 17:26:25,0.0,5,7.314,0.0,0.0,0.0,38.9,12.4,-5.5,1024,1024,1024,1024,0,0,0,0,65,5.957,64.22,166.338588,P-GPS,,50.7
505000,2026-01-11 17:26:25,0.0,5,7.314,0.0,0.0,0.0,39.0,11.9,-5.4,1024,1024,1024,1024,0,0,0,0,65,5.957,64.22,166.010504,P-GPS,,50.6
505100,2026-01-11 17:26:25,0.0,5,7.314,0.0,0.0,0.0,39.0,11.7,-5.3,1024,1024,1024,1024,0,0,0,0,65,5.957,64.22,166.010504,P-GPS,,50.6
505200,2026-01-11 17:26:25,0.0,5,7.314,0.0,0.0,0.0,38.9,11.4,-5.4,1024,1024,1024,1024,0,0,0,0,65,5.957,64.22,166.010504,P-GPS,,50.6
505300,2026-01-11 17:26:25,0.0,5,7.326,0.0,0.0,0.0,38.9,11.7,-5.2,1024,1024,1024,1024,0,0,0,0,65,5.552,64.22,166.010504,P-GPS,,50.6
505400,2026-01-11 17:26:25,0.0,5,7.326,0.0,0.0,0.0,39.0,11.7,-5.3,1024,1024,1024,1024,0,0,0,0,65,5.552,64.22,165.68242,P-GPS,,50.5
505500,2026-01-11 17:26:25,0.0,5,7.326,0.0,0.0,0.0,39.1,11.5,-5.1,1024,1024,1024,1024,0,0,0,0,65,5.552,64.22,165.68242,P-GPS,,50.5
505600,2026-01-11 17:26:25,0.0,5,7.326,0.0,0.0,0.0,39.1,11.3,-5.2,1024,1024,1024,1024,0,0,0,0,65,5.552,64.22,165.68242,P-GPS,,50.5
505700,2026-01-11 17:26:26,0.0,5,7.326,0.0,0.0,0.0,39.0,11.6,-5.6,1024,1024,1024,1024,0,0,0,0,65,5.552,64.22,165.354336,P-GPS,,50.4
505800,2026-01-11 17:26:26,0.0,5,7.326,0.0,0.0,0.0,39.0,11.7,-5.7,1024,1024,1024,1024,0,0,0,0,65,5.552,64.22,165.354336,P-GPS,,50.4
505900,2026-01-11 17:26:26,0.0,5,7.326,0.0,0.0,0.0,38.8,11.9,-6.2,1024,1024,1024,1024,0,0,0,0,65,5.552,64.22,165.354336,P-GPS,,50.4
506000,2026-01-11 17:26:26,0.0,5,7.326,0.0,0.0,0.0,38.9,11.7,-6.0,1024,1024,1024,1024,0,0,0,0,65,5.552,64.22,165.026252,P-GPS,,50.3
506100,2026-01-11 17:26:26,0.0,5,7.326,0.0,0.0,0.0,39.1,10.1,-5.6,1024,1024,1024,1024,0,0,0,0,65,5.552,64.22,165.026252,P-GPS,,50.3
506200,2026-01-11 17:26:26,0.0,5,7.326,0.0,0.0,0.0,39.1,9.4,-6.0,1024,1024,1024,1024,0,0,0,0,65,5.552,64.22,165.026252,P-GPS,,50.3
506300,2026-01-11 17:26:26,0.0,5,7.326,0.0,0.0,-0.223694,39.1,8.6,-5.8,1024,1024,1024,1024,0,0,0,0,65,5.552,64.22,165.026252,P-GPS,,50.3
506400,2026-01-11 17:26:26,0.0,5,7.407,0.0,0.0,-0.223694,39.0,9.2,-5.4,1024,1024,1024,1024,0,0,0,0,65,4.433,64.22,164.698168,P-GPS,,50.2
506500,2026-01-11 17:26:26,0.0,5,7.407,0.0,0.0,0.0,39.0,8.8,-5.4,1024,1024,1024,1024,0,0,0,0,65,4.433,64.22,164.698168,P-GPS,,50.2
506600,2026-01-11 17:26:26,0.223694,5,7.407,0.0,-0.223694,0.0,39.1,9.4,-5.6,1024,1024,1024,1024,0,0,0,0,65,4.433,64.22,164.698168,P-GPS,,50.2
506700,2026-01-11 17:26:27,0.223694,5,7.407,0.0,-0.223694,0.0,39.2,9.0,-5.0,1024,1024,1024,1024,0,0,0,0,65,4.433,64.22,164.698168,P-GPS,,50.2
506800,2026-01-11 17:26:27,0.223694,5,7.407,0.0,-0.223694,0.0,39.1,9.9,-4.7,1024,1024,1024,1024,0,0,0,0,65,4.433,64.22,164.698168,P-GPS,,50.2
506900,2026-01-11 17:26:27,0.223694,5,7.407,0.0,-0.223694,0.223694,39.0,10.1,-3.9,1024,1024,1024,1024,0,0,0,0,65,4.433,64.22,164.698168,P-GPS,,50.2
507000,2026-01-11 17:26:27,0.223694,5,7.407,0.0,-0.223694,0.0,39.1,9.6,-3.7,1024,1024,1024,1024,0,0,0,0,65,4.433,64.22,164.698168,P-GPS,,50.2
507100,2026-01-11 17:26:27,0.223694,5,7.407,0.0,-0.223694,0.0,39.1,10.1,-3.1,1024,1024,1024,1024,0,0,0,0,65,4.433,64.22,164.698168,P-GPS,,50.2
507200,2026-01-11 17:26:27,0.0,5,7.407,0.0,0.0,0.0,39.2,10.6,-2.4,1024,1024,1024,1024,0,0,0,0,65,4.433,64.22,164.698168,P-GPS,,50.2
507300,2026-01-11 17:26:27,0.0,5,7.407,0.0,0.0,0.0,39.3,10.5,-2.0,1024,1024,1024,1024,0,0,0,0,65,4.433,64.22,164.698168,P-GPS,,50.2
507400,2026-01-11 17:26:27,0.0,5,7.407,0.0,0.0,0.0,39.2,10.6,-2.1,1024,1024,1024,1024,0,0,0,0,65,4.433,64.22,165.026252,P-GPS,,50.3
507500,2026-01-11 17:26:27,0.0,5,7.317,0.0,0.0,0.0,39.2,11.2,-2.4,1024,1024,1024,1024,0,0,0,0,65,5.267,64.4,165.026252,P-GPS,,50.3
507600,2026-01-11 17:26:27,0.0,5,7.317,0.0,0.0,-0.223694,39.1,11.4,-2.7,1024,1024,1024,1024,0,0,0,0,65,5.267,64.4,165.026252,P-GPS,,50.3
507700,2026-01-11 17:26:27,0.0,5,7.317,0.0,0.0,-0.223694,39.0,12.4,-3.7,1024,1024,1024,1024,0,0,0,0,65,5.267,64.4,165.354336,P-GPS,,50.4
507800,2026-01-11 17:26:28,0.0,5,7.317,0.0,0.0,0.0,39.1,12.8,-3.8,1024,1024,1024,1024,0,0,0,0,65,5.267,64.4,165.354336,P-GPS,,50.4
507900,2026-01-11 17:26:28,0.0,5,7.317,0.0,0.0,0.0,39.1,12.7,-3.6,1024,1024,1024,1024,0,0,0,0,65,5.267,64.4,165.354336,P-GPS,,50.4
508000,2026-01-11 17:26:28,0.0,5,7.317,0.0,0.0,0.0,39.0,12.5,-3.6,1024,1024,1024,1024,0,0,0,0,65,5.267,64.4,165.354336,P-GPS,,50.4
508100,2026-01-11 17:26:28,0.0,5,7.317,0.0,0.0,0.0,39.0,12.9,-3.8,1024,1024,1024,1024,0,0,0,0,65,5.267,64.4,165.68242,P-GPS,,50.5
508200,2026-01-11 17:26:28,0.0,5,7.317,0.0,0.0,0.0,39.0,13.0,-3.8,1024,1024,1024,1024,0,0,0,0,65,5.267,64.4,165.68242,P-GPS,,50.5
508300,2026-01-11 17:26:28,0.0,5,7.317,0.0,0.0,0.0,38.9,13.0,-3.8,1024,1024,1024,1024,0,0,0,0,65,5.267,64.4,165.68242,P-GPS,,50.5
508400,2026-01-11 17:26:28,0.0,5,7.317,0.0,0.0,0.0,38.9,12.9,-3.2,1024,1024,1024,1024,0,0,0,0,65,5.267,64.4,165.68242,P-GPS,,50.5
508500,2026-01-11 17:26:28,0.0,5,7.317,0.0,0.0,0.0,38.9,13.0,-3.3,1024,1024,1024,1024,0,0,0,0,65,5.267,64.4,165.68242,P-GPS,,50.5
508600,2026-01-11 17:26:28,0.0,5,7.317,0.0,0.0,0.0,39.0,12.9,-4.1,1024,1024,1024,1024,0,0,0,0,65,5.752,64.22,165.68242,P-GPS,,50.5
508700,2026-01-11 17:26:28,0.0,5,7.317,0.0,0.0,0.0,39.0,13.2,-4.3,1024,1024,1024,1024,0,0,0,0,65,5.752,64.22,165.68242,P-GPS,,50.5
508800,2026-01-11 17:26:29,0.0,5,7.317,0.0,0.0,0.0,39.0,12.5,-4.1,1024,1024,1024,1024,0,0,0,0,65,5.752,64.22,165.68242,P-GPS,,50.5
508900,2026-01-11 17:26:29,0.0,5,7.317,0.0,0.0,0.0,39.0,12.1,-4.3,1024,1024,1024,1024,0,0,0,0,65,5.752,64.22,165.68242,P-GPS,,50.5
509000,2026-01-11 17:26:29,0.0,5,7.317,0.0,0.0,0.0,39.0,11.7,-4.6,1024,1024,1024,1024,0,0,0,0,65,5.752,64.22,165.68242,P-GPS,,50.5
509100,2026-01-11 17:26:29,0.0,5,7.317,0.0,0.0,0.0,39.0,11.8,-4.8,1024,1024,1024,1024,0,0,0,0,65,5.752,64.22,165.68242,P-GPS,,50.5
509200,2026-01-11 17:26:29,0.0,5,7.317,0.0,0.0,0.0,39.0,12.0,-5.2,1024,1024,1024,1024,0,0,0,0,65,5.752,64.22,165.68242,P-GPS,,50.5
509300,2026-01-11 17:26:29,0.0,5,7.317,0.0,0.0,0.0,39.0,12.2,-5.5,1024,1024,1024,1024,0,0,0,0,65,5.752,64.22,165.68242,P-GPS,,50.5
509400,2026-01-11 17:26:29,0.0,5,7.317,0.0,0.0,0.0,39.0,12.1,-5.3,1024,1024,1024,1024,0,0,0,0,65,5.752,64.22,165.68242,P-GPS,,50.5
509500,2026-01-11 17:26:29,0.0,5,7.317,0.0,0.0,0.0,38.9,12.2,-5.2,1024,1024,1024,1024,0,0,0,0,65,5.752,64.22,166.010504,P-GPS,,50.6
509600,2026-01-11 17:26:29,0.0,5,7.317,0.0,0.0,0.0,38.9,12.0,-5.1,1024,1024,1024,1024,0,0,0,0,65,5.752,64.22,165.68242,P-GPS,,50.5
509700,2026-01-11 17:26:29,0.0,5,7.316,0.0,0.0,0.0,38.8,12.4,-4.5,1024,1024,1024,1024,0,0,0,0,65,5.682,64.22,166.010504,P-GPS,,50.6
509800,2026-01-11 17:26:30,0.0,5,7.316,0.0,0.0,0.0,38.9,12.7,-4.9,1024,1024,1024,1024,0,0,0,0,65,5.682,64.22,166.010504,P-GPS,,50.6
509900,2026-01-11 17:26:30,0.0,5,7.316,0.0,0.0,0.0,38.9,12.6,-5.9,1024,1024,1024,1024,0,0,0,0,65,5.682,64.22,166.010504,P-GPS,,50.6
510000,2026-01-11 17:26:30,0.0,5,7.316,0.0,0.0,0.0,38.7,13.8,-6.3,1024,1024,1024,1024,0,0,0,0,65,5.682,64.22,166.010504,P-GPS,,50.6
510100,2026-01-11 17:26:30,0.0,5,7.316,0.0,0.0,0.0,38.7,13.4,-6.7,1024,1024,1024,1024,0,0,0,0,65,5.682,64.22,166.010504,P-GPS,,50.6
510200,2026-01-11 17:26:30,0.0,5,7.316,0.0,0.0,0.0,38.8,13.1,-6.4,1024,1024,1024,1024,0,0,0,0,65,5.682,64.22,166.010504,P-GPS,,50.6
510300,2026-01-11 17:26:30,0.0,5,7.316,0.0,0.0,0.0,38.8,13.0,-6.4,1024,1024,1024,1024,0,0,0,0,65,5.682,64.22,166.010504,P-GPS,,50.6
510400,2026-01-11 17:26:30,0.0,5,7.316,0.0,0.0,0.0,39.0,12.4,-6.0,1024,1024,1024,1024,0,0,0,0,65,5.682,64.22,166.010504,P-GPS,,50.6
510500,2026-01-11 17:26:30,0.0,5,7.316,0.0,0.0,0.0,38.9,12.3,-6.0,1024,1024,1024,1024,0,0,0,0,65,5.682,64.22,166.010504,P-GPS,,50.6
510600,2026-01-11 17:26:30,0.0,5,7.316,0.0,0.0,0.0,38.8,11.9,-6.1,1024,1024,1024,1024,0,0,0,0,65,5.682,64.22,166.010504,P-GPS,,50.6
510700,2026-01-11 17:26:30,0.0,5,7.316,0.0,0.0,0.0,38.7,12.7,-6.0,1024,1024,1024,1024,0,0,0,0,65,5.682,64.22,165.68242,P-GPS,,50.5
510800,2026-01-11 17:26:31,0.0,5,7.316,0.0,0.0,0.0,38.8,13.0,-5.4,1024,1024,1024,1024,0,0,0,0,65,5.682,64.22,165.68242,P-GPS,,50.5
510900,2026-01-11 17:26:31,0.0,5,7.316,0.0,0.0,0.0,38.9,13.3,-5.2,1024,1024,1024,1024,0,0,0,0,65,5.682,64.22,165.68242,P-GPS,,50.5
511000,2026-01-11 17:26:31,0.0,5,7.316,0.0,0.0,0.0,38.9,13.1,-4.6,1024,1024,1024,1024,0,0,0,0,65,5.682,64.22,165.68242,P-GPS,,50.5
511100,2026-01-11 17:26:31,0.0,5,7.316,0.0,0.0,0.0,39.0,12.9,-4.5,1024,1024,1024,1024,0,0,0,0,65,5.682,64.22,165.68242,P-GPS,,50.5
511200,2026-01-11 17:26:31,0.0,5,7.316,0.0,0.0,0.0,39.0,12.8,-4.8,1024,1024,1024,1024,0,0,0,0,65,5.682,64.22,165.68242,P-GPS,,50.5
511300,2026-01-11 17:26:31,0.0,5,7.316,0.0,0.0,0.0,39.0,12.6,-5.5,1024,1024,1024,1024,0,0,0,0,65,5.682,64.22,165.68242,P-GPS,,50.5
511400,2026-01-11 17:26:31,0.0,5,7.316,0.0,0.0,0.0,38.9,12.4,-5.6,1024,1024,1024,1024,0,0,0,0,65,5.682,64.22,165.68242,P-GPS,,50.5
511500,2026-01-11 17:26:31,0.0,5,7.316,0.0,0.0,0.0,38.9,11.8,-6.0,1024,1024,1024,1024,0,0,0,0,65,5.682,64.22,165.68242,P-GPS,,50.5
511600,2026-01-11 17:26:31,0.0,5,7.316,0.0,0.0,0.0,38.9,11.6,-6.7,1024,1024,1024,1024,0,0,0,0,65,5.682,64.22,165.68242,P-GPS,,50.5
511700,2026-01-11 17:26:31,0.0,5,7.316,0.0,0.0,0.0,38.8,11.5,-7.2,1024,1024,1024,1024,0,0,0,0,65,5.682,64.22,165.68242,P-GPS,,50.5
511800,2026-01-11 17:26:32,0.0,5,7.316,0.0,0.0,0.0,38.8,11.6,-7.4,1024,1024,1024,1024,0,0,0,0,65,5.682,64.22,165.354336,P-GPS,,50.4
511900,2026-01-11 17:26:32,0.0,5,7.326,0.0,0.0,0.0,38.7,11.2,-7.4,1024,1024,1024,1024,0,0,0,0,65,5.677,64.4,165.354336,P-GPS,,50.4
512000,2026-01-11 17:26:32,0.0,5,7.326,0.0,0.0,0.0,38.9,11.2,-7.5,1024,1024,1024,1024,0,0,0,0,65,5.677,64.4,165.354336,P-GPS,,50.4
512100,2026-01-11 17:26:32,0.0,5,7.326,0.0,0.0,0.0,38.9,11.0,-7.4,1024,1024,1024,1024,0,0,0,0,65,5.677,64.4,165.354336,P-GPS,,50.4
512200,2026-01-11 17:26:32,0.0,5,7.326,0.0,0.0,0.0,38.8,11.4,-7.3,1024,1024,1024,1024,0,0,0,0,65,5.677,64.4,165.026252,P-GPS,,50.3
512300,2026-01-11 17:26:32,0.0,5,7.326,0.0,0.0,0.0,38.8,11.2,-7.2,1024,1024,1024,1024,0,0,0,0,65,5.677,64.4,165.026252,P-GPS,,50.3
512400,2026-01-11 17:26:32,0.0,5,7.326,0.0,0.0,0.0,38.8,11.4,-6.6,1024,1024,1024,1024,0,0,0,0,65,5.677,64.4,165.026252,P-GPS,,50.3
512500,2026-01-11 17:26:32,0.0,5,7.326,0.0,0.0,0.0,38.8,11.8,-5.6,1024,1024,1024,1024,0,0,0,0,65,5.677,64.4,164.698168,P-GPS,,50.2
512600,2026-01-11 17:26:32,0.0,5,7.326,0.0,0.0,0.0,39.0,10.9,-5.6,1024,1024,1024,1024,0,0,0,0,65,5.677,64.4,164.698168,P-GPS,,50.2
512700,2026-01-11 17:26:32,0.0,5,7.326,0.0,0.0,0.0,39.0,11.3,-5.8,1024,1024,1024,1024,0,0,0,0,65,5.677,64.4,164.698168,P-GPS,,50.2
512800,2026-01-11 17:26:33,0.0,5,7.326,0.0,0.0,0.0,38.9,11.6,-6.1,1024,1024,1024,1024,0,0,0,0,65,5.677,64.4,164.370084,P-GPS,,50.1
512900,2026-01-11 17:26:33,0.0,5,7.326,0.0,0.0,0.0,38.8,11.6,-6.4,1024,1024,1024,1024,0,0,0,0,65,5.677,64.4,164.370084,P-GPS,,50.1
513000,2026-01-11 17:26:33,0.0,5,7.364,0.0,0.0,0.0,38.8,11.3,-6.1,1024,1024,1024,1024,0,0,0,0,64,5.08,64.4,164.370084,P-GPS,,50.1
513100,2026-01-11 17:26:33,0.0,5,7.364,0.0,0.0,0.0,38.8,11.8,-6.0,1024,1024,1024,1024,0,0,0,0,64,5.08,64.4,164.370084,P-GPS,,50.1
513200,2026-01-11 17:26:33,0.0,5,7.364,0.0,0.0,0.0,38.8,12.0,-6.1,1024,1024,1024,1024,0,0,0,0,64,5.08,64.4,164.370084,P-GPS,,50.1
513300,2026-01-11 17:26:33,0.0,5,7.364,0.0,0.0,0.0,39.1,11.5,-5.5,1024,1024,1024,1024,0,0,0,0,64,5.08,64.4,164.370084,P-GPS,,50.1
513400,2026-01-11 17:26:33,0.0,5,7.364,0.0,0.0,0.0,39.0,11.6,-5.4,1024,1024,995,1024,0,0,-4,0,64,5.08,64.4,164.370084,P-GPS,,50.1
513500,2026-01-11 17:26:33,0.0,5,7.364,0.0,0.0,0.0,38.9,11.6,-5.0,1024,1024,364,1024,0,0,-100,0,64,5.08,64.4,164.370084,P-GPS,,50.1
513600,2026-01-11 17:26:33,0.0,5,7.364,0.0,0.0,-0.223694,38.9,11.5,-5.5,1024,1024,364,1024,0,0,-100,0,64,5.08,64.4,164.370084,P-GPS,,50.1
513700,2026-01-11 17:26:33,0.0,5,7.364,0.0,0.0,-0.223694,38.8,11.9,-5.9,1024,1024,364,1024,0,0,-100,0,64,5.08,64.4,164.370084,P-GPS,,50.1
513800,2026-01-11 17:26:33,0.0,5,7.364,0.0,0.0,0.0,38.6,12.3,-6.5,1024,1024,364,1024,0,0,-100,0,64,5.08,64.4,164.370084,P-GPS,,50.1
513900,2026-01-11 17:26:34,0.0,5,7.364,0.0,0.0,0.671082,38.5,12.8,-6.8,1024,1024,364,1024,0,0,-100,0,64,5.08,64.4,164.042,P-GPS,,50.0
514000,2026-01-11 17:26:34,0.0,5,7.364,0.0,0.0,1.342164,38.5,12.7,-6.6,1024,1024,364,1024,0,0,-100,0,64,5.08,64.4,163.713916,P-GPS,,49.9
514100,2026-01-11 17:26:34,0.0,5,7.342,0.0,0.0,2.013246,38.6,12.7,-6.6,1024,1024,364,1024,0,0,-100,0,64,5.256,64.4,163.385832,P-GPS,,49.8
514200,2026-01-11 17:26:34,0.0,5,7.342,0.0,0.0,2.684328,38.7,12.2,-6.3,1024,1024,364,1024,0,0,-100,0,64,5.256,64.4,162.729664,P-GPS,,49.6
514300,2026-01-11 17:26:34,0.0,5,7.342,0.0,0.0,3.131716,38.9,11.5,-6.2,1024,1024,364,1024,0,0,-100,0,64,5.256,64.4,162.073496,P-GPS,,49.4
514400,2026-01-11 17:26:34,0.0,5,7.342,0.0,0.0,3.579104,38.9,11.3,-5.9,1024,1024,364,1024,0,0,-100,0,64,5.256,64.4,161.417328,P-GPS,,49.2
514500,2026-01-11 17:26:34,0.0,5,7.342,0.0,0.0,3.802798,38.9,11.4,-5.5,1024,1024,364,1024,0,0,-100,0,64,5.256,64.4,160.76116,P-GPS,,49.0
514600,2026-01-11 17:26:34,0.0,5,7.342,0.0,0.0,4.026492,39.2,10.4,-5.4,1024,1024,364,1024,0,0,-100,0,64,5.256,64.4,160.104992,P-GPS,,48.8
514700,2026-01-11 17:26:34,0.0,5,7.342,0.0,0.0,4.026492,39.1,10.3,-4.7,1024,1024,364,1024,0,0,-100,0,64,5.256,64.4,159.448824,P-GPS,,48.6
514800,2026-01-11 17:26:35,0.0,5,7.342,0.0,0.0,4.026492,39.2,9.3,-5.2,1024,1024,364,1024,0,0,-100,0,64,5.256,64.4,158.792656,P-GPS,,48.4
514900,2026-01-11 17:26:35,0.0,5,7.342,0.0,0.0,3.802798,39.2,9.4,-5.4,1024,1024,364,1024,0,0,-100,0,64,5.256,64.4,157.808404,P-GPS,,48.1
