time(millisecond),timestamp,speed(mph),gpslevel,voltage(v),xSpeed(mph),ySpeed(mph),zSpeed(mph),compass_heading(degrees),pitch(degrees),roll(degrees),rc_elevator,rc_aileron,rc_throttle,rc_rudder,rc_elevator(percent),rc_aileron(percent),rc_throttle(percent),rc_rudder(percent),battery_percent,current(A),battery_temperature(f),ascent(feet),flycState,message,height_above_takeoff(meters)
194100,2026-01-11 15:33:13,0.0,5,7.634,0.0,0.0,-4.250186,23.5,7.4,-5.4,1024,1024,1684,1024,0,0,100,0,85,5.272,62.96,92.191604,P-GPS,,28.1
194200,2026-01-11 15:33:13,0.0,5,7.634,0.0,0.0,-4.250186,23.6,7.3,-5.5,1024,1024,1684,1024,0,0,100,0,85,5.272,62.96,92.847772,P-GPS,,28.3
194300,2026-01-11 15:33:13,0.0,5,7.634,0.0,0.0,-4.250186,23.7,7.0,-5.1,1024,1024,1684,1024,0,0,100,0,85,5.272,62.96,93.50394,P-GPS,,28.5
194400,2026-01-11 15:33:13,0.0,5,7.61,0.0,0.0,-4.47388,23.7,7.8,-4.6,1024,1024,1684,1024,0,0,100,0,85,5.313,62.96,94.160108,P-GPS,,28.7
194500,2026-01-11 15:33:13,0.0,5,7.61,0.0,0.0,-4.47388,23.6,8.3,-4.3,1024,1024,1024,1024,0,0,0,0,85,5.313,62.96,94.816276,P-GPS,,28.9
194600,2026-01-11 15:33:14,0.0,5,7.61,0.0,0.0,-4.47388,23.6,8.7,-4.7,1024,1024,1024,1024,0,0,0,0,85,5.313,62.96,95.472444,P-GPS,,29.1
194700,2026-01-11 15:33:14,0.0,5,7.61,0.0,0.0,-4.47388,23.5,8.8,-5.6,1024,1024,1024,1024,0,0,0,0,85,5.313,62.96,96.128612,P-GPS,,29.3
194800,2026-01-11 15:33:14,0.223694,5,7.61,0.0,0.223694,-3.802798,23.4,9.6,-6.0,1024,1024,1024,1024,0,0,0,0,85,5.313,62.96,97.112864,P-GPS,,29.6
194900,2026-01-11 15:33:14,0.223694,5,7.61,0.0,0.223694,-3.131716,23.3,10.2,-6.4,1024,1024,1024,1024,0,0,0,0,85,5.313,62.96,97.440948,P-GPS,,29.7
195000,2026-01-11 15:33:14,0.223694,5,7.61,0.0,0.223694,-2.460634,23.1,10.7,-6.7,1024,1024,1024,1024,0,0,0,0,85,5.313,62.96,97.769032,P-GPS,,29.8
195100,2026-01-11 15:33:14,0.223694,5,7.61,0.0,0.223694,-1.565858,23.2,10.2,-6.8,1024,1024,1024,1024,0,0,0,0,85,5.313,62.96,98.097116,P-GPS,,29.9
195200,2026-01-11 15:33:14,0.223694,5,7.61,0.0,0.223694,-0.894776,23.1,10.2,-6.6,1024,1024,1024,1024,0,0,0,0,85,5.313,62.96,98.4252,P-GPS,,30.0
195300,2026-01-11 15:33:14,0.223694,5,7.61,0.0,0.223694,-0.447388,23.2,9.9,-6.4,1024,1024,1024,1024,0,0,0,0,85,5.313,62.96,98.4252,P-GPS,,30.0
195400,2026-01-11 15:33:14,0.0,5,7.61,0.0,0.0,0.0,23.3,9.7,-6.2,1024,1024,1024,1024,0,0,0,0,85,5.313,62.96,98.753284,P-GPS,,30.1
195500,2026-01-11 15:33:14,0.0,5,7.717,0.0,0.0,0.0,23.3,9.7,-5.8,1024,1024,1024,1024,0,0,0,0,85,3.866,62.96,98.753284,P-GPS,,30.1
195600,2026-01-11 15:33:15,0.0,5,7.717,0.0,0.0,0.0,23.3,9.4,-6.0,1024,1024,1024,1024,0,0,0,0,85,3.866,62.96,98.753284,P-GPS,,30.1
195700,2026-01-11 15:33:15,0.0,5,7.717,0.0,0.0,0.0,23.3,9.0,-5.4,1024,1024,1024,1024,0,0,0,0,85,3.866,62.96,98.753284,P-GPS,,30.1
195800,2026-01-11 15:33:15,0.0,5,7.717,0.0,0.0,0.0,23.3,8.1,-5.5,1024,1024,1024,1024,0,0,0,0,85,3.866,62.96,99.081368,P-GPS,,30.2
195900,2026-01-11 15:33:15,0.223694,5,7.717,-0.223694,0.0,0.0,23.4,7.1,-5.6,1024,1024,1024,1024,0,0,0,0,85,3.866,62.96,99.081368,P-GPS,,30.2
196000,2026-01-11 15:33:15,0.223694,5,7.717,-0.223694,0.0,0.0,23.4,6.4,-5.8,1024,1024,1024,1024,0,0,0,0,85,3.866,62.96,99.081368,P-GPS,,30.2
196100,2026-01-11 15:33:15,0.223694,5,7.717,-0.223694,0.0,0.0,23.3,6.1,-5.9,1024,1024,1024,1024,0,0,0,0,85,3.866,62.96,99.409452,P-GPS,,30.3
196200,2026-01-11 15:33:15,0.223694,5,7.717,-0.223694,0.0,0.0,23.2,6.2,-5.7,1024,1024,1024,1024,0,0,0,0,85,3.866,62.96,99.409452,P-GPS,,30.3
196300,2026-01-11 15:33:15,0.223694,5,7.717,-0.223694,0.0,0.0,23.3,5.2,-5.0,1024,1024,1024,1024,0,0,0,0,85,3.866,62.96,99.409452,P-GPS,,30.3
196400,2026-01-11 15:33:15,0.223694,5,7.717,-0.223694,0.0,0.0,23.3,4.8,-5.5,1024,1024,1024,1024,0,0,0,0,85,3.866,62.96,99.409452,P-GPS,,30.3
196500,2026-01-11 15:33:15,0.223694,5,7.717,-0.223694,0.0,0.0,23.3,4.9,-5.4,1024,1024,1024,1024,0,0,0,0,85,3.866,62.96,99.409452,P-GPS,,30.3
196600,2026-01-11 15:33:16,0.223694,5,7.693,-0.223694,0.0,0.0,23.4,4.5,-5.3,1024,1024,1024,1024,0,0,0,0,85,4.346,62.96,99.409452,P-GPS,,30.3
196700,2026-01-11 15:33:16,0.447388,5,7.693,-0.447388,0.0,0.0,23.5,3.5,-5.4,1024,1024,1024,1024,0,0,0,0,85,4.346,62.96,99.409452,P-GPS,,30.3
196800,2026-01-11 15:33:16,0.447388,5,7.693,-0.447388,0.0,0.0,23.4,3.3,-6.4,1024,1024,1024,1024,0,0,0,0,85,4.346,62.96,99.409452,P-GPS,,30.3
196900,2026-01-11 15:33:16,0.447388,5,7.693,-0.447388,0.0,0.0,23.5,3.5,-6.9,1024,1024,1024,1024,0,0,0,0,85,4.346,62.96,99.409452,P-GPS,,30.3
197000,2026-01-11 15:33:16,0.447388,5,7.693,-0.447388,0.0,0.223694,23.6,2.8,-7.3,1024,1024,1024,1024,0,0,0,0,85,4.346,62.96,99.409452,P-GPS,,30.3
197100,2026-01-11 15:33:16,0.223694,5,7.693,-0.223694,0.0,0.0,23.6,2.3,-7.4,1024,1024,1024,1024,0,0,0,0,85,4.346,62.96,99.409452,P-GPS,,30.3
197200,2026-01-11 15:33:16,0.223694,5,7.693,-0.223694,0.0,0.0,23.7,1.7,-7.5,1024,1024,1024,1024,0,0,0,0,85,4.346,62.96,99.409452,P-GPS,,30.3
197300,2026-01-11 15:33:16,0.0,5,7.693,0.0,0.0,0.0,23.6,2.1,-7.1,1024,1024,1024,1024,0,0,0,0,85,4.346,62.96,99.737536,P-GPS,,30.4
197400,2026-01-11 15:33:16,0.0,5,7.693,0.0,0.0,0.0,23.6,2.5,-6.6,1024,1024,1024,1024,0,0,0,0,85,4.346,62.96,99.737536,P-GPS,,30.4
197500,2026-01-11 15:33:16,0.0,5,7.693,0.0,0.0,0.0,23.6,2.7,-6.5,1024,1024,1024,1024,0,0,0,0,85,4.346,62.96,99.737536,P-GPS,,30.4
197600,2026-01-11 15:33:17,0.0,5,7.693,0.0,0.0,0.0,23.6,2.7,-6.4,1024,1024,1024,1024,0,0,0,0,85,4.346,62.96,99.737536,P-GPS,,30.4
197700,2026-01-11 15:33:17,0.0,5,7.703,0.0,0.0,0.0,23.5,3.6,-5.8,1024,1024,1024,1024,0,0,0,0,85,4.041,62.96,99.409452,P-GPS,,30.3
197800,2026-01-11 15:33:17,0.223694,5,7.703,0.223694,0.0,0.0,23.4,5.0,-4.8,1024,1024,1024,1024,0,0,0,0,85,4.041,62.96,99.737536,P-GPS,,30.4
197900,2026-01-11 15:33:17,0.0,5,7.703,0.0,0.0,0.0,23.5,5.3,-3.9,1024,1024,1024,1024,0,0,0,0,85,4.041,62.96,99.737536,P-GPS,,30.4
198000,2026-01-11 15:33:17,0.0,5,7.703,0.0,0.0,0.0,23.5,4.6,-4.1,1024,1024,1024,1024,0,0,0,0,85,4.041,62.96,99.737536,P-GPS,,30.4
198100,2026-01-11 15:33:17,0.0,5,7.703,0.0,0.0,0.0,23.4,4.3,-4.3,1024,1024,1024,1024,0,0,0,0,85,4.041,62.96,99.737536,P-GPS,,30.4
198200,2026-01-11 15:33:17,0.0,5,7.703,0.0,0.0,0.0,23.3,4.5,-4.4,1024,1024,1024,1024,0,0,0,0,85,4.041,62.96,99.409452,P-GPS,,30.3
198300,2026-01-11 15:33:17,0.0,5,7.703,0.0,0.0,0.0,23.2,4.7,-4.0,1024,1024,1024,1024,0,0,0,0,85,4.041,62.96,99.409452,P-GPS,,30.3
198400,2026-01-11 15:33:17,0.0,5,7.703,0.0,0.0,0.0,23.3,4.7,-3.8,1024,1024,1024,1024,0,0,0,0,85,4.041,62.96,99.409452,P-GPS,,30.3
198500,2026-01-11 15:33:17,0.0,5,7.703,0.0,0.0,0.0,23.3,4.9,-4.4,1024,1024,1024,1024,0,0,0,0,85,4.041,62.96,99.081368,P-GPS,,30.2
198600,2026-01-11 15:33:18,0.0,5,7.703,0.0,0.0,0.0,23.4,5.2,-4.8,1024,1024,1024,1024,0,0,0,0,85,4.041,62.96,99.081368,P-GPS,,30.2
198700,2026-01-11 15:33:18,0.0,5,7.703,0.0,0.0,0.223694,23.4,5.4,-4.5,1024,1024,1024,1024,0,0,0,0,85,4.041,62.96,99.081368,P-GPS,,30.2
198800,2026-01-11 15:33:18,0.0,5,7.703,0.0,0.0,0.223694,23.3,5.1,-4.0,1024,1024,1024,1024,0,0,0,0,85,4.041,62.96,99.081368,P-GPS,,30.2
198900,2026-01-11 15:33:18,0.0,5,7.703,0.0,0.0,0.0,23.3,4.6,-4.0,1024,1024,1024,1024,0,0,0,0,85,4.041,62.96,99.081368,P-GPS,,30.2
199000,2026-01-11 15:33:18,0.0,5,7.703,0.0,0.0,0.0,23.3,4.8,-4.0,1024,1024,1024,1024,0,0,0,0,85,4.041,62.96,99.081368,P-GPS,,30.2
199100,2026-01-11 15:33:18,0.0,5,7.703,0.0,0.0,0.0,23.4,5.2,-3.8,1024,1024,1024,1024,0,0,0,0,85,4.041,62.96,99.081368,P-GPS,,30.2
199200,2026-01-11 15:33:18,0.0,5,7.703,0.0,0.0,0.0,23.4,5.1,-3.7,1024,1024,1024,1024,0,0,0,0,85,4.041,62.96,99.409452,P-GPS,,30.3
199300,2026-01-11 15:33:18,0.0,5,7.703,0.0,0.0,0.0,23.6,4.9,-2.9,1024,1024,1024,1024,0,0,0,0,85,4.041,62.96,99.409452,P-GPS,,30.3
199400,2026-01-11 15:33:18,0.0,5,7.703,0.0,0.0,0.0,23.5,4.2,-3.8,1024,1024,1024,1024,0,0,0,0,85,4.041,62.96,99.409452,P-GPS,,30.3
199500,2026-01-11 15:33:18,0.0,5,7.703,0.0,0.0,0.0,23.6,4.6,-4.1,1024,1024,1024,1024,0,0,0,0,85,4.041,62.96,99.409452,P-GPS,,30.3
199600,2026-01-11 15:33:19,0.0,5,7.703,0.0,0.0,0.0,23.5,5.0,-4.8,1024,1024,1024,1024,0,0,0,0,85,4.041,62.96,99.409452,P-GPS,,30.3
199700,2026-01-11 15:33:19,0.0,5,7.703,0.0,0.0,0.0,23.6,5.6,-5.1,1024,1024,1024,1024,0,0,0,0,85,4.041,62.96,99.737536,P-GPS,,30.4
199800,2026-01-11 15:33:19,0.0,5,7.703,0.0,0.0,0.0,23.7,5.6,-5.2,1024,1024,1024,1024,0,0,0,0,85,4.041,62.96,99.737536,P-GPS,,30.4
199900,2026-01-11 15:33:19,0.0,5,7.735,0.0,0.0,0.223694,23.7,5.7,-5.6,1024,1024,1024,1024,0,0,0,0,85,3.759,63.14,99.737536,P-GPS,,30.4
200000,2026-01-11 15:33:19,0.0,5,7.735,0.0,0.0,0.223694,23.6,5.9,-5.9,1024,1024,1024,1024,0,0,0,0,85,3.759,63.14,100.06562,P-GPS,,30.5
200100,2026-01-11 15:33:19,0.0,5,7.735,0.0,0.0,0.223694,23.7,6.2,-5.5,1024,1024,1024,1024,0,0,0,0,85,3.759,63.14,100.06562,P-GPS,,30.5
200200,2026-01-11 15:33:19,0.0,5,7.735,0.0,0.0,0.0,23.8,5.7,-5.7,1024,1024,1024,1024,0,0,0,0,85,3.759,63.14,100.06562,P-GPS,,30.5
200300,2026-01-11 15:33:19,0.0,5,7.735,0.0,0.0,0.0,23.7,6.0,-5.6,1024,1024,1024,1024,0,0,0,0,85,3.759,63.14,100.393704,P-GPS,,30.6
200400,2026-01-11 15:33:19,0.0,5,7.735,0.0,0.0,0.0,23.8,6.4,-5.5,1024,1024,1024,1024,0,0,0,0,85,3.759,63.14,100.393704,P-GPS,,30.6
200500,2026-01-11 15:33:20,0.0,5,7.735,0.0,0.0,0.223694,23.7,6.3,-5.4,1024,1024,1024,1024,0,0,0,0,85,3.759,63.14,100.393704,P-GPS,,30.6
200600,2026-01-11 15:33:20,0.0,5,7.735,0.0,0.0,0.223694,23.8,6.0,-5.5,1024,1024,1024,1024,0,0,0,0,85,3.759,63.14,100.393704,P-GPS,,30.6
200700,2026-01-11 15:33:20,0.0,5,7.735,0.0,0.0,0.223694,23.9,5.8,-6.0,1024,1024,1024,1024,0,0,0,0,85,3.759,63.14,100.393704,P-GPS,,30.6
200800,2026-01-11 15:33:20,0.0,5,7.735,0.0,0.0,0.223694,23.7,6.8,-5.4,1024,1024,1024,1024,0,0,0,0,85,3.759,63.14,100.393704,P-GPS,,30.6
200900,2026-01-11 15:33:20,0.0,5,7.735,0.0,0.0,0.223694,23.7,6.9,-5.7,1024,1024,1024,1024,0,0,0,0,85,3.759,63.14,100.721788,P-GPS,,30.7
201000,2026-01-11 15:33:20,0.0,5,7.648,0.0,0.0,0.223694,23.8,5.9,-6.7,1024,1024,1024,1024,0,0,0,0,84,4.755,63.14,100.721788,P-GPS,,30.7
201100,2026-01-11 15:33:20,0.0,5,7.648,0.0,0.0,0.223694,23.8,5.4,-6.9,1024,1024,1024,1024,0,0,0,0,84,4.755,63.14,100.721788,P-GPS,,30.7
201200,2026-01-11 15:33:20,0.0,5,7.648,0.0,0.0,0.0,23.8,4.6,-6.5,1024,1024,1024,1024,0,0,0,0,84,4.755,63.14,100.721788,P-GPS,,30.7
201300,2026-01-11 15:33:20,0.0,5,7.648,0.0,0.0,0.0,23.9,4.1,-6.6,1024,1024,1024,1024,0,0,0,0,84,4.755,63.14,100.393704,P-GPS,,30.6
201400,2026-01-11 15:33:20,0.0,5,7.648,0.0,0.0,0.0,23.7,4.7,-6.5,1024,1024,1024,1024,0,0,0,0,84,4.755,63.14,100.393704,P-GPS,,30.6
201500,2026-01-11 15:33:20,0.0,5,7.648,0.0,0.0,0.0,23.7,5.2,-6.3,1024,1024,1024,1024,0,0,0,0,84,4.755,63.14,100.393704,P-GPS,,30.6
201600,2026-01-11 15:33:21,0.0,5,7.648,0.0,0.0,0.0,23.7,5.6,-6.2,1024,1024,1024,1024,0,0,0,0,84,4.755,63.14,100.393704,P-GPS,,30.6
201700,2026-01-11 15:33:21,0.0,5,7.648,0.0,0.0,0.0,23.7,6.7,-5.6,1024,1024,1024,1024,0,0,0,0,84,4.755,63.14,100.393704,P-GPS,,30.6
201800,2026-01-11 15:33:21,0.0,5,7.648,0.0,0.0,0.223694,23.6,7.0,-5.1,1024,1024,1024,1024,0,0,0,0,84,4.755,63.14,100.393704,P-GPS,,30.6
201900,2026-01-11 15:33:21,0.0,5,7.648,0.0,0.0,0.223694,23.6,6.5,-4.9,1024,1024,1024,1024,0,0,0,0,84,4.755,63.14,100.393704,P-GPS,,30.6
202000,2026-01-11 15:33:21,0.0,5,7.648,0.0,0.0,0.223694,23.7,5.4,-5.0,1024,1024,1024,1024,0,0,0,0,84,4.755,63.14,100.393704,P-GPS,,30.6
202100,2026-01-11 15:33:21,0.0,5,7.664,0.0,0.0,0.0,23.8,4.2,-5.4,1024,1024,1024,1024,0,0,0,0,84,4.806,63.14,100.393704,P-GPS,,30.6
202200,2026-01-11 15:33:21,0.0,5,7.664,0.0,0.0,0.0,23.8,2.8,-5.1,1024,1024,1024,1024,0,0,0,0,84,4.806,63.14,100.393704,P-GPS,,30.6
202300,2026-01-11 15:33:21,0.0,5,7.664,0.0,0.0,0.0,23.8,3.3,-6.1,1024,1024,1024,1024,0,0,0,0,84,4.806,63.14,100.393704,P-GPS,,30.6
202400,2026-01-11 15:33:21,0.0,5,7.664,0.0,0.0,0.0,23.7,4.2,-6.7,1024,1024,1024,1024,0,0,0,0,84,4.806,63.14,100.393704,P-GPS,,30.6
202500,2026-01-11 15:33:22,0.0,5,7.664,0.0,0.0,0.0,23.6,4.1,-6.8,1024,1024,1024,1024,0,0,0,0,84,4.806,63.14,100.393704,P-GPS,,30.6
202600,2026-01-11 15:33:22,0.0,5,7.664,0.0,0.0,0.0,23.6,3.8,-6.4,1024,1024,1024,1024,0,0,0,0,84,4.806,63.14,100.393704,P-GPS,,30.6
202700,2026-01-11 15:33:22,0.0,5,7.664,0.0,0.0,0.0,23.6,3.5,-7.0,1024,1024,1024,1024,0,0,0,0,84,4.806,63.14,100.393704,P-GPS,,30.6
202800,2026-01-11 15:33:22,0.0,5,7.664,0.0,0.0,0.223694,23.7,3.6,-7.2,1024,1024,1024,1024,0,0,0,0,84,4.806,63.14,100.06562,P-GPS,,30.5
202900,2026-01-11 15:33:22,0.0,5,7.664,0.0,0.0,0.223694,23.9,2.8,-7.0,1024,1024,1024,1024,0,0,0,0,84,4.806,63.14,100.06562,P-GPS,,30.5
203000,2026-01-11 15:33:22,0.0,5,7.664,0.0,0.0,0.0,23.7,3.4,-7.1,1024,1024,1024,1024,0,0,0,0,84,4.806,63.14,100.06562,P-GPS,,30.5
203100,2026-01-11 15:33:22,0.0,5,7.664,0.0,0.0,0.0,23.7,3.8,-6.4,1024,1024,1024,1024,0,0,0,0,84,4.806,63.14,100.06562,P-GPS,,30.5
203200,2026-01-11 15:33:22,0.0,5,7.679,0.0,0.0,0.0,23.6,5.0,-7.0,1024,1024,1024,1024,0,0,0,0,84,4.115,63.14,100.06562,P-GPS,,30.5
203300,2026-01-11 15:33:22,0.0,5,7.679,0.0,0.0,0.0,23.5,5.6,-6.4,1024,1024,1024,1024,0,0,0,0,84,4.115,63.14,100.06562,P-GPS,,30.5
203400,2026-01-11 15:33:22,0.0,5,7.679,0.0,0.0,0.0,23.6,6.0,-6.0,1024,1024,1024,1024,0,0,0,0,84,4.115,63.14,100.06562,P-GPS,,30.5
203500,2026-01-11 15:33:22,0.223694,5,7.679,0.223694,0.0,0.0,23.6,6.2,-5.7,1024,1024,1024,1024,0,0,0,0,84,4.115,63.14,100.06562,P-GPS,,30.5
203600,2026-01-11 15:33:23,0.223694,5,7.679,0.223694,0.0,0.223694,23.6,6.3,-5.3,1024,1024,1024,1024,0,0,0,0,84,4.115,63.14,100.06562,P-GPS,,30.5
203700,2026-01-11 15:33:23,0.0,5,7.679,0.0,0.0,0.0,23.6,6.6,-5.4,1024,1024,1024,1024,0,0,0,0,84,4.115,63.14,100.06562,P-GPS,,30.5
203800,2026-01-11 15:33:23,0.223694,5,7.679,0.223694,0.0,0.0,23.6,6.8,-5.3,1024,1024,1024,1024,0,0,0,0,84,4.115,63.14,99.737536,P-GPS,,30.4
203900,2026-01-11 15:33:23,0.0,5,7.679,0.0,0.0,0.0,23.6,7.3,-5.1,1024,1024,1024,1024,0,0,0,0,84,4.115,63.14,99.737536,P-GPS,,30.4
204000,2026-01-11 15:33:23,0.0,5,7.679,0.0,0.0,0.0,23.5,7.1,-5.1,1024,1024,1024,1024,0,0,0,0,84,4.115,63.14,99.737536,P-GPS,,30.4
204100,2026-01-11 15:33:23,0.0,5,7.679,0.0,0.0,0.0,23.5,7.0,-5.1,1024,1024,1024,1024,0,0,0,0,84,4.115,63.14,99.737536,P-GPS,,30.4
204200,2026-01-11 15:33:23,0.0,5,7.679,0.0,0.0,0.0,23.5,7.1,-5.1,1024,1024,1024,1024,0,0,0,0,84,4.115,63.14,99.737536,P-GPS,,30.4
204300,2026-01-11 15:33:23,0.0,5,7.664,0.0,0.0,0.0,23.6,6.6,-5.3,1024,1024,1024,1024,0,0,0,0,84,4.487,63.14,99.737536,P-GPS,,30.4
204400,2026-01-11 15:33:23,0.0,5,7.664,0.0,0.0,0.0,23.6,6.9,-5.4,1024,1024,1024,1024,0,0,0,0,84,4.487,63.14,99.737536,P-GPS,,30.4
204500,2026-01-11 15:33:23,0.0,5,7.664,0.0,0.0,0.0,23.6,6.4,-5.5,1024,1024,1024,1024,0,0,0,0,84,4.487,63.14,99.737536,P-GPS,,30.4
204600,2026-01-11 15:33:24,0.0,5,7.664,0.0,0.0,0.0,23.5,6.9,-5.9,1024,1024,1024,1024,0,0,0,0,84,4.487,63.14,99.737536,P-GPS,,30.4
204700,2026-01-11 15:33:24,0.0,5,7.664,0.0,0.0,0.0,23.5,7.0,-5.8,1024,1024,1024,1024,0,0,0,0,84,4.487,63.14,99.737536,P-GPS,,30.4
204800,2026-01-11 15:33:24,0.0,5,7.664,0.0,0.0,0.0,23.5,6.8,-5.9,1024,1024,1024,1024,0,0,0,0,84,4.487,63.14,99.737536,P-GPS,,30.4
204900,2026-01-11 15:33:24,0.0,5,7.664,0.0,0.0,0.0,23.5,7.1,-5.7,1024,1024,1024,1024,0,0,0,0,84,4.487,63.14,99.737536,P-GPS,,30.4
205000,2026-01-11 15:33:24,0.0,5,7.664,0.0,0.0,0.0,23.5,6.9,-5.7,1024,1024,1024,1024,0,0,0,0,84,4.487,63.14,99.737536,P-GPS,,30.4
205100,2026-01-11 15:33:24,0.0,5,7.664,0.0,0.0,0.0,23.5,6.7,-5.6,1024,1024,1024,1024,0,0,0,0,84,4.487,63.14,99.737536,P-GPS,,30.4
205200,2026-01-11 15:33:24,0.0,5,7.664,0.0,0.0,0.0,23.5,6.1,-5.5,1024,1024,1024,1024,0,0,0,0,84,4.487,63.14,99.737536,P-GPS,,30.4
205300,2026-01-11 15:33:24,0.0,5,7.664,0.0,0.0,0.0,23.5,5.9,-5.8,1024,1024,1024,1024,0,0,0,0,84,4.487,63.14,99.737536,P-GPS,,30.4
205400,2026-01-11 15:33:24,0.0,5,7.674,0.0,0.0,0.0,23.5,5.9,-5.9,1024,1024,1024,1024,0,0,0,0,84,4.492,63.14,99.737536,P-GPS,,30.4
205500,2026-01-11 15:33:24,0.0,5,7.674,0.0,0.0,0.0,23.6,5.2,-6.0,1024,1024,1024,1024,0,0,0,0,84,4.492,63.14,99.737536,P-GPS,,30.4
205600,2026-01-11 15:33:25,0.0,5,7.674,0.0,0.0,0.0,23.6,5.5,-6.3,1024,1024,1024,1024,0,0,0,0,84,4.492,63.14,99.737536,P-GPS,,30.4
205700,2026-01-11 15:33:25,0.0,5,7.674,0.0,0.0,0.0,23.6,5.3,-6.1,1024,1024,1024,1024,0,0,0,0,84,4.492,63.14,99.737536,P-GPS,,30.4
205800,2026-01-11 15:33:25,0.0,5,7.674,0.0,0.0,0.0,23.7,5.5,-6.3,1024,1024,1024,1024,0,0,0,0,84,4.492,63.14,99.737536,P-GPS,,30.4
205900,2026-01-11 15:33:25,0.0,5,7.674,0.0,0.0,0.0,23.6,5.6,-6.8,1024,1024,1024,1024,0,0,0,0,84,4.492,63.14,99.737536,P-GPS,,30.4
206000,2026-01-11 15:33:25,0.0,5,7.674,0.0,0.0,0.0,23.6,5.6,-7.2,1024,1024,1024,1024,0,0,0,0,84,4.492,63.14,99.737536,P-GPS,,30.4
206100,2026-01-11 15:33:25,0.0,5,7.674,0.0,0.0,0.0,23.6,5.7,-7.1,1024,1024,1024,1024,0,0,0,0,84,4.492,63.14,99.737536,P-GPS,,30.4
206200,2026-01-11 15:33:25,0.0,5,7.674,0.0,0.0,0.0,23.6,5.8,-7.2,1024,1024,1024,1024,0,0,0,0,84,4.492,63.14,99.737536,P-GPS,,30.4
206300,2026-01-11 15:33:25,0.0,5,7.674,0.0,0.0,0.0,23.6,5.3,-7.2,1024,1024,1024,1024,0,0,0,0,84,4.492,63.14,99.737536,P-GPS,,30.4
206400,2026-01-11 15:33:25,0.0,5,7.674,0.0,0.0,0.0,23.6,5.4,-7.4,1024,1024,1024,1024,0,0,0,0,84,4.492,63.14,99.737536,P-GPS,,30.4
206500,2026-01-11 15:33:25,0.0,5,7.677,0.0,0.0,0.0,23.7,5.1,-7.4,1024,1024,1024,1024,0,0,0,0,84,4.383,63.14,99.737536,P-GPS,,30.4
206600,2026-01-11 15:33:26,0.0,5,7.677,0.0,0.0,0.0,23.6,6.1,-7.2,1024,1024,1024,1024,0,0,0,0,84,4.383,63.14,99.737536,P-GPS,,30.4
206700,2026-01-11 15:33:26,0.0,5,7.677,0.0,0.0,0.0,23.5,6.5,-7.0,1024,1024,1024,1024,0,0,0,0,84,4.383,63.14,99.737536,P-GPS,,30.4
206800,2026-01-11 15:33:26,0.0,5,7.677,0.0,0.0,0.0,23.5,6.4,-7.5,1024,1024,1024,1024,0,0,0,0,84,4.383,63.14,99.737536,P-GPS,,30.4
206900,2026-01-11 15:33:26,0.0,5,7.677,0.0,0.0,0.0,23.4,6.9,-7.6,1024,1024,1024,1024,0,0,0,0,84,4.383,63.14,99.737536,P-GPS,,30.4
207000,2026-01-11 15:33:26,0.0,5,7.677,0.0,0.0,0.0,23.3,7.1,-7.5,1024,1024,1024,1024,0,0,0,0,84,4.383,63.14,99.409452,P-GPS,,30.3
207100,2026-01-11 15:33:26,0.0,5,7.677,0.0,0.0,0.0,23.4,7.0,-7.3,1024,1024,1024,1024,0,0,0,0,84,4.383,63.14,99.409452,P-GPS,,30.3
207200,2026-01-11 15:33:26,0.0,5,7.677,0.0,0.0,0.0,23.3,6.6,-7.1,1024,1024,1024,1024,0,0,0,0,84,4.383,63.14,99.409452,P-GPS,,30.3
207300,2026-01-11 15:33:26,0.0,5,7.677,0.0,0.0,0.0,23.1,7.0,-7.7,1024,1024,1024,1024,0,0,0,0,84,4.383,63.14,99.409452,P-GPS,,30.3
207400,2026-01-11 15:33:26,0.0,5,7.677,0.0,0.0,0.0,23.2,7.0,-7.2,1024,1024,1024,1024,0,0,0,0,84,4.383,63.14,99.081368,P-GPS,,30.2
207500,2026-01-11 15:33:26,0.0,5,7.677,0.0,0.0,0.0,23.3,6.9,-6.7,1024,1024,1024,1024,0,0,0,0,84,4.383,63.14,99.081368,P-GPS,,30.2
207600,2026-01-11 15:33:27,0.0,5,7.719,0.0,0.0,0.223694,23.4,7.4,-6.2,1024,1024,1024,1024,0,0,0,0,84,3.89,63.32,99.081368,P-GPS,,30.2
207700,2026-01-11 15:33:27,0.0,5,7.719,0.0,0.0,0.223694,23.5,6.2,-5.8,1024,1024,1024,1024,0,0,0,0,84,3.89,63.32,99.081368,P-GPS,,30.2
207800,2026-01-11 15:33:27,0.0,5,7.719,0.0,0.0,0.0,23.6,5.7,-6.2,1024,1024,1024,1024,0,0,0,0,84,3.89,63.32,98.753284,P-GPS,,30.1
207900,2026-01-11 15:33:27,0.0,5,7.719,0.0,0.0,0.0,23.6,4.6,-6.6,1024,1024,1024,1024,0,0,0,0,84,3.89,63.32,98.753284,P-GPS,,30.1
208000,2026-01-11 15:33:27,0.0,5,7.719,0.0,0.0,0.0,23.5,5.7,-7.0,1024,1024,1024,1024,0,0,0,0,84,3.89,63.32,98.753284,P-GPS,,30.1
208100,2026-01-11 15:33:27,0.0,5,7.719,0.0,0.0,0.0,23.4,6.4,-7.2,1024,1024,1024,1024,0,0,0,0,84,3.89,63.32,98.753284,P-GPS,,30.1
208200,2026-01-11 15:33:27,0.0,5,7.719,0.0,0.0,0.223694,23.6,5.0,-6.7,1024,1024,1024,1024,0,0,0,0,84,3.89,63.32,98.753284,P-GPS,,30.1
208300,2026-01-11 15:33:27,0.0,5,7.719,0.0,0.0,0.0,23.7,4.9,-6.5,1024,1024,1024,1024,0,0,0,0,84,3.89,63.32,98.4252,P-GPS,,30.0
208400,2026-01-11 15:33:27,0.0,5,7.719,0.0,0.0,0.0,23.6,5.1,-6.5,1024,1024,1024,1024,0,0,0,0,84,3.89,63.32,98.4252,P-GPS,,30.0
208500,2026-01-11 15:33:27,0.0,5,7.719,0.0,0.0,0.0,23.7,4.6,-6.4,1024,1024,1024,1024,0,0,0,0,84,3.89,63.32,98.4252,P-GPS,,30.0
208600,2026-01-11 15:33:28,0.0,5,7.719,0.0,0.0,0.0,23.5,5.2,-6.8,1024,1024,1024,1024,0,0,0,0,84,3.89,63.32,98.4252,P-GPS,,30.0
208700,2026-01-11 15:33:28,0.0,5,7.668,0.0,0.0,0.0,23.7,4.1,-6.8,1024,1024,1024,1024,0,0,0,0,84,4.496,63.32,98.4252,P-GPS,,30.0
208800,2026-01-11 15:33:28,0.0,5,7.668,0.0,0.0,0.0,23.6,4.9,-7.0,1024,1024,1024,1024,0,0,0,0,84,4.496,63.32,98.4252,P-GPS,,30.0
208900,2026-01-11 15:33:28,0.0,5,7.668,0.0,0.0,0.0,23.5,4.9,-6.9,1024,1024,1024,1024,0,0,0,0,84,4.496,63.32,98.4252,P-GPS,,30.0
209000,2026-01-11 15:33:28,0.0,5,7.668,0.0,0.0,0.0,23.6,4.2,-6.6,1024,1024,1024,1024,0,0,0,0,84,4.496,63.32,98.4252,P-GPS,,30.0
209100,2026-01-11 15:33:28,0.0,5,7.668,0.0,0.0,0.0,23.6,4.3,-6.4,1024,1024,1024,1024,0,0,0,0,84,4.496,63.32,98.4252,P-GPS,,30.0
209200,2026-01-11 15:33:28,0.0,5,7.668,0.0,0.0,0.0,23.7,4.2,-6.2,1024,1024,1024,1024,0,0,0,0,84,4.496,63.32,98.4252,P-GPS,,30.0
209300,2026-01-11 15:33:28,0.0,5,7.668,0.0,0.0,0.0,23.6,4.5,-6.0,1024,1024,1024,1024,0,0,0,0,84,4.496,63.32,98.4252,P-GPS,,30.0
209400,2026-01-11 15:33:28,0.0,5,7.668,0.0,0.0,0.0,23.6,4.9,-6.1,1024,1024,1024,1024,0,0,0,0,84,4.496,63.32,98.4252,P-GPS,,30.0
209500,2026-01-11 15:33:28,0.0,5,7.668,0.0,0.0,0.0,23.6,4.2,-6.1,1024,1024,1024,1024,0,0,0,0,84,4.496,63.32,98.4252,P-GPS,,30.0
209600,2026-01-11 15:33:29,0.0,5,7.668,0.0,0.0,0.0,23.5,4.4,-6.5,1024,1024,1024,1024,0,0,0,0,84,4.496,63.32,98.4252,P-GPS,,30.0
209700,2026-01-11 15:33:29,0.0,5,7.668,0.0,0.0,0.0,23.4,5.4,-6.5,1024,1024,1024,1024,0,0,0,0,84,4.496,63.32,98.4252,P-GPS,,30.0
209800,2026-01-11 15:33:29,0.0,5,7.668,0.0,0.0,0.0,23.5,5.3,-6.2,1024,1024,1024,1024,0,0,0,0,84,4.496,63.32,98.4252,P-GPS,,30.0
209900,2026-01-11 15:33:29,0.0,5,7.668,0.0,0.0,0.0,23.5,5.2,-6.0,1024,1024,1024,1024,0,0,0,0,84,4.496,63.32,98.4252,P-GPS,,30.0
210000,2026-01-11 15:33:29,0.0,5,7.668,0.0,0.0,0.0,23.5,6.1,-5.6,1024,1024,1024,1024,0,0,0,0,84,4.496,63.32,98.4252,P-GPS,,30.0
210100,2026-01-11 15:33:29,0.0,5,7.668,0.0,0.0,0.0,23.6,5.1,-5.4,1024,1024,1024,1024,0,0,0,0,84,4.496,63.32,98.4252,P-GPS,,30.0
210200,2026-01-11 15:33:29,0.0,5,7.668,0.0,0.0,0.0,23.5,5.9,-5.6,1024,1024,1024,1024,0,0,0,0,84,4.496,63.32,98.4252,P-GPS,,30.0
210300,2026-01-11 15:33:29,0.0,5,7.668,0.0,0.0,0.0,23.5,6.7,-5.1,1024,1024,1024,1024,0,0,0,0,84,4.496,63.32,98.4252,P-GPS,,30.0
210400,2026-01-11 15:33:29,0.0,5,7.668,0.0,0.0,0.0,23.6,6.2,-5.1,1024,1024,1024,1024,0,0,0,0,84,4.496,63.32,98.4252,P-GPS,,30.0
210500,2026-01-11 15:33:29,0.0,5,7.668,0.0,0.0,0.0,23.6,6.3,-5.0,1024,1024,1024,1024,0,0,0,0,84,4.496,63.32,98.4252,P-GPS,,30.0
210600,2026-01-11 15:33:30,0.0,5,7.668,0.0,0.0,0.0,23.6,6.4,-4.6,1024,1024,1024,1024,0,0,0,0,84,4.496,63.32,98.4252,P-GPS,,30.0
210700,2026-01-11 15:33:30,0.0,5,7.668,0.0,0.0,0.0,23.5,6.4,-4.3,1024,1024,1024,1024,0,0,0,0,84,4.496,63.32,98.4252,P-GPS,,30.0
210800,2026-01-11 15:33:30,0.0,5,7.668,0.0,0.0,0.0,23.5,6.1,-4.0,1024,1024,1024,1024,0,0,0,0,84,4.496,63.32,98.4252,P-GPS,,30.0
210900,2026-01-11 15:33:30,0.0,5,7.694,0.0,0.0,0.0,23.5,5.9,-4.0,1024,1024,1024,1024,0,0,0,0,84,4.101,63.32,98.4252,P-GPS,,30.0
211000,2026-01-11 15:33:30,0.0,5,7.694,0.0,0.0,0.0,23.4,5.3,-4.7,1024,1024,1024,1024,0,0,0,0,84,4.101,63.32,98.4252,P-GPS,,30.0
211100,2026-01-11 15:33:30,0.0,5,7.694,0.0,0.0,0.0,23.3,7.3,-4.3,1024,1024,1024,1024,0,0,0,0,84,4.101,63.32,98.4252,P-GPS,,30.0
211200,2026-01-11 15:33:30,0.0,5,7.694,0.0,0.0,0.0,23.5,6.0,-4.3,1024,1024,1024,1024,0,0,0,0,84,4.101,63.32,98.4252,P-GPS,,30.0
211300,2026-01-11 15:33:30,0.0,5,7.694,0.0,0.0,0.0,23.5,5.2,-5.8,1024,1024,1024,1024,0,0,0,0,84,4.101,63.32,98.4252,P-GPS,,30.0
211400,2026-01-11 15:33:30,0.0,5,7.694,0.0,0.0,0.0,23.5,5.2,-6.6,1024,1024,1024,1024,0,0,0,0,84,4.101,63.32,98.4252,P-GPS,,30.0
211500,2026-01-11 15:33:30,0.0,5,7.694,0.0,0.0,0.0,23.5,5.4,-6.3,1024,1024,1024,1024,0,0,0,0,84,4.101,63.32,98.4252,P-GPS,,30.0
211600,2026-01-11 15:33:31,0.0,5,7.694,0.0,0.0,0.0,23.5,5.4,-6.9,1024,1024,1024,1024,0,0,0,0,84,4.101,63.32,98.4252,P-GPS,,30.0
211700,2026-01-11 15:33:31,0.0,5,7.694,0.0,0.0,0.0,23.2,6.6,-7.3,1024,1024,1024,1024,0,0,0,0,84,4.101,63.32,98.4252,P-GPS,,30.0
211800,2026-01-11 15:33:31,0.0,5,7.694,0.0,0.0,0.0,23.4,6.4,-6.7,1024,1024,1024,1024,0,0,0,0,84,4.101,63.32,98.753284,P-GPS,,30.1
211900,2026-01-11 15:33:31,0.0,5,7.694,0.0,0.0,0.0,23.5,6.3,-5.9,1024,1024,1024,1024,0,0,0,0,84,4.101,63.32,98.753284,P-GPS,,30.1
212000,2026-01-11 15:33:31,0.0,5,7.694,0.0,0.0,0.0,23.4,6.5,-5.7,1024,1024,1024,1024,0,0,0,0,84,3.95,63.32,98.753284,P-GPS,,30.1
212100,2026-01-11 15:33:31,0.0,5,7.694,0.0,0.0,0.0,23.5,6.8,-5.0,1024,1024,1024,1024,0,0,0,0,84,3.95,63.32,98.753284,P-GPS,,30.1
212200,2026-01-11 15:33:31,0.0,5,7.694,0.0,0.0,0.0,23.5,7.0,-4.9,1024,1024,1024,1024,0,0,0,0,84,3.95,63.32,98.753284,P-GPS,,30.1
212300,2026-01-11 15:33:31,0.0,5,7.694,0.0,0.0,0.0,23.5,6.7,-5.1,1024,1024,1024,1024,0,0,0,0,84,3.95,63.32,98.753284,P-GPS,,30.1
212400,2026-01-11 15:33:31,0.0,5,7.694,0.0,0.0,0.0,23.5,6.7,-5.5,1024,1024,1024,1024,0,0,0,0,84,3.95,63.32,98.753284,P-GPS,,30.1
212500,2026-01-11 15:33:31,0.0,5,7.694,0.0,0.0,0.0,23.6,5.9,-5.6,1024,1024,1024,1024,0,0,0,0,84,3.95,63.32,98.753284,P-GPS,,30.1
212600,2026-01-11 15:33:32,0.0,5,7.694,0.0,0.0,0.0,23.5,5.8,-5.4,1024,1024,1024,1024,0,0,0,0,84,3.95,63.32,98.753284,P-GPS,,30.1
212700,2026-01-11 15:33:32,0.0,5,7.694,0.0,0.0,0.0,23.5,5.8,-5.3,1024,1024,1024,1024,0,0,0,0,84,3.95,63.32,98.753284,P-GPS,,30.1
212800,2026-01-11 15:33:32,0.0,5,7.694,0.0,0.0,0.0,23.5,5.5,-5.3,1024,1024,1024,1024,0,0,0,0,84,3.95,63.32,98.753284,P-GPS,,30.1
212900,2026-01-11 15:33:32,0.0,5,7.694,0.0,0.0,0.0,23.5,5.8,-6.0,1024,1024,1024,1024,0,0,0,0,84,3.95,63.32,98.753284,P-GPS,,30.1
213000,2026-01-11 15:33:32,0.0,5,7.694,0.0,0.0,0.0,23.6,5.6,-6.1,1024,1024,1024,1024,0,0,0,0,84,3.95,63.32,98.753284,P-GPS,,30.1
213100,2026-01-11 15:33:32,0.0,5,7.707,0.0,0.0,0.0,23.6,5.6,-5.8,1024,1024,1024,1024,0,0,0,0,84,3.928,63.32,98.753284,P-GPS,,30.1
213200,2026-01-11 15:33:32,0.0,5,7.707,0.0,0.0,0.0,23.5,5.9,-5.4,1024,1024,1024,1024,0,0,0,0,84,3.928,63.32,98.753284,P-GPS,,30.1
213300,2026-01-11 15:33:32,0.0,5,7.707,0.0,0.0,0.0,23.6,5.2,-5.7,1024,1024,1024,1024,0,0,0,0,84,3.928,63.32,98.753284,P-GPS,,30.1
213400,2026-01-11 15:33:32,0.0,5,7.707,0.0,0.0,0.0,23.4,4.9,-5.6,1024,1024,1024,1024,0,0,0,0,84,3.928,63.32,98.753284,P-GPS,,30.1
213500,2026-01-11 15:33:32,0.0,5,7.707,0.0,0.0,0.0,23.4,5.5,-5.1,1024,1024,1024,1024,0,0,0,0,84,3.928,63.32,98.753284,P-GPS,,30.1
213600,2026-01-11 15:33:33,0.0,5,7.707,0.0,0.0,0.0,23.4,5.7,-5.4,1024,1024,1024,1024,0,0,0,0,84,3.928,63.32,98.753284,P-GPS,,30.1
213700,2026-01-11 15:33:33,0.0,5,7.707,0.0,0.0,0.0,23.4,5.9,-5.3,1024,1024,1024,1024,0,0,0,0,84,3.928,63.32,98.753284,P-GPS,,30.1
213800,2026-01-11 15:33:33,0.0,5,7.707,0.0,0.0,0.0,23.4,6.4,-4.6,1024,1024,1024,1024,0,0,0,0,84,3.928,63.32,98.4252,P-GPS,,30.0
213900,2026-01-11 15:33:33,0.0,5,7.707,0.0,0.0,0.0,23.3,6.2,-4.6,1024,1024,1024,1024,0,0,0,0,84,3.928,63.32,98.4252,P-GPS,,30.0
214000,2026-01-11 15:33:33,0.0,5,7.707,0.0,0.0,0.0,23.4,5.8,-4.6,1024,1024,1024,1024,0,0,0,0,84,3.928,63.32,98.4252,P-GPS,,30.0
214100,2026-01-11 15:33:33,0.0,5,7.707,0.0,0.0,0.0,23.4,5.7,-4.7,1024,1024,1024,1024,0,0,0,0,84,3.928,63.32,98.4252,P-GPS,,30.0
214200,2026-01-11 15:33:33,0.0,5,7.707,0.0,0.0,0.0,23.4,5.2,-5.4,1024,1024,1024,1024,0,0,0,0,84,3.928,63.32,98.097116,P-GPS,,29.9
214300,2026-01-11 15:33:33,0.0,5,7.721,0.0,0.0,0.0,23.5,5.4,-5.0,1024,1024,1024,1024,0,0,0,0,84,3.756,63.32,98.097116,P-GPS,,29.9
214400,2026-01-11 15:33:33,0.0,5,7.721,0.0,0.0,0.0,23.5,5.3,-5.1,1024,1024,1024,1024,0,0,0,0,84,3.756,63.32,98.097116,P-GPS,,29.9
214500,2026-01-11 15:33:33,0.0,5,7.721,0.0,0.0,0.0,23.5,5.2,-5.2,1024,1024,1024,1024,0,0,0,0,84,3.756,63.32,98.097116,P-GPS,,29.9
214600,2026-01-11 15:33:34,0.0,5,7.721,0.0,0.0,0.0,23.6,4.9,-5.1,1024,1024,1024,1024,0,0,0,0,84,3.756,63.32,98.4252,P-GPS,,30.0
214700,2026-01-11 15:33:34,0.0,5,7.721,0.0,0.0,0.0,23.6,5.2,-5.6,1024,1024,1024,1024,0,0,0,0,84,3.756,63.32,98.4252,P-GPS,,30.0
214800,2026-01-11 15:33:34,0.0,5,7.721,0.0,0.0,0.0,23.6,5.2,-5.5,1024,1024,1024,1024,0,0,0,0,84,3.756,63.32,98.4252,P-GPS,,30.0
214900,2026-01-11 15:33:34,0.0,5,7.721,0.0,0.0,0.0,23.6,5.2,-5.4,1024,1024,1024,1024,0,0,0,0,84,3.756,63.32,98.4252,P-GPS,,30.0
215000,2026-01-11 15:33:34,0.0,5,7.721,0.0,0.0,0.0,23.6,5.0,-5.6,1024,1024,1024,1024,0,0,0,0,84,3.756,63.32,98.4252,P-GPS,,30.0
215100,2026-01-11 15:33:34,0.0,5,7.721,0.0,0.0,0.0,23.6,5.0,-5.6,1024,1024,1024,1024,0,0,0,0,84,3.756,63.32,98.753284,P-GPS,,30.1
215200,2026-01-11 15:33:34,0.0,5,7.721,0.0,0.0,0.0,23.6,4.9,-5.6,1024,1024,1024,1024,0,0,0,0,84,3.756,63.32,98.753284,P-GPS,,30.1
215300,2026-01-11 15:33:34,0.0,5,7.721,0.0,0.0,0.0,23.6,5.2,-5.3,1024,1024,1024,1024,0,0,0,0,84,3.756,63.32,98.753284,P-GPS,,30.1
215400,2026-01-11 15:33:34,0.0,5,7.707,0.0,0.0,0.0,23.7,5.1,-4.8,1024,1024,1024,1024,0,0,0,0,84,3.913,63.32,98.753284,P-GPS,,30.1
215500,2026-01-11 15:33:35,0.0,5,7.707,0.0,0.0,0.0,23.7,4.7,-5.0,1024,1024,1024,1024,0,0,0,0,84,3.913,63.32,98.753284,P-GPS,,30.1
215600,2026-01-11 15:33:35,0.0,5,7.707,0.0,0.0,0.0,23.6,4.6,-5.3,1024,1024,1024,1024,0,0,0,0,84,3.913,63.32,98.753284,P-GPS,,30.1
215700,2026-01-11 15:33:35,0.0,5,7.707,0.0,0.0,0.0,23.6,4.9,-5.2,1024,1024,1024,1024,0,0,0,0,84,3.913,63.32,98.753284,P-GPS,,30.1
215800,2026-01-11 15:33:35,0.0,5,7.707,0.0,0.0,0.0,23.6,4.9,-4.6,1024,1024,1024,1024,0,0,0,0,84,3.913,63.32,98.753284,P-GPS,,30.1
215900,2026-01-11 15:33:35,0.0,5,7.707,0.0,0.0,0.0,23.7,4.5,-4.7,1024,1024,1024,1024,0,0,0,0,84,3.913,63.32,98.753284,P-GPS,,30.1
216000,2026-01-11 15:33:35,0.0,5,7.707,0.0,0.0,0.0,23.7,4.3,-4.7,1024,1024,1024,1024,0,0,0,0,84,3.913,63.32,98.753284,P-GPS,,30.1
216100,2026-01-11 15:33:35,0.0,5,7.707,0.0,0.0,0.0,23.8,4.2,-5.0,1024,1024,1024,1024,0,0,0,0,84,3.913,63.32,98.753284,P-GPS,,30.1
216200,2026-01-11 15:33:35,0.0,5,7.707,0.0,0.0,0.0,23.8,4.5,-5.1,1024,1024,1024,1024,0,0,0,0,84,3.913,63.32,98.753284,P-GPS,,30.1
216300,2026-01-11 15:33:35,0.0,5,7.707,0.0,0.0,0.0,23.7,4.5,-5.1,1024,1024,1024,1024,0,0,0,0,84,3.913,63.32,98.753284,P-GPS,,30.1
216400,2026-01-11 15:33:35,0.0,5,7.707,0.0,0.0,0.0,23.8,4.3,-5.1,1024,1024,1024,1024,0,0,0,0,84,3.913,63.32,98.753284,P-GPS,,30.1
216500,2026-01-11 15:33:35,0.0,5,7.693,0.0,0.0,0.0,23.8,4.1,-5.4,1024,1024,1024,1024,0,0,0,0,84,3.96,63.5,98.753284,P-GPS,,30.1
216600,2026-01-11 15:33:36,0.0,5,7.693,0.0,0.0,0.0,23.8,3.9,-5.7,1024,1024,1024,1024,0,0,0,0,84,3.96,63.5,99.081368,P-GPS,,30.2
216700,2026-01-11 15:33:36,0.0,5,7.693,0.0,0.0,0.0,23.7,4.1,-5.7,1024,1024,1024,1024,0,0,0,0,84,3.96,63.5,99.081368,P-GPS,,30.2
216800,2026-01-11 15:33:36,0.0,5,7.693,0.0,0.0,0.0,23.7,4.7,-5.1,1024,1024,1024,1024,0,0,0,0,84,3.96,63.5,99.081368,P-GPS,,30.2
216900,2026-01-11 15:33:36,0.0,5,7.693,0.0,0.0,0.0,23.6,5.1,-5.4,1024,1024,1024,1024,0,0,0,0,84,3.96,63.5,99.081368,P-GPS,,30.2
217000,2026-01-11 15:33:36,0.0,5,7.693,0.0,0.0,0.0,23.7,4.4,-5.2,1024,1024,1024,1024,0,0,0,0,84,3.96,63.5,99.081368,P-GPS,,30.2
217100,2026-01-11 15:33:36,0.0,5,7.693,0.0,0.0,0.0,23.7,4.3,-5.1,1024,1024,1024,1024,0,0,0,0,84,3.96,63.5,99.081368,P-GPS,,30.2
217200,2026-01-11 15:33:36,0.0,5,7.693,0.0,0.0,0.0,23.7,3.2,-5.1,1024,1024,1024,1024,0,0,0,0,84,3.96,63.5,99.409452,P-GPS,,30.3
217300,2026-01-11 15:33:36,0.0,5,7.693,0.0,0.0,0.0,23.7,3.3,-5.3,1024,1024,1024,1024,0,0,0,0,84,3.96,63.5,99.409452,P-GPS,,30.3
217400,2026-01-11 15:33:36,0.0,5,7.693,0.0,0.0,0.0,23.6,3.3,-5.3,1024,1024,1024,1024,0,0,0,0,84,3.96,63.5,99.409452,P-GPS,,30.3
217500,2026-01-11 15:33:37,0.0,5,7.693,0.0,0.0,0.0,23.5,2.3,-5.6,1024,1024,1024,1024,0,0,0,0,84,3.96,63.5,99.081368,P-GPS,,30.2
217600,2026-01-11 15:33:37,0.0,5,7.671,0.0,0.0,0.0,23.6,2.6,-5.5,1024,1024,1024,1024,0,0,0,0,84,4.407,63.5,99.081368,P-GPS,,30.2
217700,2026-01-11 15:33:37,0.0,5,7.671,0.0,0.0,0.0,23.6,2.4,-5.7,1024,1024,1024,1024,0,0,0,0,84,4.407,63.5,99.081368,P-GPS,,30.2
217800,2026-01-11 15:33:37,0.0,5,7.671,0.0,0.0,0.0,23.7,1.5,-5.9,1024,1024,1024,1024,0,0,0,0,84,4.407,63.5,99.409452,P-GPS,,30.3
217900,2026-01-11 15:33:37,0.223694,5,7.671,-0.223694,0.0,0.223694,23.6,2.3,-6.7,1024,1024,1024,1024,0,0,0,0,84,4.407,63.5,99.409452,P-GPS,,30.3
218000,2026-01-11 15:33:37,0.223694,5,7.671,-0.223694,0.0,0.0,23.5,2.1,-7.2,1024,1024,1024,1024,0,0,0,0,84,4.407,63.5,99.409452,P-GPS,,30.3
218100,2026-01-11 15:33:37,0.223694,5,7.671,-0.223694,0.0,0.0,23.7,1.4,-7.8,1024,1024,1024,1024,0,0,0,0,84,4.407,63.5,99.409452,P-GPS,,30.3
218200,2026-01-11 15:33:37,0.223694,5,7.671,-0.223694,0.0,0.0,23.7,1.7,-8.6,1024,1024,1024,1024,0,0,0,0,84,4.407,63.5,99.409452,P-GPS,,30.3
218300,2026-01-11 15:33:37,0.223694,5,7.671,-0.223694,0.0,0.223694,23.8,1.1,-8.3,1024,1024,1024,1024,0,0,0,0,84,4.407,63.5,99.409452,P-GPS,,30.3
218400,2026-01-11 15:33:37,0.0,5,7.671,0.0,0.0,0.0,24.0,0.7,-8.6,1024,1024,1024,1024,0,0,0,0,84,4.407,63.5,99.409452,P-GPS,,30.3
218500,2026-01-11 15:33:37,0.0,5,7.671,0.0,0.0,0.0,23.7,1.8,-9.0,1024,1024,1024,1024,0,0,0,0,84,4.407,63.5,99.409452,P-GPS,,30.3
218600,2026-01-11 15:33:38,0.0,5,7.671,0.0,0.0,0.223694,23.7,1.9,-9.2,1024,1024,1024,1024,0,0,0,0,84,4.407,63.5,99.409452,P-GPS,,30.3
218700,2026-01-11 15:33:38,0.0,5,7.63,0.0,0.0,0.0,24.0,1.5,-8.5,1024,1024,1024,1024,0,0,0,0,84,5.108,63.5,99.409452,P-GPS,,30.3
218800,2026-01-11 15:33:38,0.0,5,7.63,0.0,0.0,0.0,24.0,1.2,-8.6,1024,1024,1024,1024,0,0,0,0,84,5.108,63.5,99.409452,P-GPS,,30.3
218900,2026-01-11 15:33:38,0.0,5,7.63,0.0,0.0,0.0,23.8,2.0,-8.5,1024,1024,1024,1024,0,0,0,0,84,5.108,63.5,99.409452,P-GPS,,30.3
219000,2026-01-11 15:33:38,0.0,5,7.63,0.0,0.0,0.0,23.6,2.7,-8.6,1024,1024,1024,1024,0,0,0,0,84,5.108,63.5,99.737536,P-GPS,,30.4
219100,2026-01-11 15:33:38,0.0,5,7.63,0.0,0.0,0.0,23.6,3.3,-8.7,1024,1024,1024,1024,0,0,0,0,84,5.108,63.5,99.737536,P-GPS,,30.4
219200,2026-01-11 15:33:38,0.0,5,7.63,0.0,0.0,0.0,23.8,2.6,-9.1,1024,1024,1024,1024,0,0,0,0,84,5.108,63.5,99.737536,P-GPS,,30.4
219300,2026-01-11 15:33:38,0.0,5,7.63,0.0,0.0,0.0,23.9,1.8,-9.4,1024,1024,1024,1024,0,0,0,0,84,5.108,63.5,99.737536,P-GPS,,30.4
219400,2026-01-11 15:33:38,0.0,5,7.63,0.0,0.0,0.0,23.9,1.6,-9.4,1024,1024,1024,1024,0,0,0,0,84,5.108,63.5,99.737536,P-GPS,,30.4
219500,2026-01-11 15:33:38,0.0,5,7.63,0.0,0.0,0.0,23.7,2.2,-9.7,1024,1024,1024,1024,0,0,0,0,84,5.108,63.5,99.737536,P-GPS,,30.4
219600,2026-01-11 15:33:39,0.0,5,7.63,0.0,0.0,0.0,23.6,3.0,-9.5,1024,1024,1024,1024,0,0,0,0,84,5.108,63.5,99.409452,P-GPS,,30.3
219700,2026-01-11 15:33:39,0.0,5,7.63,0.0,0.0,0.0,23.8,2.9,-8.6,1024,1024,1024,1024,0,0,0,0,84,5.108,63.5,99.409452,P-GPS,,30.3
219800,2026-01-11 15:33:39,0.223694,5,7.669,0.223694,0.0,0.0,23.8,3.6,-8.2,1024,1024,1024,1024,0,0,0,0,83,4.766,63.5,99.409452,P-GPS,,30.3
219900,2026-01-11 15:33:39,0.223694,5,7.669,0.223694,0.0,0.0,23.7,4.6,-8.9,1024,1024,1024,1024,0,0,0,0,83,4.766,63.5,99.409452,P-GPS,,30.3
220000,2026-01-11 15:33:39,0.223694,5,7.669,0.223694,0.0,0.0,23.5,5.1,-8.8,1024,1024,1024,1024,0,0,0,0,83,4.766,63.5,99.081368,P-GPS,,30.2
220100,2026-01-11 15:33:39,0.0,5,7.669,0.0,0.0,0.0,23.5,4.8,-8.8,1024,1024,1024,1024,0,0,0,0,83,4.766,63.5,99.081368,P-GPS,,30.2
220200,2026-01-11 15:33:39,0.0,5,7.669,0.0,0.0,0.223694,23.4,4.8,-8.5,1024,1024,1024,1024,0,0,0,0,83,4.766,63.5,98.753284,P-GPS,,30.1
220300,2026-01-11 15:33:39,0.0,5,7.669,0.0,0.0,0.223694,23.7,3.2,-7.7,1024,1024,1024,1024,0,0,0,0,83,4.766,63.5,98.753284,P-GPS,,30.1
220400,2026-01-11 15:33:39,0.0,5,7.669,0.0,0.0,0.0,23.5,3.7,-7.5,1024,1024,1024,1024,0,0,0,0,83,4.766,63.5,98.4252,P-GPS,,30.0
220500,2026-01-11 15:33:39,0.223694,5,7.669,0.0,-0.223694,0.223694,23.6,3.8,-6.3,1024,1024,1024,1024,0,0,0,0,83,4.766,63.5,98.4252,P-GPS,,30.0
220600,2026-01-11 15:33:40,0.223694,5,7.669,0.0,-0.223694,0.0,23.8,2.3,-5.6,1024,1024,1024,1024,0,0,0,0,83,4.766,63.5,98.097116,P-GPS,,29.9
220700,2026-01-11 15:33:40,0.3131716,5,7.669,-0.223694,-0.223694,0.0,23.9,0.8,-5.9,1024,1024,1024,1024,0,0,0,0,83,4.766,63.5,98.097116,P-GPS,,29.9
220800,2026-01-11 15:33:40,0.3131716,5,7.669,-0.223694,-0.223694,0.0,24.0,-0.6,-5.8,1024,1024,1024,1024,0,0,0,0,83,4.766,63.5,98.097116,P-GPS,,29.9
220900,2026-01-11 15:33:40,0.3131716,5,7.669,-0.223694,-0.223694,0.0,24.0,-1.3,-5.6,1024,1024,1024,1024,0,0,0,0,83,4.766,63.5,98.097116,P-GPS,,29.9
221000,2026-01-11 15:33:40,0.223694,5,7.669,-0.223694,0.0,0.0,24.0,-1.4,-5.9,1024,1024,1024,1024,0,0,0,0,83,4.766,63.5,98.097116,P-GPS,,29.9
221100,2026-01-11 15:33:40,0.0,5,7.669,0.0,0.0,0.0,23.9,-1.0,-6.4,1024,1024,1024,1024,0,0,0,0,83,4.766,63.5,98.097116,P-GPS,,29.9
221200,2026-01-11 15:33:40,0.0,5,7.669,0.0,0.0,0.0,23.9,-1.4,-6.5,1024,1024,1024,1024,0,0,0,0,83,4.766,63.5,98.097116,P-GPS,,29.9
221300,2026-01-11 15:33:40,0.0,5,7.669,0.0,0.0,0.0,23.8,-1.2,-6.3,1024,1024,1024,1024,0,0,0,0,83,4.766,63.5,98.097116,P-GPS,,29.9
221400,2026-01-11 15:33:40,0.0,5,7.669,0.0,0.0,0.0,23.7,-0.2,-6.3,1024,1024,1024,1024,0,0,0,0,83,4.766,63.5,98.097116,P-GPS,,29.9
221500,2026-01-11 15:33:40,0.0,5,7.669,0.0,0.0,0.0,23.6,0.8,-6.4,1024,1024,1024,1024,0,0,0,0,83,4.766,63.5,98.097116,P-GPS,,29.9
221600,2026-01-11 15:33:41,0.0,5,7.669,0.0,0.0,0.0,23.8,0.6,-6.1,1024,1024,1024,1024,0,0,0,0,83,4.766,63.5,98.097116,P-GPS,,29.9
221700,2026-01-11 15:33:41,0.0,5,7.669,0.0,0.0,0.0,23.7,1.4,-5.7,1024,1024,1024,1024,0,0,0,0,83,4.766,63.5,98.097116,P-GPS,,29.9
221800,2026-01-11 15:33:41,0.0,5,7.669,0.0,0.0,0.0,23.7,0.7,-5.7,1024,1024,1024,1024,0,0,0,0,83,4.766,63.5,97.769032,P-GPS,,29.8
221900,2026-01-11 15:33:41,0.0,5,7.669,0.0,0.0,0.0,23.7,1.3,-5.5,1024,1024,1684,1024,0,0,100,0,83,4.766,63.5,97.769032,P-GPS,,29.8
222000,2026-01-11 15:33:41,0.0,5,7.647,0.0,0.0,0.0,23.8,1.2,-5.7,1024,1024,1684,1024,0,0,100,0,83,4.66,63.5,97.769032,P-GPS,,29.8
222100,2026-01-11 15:33:41,0.223694,5,7.647,0.223694,0.0,0.0,23.8,1.6,-6.0,1024,1024,1684,1024,0,0,100,0,83,4.66,63.5,97.769032,P-GPS,,29.8
222200,2026-01-11 15:33:41,0.223694,5,7.647,0.223694,0.0,-0.223694,23.7,2.7,-5.7,1024,1024,1684,1024,0,0,100,0,83,4.66,63.5,97.769032,P-GPS,,29.8
222300,2026-01-11 15:33:41,0.223694,5,7.647,0.223694,0.0,-0.894776,23.8,3.0,-5.6,1024,1024,1684,1024,0,0,100,0,83,4.66,63.5,97.769032,P-GPS,,29.8
222400,2026-01-11 15:33:41,0.0,5,7.647,0.0,0.0,-1.565858,23.9,2.7,-4.5,1024,1024,1684,1024,0,0,100,0,83,4.66,63.5,98.097116,P-GPS,,29.9
222500,2026-01-11 15:33:41,0.0,5,7.647,0.0,0.0,-2.460634,24.1,2.9,-4.7,1024,1024,1684,1024,0,0,100,0,83,4.66,63.5,98.4252,P-GPS,,30.0
222600,2026-01-11 15:33:42,0.0,5,7.647,0.0,0.0,-3.131716,24.2,2.6,-5.1,1024,1024,1684,1024,0,0,100,0,83,4.66,63.5,98.753284,P-GPS,,30.1
222700,2026-01-11 15:33:42,0.0,5,7.647,0.0,0.0,-3.579104,24.1,3.6,-5.2,1024,1024,1684,1024,0,0,100,0,83,4.66,63.5,99.081368,P-GPS,,30.2
222800,2026-01-11 15:33:42,0.0,5,7.647,0.0,0.0,-4.026492,23.7,3.9,-5.6,1024,1024,1684,1024,0,0,100,0,83,4.66,63.5,99.737536,P-GPS,,30.4
222900,2026-01-11 15:33:42,0.0,5,7.647,0.0,0.0,-4.250186,23.9,3.8,-6.0,1024,1024,1684,1024,0,0,100,0,83,4.66,63.5,100.393704,P-GPS,,30.6
223000,2026-01-11 15:33:42,0.0,5,7.647,0.0,0.0,-4.250186,23.8,2.8,-5.9,1024,1024,1684,1024,0,0,100,0,83,4.66,63.5,101.049872,P-GPS,,30.8
223100,2026-01-11 15:33:42,0.0,5,7.526,0.0,0.0,-4.250186,23.6,2.1,-6.0,1024,1024,1684,1024,0,0,100,0,83,6.735,63.5,101.70604,P-GPS,,31.0
223200,2026-01-11 15:33:42,0.0,5,7.526,0.0,0.0,-4.47388,23.8,1.7,-6.8,1024,1024,1684,1024,0,0,100,0,83,6.735,63.5,102.362208,P-GPS,,31.2
223300,2026-01-11 15:33:42,0.0,5,7.526,0.0,0.0,-4.250186,24.0,2.1,-6.8,1024,1024,1684,1024,0,0,100,0,83,6.735,63.5,103.018376,P-GPS,,31.4
223400,2026-01-11 15:33:42,0.0,5,7.526,0.0,0.0,-4.250186,23.8,3.9,-6.5,1024,1024,1684,1024,0,0,100,0,83,6.735,63.5,103.674544,P-GPS,,31.6
223500,2026-01-11 15:33:42,0.0,5,7.526,0.0,0.0,-4.250186,23.7,4.6,-6.8,1024,1024,1684,1024,0,0,100,0,83,6.735,63.5,104.330712,P-GPS,,31.8
270300,2026-01-11 15:34:29,0.0,5,7.645,0.0,0.0,3.802798,73.8,15.4,-0.4,1024,1024,364,1062,0,0,-100,6,80,3.916,64.22,104.330712,P-GPS,,31.8
270400,2026-01-11 15:34:29,0.0,5,7.645,0.0,0.0,3.802798,73.8,15.5,-0.3,1024,1024,364,1062,0,0,-100,6,80,3.916,64.22,103.674544,P-GPS,,31.6
270500,2026-01-11 15:34:29,0.0,5,7.645,0.0,0.0,3.802798,73.8,15.4,-0.4,1024,1024,364,1024,0,0,-100,0,80,3.916,64.22,103.018376,P-GPS,,31.4
270600,2026-01-11 15:34:30,0.0,5,7.645,0.0,0.0,3.802798,73.7,15.2,-0.6,1024,1024,364,1024,0,0,-100,0,80,3.916,64.22,102.362208,P-GPS,,31.2
270700,2026-01-11 15:34:30,0.0,5,7.645,0.0,0.0,3.802798,73.6,14.9,-0.7,1024,1024,364,1024,0,0,-100,0,80,3.916,64.22,101.70604,P-GPS,,31.0
270800,2026-01-11 15:34:30,0.0,5,7.644,0.0,0.0,3.802798,73.6,15.2,-0.5,1024,1024,364,1024,0,0,-100,0,80,4.337,64.22,101.049872,P-GPS,,30.8
270900,2026-01-11 15:34:30,0.0,5,7.644,0.0,0.0,3.802798,73.6,14.9,-0.5,1024,1024,364,1024,0,0,-100,0,80,4.337,64.22,100.393704,P-GPS,,30.6
271000,2026-01-11 15:34:30,0.0,5,7.644,0.0,0.0,3.802798,73.7,14.8,-0.7,1024,1024,364,1024,0,0,-100,0,80,4.337,64.22,99.409452,P-GPS,,30.3
271100,2026-01-11 15:34:30,0.0,5,7.644,0.0,0.0,4.026492,73.5,14.4,-1.2,1024,1024,364,1024,0,0,-100,0,80,4.337,64.22,98.753284,P-GPS,,30.1
271200,2026-01-11 15:34:30,0.0,5,7.644,0.0,0.0,3.802798,73.6,13.8,-1.1,1024,1024,364,1024,0,0,-100,0,80,4.337,64.22,98.097116,P-GPS,,29.9
271300,2026-01-11 15:34:30,0.0,5,7.644,0.0,0.0,3.802798,73.7,14.1,-0.9,1024,1024,364,1024,0,0,-100,0,80,4.337,64.22,97.440948,P-GPS,,29.7
271400,2026-01-11 15:34:30,0.0,5,7.644,0.0,0.0,4.026492,73.7,14.1,-0.8,1024,1024,364,1024,0,0,-100,0,80,4.337,64.22,96.78478,P-GPS,,29.5
271500,2026-01-11 15:34:30,0.0,5,7.644,0.0,0.0,4.026492,73.7,14.0,-0.3,1024,1024,364,1024,0,0,-100,0,80,4.337,64.22,96.128612,P-GPS,,29.3
271600,2026-01-11 15:34:31,0.0,5,7.644,0.0,0.0,4.026492,73.7,13.8,-0.3,1024,1024,364,1024,0,0,-100,0,80,4.337,64.22,95.472444,P-GPS,,29.1
271700,2026-01-11 15:34:31,0.0,5,7.644,0.0,0.0,4.026492,73.7,13.3,-0.6,1024,1024,364,1024,0,0,-100,0,80,4.337,64.22,94.488192,P-GPS,,28.8
271800,2026-01-11 15:34:31,0.0,5,7.681,0.0,0.0,3.802798,73.7,13.9,-0.5,1024,1024,364,1024,0,0,-100,0,80,3.831,64.22,93.832024,P-GPS,,28.6
271900,2026-01-11 15:34:31,0.0,5,7.681,0.0,0.0,4.026492,73.7,13.3,-0.3,1024,1024,364,1024,0,0,-100,0,80,3.831,64.22,93.175856,P-GPS,,28.4
272000,2026-01-11 15:34:31,0.0,5,7.681,0.0,0.0,3.802798,73.7,13.1,-1.0,1024,1024,364,1024,0,0,-100,0,80,3.831,64.22,92.519688,P-GPS,,28.2
