index,time(millisecond),timestamp,speed(mph),gpslevel,voltage(v),xSpeed(mph),ySpeed(mph),zSpeed(mph),compass_heading(degrees),pitch(degrees),roll(degrees),rc_elevator,rc_aileron,rc_throttle,rc_rudder,rc_elevator(percent),rc_aileron(percent),rc_throttle(percent),rc_rudder(percent),battery_percent,current(A),battery_temperature(f),ascent(feet),flycState,message,height_above_takeoff(meters)
429,322000,2026-01-13 12:25:31,0.0,5,7.57,0.0,0.0,0.0,15.2,5.9,-4.5,1024,1024,1024,1024,0,0,0,0,78,5.234,73.4,97.112864,P-GPS,,29.6
430,322100,2026-01-13 12:25:31,0.0,5,7.57,0.0,0.0,0.0,15.1,6.6,-4.3,1024,1024,1024,1024,0,0,0,0,78,5.234,73.4,97.112864,P-GPS,,29.6
431,322200,2026-01-13 12:25:31,0.0,5,7.57,0.0,0.0,0.0,15.2,6.3,-4.1,1024,1024,1024,1024,0,0,0,0,78,5.234,73.4,97.112864,P-GPS,,29.6
432,322300,2026-01-13 12:25:31,0.0,5,7.57,0.0,0.0,0.0,15.3,5.7,-3.1,1024,1024,1024,1024,0,0,0,0,78,5.234,73.4,97.112864,P-GPS,,29.6
433,322400,2026-01-13 12:25:31,0.0,5,7.628,0.0,0.0,0.0,15.3,4.4,-3.6,1024,1024,1024,1024,0,0,0,0,78,4.101,73.58,97.112864,P-GPS,,29.6
434,322500,2026-01-13 12:25:31,0.0,5,7.628,0.0,0.0,0.0,15.2,5.5,-3.2,1024,1024,1024,1024,0,0,0,0,78,4.101,73.58,97.112864,P-GPS,,29.6
435,322600,2026-01-13 12:25:31,0.223694,5,7.628,-0.223694,0.0,0.0,15.1,4.8,-3.5,1024,1024,1024,1024,0,0,0,0,78,4.101,73.58,97.112864,P-GPS,,29.6
436,322700,2026-01-13 12:25:31,0.223694,5,7.628,-0.223694,0.0,0.0,15.3,3.8,-3.5,1024,1024,1024,1024,0,0,0,0,78,4.101,73.58,97.112864,P-GPS,,29.6
437,322800,2026-01-13 12:25:32,0.223694,5,7.628,-0.223694,0.0,0.0,15.3,2.0,-3.7,1024,1024,1024,1024,0,0,0,0,78,4.101,73.58,97.112864,P-GPS,,29.6
438,322900,2026-01-13 12:25:32,0.223694,5,7.628,-0.223694,0.0,0.0,15.3,2.3,-3.6,1024,1024,1024,1024,0,0,0,0,78,4.101,73.58,97.112864,P-GPS,,29.6
439,323000,2026-01-13 12:25:32,0.223694,5,7.628,-0.223694,0.0,0.0,15.4,2.3,-3.4,1024,1024,1024,1024,0,0,0,0,78,4.101,73.58,96.78478,P-GPS,,29.5
440,323100,2026-01-13 12:25:32,0.223694,5,7.628,-0.223694,0.0,0.0,15.3,2.7,-3.1,1024,1024,1024,1024,0,0,0,0,78,4.101,73.58,97.112864,P-GPS,,29.6
441,323200,2026-01-13 12:25:32,0.223694,5,7.628,-0.223694,0.0,0.0,15.5,2.6,-3.0,1024,1024,1024,1024,0,0,0,0,78,4.101,73.58,97.112864,P-GPS,,29.6
442,323300,2026-01-13 12:25:32,0.223694,5,7.628,-0.223694,0.0,0.0,15.4,2.6,-3.1,1024,1024,1024,1024,0,0,0,0,78,4.101,73.58,97.112864,P-GPS,,29.6
443,323400,2026-01-13 12:25:32,0.0,5,7.628,0.0,0.0,0.0,15.4,2.7,-3.6,1024,1024,1024,1024,0,0,0,0,78,4.101,73.58,97.112864,P-GPS,,29.6
444,323500,2026-01-13 12:25:32,0.0,5,7.628,0.0,0.0,0.0,15.5,3.2,-3.5,1024,1024,1024,1024,0,0,0,0,78,4.101,73.58,97.112864,P-GPS,,29.6
445,323600,2026-01-13 12:25:32,0.0,5,7.628,0.0,0.0,0.0,15.5,3.6,-3.6,1024,1024,1024,1024,0,0,0,0,78,4.101,73.58,97.112864,P-GPS,,29.6
446,323700,2026-01-13 12:25:32,0.0,5,7.628,0.0,0.0,0.0,15.6,3.2,-3.9,1024,1024,1024,1024,0,0,0,0,78,4.101,73.58,97.440948,P-GPS,,29.7
447,323800,2026-01-13 12:25:33,0.0,5,7.628,0.0,0.0,0.0,15.6,3.2,-4.0,1024,1024,1024,1024,0,0,0,0,78,4.101,73.58,97.440948,P-GPS,,29.7
448,323900,2026-01-13 12:25:33,0.0,5,7.628,0.0,0.0,0.0,15.6,3.0,-3.9,1024,1024,1024,1024,0,0,0,0,78,4.101,73.58,97.440948,P-GPS,,29.7
449,324000,2026-01-13 12:25:33,0.0,5,7.628,0.0,0.0,0.0,15.6,2.6,-3.9,1024,1024,1024,1024,0,0,0,0,78,4.101,73.58,97.440948,P-GPS,,29.7
450,324100,2026-01-13 12:25:33,0.0,5,7.628,0.0,0.0,0.0,15.5,2.9,-4.1,1024,1024,1024,1024,0,0,0,0,78,4.101,73.58,97.440948,P-GPS,,29.7
451,324200,2026-01-13 12:25:33,0.0,5,7.628,0.0,0.0,0.0,15.4,3.3,-3.7,1024,1024,1024,1024,0,0,0,0,78,4.101,73.58,97.440948,P-GPS,,29.7
452,324300,2026-01-13 12:25:33,0.0,5,7.628,0.0,0.0,0.0,15.3,3.0,-3.6,1024,1024,1024,1024,0,0,0,0,78,4.101,73.58,97.769032,P-GPS,,29.8
453,324400,2026-01-13 12:25:33,0.0,5,7.628,0.0,0.0,0.0,15.2,3.2,-3.8,1024,1024,1024,1024,0,0,0,0,78,4.101,73.58,97.769032,P-GPS,,29.8
454,324500,2026-01-13 12:25:33,0.0,5,7.628,0.0,0.0,0.0,15.1,4.1,-3.6,1024,1024,1024,1024,0,0,0,0,78,4.101,73.58,97.769032,P-GPS,,29.8
455,324600,2026-01-13 12:25:33,0.0,5,7.638,0.0,0.0,0.0,15.4,4.0,-3.6,1024,1024,1024,1024,0,0,0,0,78,4.39,73.58,97.769032,P-GPS,,29.8
456,324700,2026-01-13 12:25:33,0.0,5,7.638,0.0,0.0,0.0,15.4,3.7,-3.9,1024,1024,1024,1024,0,0,0,0,78,4.39,73.58,97.769032,P-GPS,,29.8
457,324800,2026-01-13 12:25:34,0.0,5,7.638,0.0,0.0,0.0,15.4,3.7,-4.1,1024,1024,1024,1024,0,0,0,0,78,4.39,73.58,97.769032,P-GPS,,29.8
458,324900,2026-01-13 12:25:34,0.0,5,7.638,0.0,0.0,0.0,15.3,3.7,-4.6,1024,1024,1024,1024,0,0,0,0,78,4.39,73.58,97.769032,P-GPS,,29.8
459,325000,2026-01-13 12:25:34,0.0,5,7.638,0.0,0.0,0.0,15.2,3.6,-4.7,1024,1024,1024,1024,0,0,0,0,78,4.39,73.58,97.769032,P-GPS,,29.8
460,325100,2026-01-13 12:25:34,0.0,5,7.638,0.0,0.0,0.0,15.3,3.6,-4.7,1024,1024,1024,1024,0,0,0,0,78,4.39,73.58,98.097116,P-GPS,,29.9
461,325200,2026-01-13 12:25:34,0.0,5,7.638,0.0,0.0,0.0,15.3,3.5,-5.4,1024,1024,1024,1024,0,0,0,0,78,4.39,73.58,97.769032,P-GPS,,29.8
462,325300,2026-01-13 12:25:34,0.0,5,7.638,0.0,0.0,0.0,15.4,3.8,-3.8,1024,1024,1024,1024,0,0,0,0,78,4.39,73.58,97.769032,P-GPS,,29.8
463,325400,2026-01-13 12:25:34,0.0,5,7.638,0.0,0.0,0.223694,15.3,5.5,-3.4,1024,1024,1024,1024,0,0,0,0,78,4.39,73.58,97.769032,P-GPS,,29.8
464,325500,2026-01-13 12:25:34,0.0,5,7.638,0.0,0.0,0.223694,15.3,4.6,-3.6,1024,1024,1024,1024,0,0,0,0,78,4.39,73.58,97.769032,P-GPS,,29.8
465,325600,2026-01-13 12:25:34,0.0,5,7.638,0.0,0.0,0.223694,15.3,4.0,-4.1,1024,1024,1024,1024,0,0,0,0,78,4.39,73.58,97.769032,P-GPS,,29.8
466,325700,2026-01-13 12:25:34,0.0,5,7.638,0.0,0.0,0.0,15.2,4.3,-4.6,1024,1024,1024,1024,0,0,0,0,78,4.39,73.58,97.769032,P-GPS,,29.8
467,325800,2026-01-13 12:25:35,0.0,5,7.623,0.0,0.0,0.0,15.3,4.3,-4.5,1024,1024,1024,1024,0,0,0,0,78,4.333,73.58,98.097116,P-GPS,,29.9
468,325900,2026-01-13 12:25:35,0.0,5,7.623,0.0,0.0,0.0,15.4,4.4,-4.6,1024,1024,1024,1024,0,0,0,0,78,4.333,73.58,98.097116,P-GPS,,29.9
469,326000,2026-01-13 12:25:35,0.0,5,7.623,0.0,0.0,0.0,15.4,5.2,-4.4,1024,1024,1024,1024,0,0,0,0,78,4.333,73.58,98.097116,P-GPS,,29.9
470,326100,2026-01-13 12:25:35,0.0,5,7.623,0.0,0.0,0.0,15.5,5.3,-4.2,1024,1024,1024,1024,0,0,0,0,78,4.333,73.58,98.097116,P-GPS,,29.9
471,326200,2026-01-13 12:25:35,0.0,5,7.623,0.0,0.0,0.0,15.6,6.1,-4.1,1024,1024,1024,1024,0,0,0,0,78,4.333,73.58,98.097116,P-GPS,,29.9
472,326300,2026-01-13 12:25:35,0.0,5,7.623,0.0,0.0,0.0,15.6,5.8,-3.8,1024,1024,1024,1024,0,0,0,0,78,4.333,73.58,98.097116,P-GPS,,29.9
473,326400,2026-01-13 12:25:35,0.0,5,7.623,0.0,0.0,0.0,15.5,5.4,-3.9,1024,1024,1024,1024,0,0,0,0,78,4.333,73.58,98.097116,P-GPS,,29.9
474,326500,2026-01-13 12:25:35,0.0,5,7.623,0.0,0.0,0.0,15.4,5.6,-4.2,1024,1024,1024,1024,0,0,0,0,78,4.333,73.58,97.769032,P-GPS,,29.8
475,326600,2026-01-13 12:25:35,0.0,5,7.623,0.0,0.0,0.0,15.5,5.8,-4.5,1024,1024,1024,1024,0,0,0,0,78,4.333,73.58,97.769032,P-GPS,,29.8
476,326700,2026-01-13 12:25:35,0.0,5,7.623,0.0,0.0,0.0,15.6,5.1,-4.4,1024,1024,1024,1024,0,0,0,0,78,4.333,73.58,97.769032,P-GPS,,29.8
477,326800,2026-01-13 12:25:36,0.0,5,7.623,0.0,0.0,0.0,15.7,5.2,-4.4,1024,1024,1024,1024,0,0,0,0,78,4.333,73.58,97.769032,P-GPS,,29.8
478,326900,2026-01-13 12:25:36,0.0,5,7.627,0.0,0.0,0.0,15.7,4.8,-4.2,1024,1024,1024,1024,0,0,0,0,78,4.604,73.58,97.769032,P-GPS,,29.8
479,327000,2026-01-13 12:25:36,0.0,5,7.627,0.0,0.0,0.0,15.5,4.9,-3.9,1024,1024,1024,1024,0,0,0,0,78,4.604,73.58,97.769032,P-GPS,,29.8
480,327100,2026-01-13 12:25:36,0.0,5,7.627,0.0,0.0,0.0,15.5,5.5,-3.7,1024,1024,1024,1024,0,0,0,0,78,4.604,73.58,97.769032,P-GPS,,29.8
481,327200,2026-01-13 12:25:36,0.0,5,7.627,0.0,0.0,0.0,15.5,5.3,-3.7,1024,1024,1024,1024,0,0,0,0,78,4.604,73.58,97.769032,P-GPS,,29.8
482,327300,2026-01-13 12:25:36,0.0,5,7.627,0.0,0.0,0.0,15.5,5.3,-4.0,1024,1024,1024,1024,0,0,0,0,78,4.604,73.58,97.440948,P-GPS,,29.7
483,327400,2026-01-13 12:25:36,0.0,5,7.627,0.0,0.0,0.0,15.5,6.2,-3.6,1024,1024,1024,1024,0,0,0,0,78,4.604,73.58,97.440948,P-GPS,,29.7
484,327500,2026-01-13 12:25:36,0.0,5,7.627,0.0,0.0,0.0,15.6,5.7,-3.3,1024,1024,1024,1024,0,0,0,0,78,4.604,73.58,97.440948,P-GPS,,29.7
485,327600,2026-01-13 12:25:36,0.0,5,7.627,0.0,0.0,0.0,15.6,4.6,-3.6,1024,1024,1024,1024,0,0,0,0,78,4.604,73.58,97.440948,P-GPS,,29.7
486,327700,2026-01-13 12:25:36,0.0,5,7.627,0.0,0.0,0.0,15.5,5.1,-3.5,1024,1024,1024,1024,0,0,0,0,78,4.604,73.58,97.440948,P-GPS,,29.7
487,327800,2026-01-13 12:25:37,0.0,5,7.627,0.0,0.0,0.0,15.5,5.3,-3.6,1024,1024,1024,1024,0,0,0,0,78,4.604,73.58,97.440948,P-GPS,,29.7
488,327900,2026-01-13 12:25:37,0.0,5,7.627,0.0,0.0,0.0,15.4,5.7,-3.7,1024,1024,1024,1024,0,0,0,0,78,4.604,73.58,97.440948,P-GPS,,29.7
489,328000,2026-01-13 12:25:37,0.0,5,7.623,0.0,0.0,0.0,15.4,5.2,-4.0,1024,1024,1024,1024,0,0,0,0,78,4.708,73.58,97.440948,P-GPS,,29.7
490,328100,2026-01-13 12:25:37,0.0,5,7.623,0.0,0.0,0.0,15.4,5.3,-3.9,1024,1024,1024,1024,0,0,0,0,78,4.708,73.58,97.440948,P-GPS,,29.7
491,328200,2026-01-13 12:25:37,0.0,5,7.623,0.0,0.0,0.0,15.4,4.9,-4.0,1024,1024,1024,1024,0,0,0,0,78,4.708,73.58,97.440948,P-GPS,,29.7
492,328300,2026-01-13 12:25:37,0.0,5,7.623,0.0,0.0,0.0,15.4,5.1,-3.9,1024,1024,1024,1024,0,0,0,0,78,4.708,73.58,97.440948,P-GPS,,29.7
493,328400,2026-01-13 12:25:37,0.0,5,7.623,0.0,0.0,0.0,15.3,5.3,-3.7,1024,1024,1024,1024,0,0,0,0,78,4.708,73.58,97.440948,P-GPS,,29.7
494,328500,2026-01-13 12:25:37,0.0,5,7.623,0.0,0.0,0.0,15.3,4.9,-3.8,1024,1024,1024,1024,0,0,0,0,78,4.708,73.58,97.440948,P-GPS,,29.7
495,328600,2026-01-13 12:25:37,0.0,5,7.623,0.0,0.0,0.0,15.2,5.3,-4.3,1024,1024,1024,1024,0,0,0,0,78,4.708,73.58,97.769032,P-GPS,,29.8
496,328700,2026-01-13 12:25:37,0.0,5,7.623,0.0,0.0,0.0,15.4,5.0,-4.2,1024,1024,1024,1024,0,0,0,0,78,4.708,73.58,97.769032,P-GPS,,29.8
497,328800,2026-01-13 12:25:38,0.0,5,7.623,0.0,0.0,0.0,15.4,5.3,-4.2,1024,1024,1024,1024,0,0,0,0,78,4.708,73.58,97.769032,P-GPS,,29.8
498,328900,2026-01-13 12:25:38,0.0,5,7.623,0.0,0.0,0.0,15.3,6.0,-4.2,1024,1024,1024,1024,0,0,0,0,78,4.708,73.58,97.769032,P-GPS,,29.8
499,329000,2026-01-13 12:25:38,0.0,5,7.623,0.0,0.0,0.0,15.2,6.3,-3.8,1024,1024,1024,1024,0,0,0,0,78,4.708,73.58,97.769032,P-GPS,,29.8
500,329100,2026-01-13 12:25:38,0.0,5,7.621,0.0,0.0,0.0,15.3,6.4,-3.4,1024,1024,1024,1024,0,0,0,0,77,4.542,73.76,97.769032,P-GPS,,29.8
501,329200,2026-01-13 12:25:38,0.0,5,7.621,0.0,0.0,0.0,15.4,5.9,-3.8,1024,1024,1024,1024,0,0,0,0,77,4.542,73.76,97.769032,P-GPS,,29.8
502,329300,2026-01-13 12:25:38,0.0,5,7.621,0.0,0.0,0.0,15.3,5.6,-3.9,1024,1024,1024,1024,0,0,0,0,77,4.542,73.76,97.769032,P-GPS,,29.8
503,329400,2026-01-13 12:25:38,0.0,5,7.621,0.0,0.0,0.0,15.4,5.2,-4.0,1024,1024,1024,1024,0,0,0,0,77,4.542,73.76,97.769032,P-GPS,,29.8
504,329500,2026-01-13 12:25:38,0.0,5,7.621,0.0,0.0,0.0,15.5,5.2,-3.8,1024,1024,1024,1024,0,0,0,0,77,4.542,73.76,97.769032,P-GPS,,29.8
505,329600,2026-01-13 12:25:38,0.0,5,7.621,0.0,0.0,0.0,15.5,4.8,-3.7,1024,1024,1024,1024,0,0,0,0,77,4.542,73.76,97.769032,P-GPS,,29.8
506,329700,2026-01-13 12:25:38,0.0,5,7.621,0.0,0.0,0.0,15.4,4.7,-3.8,1024,1024,1024,1024,0,0,0,0,77,4.542,73.76,97.440948,P-GPS,,29.7
507,329800,2026-01-13 12:25:39,0.0,5,7.621,0.0,0.0,0.0,15.5,4.3,-4.3,1024,1024,1024,1024,0,0,0,0,77,4.542,73.76,97.440948,P-GPS,,29.7
508,329900,2026-01-13 12:25:39,0.0,5,7.621,0.0,0.0,0.0,15.5,4.9,-4.1,1024,1024,1024,1024,0,0,0,0,77,4.542,73.76,97.440948,P-GPS,,29.7
509,330000,2026-01-13 12:25:39,0.0,5,7.621,0.0,0.0,0.0,15.6,4.7,-4.0,1024,1024,1024,1024,0,0,0,0,77,4.542,73.76,97.440948,P-GPS,,29.7
510,330100,2026-01-13 12:25:39,0.0,5,7.621,0.0,0.0,0.0,15.4,5.0,-4.2,1024,1024,1024,1024,0,0,0,0,77,4.542,73.76,97.440948,P-GPS,,29.7
511,330200,2026-01-13 12:25:39,0.0,5,7.604,0.0,0.0,0.0,15.3,5.4,-4.6,1024,1024,1024,1024,0,0,0,0,77,4.694,73.76,97.440948,P-GPS,,29.7
512,330300,2026-01-13 12:25:39,0.0,5,7.604,0.0,0.0,0.0,15.2,5.4,-4.8,1024,1024,1024,1024,0,0,0,0,77,4.694,73.76,97.440948,P-GPS,,29.7
513,330400,2026-01-13 12:25:39,0.0,5,7.604,0.0,0.0,0.0,15.2,5.0,-5.0,1024,1024,1024,1024,0,0,0,0,77,4.694,73.76,97.440948,P-GPS,,29.7
514,330500,2026-01-13 12:25:39,0.0,5,7.604,0.0,0.0,0.0,15.3,4.8,-4.9,1024,1024,1024,1024,0,0,0,0,77,4.694,73.76,97.440948,P-GPS,,29.7
515,330600,2026-01-13 12:25:39,0.0,5,7.604,0.0,0.0,0.0,15.4,4.4,-4.6,1024,1024,1024,1024,0,0,0,0,77,4.694,73.76,97.440948,P-GPS,,29.7
516,330700,2026-01-13 12:25:39,0.0,5,7.604,0.0,0.0,0.0,15.4,3.9,-4.8,1024,1024,1024,1024,0,0,0,0,77,4.694,73.76,97.440948,P-GPS,,29.7
517,330800,2026-01-13 12:25:40,0.0,5,7.604,0.0,0.0,0.0,15.4,4.2,-4.8,1024,1024,1024,1024,0,0,0,0,77,4.694,73.76,97.440948,P-GPS,,29.7
518,330900,2026-01-13 12:25:40,0.0,5,7.604,0.0,0.0,0.0,15.4,4.4,-4.3,1024,1024,1024,1024,0,0,0,0,77,4.694,73.76,97.440948,P-GPS,,29.7
519,331000,2026-01-13 12:25:40,0.0,5,7.604,0.0,0.0,0.0,15.3,4.7,-4.2,1024,1024,1024,1024,0,0,0,0,77,4.694,73.76,97.440948,P-GPS,,29.7
520,331100,2026-01-13 12:25:40,0.0,5,7.604,0.0,0.0,0.0,15.2,5.0,-4.1,1024,1024,1024,1024,0,0,0,0,77,4.694,73.76,97.440948,P-GPS,,29.7
521,331200,2026-01-13 12:25:40,0.0,5,7.604,0.0,0.0,0.0,15.2,5.2,-4.5,1024,1024,1024,1024,0,0,0,0,77,4.694,73.76,97.440948,P-GPS,,29.7
522,331300,2026-01-13 12:25:40,0.0,5,7.622,0.0,0.0,0.0,15.2,5.2,-4.3,1024,1024,1024,1024,0,0,0,0,77,4.729,73.76,97.440948,P-GPS,,29.7
523,331400,2026-01-13 12:25:40,0.0,5,7.622,0.0,0.0,0.0,15.2,5.1,-4.5,1024,1024,1024,1024,0,0,0,0,77,4.729,73.76,97.440948,P-GPS,,29.7
524,331500,2026-01-13 12:25:40,0.0,5,7.622,0.0,0.0,0.0,15.1,4.9,-4.6,1024,1024,1024,1024,0,0,0,0,77,4.729,73.76,97.440948,P-GPS,,29.7
525,331600,2026-01-13 12:25:40,0.0,5,7.622,0.0,0.0,0.0,15.1,5.1,-4.8,1024,1024,1024,1024,0,0,0,0,77,4.729,73.76,97.440948,P-GPS,,29.7
526,331700,2026-01-13 12:25:40,0.0,5,7.622,0.0,0.0,0.0,15.2,5.1,-4.2,1024,1024,1024,1024,0,0,0,0,77,4.729,73.76,97.440948,P-GPS,,29.7
527,331800,2026-01-13 12:25:41,0.0,5,7.622,0.0,0.0,0.0,15.2,5.1,-4.1,1024,1024,1024,1024,0,0,0,0,77,4.729,73.76,97.440948,P-GPS,,29.7
528,331900,2026-01-13 12:25:41,0.0,5,7.622,0.0,0.0,0.0,15.2,5.7,-4.3,1024,1024,1024,1024,0,0,0,0,77,4.729,73.76,97.440948,P-GPS,,29.7
529,332000,2026-01-13 12:25:41,0.0,5,7.622,0.0,0.0,0.0,15.2,5.0,-4.3,1024,1024,1024,1024,0,0,0,0,77,4.729,73.76,97.440948,P-GPS,,29.7
530,332100,2026-01-13 12:25:41,0.0,5,7.622,0.0,0.0,0.0,15.2,5.1,-4.1,1024,1024,1024,1024,0,0,0,0,77,4.729,73.76,97.440948,P-GPS,,29.7
531,332200,2026-01-13 12:25:41,0.0,5,7.622,0.0,0.0,0.0,15.3,4.8,-4.2,1024,1024,1024,1024,0,0,0,0,77,4.729,73.76,97.440948,P-GPS,,29.7
532,332300,2026-01-13 12:25:41,0.0,5,7.622,0.0,0.0,0.0,15.2,5.2,-4.3,1024,1024,1024,1024,0,0,0,0,77,4.729,73.76,97.440948,P-GPS,,29.7
533,332400,2026-01-13 12:25:41,0.0,5,7.622,0.0,0.0,0.0,15.1,5.4,-4.5,1024,1024,1024,1024,0,0,0,0,77,4.729,73.76,97.440948,P-GPS,,29.7
534,332500,2026-01-13 12:25:41,0.0,5,7.622,0.0,0.0,0.0,15.2,5.4,-4.5,1024,1024,1024,1024,0,0,0,0,77,4.412,73.76,97.440948,P-GPS,,29.7
535,332600,2026-01-13 12:25:41,0.0,5,7.622,0.0,0.0,0.0,15.3,5.3,-4.5,1024,1024,1024,1024,0,0,0,0,77,4.412,73.76,97.440948,P-GPS,,29.7
536,332700,2026-01-13 12:25:41,0.0,5,7.622,0.0,0.0,0.0,15.3,5.3,-4.9,1024,1024,1024,1024,0,0,0,0,77,4.412,73.76,97.440948,P-GPS,,29.7
537,332800,2026-01-13 12:25:42,0.0,5,7.622,0.0,0.0,0.0,15.3,4.8,-5.2,1024,1024,1024,1024,0,0,0,0,77,4.412,73.76,97.440948,P-GPS,,29.7
538,332900,2026-01-13 12:25:42,0.0,5,7.622,0.0,0.0,0.0,15.3,4.9,-4.9,1024,1024,1024,1024,0,0,0,0,77,4.412,73.76,97.112864,P-GPS,,29.6
539,333000,2026-01-13 12:25:42,0.0,5,7.622,0.0,0.0,0.0,15.3,4.5,-5.1,1024,1024,1024,1024,0,0,0,0,77,4.412,73.76,97.440948,P-GPS,,29.7
540,333100,2026-01-13 12:25:42,0.0,5,7.622,0.0,0.0,0.0,15.2,4.4,-5.6,1024,1024,1024,1024,0,0,0,0,77,4.412,73.76,97.440948,P-GPS,,29.7
541,333200,2026-01-13 12:25:42,0.0,5,7.622,0.0,0.0,0.0,15.3,4.5,-5.4,1024,1024,1024,1024,0,0,0,0,77,4.412,73.76,97.112864,P-GPS,,29.6
542,333300,2026-01-13 12:25:42,0.0,5,7.622,0.0,0.0,0.0,15.3,5.0,-5.1,1024,1024,1024,1024,0,0,0,0,77,4.412,73.76,97.112864,P-GPS,,29.6
543,333400,2026-01-13 12:25:42,0.0,5,7.622,0.0,0.0,0.0,15.3,5.2,-4.7,1024,1024,1024,1024,0,0,0,0,77,4.412,73.76,97.112864,P-GPS,,29.6
544,333500,2026-01-13 12:25:42,0.0,5,7.622,0.0,0.0,0.0,15.3,5.5,-4.4,1024,1024,1024,1024,0,0,0,0,77,4.412,73.76,97.112864,P-GPS,,29.6
545,333600,2026-01-13 12:25:42,0.0,5,7.622,0.0,0.0,0.0,15.5,5.1,-4.2,1024,1024,1024,1024,0,0,0,0,77,4.412,73.76,97.112864,P-GPS,,29.6
546,333700,2026-01-13 12:25:42,0.0,5,7.622,0.0,0.0,0.0,15.5,5.8,-4.4,1024,1024,1024,1024,0,0,0,0,77,4.412,73.76,97.112864,P-GPS,,29.6
547,333800,2026-01-13 12:25:43,0.0,5,7.622,0.0,0.0,0.0,15.5,6.2,-4.8,1024,1024,1024,1024,0,0,0,0,77,4.412,73.76,97.112864,P-GPS,,29.6
548,333900,2026-01-13 12:25:43,0.0,5,7.622,0.0,0.0,0.0,15.6,6.5,-4.6,1024,1024,1024,1024,0,0,0,0,77,4.412,73.76,97.112864,P-GPS,,29.6
549,334000,2026-01-13 12:25:43,0.0,5,7.622,0.0,0.0,0.0,15.4,6.3,-4.6,1024,1024,1024,1024,0,0,0,0,77,4.412,73.76,97.112864,P-GPS,,29.6
550,334100,2026-01-13 12:25:43,0.0,5,7.622,0.0,0.0,0.0,15.4,6.4,-4.5,1024,1024,1024,1024,0,0,0,0,77,4.412,73.76,97.112864,P-GPS,,29.6
551,334200,2026-01-13 12:25:43,0.0,5,7.622,0.0,0.0,0.0,15.3,6.6,-4.5,1024,1024,1024,1024,0,0,0,0,77,4.412,73.76,96.78478,P-GPS,,29.5
552,334300,2026-01-13 12:25:43,0.0,5,7.622,0.0,0.0,0.0,15.3,6.3,-4.6,1024,1024,1024,1024,0,0,0,0,77,4.412,73.76,96.78478,P-GPS,,29.5
553,334400,2026-01-13 12:25:43,0.0,5,7.622,0.0,0.0,0.0,15.3,6.5,-4.5,1024,1024,1024,1024,0,0,0,0,77,4.412,73.76,96.78478,P-GPS,,29.5
554,334500,2026-01-13 12:25:43,0.0,5,7.622,0.0,0.0,0.0,15.3,6.1,-4.4,1024,1024,1024,1024,0,0,0,0,77,4.412,73.76,96.78478,P-GPS,,29.5
555,334600,2026-01-13 12:25:43,0.0,5,7.617,0.0,0.0,0.0,15.3,6.3,-4.9,1024,1024,1024,1024,0,0,0,0,77,4.489,73.76,96.78478,P-GPS,,29.5
556,334700,2026-01-13 12:25:43,0.0,5,7.617,0.0,0.0,0.0,15.4,6.0,-4.9,1024,1024,1024,1024,0,0,0,0,77,4.489,73.76,96.78478,P-GPS,,29.5
557,334800,2026-01-13 12:25:44,0.0,5,7.617,0.0,0.0,0.0,15.4,6.1,-4.3,1024,1024,1024,1024,0,0,0,0,77,4.489,73.76,96.78478,P-GPS,,29.5
558,334900,2026-01-13 12:25:44,0.0,5,7.617,0.0,0.0,0.0,15.3,6.5,-4.4,1024,1024,1024,1024,0,0,0,0,77,4.489,73.76,96.78478,P-GPS,,29.5
559,335000,2026-01-13 12:25:44,0.0,5,7.617,0.0,0.0,0.0,15.3,6.4,-4.3,1024,1024,1024,1024,0,0,0,0,77,4.489,73.76,96.78478,P-GPS,,29.5
560,335100,2026-01-13 12:25:44,0.0,5,7.617,0.0,0.0,0.0,15.2,6.3,-4.7,1024,1024,1024,1024,0,0,0,0,77,4.489,73.76,96.78478,P-GPS,,29.5
561,335200,2026-01-13 12:25:44,0.0,5,7.617,0.0,0.0,0.0,15.2,6.7,-4.3,1024,1024,1024,1024,0,0,0,0,77,4.489,73.76,96.78478,P-GPS,,29.5
562,335300,2026-01-13 12:25:44,0.0,5,7.617,0.0,0.0,0.0,15.1,5.9,-4.3,1024,1024,1024,1024,0,0,0,0,77,4.489,73.76,96.78478,P-GPS,,29.5
563,335400,2026-01-13 12:25:44,0.0,5,7.617,0.0,0.0,0.0,15.1,6.0,-4.4,1024,1024,1024,1024,0,0,0,0,77,4.489,73.76,96.78478,P-GPS,,29.5
564,335500,2026-01-13 12:25:44,0.0,5,7.617,0.0,0.0,0.0,15.1,5.9,-4.5,1024,1024,1024,1024,0,0,0,0,77,4.489,73.76,96.78478,P-GPS,,29.5
565,335600,2026-01-13 12:25:44,0.0,5,7.617,0.0,0.0,0.0,15.1,5.9,-4.5,1024,1024,1024,1024,0,0,0,0,77,4.489,73.76,96.78478,P-GPS,,29.5
566,335700,2026-01-13 12:25:44,0.223694,5,7.617,-0.223694,0.0,0.0,15.1,5.3,-4.9,1024,1024,1024,1024,0,0,0,0,77,4.489,73.76,96.78478,P-GPS,,29.5
567,335800,2026-01-13 12:25:45,0.223694,5,7.63,-0.223694,0.0,0.0,15.3,4.3,-5.4,1024,1024,1024,1024,0,0,0,0,77,4.262,73.94,96.78478,P-GPS,,29.5
568,335900,2026-01-13 12:25:45,0.223694,5,7.63,0.0,0.0,0.0,15.3,3.9,-5.6,1024,1024,1024,1024,0,0,0,0,77,4.262,73.94,96.78478,P-GPS,,29.5
569,336000,2026-01-13 12:25:45,0.0,5,7.63,0.0,0.0,0.0,15.3,3.9,-5.8,1024,1024,1024,1024,0,0,0,0,77,4.262,73.94,96.78478,P-GPS,,29.5
570,336100,2026-01-13 12:25:45,0.0,5,7.63,0.0,0.0,0.0,15.4,3.7,-6.1,1024,1024,1024,1024,0,0,0,0,77,4.262,73.94,96.78478,P-GPS,,29.5
571,336200,2026-01-13 12:25:45,0.0,5,7.63,0.0,0.0,0.0,15.3,3.7,-5.9,1024,1024,1024,1024,0,0,0,0,77,4.262,73.94,96.78478,P-GPS,,29.5
572,336300,2026-01-13 12:25:45,0.0,5,7.63,0.0,0.0,0.0,15.3,3.9,-5.8,1024,1024,1024,1024,0,0,0,0,77,4.262,73.94,96.78478,P-GPS,,29.5
573,336400,2026-01-13 12:25:45,0.0,5,7.63,0.0,0.0,0.0,15.3,4.0,-5.6,1024,1024,1024,1024,0,0,0,0,77,4.262,73.94,96.78478,P-GPS,,29.5
574,336500,2026-01-13 12:25:45,0.0,5,7.63,0.0,0.0,0.0,15.3,3.3,-5.7,1024,1024,1024,1024,0,0,0,0,77,4.262,73.94,96.78478,P-GPS,,29.5
575,336600,2026-01-13 12:25:45,0.0,5,7.63,0.0,0.0,0.0,15.2,3.3,-5.6,1024,1024,1024,1024,0,0,0,0,77,4.262,73.94,96.78478,P-GPS,,29.5
576,336700,2026-01-13 12:25:45,0.0,5,7.63,0.0,0.0,0.0,15.3,2.7,-5.8,1024,1024,1024,1024,0,0,0,0,77,4.262,73.94,96.78478,P-GPS,,29.5
577,336800,2026-01-13 12:25:46,0.0,5,7.63,0.0,0.0,0.0,15.1,3.2,-5.7,1024,1024,1024,1024,0,0,0,0,77,4.262,73.94,96.456696,P-GPS,,29.4
578,336900,2026-01-13 12:25:46,0.0,5,7.613,0.0,0.0,0.0,15.1,2.4,-6.0,1024,1024,1024,1024,0,0,0,0,77,4.647,73.94,96.456696,P-GPS,,29.4
579,337000,2026-01-13 12:25:46,0.0,5,7.613,0.0,0.0,0.0,15.2,2.3,-5.7,1024,1024,1024,1024,0,0,0,0,77,4.647,73.94,96.456696,P-GPS,,29.4
580,337100,2026-01-13 12:25:46,0.0,5,7.613,0.0,0.0,0.0,15.3,2.4,-5.7,1024,1024,1024,1024,0,0,0,0,77,4.647,73.94,96.456696,P-GPS,,29.4
581,337200,2026-01-13 12:25:46,0.0,5,7.613,0.0,0.0,0.0,15.4,2.4,-5.6,1024,1024,1024,1024,0,0,0,0,77,4.647,73.94,96.456696,P-GPS,,29.4
582,337300,2026-01-13 12:25:46,0.0,5,7.613,0.0,0.0,0.0,15.5,2.3,-5.4,1024,1024,1024,1024,0,0,0,0,77,4.647,73.94,96.456696,P-GPS,,29.4
583,337400,2026-01-13 12:25:46,0.0,5,7.613,0.0,0.0,0.0,15.4,3.1,-5.3,1024,1024,1024,1024,0,0,0,0,77,4.647,73.94,96.456696,P-GPS,,29.4
584,337500,2026-01-13 12:25:46,0.0,5,7.613,0.0,0.0,0.0,15.3,2.9,-5.5,1024,1024,1024,1024,0,0,0,0,77,4.647,73.94,96.456696,P-GPS,,29.4
585,337600,2026-01-13 12:25:46,0.0,5,7.613,0.0,0.0,0.0,15.5,3.2,-5.1,1024,1024,1024,1024,0,0,0,0,77,4.647,73.94,96.78478,P-GPS,,29.5
586,337700,2026-01-13 12:25:46,0.0,5,7.613,0.0,0.0,0.0,15.5,3.5,-5.0,1024,1024,1024,1024,0,0,0,0,77,4.647,73.94,96.78478,P-GPS,,29.5
587,337800,2026-01-13 12:25:47,0.0,5,7.613,0.0,0.0,0.0,15.5,3.9,-4.7,1024,1024,1024,1024,0,0,0,0,77,4.647,73.94,96.78478,P-GPS,,29.5
588,337900,2026-01-13 12:25:47,0.0,5,7.613,0.0,0.0,0.0,15.5,3.6,-4.7,1024,1024,1024,1024,0,0,0,0,77,4.647,73.94,96.78478,P-GPS,,29.5
589,338000,2026-01-13 12:25:47,0.0,5,7.609,0.0,0.0,0.0,15.6,3.0,-4.3,1024,1024,1024,1024,0,0,0,0,77,4.699,73.94,96.78478,P-GPS,,29.5
590,338100,2026-01-13 12:25:47,0.0,5,7.609,0.0,0.0,0.0,15.5,3.2,-4.3,1024,1024,1024,1024,0,0,0,0,77,4.699,73.94,96.78478,P-GPS,,29.5
591,338200,2026-01-13 12:25:47,0.0,5,7.609,0.0,0.0,0.0,15.5,3.8,-4.3,1024,1024,1024,1024,0,0,0,0,77,4.699,73.94,96.78478,P-GPS,,29.5
592,338300,2026-01-13 12:25:47,0.0,5,7.609,0.0,0.0,0.0,15.5,4.0,-4.3,1024,1024,1024,1024,0,0,0,0,77,4.699,73.94,96.78478,P-GPS,,29.5
593,338400,2026-01-13 12:25:47,0.0,5,7.609,0.0,0.0,0.0,15.5,4.3,-4.3,1024,1024,1024,1024,0,0,0,0,77,4.699,73.94,96.78478,P-GPS,,29.5
594,338500,2026-01-13 12:25:47,0.0,5,7.609,0.0,0.0,0.0,15.4,5.2,-4.0,1024,1024,1024,1024,0,0,0,0,77,4.699,73.94,97.112864,P-GPS,,29.6
595,338600,2026-01-13 12:25:47,0.0,5,7.609,0.0,0.0,0.0,15.5,5.8,-4.0,1024,1024,1024,1024,0,0,0,0,77,4.699,73.94,97.112864,P-GPS,,29.6
596,338700,2026-01-13 12:25:47,0.0,5,7.609,0.0,0.0,0.0,15.5,5.7,-4.0,1024,1024,1024,1024,0,0,0,0,77,4.699,73.94,97.112864,P-GPS,,29.6
597,338800,2026-01-13 12:25:48,0.0,5,7.609,0.0,0.0,0.0,15.5,5.2,-4.0,1024,1024,1024,1024,0,0,0,0,77,4.699,73.94,96.78478,P-GPS,,29.5
598,338900,2026-01-13 12:25:48,0.0,5,7.609,0.0,0.0,0.0,15.5,5.3,-4.0,1024,1024,1024,1024,0,0,0,0,77,4.699,73.94,96.78478,P-GPS,,29.5
599,339000,2026-01-13 12:25:48,0.0,5,7.609,0.0,0.0,0.0,15.6,4.8,-3.6,1024,1024,1024,1024,0,0,0,0,77,4.699,73.94,96.78478,P-GPS,,29.5
600,339100,2026-01-13 12:25:48,0.0,5,7.601,0.0,0.0,0.0,15.6,4.3,-4.0,1024,1024,1024,1024,0,0,0,0,77,4.529,73.94,96.78478,P-GPS,,29.5
601,339200,2026-01-13 12:25:48,0.0,5,7.601,0.0,0.0,0.0,15.5,5.2,-3.7,1024,1024,1024,1024,0,0,0,0,77,4.529,73.94,97.112864,P-GPS,,29.6
602,339300,2026-01-13 12:25:48,0.0,5,7.601,0.0,0.0,0.0,15.3,6.0,-4.1,1024,1024,1024,1024,0,0,0,0,77,4.529,73.94,97.112864,P-GPS,,29.6
603,339400,2026-01-13 12:25:48,0.0,5,7.601,0.0,0.0,0.0,15.3,6.7,-3.7,1024,1024,1024,1024,0,0,0,0,77,4.529,73.94,97.112864,P-GPS,,29.6
604,339500,2026-01-13 12:25:48,0.0,5,7.601,0.0,0.0,0.0,15.2,6.6,-4.2,1024,1024,1024,1024,0,0,0,0,77,4.529,73.94,97.112864,P-GPS,,29.6
605,339600,2026-01-13 12:25:48,0.0,5,7.601,0.0,0.0,0.0,15.3,6.5,-4.2,1024,1024,1024,1024,0,0,0,0,77,4.529,73.94,97.112864,P-GPS,,29.6
606,339700,2026-01-13 12:25:48,0.0,5,7.601,0.0,0.0,0.0,15.4,6.1,-4.4,1024,1024,1024,1024,0,0,0,0,77,4.529,73.94,97.112864,P-GPS,,29.6
607,339800,2026-01-13 12:25:49,0.0,5,7.601,0.0,0.0,0.0,15.3,6.3,-4.5,1024,1024,1024,1024,0,0,0,0,77,4.529,73.94,97.112864,P-GPS,,29.6
608,339900,2026-01-13 12:25:49,0.0,5,7.601,0.0,0.0,0.0,15.4,5.9,-4.4,1024,1024,1024,1024,0,0,0,0,77,4.529,73.94,97.112864,P-GPS,,29.6
609,340000,2026-01-13 12:25:49,0.0,5,7.601,0.0,0.0,0.0,15.4,5.5,-4.4,1024,1024,1024,1024,0,0,0,0,77,4.529,73.94,97.112864,P-GPS,,29.6
610,340100,2026-01-13 12:25:49,0.0,5,7.601,0.0,0.0,0.0,15.5,5.4,-4.4,1024,1024,1024,1024,0,0,0,0,77,4.529,73.94,97.112864,P-GPS,,29.6
611,340200,2026-01-13 12:25:49,0.0,5,7.616,0.0,0.0,0.0,15.4,5.2,-4.6,1024,1024,1024,1024,0,0,0,0,77,4.466,73.94,97.112864,P-GPS,,29.6
612,340300,2026-01-13 12:25:49,0.0,5,7.616,0.0,0.0,0.0,15.4,5.7,-4.5,1024,1024,1024,1024,0,0,0,0,77,4.466,73.94,97.112864,P-GPS,,29.6
613,340400,2026-01-13 12:25:49,0.0,5,7.616,0.0,0.0,0.0,15.4,5.6,-4.6,1024,1024,1024,1024,0,0,0,0,77,4.466,73.94,96.78478,P-GPS,,29.5
614,340500,2026-01-13 12:25:49,0.0,5,7.616,0.0,0.0,0.0,15.3,5.8,-4.7,1024,1024,1024,1024,0,0,0,0,77,4.466,73.94,96.78478,P-GPS,,29.5
615,340600,2026-01-13 12:25:49,0.0,5,7.616,0.0,0.0,0.0,15.3,5.8,-4.6,1024,1024,1024,1024,0,0,0,0,77,4.466,73.94,96.78478,P-GPS,,29.5
616,340700,2026-01-13 12:25:49,0.0,5,7.616,0.0,0.0,0.0,15.4,5.3,-4.5,1024,1024,1024,1024,0,0,0,0,77,4.466,73.94,96.78478,P-GPS,,29.5
617,340800,2026-01-13 12:25:50,0.0,5,7.616,0.0,0.0,0.0,15.4,5.2,-4.2,1024,1024,1024,1024,0,0,0,0,77,4.466,73.94,96.78478,P-GPS,,29.5
618,340900,2026-01-13 12:25:50,0.0,5,7.616,0.0,0.0,0.0,15.4,5.5,-4.3,1024,1024,1024,1024,0,0,0,0,77,4.466,73.94,96.78478,P-GPS,,29.5
619,341000,2026-01-13 12:25:50,0.0,5,7.616,0.0,0.0,0.0,15.5,5.9,-4.4,1024,1024,1024,1024,0,0,0,0,77,4.466,73.94,96.78478,P-GPS,,29.5
620,341100,2026-01-13 12:25:50,0.0,5,7.616,0.0,0.0,0.0,15.5,5.7,-4.1,1024,1024,1024,1024,0,0,0,0,77,4.466,73.94,96.456696,P-GPS,,29.4
621,341200,2026-01-13 12:25:50,0.0,5,7.616,0.0,0.0,0.0,15.5,5.6,-4.0,1024,1024,1024,1024,0,0,0,0,77,4.466,73.94,96.456696,P-GPS,,29.4
622,341300,2026-01-13 12:25:50,0.0,5,7.615,0.0,0.0,0.0,15.5,6.5,-4.5,1024,1024,1024,1024,0,0,0,0,77,4.661,73.94,96.456696,P-GPS,,29.4
623,341400,2026-01-13 12:25:50,0.0,5,7.615,0.0,0.0,0.0,15.6,7.0,-4.1,1024,1024,1024,1024,0,0,0,0,77,4.661,73.94,96.456696,P-GPS,,29.4
624,341500,2026-01-13 12:25:50,0.0,5,7.615,0.0,0.0,0.0,15.6,7.1,-4.3,1024,1024,1024,1024,0,0,0,0,77,4.661,73.94,96.456696,P-GPS,,29.4
625,341600,2026-01-13 12:25:50,0.0,5,7.615,0.0,0.0,0.0,15.6,7.7,-4.0,1024,1024,1024,1024,0,0,0,0,77,4.661,73.94,96.456696,P-GPS,,29.4
626,341700,2026-01-13 12:25:51,0.0,5,7.615,0.0,0.0,0.0,15.5,8.2,-4.4,1024,1024,1024,1024,0,0,0,0,77,4.661,73.94,96.456696,P-GPS,,29.4
627,341800,2026-01-13 12:25:51,0.0,5,7.615,0.0,0.0,0.0,15.5,8.3,-4.6,1024,1024,1024,1024,0,0,0,0,77,4.661,73.94,96.456696,P-GPS,,29.4
628,341900,2026-01-13 12:25:51,0.0,5,7.615,0.0,0.0,0.0,15.5,7.8,-4.3,1024,1024,1024,1024,0,0,0,0,77,4.661,73.94,96.456696,P-GPS,,29.4
629,342000,2026-01-13 12:25:51,0.0,5,7.615,0.0,0.0,0.0,15.4,8.2,-4.2,1024,1024,1024,1024,0,0,0,0,77,4.661,73.94,96.456696,P-GPS,,29.4
630,342100,2026-01-13 12:25:51,0.0,5,7.615,0.0,0.0,0.0,15.4,7.8,-4.3,1024,1024,1024,1024,0,0,0,0,77,4.661,73.94,96.456696,P-GPS,,29.4
631,342200,2026-01-13 12:25:51,0.0,5,7.615,0.0,0.0,0.0,15.4,8.2,-4.7,1024,1024,1024,1024,0,0,0,0,77,4.661,73.94,96.128612,P-GPS,,29.3
632,342300,2026-01-13 12:25:51,0.0,5,7.615,0.0,0.0,0.0,15.3,9.0,-4.3,1024,1024,1024,1024,0,0,0,0,77,4.661,73.94,96.128612,P-GPS,,29.3
633,342400,2026-01-13 12:25:51,0.0,5,7.618,0.0,0.0,0.0,15.3,9.1,-4.3,1024,1024,1024,1024,0,0,0,0,77,4.795,74.12,96.128612,P-GPS,,29.3
634,342500,2026-01-13 12:25:51,0.0,5,7.618,0.0,0.0,0.0,15.5,7.7,-4.0,1024,1024,1024,1024,0,0,0,0,77,4.795,74.12,96.128612,P-GPS,,29.3
635,342600,2026-01-13 12:25:51,0.0,5,7.618,0.0,0.0,0.0,15.5,6.7,-4.1,1024,1024,1024,1024,0,0,0,0,77,4.795,74.12,96.128612,P-GPS,,29.3
636,342700,2026-01-13 12:25:51,0.0,5,7.618,0.0,0.0,0.0,15.4,6.8,-4.5,1024,1024,1024,1024,0,0,0,0,77,4.795,74.12,96.128612,P-GPS,,29.3
637,342800,2026-01-13 12:25:52,0.0,5,7.618,0.0,0.0,0.0,15.3,6.5,-4.5,1024,1024,1024,1024,0,0,0,0,77,4.795,74.12,96.128612,P-GPS,,29.3
638,342900,2026-01-13 12:25:52,0.0,5,7.618,0.0,0.0,0.0,15.1,7.2,-4.3,1024,1024,1024,1024,0,0,0,0,77,4.795,74.12,96.128612,P-GPS,,29.3
639,343000,2026-01-13 12:25:52,0.223694,5,7.618,-0.223694,0.0,0.0,15.4,5.6,-4.3,1024,1024,1024,1024,0,0,0,0,77,4.795,74.12,96.128612,P-GPS,,29.3
640,343100,2026-01-13 12:25:52,0.223694,5,7.618,-0.223694,0.0,0.0,15.4,5.1,-4.7,1024,1024,1024,1024,0,0,0,0,77,4.795,74.12,96.128612,P-GPS,,29.3
641,343200,2026-01-13 12:25:52,0.223694,5,7.618,0.0,0.0,0.0,15.4,4.5,-4.3,1024,1024,1024,1024,0,0,0,0,77,4.795,74.12,96.128612,P-GPS,,29.3
642,343300,2026-01-13 12:25:52,0.0,5,7.618,0.0,0.0,0.0,15.4,4.7,-4.0,1024,1024,1024,1024,0,0,0,0,77,4.795,74.12,96.128612,P-GPS,,29.3
643,343400,2026-01-13 12:25:52,0.0,5,7.618,0.0,0.0,0.0,15.4,4.7,-4.2,1024,1024,1024,1024,0,0,0,0,77,4.795,74.12,96.128612,P-GPS,,29.3
644,343500,2026-01-13 12:25:52,0.0,5,7.618,0.0,0.0,0.0,15.3,6.0,-4.4,1024,1024,1024,1024,0,0,0,0,77,4.795,74.12,96.128612,P-GPS,,29.3
645,343600,2026-01-13 12:25:52,0.0,5,7.618,0.0,0.0,0.0,15.5,5.0,-4.7,1024,1024,1024,1024,0,0,0,0,77,4.795,74.12,96.128612,P-GPS,,29.3
646,343700,2026-01-13 12:25:52,0.0,5,7.618,0.0,0.0,0.0,15.5,5.4,-4.3,1024,1024,1024,1024,0,0,0,0,77,4.795,74.12,96.128612,P-GPS,,29.3
647,343800,2026-01-13 12:25:53,0.0,5,7.618,0.0,0.0,0.0,15.3,7.0,-5.6,1024,1024,1024,1024,0,0,0,0,77,4.795,74.12,96.128612,P-GPS,,29.3
648,343900,2026-01-13 12:25:53,0.0,5,7.618,0.0,0.0,0.0,15.3,8.7,-4.9,1024,1024,1024,1024,0,0,0,0,77,4.795,74.12,96.128612,P-GPS,,29.3
649,344000,2026-01-13 12:25:53,0.0,5,7.618,0.0,0.0,0.0,15.3,8.8,-4.6,1024,1024,1024,1024,0,0,0,0,77,4.795,74.12,96.128612,P-GPS,,29.3
650,344100,2026-01-13 12:25:53,0.0,5,7.618,0.0,0.0,0.0,15.3,8.1,-4.8,1024,1024,1024,1024,0,0,0,0,77,4.795,74.12,96.128612,P-GPS,,29.3
651,344200,2026-01-13 12:25:53,0.0,5,7.618,0.0,0.0,0.0,15.3,7.7,-4.7,1024,1024,1024,1024,0,0,0,0,77,4.795,74.12,95.800528,P-GPS,,29.2
652,344300,2026-01-13 12:25:53,0.0,5,7.618,0.0,0.0,0.0,15.4,7.5,-4.9,1024,1024,1024,1024,0,0,0,0,77,4.795,74.12,95.800528,P-GPS,,29.2
653,344400,2026-01-13 12:25:53,0.0,5,7.618,0.0,0.0,0.0,15.2,7.6,-4.7,1024,1024,1024,1024,0,0,0,0,77,4.795,74.12,95.800528,P-GPS,,29.2
654,344500,2026-01-13 12:25:53,0.0,5,7.618,0.0,0.0,0.0,15.3,8.0,-4.9,1024,1024,1024,1024,0,0,0,0,77,4.795,74.12,95.800528,P-GPS,,29.2
655,344600,2026-01-13 12:25:53,0.0,5,7.602,0.0,0.0,0.0,15.3,8.1,-4.8,1024,1024,1024,1024,0,0,0,0,77,4.691,74.12,95.800528,P-GPS,,29.2
656,344700,2026-01-13 12:25:53,0.0,5,7.602,0.0,0.0,0.0,15.3,8.1,-4.5,1024,1024,1024,1024,0,0,0,0,77,4.691,74.12,95.800528,P-GPS,,29.2
657,344800,2026-01-13 12:25:54,0.0,5,7.602,0.0,0.0,0.0,15.3,7.7,-4.8,1024,1024,1024,1024,0,0,0,0,77,4.691,74.12,95.800528,P-GPS,,29.2
658,344900,2026-01-13 12:25:54,0.0,5,7.602,0.0,0.0,0.0,15.2,8.1,-4.3,1024,1024,1024,1024,0,0,0,0,77,4.691,74.12,95.800528,P-GPS,,29.2
659,345000,2026-01-13 12:25:54,0.0,5,7.602,0.0,0.0,0.0,15.2,7.8,-4.6,1024,1024,1024,1024,0,0,0,0,77,4.691,74.12,95.800528,P-GPS,,29.2
660,345100,2026-01-13 12:25:54,0.0,5,7.602,0.0,0.0,0.0,15.3,7.2,-4.3,1024,1024,1024,1024,0,0,0,0,77,4.691,74.12,96.128612,P-GPS,,29.3
661,345200,2026-01-13 12:25:54,0.0,5,7.602,0.0,0.0,0.0,15.5,6.1,-4.4,1024,1024,1024,1024,0,0,0,0,77,4.691,74.12,96.128612,P-GPS,,29.3
662,345300,2026-01-13 12:25:54,0.0,5,7.602,0.0,0.0,0.0,15.3,6.3,-5.0,1024,1024,1024,1024,0,0,0,0,77,4.691,74.12,96.128612,P-GPS,,29.3
663,345400,2026-01-13 12:25:54,0.0,5,7.602,0.0,0.0,0.0,15.3,6.9,-3.8,1024,1024,1024,1024,0,0,0,0,77,4.691,74.12,96.128612,P-GPS,,29.3
664,345500,2026-01-13 12:25:54,0.0,5,7.602,0.0,0.0,-0.223694,15.3,6.3,-3.2,1024,1024,1024,1024,0,0,0,0,77,4.691,74.12,96.128612,P-GPS,,29.3
