index,time(millisecond),timestamp,speed(mph),gpslevel,voltage(v),xSpeed(mph),ySpeed(mph),zSpeed(mph),compass_heading(degrees),pitch(degrees),roll(degrees),rc_elevator,rc_aileron,rc_throttle,rc_rudder,rc_elevator(percent),rc_aileron(percent),rc_throttle(percent),rc_rudder(percent),battery_percent,current(A),battery_temperature(f),ascent(feet),flycState,message,height_above_takeoff(meters)
786,357700,2026-01-13 12:26:06,0.0,5,7.497,0.0,0.0,0.0,13.9,6.9,-9.3,1024,1024,1024,1024,0,0,0,0,76,6.508,74.3,164.042,P-GPS,,50.0
787,357800,2026-01-13 12:26:07,0.223694,5,7.497,0.0,-0.223694,0.0,14.1,6.2,-8.9,1024,1024,1024,1024,0,0,0,0,76,6.508,74.3,164.042,P-GPS,,50.0
788,357900,2026-01-13 12:26:07,0.223694,5,7.592,0.0,-0.223694,0.0,14.0,6.9,-8.7,1024,1024,1024,1024,0,0,0,0,76,4.046,74.48,164.042,P-GPS,,50.0
789,358000,2026-01-13 12:26:07,0.223694,5,7.592,0.0,-0.223694,0.0,14.0,6.8,-8.5,1024,1024,1024,1024,0,0,0,0,76,4.046,74.48,164.042,P-GPS,,50.0
790,358100,2026-01-13 12:26:07,0.0,5,7.592,0.0,0.0,0.0,14.1,6.2,-8.5,1024,1024,1024,1024,0,0,0,0,76,4.046,74.48,164.042,P-GPS,Strong wind warning Strong wind warning. Aircraft unable to return to home automatically. Lower altitude immediately and return to home manually (Code: 30149). SD card speed low. Normal use may be affected. Replace SD card (Code: 10028). Gimbal stuck. Make sure gimbal c,50.0
791,358200,2026-01-13 12:26:07,0.0,5,7.592,0.0,0.0,0.0,14.1,6.1,-8.4,1024,1024,1024,1024,0,0,0,0,76,4.046,74.48,164.042,P-GPS,,50.0
792,358300,2026-01-13 12:26:07,0.0,5,7.592,0.0,0.0,0.0,14.0,6.9,-8.4,1024,1024,1024,1024,0,0,0,0,76,4.046,74.48,164.042,P-GPS,,50.0
793,358400,2026-01-13 12:26:07,0.0,5,7.592,0.0,0.0,0.0,13.9,7.2,-8.4,1024,1024,1024,1024,0,0,0,0,76,4.046,74.48,164.042,P-GPS,,50.0
794,358500,2026-01-13 12:26:07,0.0,5,7.592,0.0,0.0,0.0,14.0,6.9,-8.4,1024,1024,1024,1024,0,0,0,0,76,4.046,74.48,164.042,P-GPS,,50.0
795,358600,2026-01-13 12:26:07,0.0,5,7.592,0.0,0.0,0.0,14.0,7.3,-8.2,1024,1024,1024,1024,0,0,0,0,76,4.046,74.48,164.042,P-GPS,,50.0
796,358700,2026-01-13 12:26:07,0.0,5,7.592,0.0,0.0,0.0,13.9,7.7,-8.7,1024,1024,1024,1024,0,0,0,0,76,4.046,74.48,164.042,P-GPS,,50.0
797,358800,2026-01-13 12:26:08,0.0,5,7.592,0.0,0.0,0.0,13.9,7.5,-8.6,1024,1024,1024,1024,0,0,0,0,76,4.046,74.48,164.042,P-GPS,,50.0
798,358900,2026-01-13 12:26:08,0.0,5,7.592,0.0,0.0,0.0,14.0,7.3,-8.6,1024,1024,1024,1024,0,0,0,0,76,4.046,74.48,164.042,P-GPS,,50.0
799,359000,2026-01-13 12:26:08,0.0,5,7.591,0.0,0.0,0.0,13.9,7.8,-8.9,1024,1024,1024,1024,0,0,0,0,75,4.475,74.48,164.042,P-GPS,,50.0
800,359100,2026-01-13 12:26:08,0.0,5,7.591,0.0,0.0,0.0,13.9,7.7,-9.2,1024,1024,1024,1024,0,0,0,0,75,4.475,74.48,164.042,P-GPS,,50.0
801,359200,2026-01-13 12:26:08,0.0,5,7.591,0.0,0.0,0.0,14.0,7.3,-9.4,1024,1024,1024,1024,0,0,0,0,75,4.475,74.48,164.370084,P-GPS,,50.1
802,359300,2026-01-13 12:26:08,0.0,5,7.591,0.0,0.0,0.0,14.0,7.1,-9.6,1024,1024,1024,1024,0,0,0,0,75,4.475,74.48,164.370084,P-GPS,,50.1
803,359400,2026-01-13 12:26:08,0.0,5,7.591,0.0,0.0,0.0,14.0,6.7,-10.0,1024,1024,1024,1024,0,0,0,0,75,4.475,74.48,164.370084,P-GPS,,50.1
804,359500,2026-01-13 12:26:08,0.0,5,7.591,0.0,0.0,0.0,14.0,6.9,-10.3,1024,1024,1024,1024,0,0,0,0,75,4.475,74.48,164.370084,P-GPS,,50.1
805,359600,2026-01-13 12:26:08,0.0,5,7.591,0.0,0.0,0.0,13.9,7.4,-10.4,1024,1024,1024,1024,0,0,0,0,75,4.475,74.48,164.370084,P-GPS,,50.1
806,359700,2026-01-13 12:26:08,0.0,5,7.591,0.0,0.0,0.0,13.9,7.4,-10.3,1024,1024,1024,1024,0,0,0,0,75,4.475,74.48,164.698168,P-GPS,,50.2
807,359800,2026-01-13 12:26:09,0.0,5,7.591,0.0,0.0,0.0,13.8,7.8,-10.3,1024,1024,1024,1024,0,0,0,0,75,4.475,74.48,164.698168,P-GPS,,50.2
808,359900,2026-01-13 12:26:09,0.0,5,7.591,0.0,0.0,0.0,13.9,7.3,-10.2,1024,1024,1024,1024,0,0,0,0,75,4.475,74.48,164.698168,P-GPS,,50.2
809,360000,2026-01-13 12:26:09,0.0,5,7.591,0.0,0.0,0.0,14.0,7.0,-10.6,1024,1024,1024,1024,0,0,0,0,75,4.475,74.48,164.698168,P-GPS,,50.2
810,360100,2026-01-13 12:26:09,0.0,5,7.563,0.0,0.0,0.0,13.9,7.5,-10.8,1024,1024,1024,1024,0,0,0,0,75,4.889,74.48,164.698168,P-GPS,,50.2
811,360200,2026-01-13 12:26:09,0.0,5,7.563,0.0,0.0,0.0,13.8,8.2,-11.1,1024,1024,1024,1024,0,0,0,0,75,4.889,74.48,165.026252,P-GPS,,50.3
812,360300,2026-01-13 12:26:09,0.0,5,7.563,0.0,0.0,0.0,13.9,7.9,-11.2,1024,1024,1024,1024,0,0,0,0,75,4.889,74.48,165.026252,P-GPS,,50.3
813,360400,2026-01-13 12:26:09,0.0,5,7.563,0.0,0.0,0.0,13.9,8.1,-11.4,1024,1024,1024,1024,0,0,0,0,75,4.889,74.48,165.026252,P-GPS,,50.3
814,360500,2026-01-13 12:26:09,0.0,5,7.563,0.0,0.0,0.0,13.9,8.2,-10.8,1024,1024,1024,1024,0,0,0,0,75,4.889,74.48,165.026252,P-GPS,,50.3
815,360600,2026-01-13 12:26:09,0.0,5,7.563,0.0,0.0,0.0,13.8,8.1,-10.6,1024,1024,1024,1024,0,0,0,0,75,4.889,74.48,165.026252,P-GPS,,50.3
816,360700,2026-01-13 12:26:10,0.0,5,7.563,0.0,0.0,0.0,13.7,8.0,-11.0,1024,1024,1024,1024,0,0,0,0,75,4.889,74.48,165.354336,P-GPS,,50.4
817,360800,2026-01-13 12:26:10,0.0,5,7.563,0.0,0.0,0.0,13.7,8.1,-11.4,1024,1024,1024,1024,0,0,0,0,75,4.889,74.48,165.354336,P-GPS,,50.4
818,360900,2026-01-13 12:26:10,0.0,5,7.563,0.0,0.0,0.0,13.7,7.8,-11.3,1024,1024,1024,1024,0,0,0,0,75,4.889,74.48,165.354336,P-GPS,,50.4
819,361000,2026-01-13 12:26:10,0.0,5,7.563,0.0,0.0,0.0,13.9,7.0,-11.2,1024,1024,1024,1024,0,0,0,0,75,4.889,74.48,165.354336,P-GPS,,50.4
820,361100,2026-01-13 12:26:10,0.0,5,7.563,0.0,0.0,0.0,13.8,7.1,-11.8,1024,1024,1024,1024,0,0,0,0,75,4.889,74.48,165.354336,P-GPS,,50.4
821,361200,2026-01-13 12:26:10,0.0,5,7.555,0.0,0.0,0.223694,13.8,7.3,-11.7,1024,1024,1024,1024,0,0,0,0,75,5.038,74.48,165.354336,P-GPS,,50.4
822,361300,2026-01-13 12:26:10,0.0,5,7.555,0.0,0.0,0.0,13.8,7.3,-11.8,1024,1024,1024,1024,0,0,0,0,75,5.038,74.48,165.354336,P-GPS,,50.4
823,361400,2026-01-13 12:26:10,0.0,5,7.555,0.0,0.0,0.0,13.8,7.4,-11.6,1024,1024,1024,1024,0,0,0,0,75,5.038,74.48,165.354336,P-GPS,,50.4
824,361500,2026-01-13 12:26:10,0.0,5,7.555,0.0,0.0,0.0,13.8,7.4,-11.5,1024,1024,1024,1024,0,0,0,0,75,5.038,74.48,165.354336,P-GPS,,50.4
825,361600,2026-01-13 12:26:10,0.0,5,7.555,0.0,0.0,0.0,13.8,7.4,-11.2,1024,1024,1024,1024,0,0,0,0,75,5.038,74.48,165.354336,P-GPS,,50.4
826,361700,2026-01-13 12:26:10,0.0,5,7.555,0.0,0.0,0.0,13.8,7.3,-11.2,1024,1024,1024,1024,0,0,0,0,75,5.038,74.48,165.354336,P-GPS,,50.4
827,361800,2026-01-13 12:26:11,0.0,5,7.555,0.0,0.0,0.0,13.8,7.4,-11.1,1024,1024,1024,1024,0,0,0,0,75,5.038,74.48,165.354336,P-GPS,,50.4
828,361900,2026-01-13 12:26:11,0.0,5,7.555,0.0,0.0,0.0,13.8,7.6,-10.6,1024,1024,1024,1024,0,0,0,0,75,5.038,74.48,165.354336,P-GPS,,50.4
829,362000,2026-01-13 12:26:11,0.0,5,7.555,0.0,0.0,0.0,13.9,7.4,-10.9,1024,1024,1024,1024,0,0,0,0,75,5.038,74.48,165.354336,P-GPS,,50.4
830,362100,2026-01-13 12:26:11,0.0,5,7.555,0.0,0.0,0.0,13.9,7.6,-10.8,1024,1024,1024,1024,0,0,0,0,75,5.038,74.48,165.354336,P-GPS,,50.4
831,362200,2026-01-13 12:26:11,0.0,5,7.555,0.0,0.0,0.0,13.9,7.7,-11.2,1024,1024,1024,1024,0,0,0,0,75,5.038,74.48,165.354336,P-GPS,,50.4
832,362300,2026-01-13 12:26:11,0.0,5,7.549,0.0,0.0,0.0,13.8,7.7,-11.1,1024,1024,1024,1024,0,0,0,0,75,5.457,74.48,165.354336,P-GPS,,50.4
833,362400,2026-01-13 12:26:11,0.0,5,7.549,0.0,0.0,0.0,13.8,7.6,-10.8,1024,1024,1024,1024,0,0,0,0,75,5.457,74.48,165.354336,P-GPS,,50.4
834,362500,2026-01-13 12:26:11,0.0,5,7.549,0.0,0.0,0.0,13.9,7.7,-10.4,1024,1024,1024,1024,0,0,0,0,75,5.457,74.48,165.354336,P-GPS,,50.4
835,362600,2026-01-13 12:26:11,0.0,5,7.549,0.0,0.0,0.0,13.8,8.2,-10.3,1024,1024,1024,1024,0,0,0,0,75,5.457,74.48,165.354336,P-GPS,,50.4
836,362700,2026-01-13 12:26:11,0.0,5,7.549,0.0,0.0,0.0,13.8,8.0,-10.0,1024,1024,1024,1024,0,0,0,0,75,5.457,74.48,165.354336,P-GPS,,50.4
837,362800,2026-01-13 12:26:12,0.0,5,7.549,0.0,0.0,0.0,13.9,7.7,-9.8,1024,1024,1024,1024,0,0,0,0,75,5.457,74.48,165.354336,P-GPS,,50.4
838,362900,2026-01-13 12:26:12,0.0,5,7.549,0.0,0.0,0.0,14.0,7.3,-9.5,1024,1024,1024,1024,0,0,0,0,75,5.457,74.48,165.354336,P-GPS,,50.4
839,363000,2026-01-13 12:26:12,0.0,5,7.549,0.0,0.0,0.0,14.0,7.1,-9.6,1024,1024,1024,1024,0,0,0,0,75,5.457,74.48,165.354336,P-GPS,,50.4
840,363100,2026-01-13 12:26:12,0.0,5,7.549,0.0,0.0,0.0,14.0,7.4,-9.5,1024,1024,1024,1024,0,0,0,0,75,5.457,74.48,165.354336,P-GPS,,50.4
841,363200,2026-01-13 12:26:12,0.0,5,7.549,0.0,0.0,-0.223694,14.0,7.6,-9.7,1024,1024,1024,1024,0,0,0,0,75,5.457,74.48,165.354336,P-GPS,,50.4
842,363300,2026-01-13 12:26:12,0.0,5,7.549,0.0,0.0,0.0,14.0,8.5,-9.4,1024,1024,1024,1024,0,0,0,0,75,5.457,74.48,165.354336,P-GPS,,50.4
843,363400,2026-01-13 12:26:12,0.0,5,7.549,0.0,0.0,0.0,13.9,9.3,-9.4,1024,1024,1024,1024,0,0,0,0,75,5.457,74.48,165.354336,P-GPS,,50.4
844,363500,2026-01-13 12:26:12,0.0,5,7.574,0.0,0.0,0.0,13.9,9.0,-9.9,1024,1024,1024,1024,0,0,0,0,75,5.168,74.48,165.354336,P-GPS,,50.4
845,363600,2026-01-13 12:26:12,0.0,5,7.574,0.0,0.0,0.0,13.7,10.0,-10.1,1024,1024,1024,1024,0,0,0,0,75,5.168,74.48,165.354336,P-GPS,,50.4
846,363700,2026-01-13 12:26:12,0.0,5,7.574,0.0,0.0,0.0,13.7,9.8,-10.3,1024,1024,1024,1024,0,0,0,0,75,5.168,74.48,165.354336,P-GPS,,50.4
847,363800,2026-01-13 12:26:13,0.0,5,7.574,0.0,0.0,0.0,13.8,9.5,-10.3,1024,1024,1024,1024,0,0,0,0,75,5.168,74.48,165.026252,P-GPS,,50.3
848,363900,2026-01-13 12:26:13,0.0,5,7.574,0.0,0.0,0.0,13.9,9.2,-10.2,1024,1024,1024,1024,0,0,0,0,75,5.168,74.48,165.026252,P-GPS,,50.3
849,364000,2026-01-13 12:26:13,0.0,5,7.574,0.0,0.0,0.0,13.9,9.1,-10.0,1024,1024,1024,1024,0,0,0,0,75,5.168,74.48,165.026252,P-GPS,,50.3
850,364100,2026-01-13 12:26:13,0.0,5,7.574,0.0,0.0,0.0,14.0,8.8,-9.7,1024,1024,1024,1024,0,0,0,0,75,5.168,74.48,165.026252,P-GPS,,50.3
851,364200,2026-01-13 12:26:13,0.0,5,7.574,0.0,0.0,0.0,13.9,8.9,-9.6,1024,1024,1024,1024,0,0,0,0,75,5.168,74.48,165.026252,P-GPS,,50.3
852,364300,2026-01-13 12:26:13,0.0,5,7.574,0.0,0.0,0.0,13.9,9.0,-9.7,1024,1024,1024,1024,0,0,0,0,75,5.168,74.48,165.026252,P-GPS,,50.3
853,364400,2026-01-13 12:26:13,0.0,5,7.574,0.0,0.0,0.0,13.9,8.8,-9.4,1024,1024,1024,1024,0,0,0,0,75,5.168,74.48,165.026252,P-GPS,,50.3
854,364500,2026-01-13 12:26:13,0.0,5,7.574,0.0,0.0,0.0,13.9,8.5,-9.3,1024,1024,1024,1024,0,0,0,0,75,5.168,74.48,165.026252,P-GPS,,50.3
855,364600,2026-01-13 12:26:13,0.0,5,7.556,0.0,0.0,0.0,13.8,8.8,-9.4,1024,1024,1024,1024,0,0,0,0,75,4.951,74.48,165.026252,P-GPS,,50.3
856,364700,2026-01-13 12:26:13,0.0,5,7.556,0.0,0.0,0.0,13.9,8.8,-10.0,1024,1024,1024,1024,0,0,0,0,75,4.951,74.48,165.026252,P-GPS,,50.3
857,364800,2026-01-13 12:26:14,0.0,5,7.556,0.0,0.0,0.0,13.9,8.5,-9.8,1024,1024,1024,1024,0,0,0,0,75,4.951,74.48,165.026252,P-GPS,,50.3
858,364900,2026-01-13 12:26:14,0.0,5,7.556,0.0,0.0,0.0,13.9,8.7,-9.8,1024,1024,1024,1024,0,0,0,0,75,4.951,74.48,165.026252,P-GPS,,50.3
859,365000,2026-01-13 12:26:14,0.0,5,7.556,0.0,0.0,0.0,13.9,8.9,-10.0,1024,1024,1024,1024,0,0,0,0,75,4.951,74.48,165.026252,P-GPS,,50.3
860,365100,2026-01-13 12:26:14,0.0,5,7.556,0.0,0.0,0.0,13.9,8.9,-10.3,1024,1024,1024,1024,0,0,0,0,75,4.951,74.48,165.026252,P-GPS,,50.3
861,365200,2026-01-13 12:26:14,0.0,5,7.556,0.0,0.0,0.0,13.7,9.5,-10.5,1024,1024,1024,1024,0,0,0,0,75,4.951,74.48,165.026252,P-GPS,,50.3
862,365300,2026-01-13 12:26:14,0.0,5,7.556,0.0,0.0,0.0,13.7,9.4,-10.8,1024,1024,1024,1024,0,0,0,0,75,4.951,74.48,165.026252,P-GPS,,50.3
863,365400,2026-01-13 12:26:14,0.0,5,7.556,0.0,0.0,0.0,13.7,9.1,-10.6,1024,1024,1024,1024,0,0,0,0,75,4.951,74.48,165.026252,P-GPS,,50.3
864,365500,2026-01-13 12:26:14,0.0,5,7.556,0.0,0.0,0.0,13.7,9.1,-10.9,1024,1024,1024,1024,0,0,0,0,75,4.951,74.48,165.026252,P-GPS,,50.3
865,365600,2026-01-13 12:26:14,0.0,5,7.556,0.0,0.0,0.0,13.6,9.6,-10.8,1024,1024,1024,1024,0,0,0,0,75,4.951,74.48,165.026252,P-GPS,,50.3
866,365700,2026-01-13 12:26:14,0.0,5,7.538,0.0,0.0,0.0,13.7,9.5,-11.1,1024,1024,1024,1024,0,0,0,0,75,5.33,74.66,165.026252,P-GPS,,50.3
867,365800,2026-01-13 12:26:15,0.0,5,7.538,0.0,0.0,0.0,13.8,9.3,-10.8,1024,1024,1024,1024,0,0,0,0,75,5.33,74.66,165.026252,P-GPS,,50.3
868,365900,2026-01-13 12:26:15,0.0,5,7.538,0.0,0.0,0.0,13.7,9.4,-10.7,1024,1024,1024,1024,0,0,0,0,75,5.33,74.66,165.026252,P-GPS,,50.3
869,366000,2026-01-13 12:26:15,0.0,5,7.538,0.0,0.0,0.0,13.7,9.5,-10.3,1024,1024,1024,1024,0,0,0,0,75,5.33,74.66,165.026252,P-GPS,,50.3
870,366100,2026-01-13 12:26:15,0.0,5,7.538,0.0,0.0,0.0,13.9,8.8,-9.8,1024,1024,1024,1024,0,0,0,0,75,5.33,74.66,165.026252,P-GPS,,50.3
871,366200,2026-01-13 12:26:15,0.0,5,7.538,0.0,0.0,0.0,13.8,9.0,-9.5,1024,1024,1024,1024,0,0,0,0,75,5.33,74.66,165.026252,P-GPS,,50.3
872,366300,2026-01-13 12:26:15,0.0,5,7.538,0.0,0.0,0.0,13.8,9.5,-9.1,1024,1024,1024,1024,0,0,0,0,75,5.33,74.66,165.026252,P-GPS,,50.3
873,366400,2026-01-13 12:26:15,0.0,5,7.538,0.0,0.0,0.0,13.6,10.0,-9.2,1024,1024,1024,1024,0,0,0,0,75,5.33,74.66,165.026252,P-GPS,,50.3
874,366500,2026-01-13 12:26:15,0.0,5,7.538,0.0,0.0,0.0,13.6,9.5,-9.0,1024,1024,1024,1024,0,0,0,0,75,5.33,74.66,164.698168,P-GPS,,50.2
875,366600,2026-01-13 12:26:15,0.0,5,7.538,0.0,0.0,0.0,13.8,8.6,-8.9,1024,1024,1024,1024,0,0,0,0,75,5.33,74.66,164.698168,P-GPS,,50.2
876,366700,2026-01-13 12:26:15,0.0,5,7.538,0.0,0.0,0.0,13.8,8.4,-8.8,1024,1024,1024,1024,0,0,0,0,75,5.33,74.66,164.698168,P-GPS,,50.2
877,366800,2026-01-13 12:26:16,0.0,5,7.565,0.0,0.0,0.0,13.8,8.2,-8.2,1024,1024,1024,1024,0,0,0,0,75,4.787,74.66,164.698168,P-GPS,,50.2
878,366900,2026-01-13 12:26:16,0.0,5,7.565,0.0,0.0,0.0,13.8,8.1,-8.2,1024,1024,1024,1024,0,0,0,0,75,4.787,74.66,164.698168,P-GPS,,50.2
879,367000,2026-01-13 12:26:16,0.0,5,7.565,0.0,0.0,0.0,13.8,7.5,-8.1,1024,1024,1024,1024,0,0,0,0,75,4.787,74.66,164.698168,P-GPS,,50.2
880,367100,2026-01-13 12:26:16,0.0,5,7.565,0.0,0.0,0.0,13.7,8.2,-8.2,1024,1024,1024,1024,0,0,0,0,75,4.787,74.66,164.370084,P-GPS,,50.1
881,367200,2026-01-13 12:26:16,0.0,5,7.565,0.0,0.0,0.0,13.8,7.9,-7.7,1024,1024,1024,1024,0,0,0,0,75,4.787,74.66,164.370084,P-GPS,,50.1
882,367300,2026-01-13 12:26:16,0.0,5,7.565,0.0,0.0,0.0,13.9,7.4,-8.1,1024,1024,1024,1024,0,0,0,0,75,4.787,74.66,164.370084,P-GPS,,50.1
883,367400,2026-01-13 12:26:16,0.0,5,7.565,0.0,0.0,0.0,13.8,7.7,-7.8,1024,1024,1024,1024,0,0,0,0,75,4.787,74.66,164.370084,P-GPS,,50.1
884,367500,2026-01-13 12:26:16,0.0,5,7.565,0.0,0.0,0.0,13.9,7.7,-7.3,1024,1024,1024,1024,0,0,0,0,75,4.787,74.66,164.370084,P-GPS,,50.1
885,367600,2026-01-13 12:26:16,0.0,5,7.565,0.0,0.0,0.0,13.9,6.8,-7.3,1024,1024,1024,1024,0,0,0,0,75,4.787,74.66,164.370084,P-GPS,,50.1
886,367700,2026-01-13 12:26:16,0.223694,5,7.565,-0.223694,0.0,0.0,13.9,6.3,-7.7,1024,1024,1024,1024,0,0,0,0,75,4.787,74.66,164.370084,P-GPS,,50.1
887,367800,2026-01-13 12:26:17,0.223694,5,7.565,-0.223694,0.0,0.0,14.0,6.1,-8.1,1024,1024,1024,1024,0,0,0,0,75,4.787,74.66,164.370084,P-GPS,,50.1
888,367900,2026-01-13 12:26:17,0.223694,5,7.578,-0.223694,0.0,0.0,14.0,5.9,-8.0,1024,1024,1024,1024,0,0,0,0,75,4.329,74.66,164.370084,P-GPS,,50.1
889,368000,2026-01-13 12:26:17,0.223694,5,7.578,-0.223694,0.0,0.0,14.0,5.9,-8.2,1024,1024,1024,1024,0,0,0,0,75,4.329,74.66,164.370084,P-GPS,,50.1
890,368200,2026-01-13 12:26:17,0.0,5,7.578,0.0,0.0,0.0,14.1,5.2,-9.4,1024,1024,1024,1024,0,0,0,0,75,4.329,74.66,164.370084,P-GPS,,50.1
891,368300,2026-01-13 12:26:17,0.0,5,7.578,0.0,0.0,0.0,14.2,5.2,-10.0,1024,1024,1024,1024,0,0,0,0,75,4.329,74.66,164.370084,P-GPS,,50.1
892,368400,2026-01-13 12:26:17,0.0,5,7.578,0.0,0.0,0.0,14.1,6.5,-9.7,1024,1024,1024,1024,0,0,0,0,75,4.329,74.66,164.370084,P-GPS,,50.1
893,368500,2026-01-13 12:26:17,0.0,5,7.578,0.0,0.0,0.0,13.8,7.8,-10.0,1024,1024,1024,1024,0,0,0,0,75,4.329,74.66,164.698168,P-GPS,,50.2
894,368600,2026-01-13 12:26:17,0.0,5,7.578,0.0,0.0,0.0,13.5,8.0,-9.7,1024,1024,1024,1024,0,0,0,0,75,4.329,74.66,164.698168,P-GPS,,50.2
895,368700,2026-01-13 12:26:17,0.0,5,7.578,0.0,0.0,0.0,13.7,7.2,-10.0,1024,1024,1024,1024,0,0,0,0,75,4.329,74.66,164.698168,P-GPS,,50.2
896,368800,2026-01-13 12:26:17,0.0,5,7.578,0.0,0.0,0.0,13.8,7.8,-10.5,1024,1024,1024,1024,0,0,0,0,75,4.329,74.66,165.026252,P-GPS,,50.3
897,368900,2026-01-13 12:26:18,0.223694,5,7.578,0.0,0.223694,0.0,13.8,7.6,-10.8,1024,1024,1024,1024,0,0,0,0,75,4.329,74.66,165.026252,P-GPS,,50.3
898,369000,2026-01-13 12:26:18,0.223694,5,7.592,0.0,0.223694,0.0,13.8,6.6,-11.2,1024,1024,1024,1024,0,0,0,0,75,4.66,74.66,165.026252,P-GPS,,50.3
899,369100,2026-01-13 12:26:18,0.223694,5,7.592,0.0,0.0,0.0,13.7,7.2,-11.6,1024,1024,1024,1024,0,0,0,0,75,4.66,74.66,165.026252,P-GPS,,50.3
900,369200,2026-01-13 12:26:18,0.0,5,7.592,0.0,0.0,0.0,13.8,6.9,-11.6,1024,1024,1024,1024,0,0,0,0,75,4.66,74.66,165.026252,P-GPS,,50.3
901,369300,2026-01-13 12:26:18,0.0,5,7.592,0.0,0.0,0.0,14.0,6.4,-11.0,1024,1024,1024,1024,0,0,0,0,75,4.66,74.66,165.026252,P-GPS,,50.3
902,369400,2026-01-13 12:26:18,0.0,5,7.592,0.0,0.0,0.0,14.1,5.8,-10.9,1024,1024,1024,1024,0,0,0,0,75,4.66,74.66,165.026252,P-GPS,,50.3
903,369500,2026-01-13 12:26:18,0.0,5,7.592,0.0,0.0,0.0,13.9,6.7,-10.7,1024,1024,1024,1024,0,0,0,0,75,4.66,74.66,165.026252,P-GPS,,50.3
904,369600,2026-01-13 12:26:18,0.0,5,7.592,0.0,0.0,0.0,13.7,7.6,-10.6,1024,1024,1024,1024,0,0,0,0,75,4.66,74.66,165.026252,P-GPS,,50.3
905,369700,2026-01-13 12:26:18,0.0,5,7.592,0.0,0.0,0.0,13.9,7.2,-10.4,1024,1024,1024,1024,0,0,0,0,75,4.66,74.66,165.026252,P-GPS,,50.3
906,369800,2026-01-13 12:26:19,0.0,5,7.592,0.0,0.0,0.0,13.8,7.7,-10.7,1024,1024,1024,1024,0,0,0,0,75,4.66,74.66,165.026252,P-GPS,,50.3
907,369900,2026-01-13 12:26:19,0.0,5,7.592,0.0,0.0,0.0,13.9,7.7,-10.7,1024,1024,1024,1024,0,0,0,0,75,4.66,74.66,165.026252,P-GPS,,50.3
908,370000,2026-01-13 12:26:19,0.0,5,7.592,0.0,0.0,0.0,13.9,7.5,-11.3,1024,1024,1024,1024,0,0,0,0,75,4.66,74.66,165.026252,P-GPS,,50.3
909,370100,2026-01-13 12:26:19,0.0,5,7.61,0.0,0.0,0.0,13.8,8.1,-11.5,1024,1024,1024,1024,0,0,0,0,75,4.026,74.66,165.026252,P-GPS,,50.3
910,370200,2026-01-13 12:26:19,0.0,5,7.61,0.0,0.0,0.0,13.7,8.3,-11.4,1024,1024,1024,1024,0,0,0,0,75,4.026,74.66,165.026252,P-GPS,,50.3
911,370300,2026-01-13 12:26:19,0.0,5,7.61,0.0,0.0,0.0,13.8,8.3,-11.4,1024,1024,1024,1024,0,0,0,0,75,4.026,74.66,165.354336,P-GPS,,50.4
912,370400,2026-01-13 12:26:19,0.0,5,7.61,0.0,0.0,0.0,13.7,8.6,-11.2,1024,1024,1024,1024,0,0,0,0,75,4.026,74.66,165.354336,P-GPS,,50.4
913,370500,2026-01-13 12:26:19,0.0,5,7.61,0.0,0.0,0.0,13.7,8.8,-11.4,1024,1024,1024,1024,0,0,0,0,75,4.026,74.66,165.354336,P-GPS,,50.4
914,370600,2026-01-13 12:26:19,0.0,5,7.61,0.0,0.0,0.0,13.5,9.3,-11.7,1024,1024,1024,1024,0,0,0,0,75,4.026,74.66,165.354336,P-GPS,,50.4
915,370700,2026-01-13 12:26:19,0.0,5,7.61,0.0,0.0,0.0,13.6,8.9,-12.0,1024,1024,1024,1024,0,0,0,0,75,4.026,74.66,165.68242,P-GPS,,50.5
916,370800,2026-01-13 12:26:20,0.0,5,7.61,0.0,0.0,0.0,13.6,8.6,-11.4,1024,1024,1024,1024,0,0,0,0,75,4.026,74.66,165.68242,P-GPS,,50.5
917,370900,2026-01-13 12:26:20,0.0,5,7.61,0.0,0.0,0.0,13.8,8.0,-11.4,1024,1024,1024,1024,0,0,0,0,75,4.026,74.66,165.68242,P-GPS,,50.5
918,371000,2026-01-13 12:26:20,0.0,5,7.61,0.0,0.0,0.0,13.7,8.5,-11.7,1024,1024,1024,1024,0,0,0,0,75,4.026,74.66,165.68242,P-GPS,,50.5
919,371100,2026-01-13 12:26:20,0.0,5,7.61,0.0,0.0,0.0,13.6,8.5,-12.5,1024,1024,1024,1024,0,0,0,0,75,4.026,74.66,166.010504,P-GPS,,50.6
920,371200,2026-01-13 12:26:20,0.0,5,7.544,0.0,0.0,0.0,13.6,8.5,-12.3,1024,1024,1024,1024,0,0,0,0,75,5.126,74.66,166.010504,P-GPS,,50.6
921,371300,2026-01-13 12:26:20,0.0,5,7.544,0.0,0.0,0.0,13.6,8.4,-12.3,1024,1024,1024,1024,0,0,0,0,75,5.126,74.66,166.010504,P-GPS,,50.6
922,371400,2026-01-13 12:26:20,0.0,5,7.544,0.0,0.0,0.0,13.7,8.5,-12.8,1024,1024,1024,1024,0,0,0,0,75,5.126,74.66,166.010504,P-GPS,,50.6
923,371500,2026-01-13 12:26:20,0.0,5,7.544,0.0,0.0,0.0,13.6,8.6,-12.9,1024,1024,1024,1024,0,0,0,0,75,5.126,74.66,166.010504,P-GPS,,50.6
924,371600,2026-01-13 12:26:20,0.0,5,7.544,0.0,0.0,0.0,13.7,8.3,-12.7,1024,1024,1024,1024,0,0,0,0,75,5.126,74.66,166.010504,P-GPS,,50.6
925,371700,2026-01-13 12:26:20,0.0,5,7.544,0.0,0.0,0.0,13.6,8.9,-12.7,1024,1024,1024,1024,0,0,0,0,75,5.126,74.66,166.010504,P-GPS,,50.6
926,371800,2026-01-13 12:26:21,0.0,5,7.544,0.0,0.0,0.0,13.5,9.6,-12.4,1024,1024,1024,1024,0,0,0,0,75,5.126,74.66,166.010504,P-GPS,,50.6
927,371900,2026-01-13 12:26:21,0.0,5,7.544,0.0,0.0,0.223694,13.6,9.0,-11.8,1024,1024,1024,1024,0,0,0,0,75,5.126,74.66,166.010504,P-GPS,,50.6
928,372000,2026-01-13 12:26:21,0.0,5,7.544,0.0,0.0,0.0,13.8,8.6,-10.8,1024,1024,1024,1024,0,0,0,0,75,5.126,74.66,166.010504,P-GPS,,50.6
929,372100,2026-01-13 12:26:21,0.0,5,7.544,0.0,0.0,0.0,13.9,8.4,-11.0,1024,1024,1024,1024,0,0,0,0,75,5.126,74.66,166.010504,P-GPS,,50.6
930,372200,2026-01-13 12:26:21,0.0,5,7.544,0.0,0.0,0.0,13.6,9.5,-11.0,1024,1024,1024,1024,0,0,0,0,75,5.126,74.66,166.010504,P-GPS,,50.6
931,372300,2026-01-13 12:26:21,0.0,5,7.539,0.0,0.0,0.0,13.7,8.7,-10.7,1024,1024,1024,1024,0,0,0,0,75,5.332,74.84,166.010504,P-GPS,,50.6
932,372400,2026-01-13 12:26:21,0.0,5,7.539,0.0,0.0,0.0,13.7,8.0,-11.0,1024,1024,1024,1024,0,0,0,0,75,5.332,74.84,166.010504,P-GPS,,50.6
933,372500,2026-01-13 12:26:21,0.0,5,7.539,0.0,0.0,0.0,13.7,7.7,-11.4,1024,1024,1024,1024,0,0,0,0,75,5.332,74.84,166.010504,P-GPS,,50.6
934,372600,2026-01-13 12:26:21,0.0,5,7.539,0.0,0.0,0.0,13.7,7.6,-11.7,1024,1024,1024,1024,0,0,0,0,75,5.332,74.84,166.010504,P-GPS,,50.6
935,372700,2026-01-13 12:26:22,0.0,5,7.539,0.0,0.0,0.0,13.6,7.2,-12.4,1024,1024,1024,1024,0,0,0,0,75,5.332,74.84,165.68242,P-GPS,,50.5
936,372800,2026-01-13 12:26:22,0.0,5,7.539,0.0,0.0,0.0,13.7,7.1,-12.5,1024,1024,1024,1024,0,0,0,0,75,5.332,74.84,165.68242,P-GPS,,50.5
937,372900,2026-01-13 12:26:22,0.0,5,7.539,0.0,0.0,0.0,13.7,6.9,-12.3,1024,1024,1024,1024,0,0,0,0,75,5.332,74.84,165.68242,P-GPS,,50.5
938,373000,2026-01-13 12:26:22,0.0,5,7.539,0.0,0.0,0.0,13.7,7.4,-11.7,1024,1024,1024,1024,0,0,0,0,75,5.332,74.84,165.68242,P-GPS,,50.5
939,373100,2026-01-13 12:26:22,0.0,5,7.539,0.0,0.0,0.0,13.8,6.8,-11.9,1024,1024,1024,1024,0,0,0,0,75,5.332,74.84,165.68242,P-GPS,,50.5
940,373200,2026-01-13 12:26:22,0.0,5,7.539,0.0,0.0,0.0,13.8,7.4,-12.4,1024,1024,1024,1024,0,0,0,0,75,5.332,74.84,165.68242,P-GPS,,50.5
941,373300,2026-01-13 12:26:22,0.0,5,7.539,0.0,0.0,0.0,13.6,7.9,-12.4,1024,1024,1024,1024,0,0,0,0,75,5.332,74.84,165.68242,P-GPS,,50.5
942,373400,2026-01-13 12:26:22,0.0,5,7.532,0.0,0.0,0.0,13.6,7.4,-12.9,1024,1024,1024,1024,0,0,0,0,75,5.34,74.84,166.010504,P-GPS,,50.6
943,373500,2026-01-13 12:26:22,0.0,5,7.532,0.0,0.0,0.0,13.6,6.9,-13.1,1024,1024,1024,1024,0,0,0,0,75,5.34,74.84,166.010504,P-GPS,,50.6
944,373600,2026-01-13 12:26:22,0.0,5,7.532,0.0,0.0,0.0,13.6,7.1,-13.5,1024,1024,1024,1024,0,0,0,0,75,5.34,74.84,166.010504,P-GPS,,50.6
945,373700,2026-01-13 12:26:22,0.0,5,7.532,0.0,0.0,0.0,13.9,6.5,-13.3,1024,1024,1024,1024,0,0,0,0,75,5.34,74.84,166.010504,P-GPS,,50.6
946,373800,2026-01-13 12:26:23,0.0,5,7.532,0.0,0.0,-0.223694,13.9,6.2,-13.9,1024,1024,1024,1024,0,0,0,0,75,5.34,74.84,166.010504,P-GPS,,50.6
947,373900,2026-01-13 12:26:23,0.0,5,7.532,0.0,0.0,0.0,13.7,7.0,-14.3,1024,1024,1024,1024,0,0,0,0,75,5.34,74.84,166.338588,P-GPS,,50.7
948,374000,2026-01-13 12:26:23,0.0,5,7.532,0.0,0.0,0.0,13.5,7.5,-14.3,1024,1024,1024,1024,0,0,0,0,75,5.34,74.84,166.338588,P-GPS,,50.7
949,374100,2026-01-13 12:26:23,0.0,5,7.532,0.0,0.0,0.0,13.6,7.7,-13.4,1024,1024,1024,1024,0,0,0,0,75,5.34,74.84,166.338588,P-GPS,,50.7
950,374200,2026-01-13 12:26:23,0.0,5,7.532,0.0,0.0,0.0,13.5,7.7,-12.8,1024,1024,1024,1024,0,0,0,0,75,5.34,74.84,166.338588,P-GPS,,50.7
951,374300,2026-01-13 12:26:23,0.0,5,7.532,0.0,0.0,0.0,13.8,6.9,-13.0,1024,1024,1024,1024,0,0,0,0,75,5.34,74.84,166.338588,P-GPS,,50.7
952,374400,2026-01-13 12:26:23,0.0,5,7.532,0.0,0.0,0.0,13.8,7.5,-12.8,1024,1024,1024,1024,0,0,0,0,75,5.34,74.84,166.010504,P-GPS,,50.6
953,374500,2026-01-13 12:26:23,0.0,5,7.532,0.0,0.0,0.0,13.7,8.1,-12.9,1024,1024,1024,1024,0,0,0,0,75,5.34,74.84,166.010504,P-GPS,,50.6
954,374600,2026-01-13 12:26:23,0.0,5,7.557,0.0,0.0,0.0,13.8,8.1,-12.6,1024,1024,1024,1024,0,0,0,0,75,5.039,74.84,166.010504,P-GPS,,50.6
955,374700,2026-01-13 12:26:24,0.0,5,7.557,0.0,0.0,0.0,13.7,8.0,-12.3,1024,1024,1024,1024,0,0,0,0,75,5.039,74.84,166.010504,P-GPS,,50.6
956,374800,2026-01-13 12:26:24,0.0,5,7.557,0.0,0.0,0.0,13.6,8.1,-12.0,1024,1024,1024,1024,0,0,0,0,75,5.039,74.84,165.68242,P-GPS,,50.5
957,374900,2026-01-13 12:26:24,0.0,5,7.557,0.0,0.0,0.0,13.8,7.2,-11.9,1024,1024,1024,1024,0,0,0,0,75,5.039,74.84,165.68242,P-GPS,,50.5
958,375000,2026-01-13 12:26:24,0.0,5,7.557,0.0,0.0,0.0,13.8,7.6,-11.5,1024,1024,1024,1024,0,0,0,0,75,5.039,74.84,165.68242,P-GPS,,50.5
959,375100,2026-01-13 12:26:24,0.0,5,7.557,0.0,0.0,0.0,13.8,7.6,-11.1,1024,1024,1024,1024,0,0,0,0,75,5.039,74.84,165.354336,P-GPS,,50.4
960,375200,2026-01-13 12:26:24,0.0,5,7.557,0.0,0.0,0.0,13.9,7.5,-11.1,1024,1024,1024,1024,0,0,0,0,75,5.039,74.84,165.354336,P-GPS,,50.4
961,375300,2026-01-13 12:26:24,0.0,5,7.557,0.0,0.0,0.0,13.9,7.9,-11.1,1024,1024,1024,1024,0,0,0,0,75,5.039,74.84,165.026252,P-GPS,Strong wind warning. Aircraft unable to return to home automatically. Lower altitude immediately and return to home manually (Code: 30149). Gimbal stuck. Make sure gimbal cover is removed and manually check whether gimbal can rotate freely (Code: 400,50.3
962,375400,2026-01-13 12:26:24,0.0,5,7.557,0.0,0.0,0.0,13.8,8.0,-10.7,1024,1024,1024,1024,0,0,0,0,75,5.039,74.84,165.026252,P-GPS,,50.3
963,375500,2026-01-13 12:26:24,0.0,5,7.557,0.0,0.0,0.0,14.0,7.7,-10.1,1024,1024,1024,1024,0,0,0,0,75,5.039,74.84,165.026252,P-GPS,,50.3
964,375600,2026-01-13 12:26:24,0.0,5,7.557,0.0,0.0,0.0,13.9,7.9,-9.8,1024,1024,1024,1024,0,0,0,0,75,5.039,74.84,165.026252,P-GPS,,50.3
965,375700,2026-01-13 12:26:24,0.0,5,7.557,0.0,0.0,0.0,13.8,8.2,-9.7,1024,1024,1024,1024,0,0,0,0,75,5.039,74.84,165.026252,P-GPS,,50.3
966,375800,2026-01-13 12:26:25,0.0,5,7.557,0.0,0.0,0.0,13.8,8.4,-9.8,1024,1024,1024,1024,0,0,0,0,75,5.039,74.84,165.026252,P-GPS,,50.3
967,375900,2026-01-13 12:26:25,0.0,5,7.557,0.0,0.0,0.0,13.8,8.7,-10.0,1024,1024,1024,1024,0,0,0,0,75,5.039,74.84,165.026252,P-GPS,Strong wind warning. Aircraft unable to return to home automatically. Lower altitude immediately and return to home manually (Code: 30149). Gimbal stuck. Make sure gimbal cover is removed and manually check whether gimbal can rotate freely (Code: 400,50.3
968,376000,2026-01-13 12:26:25,0.0,5,7.557,0.0,0.0,0.0,13.8,8.8,-10.2,1024,1024,1024,1024,0,0,0,0,74,5.039,74.84,165.026252,P-GPS,,50.3
969,376100,2026-01-13 12:26:25,0.0,5,7.557,0.0,0.0,0.0,13.8,8.8,-10.4,1024,1024,1024,1024,0,0,0,0,74,5.039,74.84,164.698168,P-GPS,,50.2
970,376200,2026-01-13 12:26:25,0.0,5,7.557,0.0,0.0,0.0,13.8,8.9,-10.3,1024,1024,1024,1024,0,0,0,0,74,5.039,74.84,164.698168,P-GPS,,50.2
971,376300,2026-01-13 12:26:25,0.0,5,7.557,0.0,0.0,0.0,13.8,9.1,-10.2,1024,1024,1024,1024,0,0,0,0,74,5.039,74.84,164.698168,P-GPS,Strong wind warning. Aircraft unable to return to home automatically. Lower altitude immediately and return to home manually (Code: 30149). Gimbal stuck. Make sure gimbal cover is removed and manually check whether gimbal can rotate freely (Code: 400,50.2
972,376400,2026-01-13 12:26:25,0.0,5,7.557,0.0,0.0,0.0,13.7,9.2,-10.5,1024,1024,1024,1024,0,0,0,0,74,5.039,74.84,164.698168,P-GPS,,50.2
973,376500,2026-01-13 12:26:25,0.0,5,7.557,0.0,0.0,0.0,13.8,9.0,-10.4,1024,1024,1024,1024,0,0,0,0,74,5.039,74.84,164.698168,P-GPS,,50.2
974,376600,2026-01-13 12:26:25,0.0,5,7.557,0.0,0.0,0.0,13.8,9.3,-10.7,1024,1024,1024,1024,0,0,0,0,74,5.039,74.84,164.698168,P-GPS,,50.2
975,376700,2026-01-13 12:26:25,0.0,5,7.557,0.0,0.0,0.0,13.7,9.7,-10.5,1024,1024,1024,1024,0,0,0,0,74,5.039,74.84,164.698168,P-GPS,,50.2
976,376800,2026-01-13 12:26:26,0.0,5,7.558,0.0,0.0,0.0,13.6,9.8,-10.4,1024,1024,1024,1024,0,0,0,0,74,4.749,74.84,164.698168,P-GPS,,50.2
977,376900,2026-01-13 12:26:26,0.0,5,7.558,0.0,0.0,0.0,13.7,8.7,-9.7,1024,1024,1024,1024,0,0,0,0,74,4.749,74.84,164.698168,P-GPS,,50.2
978,377000,2026-01-13 12:26:26,0.0,5,7.558,0.0,0.0,0.0,13.9,7.6,-9.8,1024,1024,1024,1024,0,0,0,0,74,4.749,74.84,164.698168,P-GPS,,50.2
979,377100,2026-01-13 12:26:26,0.0,5,7.558,0.0,0.0,0.0,13.9,8.1,-10.1,1024,1024,1024,1024,0,0,0,0,74,4.749,74.84,164.698168,P-GPS,,50.2
980,377200,2026-01-13 12:26:26,0.0,5,7.558,0.0,0.0,0.0,13.9,8.5,-10.5,1024,1024,1024,1024,0,0,0,0,74,4.749,74.84,164.698168,P-GPS,,50.2
981,377300,2026-01-13 12:26:26,0.0,5,7.558,0.0,0.0,0.0,13.7,9.2,-10.6,1024,1024,1024,1024,0,0,0,0,74,4.749,74.84,164.698168,P-GPS,,50.2
982,377400,2026-01-13 12:26:26,0.0,5,7.558,0.0,0.0,0.0,13.7,9.3,-10.8,1024,1024,1024,1024,0,0,0,0,74,4.749,74.84,164.698168,P-GPS,,50.2
983,377500,2026-01-13 12:26:26,0.0,5,7.558,0.0,0.0,0.0,13.7,9.7,-10.6,1024,1024,1024,1024,0,0,0,0,74,4.749,74.84,164.698168,P-GPS,,50.2
984,377600,2026-01-13 12:26:26,0.0,5,7.558,0.0,0.0,0.0,13.5,10.6,-11.0,1024,1024,1024,1024,0,0,0,0,74,4.749,74.84,165.026252,P-GPS,,50.3
985,377700,2026-01-13 12:26:26,0.0,5,7.558,0.0,0.0,0.223694,13.3,10.2,-11.3,1024,1024,1024,1024,0,0,0,0,74,4.749,74.84,165.026252,P-GPS,,50.3
986,377800,2026-01-13 12:26:27,0.0,5,7.558,0.0,0.0,0.0,13.4,9.2,-11.4,1024,1024,1024,1024,0,0,0,0,74,4.749,74.84,165.026252,P-GPS,,50.3
987,377900,2026-01-13 12:26:27,0.223694,5,7.534,-0.223694,0.0,0.223694,13.5,8.4,-11.4,1024,1024,1024,1024,0,0,0,0,74,5.19,74.84,165.026252,P-GPS,,50.3
988,378000,2026-01-13 12:26:27,0.223694,5,7.534,-0.223694,0.0,0.0,13.7,6.8,-10.8,1024,1024,1024,1024,0,0,0,0,74,5.19,74.84,165.026252,P-GPS,,50.3
989,378100,2026-01-13 12:26:27,0.223694,5,7.534,-0.223694,0.0,0.0,13.7,6.5,-10.3,1024,1024,1024,1024,0,0,0,0,74,5.19,74.84,165.026252,P-GPS,,50.3
990,378200,2026-01-13 12:26:27,0.223694,5,7.534,-0.223694,0.0,0.0,14.0,5.6,-10.0,1024,1024,1024,1024,0,0,0,0,74,5.19,74.84,164.698168,P-GPS,,50.2
991,378300,2026-01-13 12:26:27,0.223694,5,7.534,-0.223694,0.0,0.0,14.0,4.8,-9.7,1024,1024,1024,1024,0,0,0,0,74,5.19,74.84,164.698168,P-GPS,,50.2
992,378400,2026-01-13 12:26:27,0.223694,5,7.534,-0.223694,0.0,0.0,14.0,4.7,-10.1,1024,1024,1024,1024,0,0,0,0,74,5.19,74.84,164.698168,P-GPS,,50.2
993,378500,2026-01-13 12:26:27,0.0,5,7.534,0.0,0.0,0.0,14.0,4.8,-10.4,1024,1024,1024,1024,0,0,0,0,74,5.19,74.84,164.698168,P-GPS,,50.2
994,378600,2026-01-13 12:26:27,0.0,5,7.534,0.0,0.0,0.0,13.8,6.0,-10.0,1024,1024,1024,1024,0,0,0,0,74,5.19,74.84,164.698168,P-GPS,,50.2
995,378700,2026-01-13 12:26:27,0.0,5,7.534,0.0,0.0,0.0,13.8,5.6,-9.9,1024,1024,1024,1024,0,0,0,0,74,5.19,74.84,164.698168,P-GPS,,50.2
996,378800,2026-01-13 12:26:28,0.0,5,7.534,0.0,0.0,0.0,14.0,5.2,-10.2,1024,1024,1024,1024,0,0,0,0,74,5.19,74.84,164.370084,P-GPS,,50.1
997,378900,2026-01-13 12:26:28,0.0,5,7.534,0.0,0.0,0.0,14.1,4.6,-10.2,1024,1024,1024,1024,0,0,0,0,74,5.19,74.84,164.370084,P-GPS,,50.1
998,379000,2026-01-13 12:26:28,0.0,5,7.497,0.0,0.0,0.0,14.1,4.7,-10.2,1024,1024,1024,1024,0,0,0,0,74,6.035,74.84,164.370084,P-GPS,,50.1
999,379100,2026-01-13 12:26:28,0.0,5,7.497,0.0,0.0,0.0,14.0,4.6,-10.0,1024,1024,1024,1024,0,0,0,0,74,6.035,74.84,164.370084,P-GPS,,50.1
1000,379200,2026-01-13 12:26:28,0.0,5,7.497,0.0,0.0,0.0,14.0,4.7,-9.7,1024,1024,1024,1024,0,0,0,0,74,6.035,74.84,164.370084,P-GPS,,50.1
1001,379300,2026-01-13 12:26:28,0.0,5,7.497,0.0,0.0,0.0,14.0,5.2,-9.3,1024,1024,1024,1024,0,0,0,0,74,6.035,74.84,164.370084,P-GPS,,50.1
1002,379400,2026-01-13 12:26:28,0.0,5,7.497,0.0,0.0,0.0,14.1,5.4,-9.2,1024,1024,1024,1024,0,0,0,0,74,6.035,74.84,164.042,P-GPS,,50.0
1003,379500,2026-01-13 12:26:28,0.0,5,7.497,0.0,0.0,0.0,14.1,5.6,-9.0,1024,1024,1024,1024,0,0,0,0,74,6.035,74.84,164.042,P-GPS,,50.0
1004,379600,2026-01-13 12:26:28,0.0,5,7.497,0.0,0.0,0.0,14.0,6.1,-9.1,1024,1024,1024,1024,0,0,0,0,74,6.035,74.84,164.042,P-GPS,,50.0
1005,379700,2026-01-13 12:26:28,0.0,5,7.497,0.0,0.0,0.0,13.9,6.9,-9.3,1024,1024,1024,1024,0,0,0,0,74,6.035,74.84,164.042,P-GPS,,50.0
1006,379800,2026-01-13 12:26:29,0.0,5,7.497,0.0,0.0,0.0,13.9,7.2,-8.9,1024,1024,1024,1024,0,0,0,0,74,6.035,74.84,164.042,P-GPS,,50.0
1007,379900,2026-01-13 12:26:29,0.0,5,7.497,0.0,0.0,0.0,13.9,7.2,-9.3,1024,1024,1024,1024,0,0,0,0,74,6.035,74.84,164.042,P-GPS,,50.0
1008,380000,2026-01-13 12:26:29,0.0,5,7.497,0.0,0.0,0.0,13.8,7.3,-9.1,1024,1024,1024,1024,0,0,0,0,74,6.035,74.84,164.042,P-GPS,,50.0
1009,380100,2026-01-13 12:26:29,0.0,5,7.496,0.0,0.0,0.0,13.9,7.1,-9.2,1024,1024,1024,1024,0,0,0,0,74,5.681,74.84,164.042,P-GPS,,50.0
1010,380200,2026-01-13 12:26:29,0.0,5,7.496,0.0,0.0,0.0,14.0,6.6,-9.3,1024,1024,1024,1024,0,0,0,0,74,5.681,74.84,164.042,P-GPS,,50.0
1011,380300,2026-01-13 12:26:29,0.0,5,7.496,0.0,0.0,0.0,13.9,7.0,-9.2,1024,1024,1024,1024,0,0,0,0,74,5.681,74.84,164.042,P-GPS,,50.0
1012,380400,2026-01-13 12:26:29,0.0,5,7.496,0.0,0.0,0.0,14.0,6.5,-8.9,1024,1024,1024,1024,0,0,0,0,74,5.681,74.84,164.042,P-GPS,,50.0
1013,380500,2026-01-13 12:26:29,0.0,5,7.496,0.0,0.0,-0.223694,14.0,6.4,-9.0,1024,1024,1024,1024,0,0,0,0,74,5.681,74.84,164.042,P-GPS,,50.0
1014,380600,2026-01-13 12:26:29,0.0,5,7.496,0.0,0.0,0.0,14.0,6.5,-9.2,1024,1024,1024,1024,0,0,0,0,74,5.681,74.84,164.042,P-GPS,,50.0
1015,380700,2026-01-13 12:26:29,0.0,5,7.496,0.0,0.0,0.0,13.8,6.9,-8.8,1024,1024,1024,1024,0,0,0,0,74,5.681,74.84,164.042,P-GPS,,50.0
1016,380800,2026-01-13 12:26:30,0.0,5,7.496,0.0,0.0,0.0,14.0,6.5,-8.8,1024,1024,1024,1024,0,0,0,0,74,5.681,74.84,164.042,P-GPS,,50.0
1017,380900,2026-01-13 12:26:30,0.0,5,7.496,0.0,0.0,0.0,14.1,5.9,-8.6,1024,1024,1024,1024,0,0,0,0,74,5.681,74.84,164.042,P-GPS,,50.0
1018,381000,2026-01-13 12:26:30,0.0,5,7.496,0.0,0.0,0.0,14.1,5.6,-8.5,1024,1024,1024,1024,0,0,0,0,74,5.681,74.84,164.042,P-GPS,,50.0
1019,381100,2026-01-13 12:26:30,0.0,5,7.496,0.0,0.0,0.0,14.0,6.7,-8.4,1024,1024,1024,1024,0,0,0,0,74,5.681,74.84,164.042,P-GPS,,50.0
1020,381200,2026-01-13 12:26:30,0.0,5,7.495,0.0,0.0,0.0,14.1,6.4,-8.2,1024,1024,1024,1024,0,0,0,0,74,5.833,74.84,164.042,P-GPS,,50.0
1021,381300,2026-01-13 12:26:30,0.0,5,7.495,0.0,0.0,0.0,14.2,5.6,-7.9,1024,1024,1024,1024,0,0,0,0,74,5.833,74.84,164.042,P-GPS,,50.0
1022,381400,2026-01-13 12:26:30,0.0,5,7.495,0.0,0.0,0.0,14.1,6.1,-8.1,1024,1024,1024,1024,0,0,0,0,74,5.833,74.84,164.042,P-GPS,,50.0
1023,381500,2026-01-13 12:26:30,0.0,5,7.495,0.0,0.0,0.0,14.1,6.2,-8.5,1024,1024,1024,1024,0,0,0,0,74,5.833,74.84,164.042,P-GPS,,50.0
1024,381600,2026-01-13 12:26:30,0.0,5,7.495,0.0,0.0,0.0,14.0,6.0,-8.9,1024,1024,1024,1024,0,0,0,0,74,5.833,74.84,164.042,P-GPS,,50.0
1025,381700,2026-01-13 12:26:31,0.0,5,7.495,0.0,0.0,0.0,13.8,6.2,-9.2,1024,1024,1024,1024,0,0,0,0,74,5.833,74.84,164.370084,P-GPS,,50.1
