index,time(millisecond),timestamp,speed(mph),gpslevel,voltage(v),xSpeed(mph),ySpeed(mph),zSpeed(mph),compass_heading(degrees),pitch(degrees),roll(degrees),rc_elevator,rc_aileron,rc_throttle,rc_rudder,rc_elevator(percent),rc_aileron(percent),rc_throttle(percent),rc_rudder(percent),battery_percent,current(A),battery_temperature(f),ascent(feet),flycState,message,height_above_takeoff(meters)
830,225800,2026-01-12 12:09:41,0.0,5,7.755,0.0,0.0,0.0,18.2,5.1,-2.5,1024,1024,1024,1024,0,0,0,0,85,4.775,68.0,166.666672,P-GPS,,50.8
831,225900,2026-01-12 12:09:41,0.0,5,7.755,0.0,0.0,0.0,18.1,5.3,-2.3,1024,1024,1024,1024,0,0,0,0,85,4.775,68.0,166.666672,P-GPS,,50.8
832,226000,2026-01-12 12:09:41,0.0,5,7.755,0.0,0.0,0.0,18.2,5.3,-2.1,1024,1024,1024,1024,0,0,0,0,85,4.775,68.0,166.666672,P-GPS,,50.8
833,226100,2026-01-12 12:09:41,0.0,5,7.755,0.0,0.0,0.0,18.1,5.1,-2.2,1024,1024,1024,1024,0,0,0,0,85,4.775,68.0,166.666672,P-GPS,,50.8
834,226200,2026-01-12 12:09:41,0.0,5,7.755,0.0,0.0,0.0,18.2,4.6,-1.9,1024,1024,1024,1024,0,0,0,0,85,4.775,68.0,166.666672,P-GPS,,50.8
835,226300,2026-01-12 12:09:41,0.0,5,7.755,0.0,0.0,0.0,18.2,4.9,-1.9,1024,1024,1024,1024,0,0,0,0,85,4.775,68.0,166.666672,P-GPS,,50.8
836,226400,2026-01-12 12:09:41,0.0,5,7.755,0.0,0.0,0.0,18.3,5.1,-1.4,1024,1024,1024,1024,0,0,0,0,85,4.775,68.0,166.666672,P-GPS,,50.8
837,226500,2026-01-12 12:09:41,0.0,5,7.755,0.0,0.0,0.0,18.2,5.1,-1.6,1024,1024,1024,1024,0,0,0,0,85,4.775,68.0,166.666672,P-GPS,,50.8
838,226600,2026-01-12 12:09:42,0.0,5,7.683,0.0,0.0,0.0,18.2,5.6,-1.4,1024,1024,1024,1024,0,0,0,0,85,5.21,68.0,166.666672,P-GPS,,50.8
839,226700,2026-01-12 12:09:42,0.0,5,7.683,0.0,0.0,0.0,18.2,5.6,-1.4,1024,1024,1024,1024,0,0,0,0,85,5.21,68.0,166.666672,P-GPS,,50.8
840,226800,2026-01-12 12:09:42,0.0,5,7.683,0.0,0.0,0.0,18.3,5.5,-1.2,1024,1024,1024,1024,0,0,0,0,85,5.21,68.0,166.666672,P-GPS,,50.8
841,226900,2026-01-12 12:09:42,0.0,5,7.683,0.0,0.0,0.0,18.3,5.6,-1.4,1024,1024,1024,1024,0,0,0,0,85,5.21,68.0,166.666672,P-GPS,,50.8
842,227000,2026-01-12 12:09:42,0.0,5,7.683,0.0,0.0,0.0,18.4,5.8,-2.1,1024,1024,1024,1024,0,0,0,0,85,5.21,68.0,166.666672,P-GPS,,50.8
843,227100,2026-01-12 12:09:42,0.0,5,7.683,0.0,0.0,0.0,18.2,7.0,-2.3,1024,1024,1024,1024,0,0,0,0,85,5.21,68.0,166.666672,P-GPS,,50.8
844,227200,2026-01-12 12:09:42,0.0,5,7.683,0.0,0.0,0.0,18.2,7.0,-2.0,1024,1024,1024,1024,0,0,0,0,85,5.21,68.0,166.666672,P-GPS,,50.8
845,227300,2026-01-12 12:09:42,0.0,5,7.683,0.0,0.0,0.0,18.2,6.7,-2.0,1024,1024,1024,1024,0,0,0,0,85,5.21,68.0,166.666672,P-GPS,,50.8
846,227400,2026-01-12 12:09:42,0.0,5,7.683,0.0,0.0,0.0,18.2,6.4,-2.2,1024,1024,1024,1024,0,0,0,0,85,5.21,68.0,166.666672,P-GPS,,50.8
847,227500,2026-01-12 12:09:42,0.0,5,7.683,0.0,0.0,0.0,18.1,7.2,-2.2,1024,1024,1024,1024,0,0,0,0,85,5.21,68.0,166.666672,P-GPS,,50.8
848,227600,2026-01-12 12:09:43,0.0,5,7.683,0.0,0.0,0.0,18.1,6.7,-2.2,1024,1024,1024,1024,0,0,0,0,85,5.21,68.0,166.666672,P-GPS,,50.8
849,227700,2026-01-12 12:09:43,0.0,5,7.704,0.0,0.0,0.0,18.1,6.4,-2.4,1024,1024,1024,1024,0,0,0,0,85,4.867,68.0,166.338588,P-GPS,,50.7
850,227800,2026-01-12 12:09:43,0.0,5,7.704,0.0,0.0,0.0,18.1,6.0,-2.4,1024,1024,1024,1024,0,0,0,0,85,4.867,68.0,166.338588,P-GPS,,50.7
851,227900,2026-01-12 12:09:43,0.0,5,7.704,0.0,0.0,0.0,18.1,6.0,-2.1,1024,1024,1024,1024,0,0,0,0,85,4.867,68.0,166.338588,P-GPS,,50.7
852,228000,2026-01-12 12:09:43,0.0,5,7.704,0.0,0.0,0.223694,18.2,5.7,-1.6,1024,1024,1024,1024,0,0,0,0,85,4.867,68.0,166.338588,P-GPS,,50.7
853,228100,2026-01-12 12:09:43,0.0,5,7.704,0.0,0.0,0.0,18.2,5.9,-1.6,1024,1024,1024,1024,0,0,0,0,85,4.867,68.0,166.338588,P-GPS,,50.7
854,228200,2026-01-12 12:09:43,0.0,5,7.704,0.0,0.0,0.0,18.2,5.8,-1.6,1024,1024,1024,1024,0,0,0,0,85,4.867,68.0,166.338588,P-GPS,,50.7
855,228300,2026-01-12 12:09:43,0.0,5,7.704,0.0,0.0,0.0,18.2,6.2,-2.1,1024,1024,1024,1024,0,0,0,0,85,4.867,68.0,166.338588,P-GPS,,50.7
856,228400,2026-01-12 12:09:43,0.0,5,7.704,0.0,0.0,0.0,18.1,6.2,-2.3,1024,1024,1024,1024,0,0,0,0,85,4.867,68.0,166.338588,P-GPS,,50.7
857,228500,2026-01-12 12:09:43,0.0,5,7.704,0.0,0.0,0.0,18.1,6.0,-2.5,1024,1024,1024,1024,0,0,0,0,85,4.867,68.0,166.338588,P-GPS,,50.7
858,228600,2026-01-12 12:09:44,0.0,5,7.704,0.0,0.0,0.0,18.1,5.9,-2.1,1024,1024,1024,1024,0,0,0,0,85,4.867,68.0,166.010504,P-GPS,,50.6
859,228700,2026-01-12 12:09:44,0.0,5,7.704,0.0,0.0,0.0,18.1,6.1,-2.3,1024,1024,1024,1024,0,0,0,0,85,4.867,68.0,166.010504,P-GPS,,50.6
860,228800,2026-01-12 12:09:44,0.0,5,7.69,0.0,0.0,0.0,18.1,6.0,-2.5,1024,1024,1024,1024,0,0,0,0,84,4.856,68.18,166.010504,P-GPS,,50.6
861,228900,2026-01-12 12:09:44,0.0,5,7.69,0.0,0.0,0.0,18.1,6.1,-2.5,1024,1024,1024,1024,0,0,0,0,84,4.856,68.18,166.010504,P-GPS,,50.6
862,229000,2026-01-12 12:09:44,0.0,5,7.69,0.0,0.0,0.0,18.1,6.1,-2.4,1024,1024,1024,1024,0,0,0,0,84,4.856,68.18,166.010504,P-GPS,,50.6
863,229100,2026-01-12 12:09:44,0.0,5,7.69,0.0,0.0,0.0,18.1,6.4,-2.3,1024,1024,1024,1024,0,0,0,0,84,4.856,68.18,166.010504,P-GPS,,50.6
864,229200,2026-01-12 12:09:44,0.0,5,7.69,0.0,0.0,0.0,18.1,6.4,-2.3,1024,1024,1024,1024,0,0,0,0,84,4.856,68.18,166.010504,P-GPS,,50.6
865,229300,2026-01-12 12:09:44,0.0,5,7.69,0.0,0.0,0.0,18.1,6.2,-2.2,1024,1024,1024,1024,0,0,0,0,84,4.856,68.18,166.010504,P-GPS,,50.6
866,229400,2026-01-12 12:09:44,0.0,5,7.69,0.0,0.0,0.0,18.1,5.9,-1.9,1024,1024,1024,1024,0,0,0,0,84,4.856,68.18,166.010504,P-GPS,,50.6
867,229500,2026-01-12 12:09:44,0.0,5,7.69,0.0,0.0,0.0,18.1,6.0,-1.8,1024,1024,1024,1024,0,0,0,0,84,4.856,68.18,166.010504,P-GPS,,50.6
868,229600,2026-01-12 12:09:45,0.0,5,7.69,0.0,0.0,0.0,18.1,6.1,-2.2,1024,1024,1024,1024,0,0,0,0,84,4.856,68.18,165.68242,P-GPS,,50.5
869,229700,2026-01-12 12:09:45,0.0,5,7.69,0.0,0.0,0.0,18.1,6.4,-2.2,1024,1024,1024,1024,0,0,0,0,84,4.856,68.18,165.68242,P-GPS,,50.5
870,229800,2026-01-12 12:09:45,0.0,5,7.69,0.0,0.0,0.0,18.1,6.7,-2.2,1024,1024,1024,1024,0,0,0,0,84,4.856,68.18,165.68242,P-GPS,,50.5
871,229900,2026-01-12 12:09:45,0.0,5,7.7,0.0,0.0,0.0,18.0,6.6,-2.3,1024,1024,1024,1024,0,0,0,0,84,4.752,68.18,165.68242,P-GPS,,50.5
872,230000,2026-01-12 12:09:45,0.0,5,7.7,0.0,0.0,0.0,18.1,6.5,-2.1,1024,1024,1024,1024,0,0,0,0,84,4.752,68.18,165.68242,P-GPS,,50.5
873,230100,2026-01-12 12:09:45,0.0,5,7.7,0.0,0.0,0.0,18.1,6.5,-1.9,1024,1024,1024,1024,0,0,0,0,84,4.752,68.18,165.68242,P-GPS,,50.5
874,230200,2026-01-12 12:09:45,0.0,5,7.7,0.0,0.0,0.0,18.1,6.4,-1.6,1024,1024,1024,1024,0,0,0,0,84,4.752,68.18,165.68242,P-GPS,,50.5
875,230300,2026-01-12 12:09:45,0.0,5,7.7,0.0,0.0,0.0,18.1,6.3,-1.2,1024,1024,1024,1024,0,0,0,0,84,4.752,68.18,165.68242,P-GPS,,50.5
876,230400,2026-01-12 12:09:45,0.0,5,7.7,0.0,0.0,0.0,18.1,6.3,-1.1,1024,1024,1024,1024,0,0,0,0,84,4.752,68.18,165.68242,P-GPS,,50.5
877,230500,2026-01-12 12:09:45,0.0,5,7.7,0.0,0.0,0.0,18.1,5.9,-1.0,1024,1024,1024,1024,0,0,0,0,84,4.752,68.18,165.354336,P-GPS,,50.4
878,230600,2026-01-12 12:09:46,0.0,5,7.7,0.0,0.0,0.0,18.0,6.0,-1.0,1024,1024,1024,1024,0,0,0,0,84,4.752,68.18,165.354336,P-GPS,,50.4
879,230700,2026-01-12 12:09:46,0.0,5,7.7,0.0,0.0,0.0,18.0,6.1,-1.2,1024,1024,1024,1024,0,0,0,0,84,4.752,68.18,165.354336,P-GPS,,50.4
880,230800,2026-01-12 12:09:46,0.0,5,7.7,0.0,0.0,0.0,18.1,6.4,-1.3,1024,1024,1024,1024,0,0,0,0,84,4.752,68.18,165.354336,P-GPS,,50.4
881,230900,2026-01-12 12:09:46,0.0,5,7.7,0.0,0.0,0.0,18.2,6.1,-1.4,1024,1024,1024,1024,0,0,0,0,84,4.752,68.18,165.354336,P-GPS,,50.4
882,231000,2026-01-12 12:09:46,0.0,5,7.703,0.0,0.0,0.0,18.2,6.2,-1.5,1024,1024,1024,1024,0,0,0,0,84,4.814,68.18,165.354336,P-GPS,,50.4
883,231100,2026-01-12 12:09:46,0.0,5,7.703,0.0,0.0,0.0,18.2,6.4,-1.6,1024,1024,1024,1024,0,0,0,0,84,4.814,68.18,165.354336,P-GPS,,50.4
884,231200,2026-01-12 12:09:46,0.0,5,7.703,0.0,0.0,0.0,18.1,6.9,-1.6,1024,1024,1024,1024,0,0,0,0,84,4.814,68.18,165.026252,P-GPS,,50.3
885,231300,2026-01-12 12:09:46,0.0,5,7.703,0.0,0.0,0.0,18.1,7.4,-1.3,1024,1024,1024,1024,0,0,0,0,84,4.814,68.18,165.026252,P-GPS,,50.3
886,231400,2026-01-12 12:09:46,0.0,5,7.703,0.0,0.0,0.0,18.2,7.7,-1.2,1024,1024,1024,1024,0,0,0,0,84,4.814,68.18,165.026252,P-GPS,,50.3
887,231500,2026-01-12 12:09:46,0.0,5,7.703,0.0,0.0,0.0,18.2,7.8,-1.1,1024,1024,1024,1024,0,0,0,0,84,4.814,68.18,164.698168,P-GPS,,50.2
888,231600,2026-01-12 12:09:47,0.0,5,7.703,0.0,0.0,0.0,18.1,7.5,-1.2,1024,1024,1024,1024,0,0,0,0,84,4.814,68.18,164.698168,P-GPS,,50.2
889,231700,2026-01-12 12:09:47,0.0,5,7.703,0.0,0.0,0.0,18.0,6.7,-0.5,1024,1024,1024,1024,0,0,0,0,84,4.814,68.18,164.698168,P-GPS,,50.2
890,231800,2026-01-12 12:09:47,0.0,5,7.703,0.0,0.0,0.0,18.2,6.3,0.0,1024,1024,1024,1024,0,0,0,0,84,4.814,68.18,164.698168,P-GPS,,50.2
891,231900,2026-01-12 12:09:47,0.0,5,7.703,0.0,0.0,0.0,18.2,6.5,-0.3,1024,1024,1024,1024,0,0,0,0,84,4.814,68.18,164.698168,P-GPS,,50.2
892,232000,2026-01-12 12:09:47,0.0,5,7.703,0.0,0.0,0.0,18.1,6.2,-0.2,1024,1024,1024,1024,0,0,0,0,84,4.814,68.18,164.698168,P-GPS,,50.2
893,232100,2026-01-12 12:09:47,0.0,5,7.703,0.0,0.0,0.0,18.1,5.8,0.0,1024,1024,1024,1024,0,0,0,0,84,4.814,68.18,164.370084,P-GPS,,50.1
894,232200,2026-01-12 12:09:47,0.0,5,7.711,0.0,0.0,0.0,18.2,6.0,0.2,1024,1024,1024,1024,0,0,0,0,84,4.392,68.18,164.370084,P-GPS,,50.1
895,232300,2026-01-12 12:09:47,0.0,5,7.711,0.0,0.0,0.0,18.3,6.1,-0.2,1024,1024,1024,1024,0,0,0,0,84,4.392,68.18,164.370084,P-GPS,,50.1
896,232400,2026-01-12 12:09:47,0.0,5,7.711,0.0,0.0,0.0,18.3,6.3,-0.6,1024,1024,1024,1024,0,0,0,0,84,4.392,68.18,164.370084,P-GPS,,50.1
897,232500,2026-01-12 12:09:47,0.0,5,7.711,0.0,0.0,0.0,18.3,6.4,-1.3,1024,1024,1024,1024,0,0,0,0,84,4.392,68.18,164.370084,P-GPS,,50.1
898,232600,2026-01-12 12:09:48,0.0,5,7.711,0.0,0.0,0.0,18.3,6.2,-1.3,1024,1024,1024,1024,0,0,0,0,84,4.392,68.18,164.370084,P-GPS,,50.1
899,232700,2026-01-12 12:09:48,0.0,5,7.711,0.0,0.0,0.0,18.2,6.5,-1.4,1024,1024,1024,1024,0,0,0,0,84,4.392,68.18,164.370084,P-GPS,,50.1
900,232800,2026-01-12 12:09:48,0.0,5,7.711,0.0,0.0,0.0,18.3,6.5,-1.0,1024,1024,1024,1024,0,0,0,0,84,4.392,68.18,164.370084,P-GPS,,50.1
901,232900,2026-01-12 12:09:48,0.0,5,7.711,0.0,0.0,0.0,18.4,6.7,-1.5,1024,1024,1024,1024,0,0,0,0,84,4.392,68.18,164.370084,P-GPS,,50.1
902,233000,2026-01-12 12:09:48,0.0,5,7.711,0.0,0.0,0.0,18.3,7.2,-1.9,1024,1024,1024,1024,0,0,0,0,84,4.392,68.18,164.370084,P-GPS,,50.1
903,233100,2026-01-12 12:09:48,0.0,5,7.711,0.0,0.0,0.0,18.2,7.6,-2.4,1024,1024,1024,1024,0,0,0,0,84,4.392,68.18,164.370084,P-GPS,,50.1
904,233200,2026-01-12 12:09:48,0.0,5,7.711,0.0,0.0,0.0,18.3,7.7,-2.0,1024,1024,1024,1024,0,0,0,0,84,4.392,68.18,164.370084,P-GPS,,50.1
905,233300,2026-01-12 12:09:48,0.0,5,7.721,0.0,0.0,0.0,18.3,8.0,-1.8,1024,1024,1024,1024,0,0,0,0,84,4.309,68.18,164.042,P-GPS,,50.0
906,233400,2026-01-12 12:09:48,0.0,5,7.721,0.0,0.0,0.0,18.4,8.5,-2.1,1024,1024,1024,1024,0,0,0,0,84,4.309,68.18,164.042,P-GPS,,50.0
907,233500,2026-01-12 12:09:48,0.0,5,7.721,0.0,0.0,0.0,18.3,8.5,-3.2,1024,1024,1024,1024,0,0,0,0,84,4.309,68.18,164.042,P-GPS,,50.0
908,233600,2026-01-12 12:09:49,0.0,5,7.721,0.0,0.0,0.0,18.3,8.6,-3.4,1024,1024,1024,1024,0,0,0,0,84,4.309,68.18,164.042,P-GPS,,50.0
909,233700,2026-01-12 12:09:49,0.0,5,7.721,0.0,0.0,0.0,18.2,8.4,-3.5,1024,1024,1024,1024,0,0,0,0,84,4.309,68.18,164.042,P-GPS,,50.0
910,233800,2026-01-12 12:09:49,0.0,5,7.721,0.0,0.0,0.0,18.0,8.8,-3.0,1024,1024,1024,1024,0,0,0,0,84,4.309,68.18,164.042,P-GPS,,50.0
911,233900,2026-01-12 12:09:49,0.0,5,7.721,0.0,0.0,0.0,18.0,7.9,-2.4,1024,1024,1024,1024,0,0,0,0,84,4.309,68.18,164.042,P-GPS,,50.0
912,234000,2026-01-12 12:09:49,0.0,5,7.721,0.0,0.0,0.0,18.0,6.8,-1.9,1024,1024,1024,1024,0,0,0,0,84,4.309,68.18,164.042,P-GPS,,50.0
913,234100,2026-01-12 12:09:49,0.0,5,7.721,0.0,0.0,0.0,18.2,6.4,-1.9,1024,1024,1024,1024,0,0,0,0,84,4.309,68.18,164.042,P-GPS,,50.0
914,234200,2026-01-12 12:09:49,0.0,5,7.721,0.0,0.0,0.0,18.1,7.4,-2.6,1024,1024,1024,1024,0,0,0,0,84,4.309,68.18,164.042,P-GPS,,50.0
915,234300,2026-01-12 12:09:49,0.0,5,7.721,0.0,0.0,0.0,18.2,8.1,-2.7,1024,1024,1024,1024,0,0,0,0,84,4.309,68.18,164.042,P-GPS,,50.0
916,234400,2026-01-12 12:09:49,0.0,5,7.721,0.0,0.0,0.0,18.1,8.9,-2.8,1024,1024,1024,1024,0,0,0,0,84,4.309,68.18,163.713916,P-GPS,,49.9
917,234500,2026-01-12 12:09:49,0.0,5,7.721,0.0,0.0,0.0,18.1,8.9,-2.8,1024,1024,1024,1024,0,0,0,0,84,4.309,68.18,163.713916,P-GPS,,49.9
918,234600,2026-01-12 12:09:50,0.0,5,7.721,0.0,0.0,0.0,18.1,8.7,-2.7,1024,1024,1024,1024,0,0,0,0,84,4.309,68.18,163.713916,P-GPS,,49.9
919,234700,2026-01-12 12:09:50,0.0,5,7.721,0.0,0.0,0.0,18.1,8.9,-2.5,1024,1024,1024,1024,0,0,0,0,84,4.309,68.18,163.713916,P-GPS,,49.9
920,234800,2026-01-12 12:09:50,0.0,5,7.721,0.0,0.0,0.0,18.1,8.6,-2.6,1024,1024,1024,1024,0,0,0,0,84,4.309,68.18,163.713916,P-GPS,,49.9
921,234900,2026-01-12 12:09:50,0.0,5,7.721,0.0,0.0,0.0,18.2,7.8,-2.8,1024,1024,1024,1024,0,0,0,0,84,4.309,68.18,163.385832,P-GPS,,49.8
922,235000,2026-01-12 12:09:50,0.0,5,7.721,0.0,0.0,0.0,18.1,8.2,-3.1,1024,1024,1024,1024,0,0,0,0,84,4.309,68.18,163.385832,P-GPS,,49.8
923,235100,2026-01-12 12:09:50,0.0,5,7.721,0.0,0.0,0.0,18.2,8.1,-3.1,1024,1024,1024,1024,0,0,0,0,84,4.309,68.18,163.385832,P-GPS,,49.8
924,235200,2026-01-12 12:09:50,0.0,5,7.721,0.0,0.0,0.0,18.1,7.8,-3.1,1024,1024,1024,1024,0,0,0,0,84,4.309,68.18,163.385832,P-GPS,,49.8
925,235300,2026-01-12 12:09:50,0.0,5,7.721,0.0,0.0,0.0,18.1,7.5,-3.1,1024,1024,1024,1024,0,0,0,0,84,4.309,68.18,163.385832,P-GPS,,49.8
926,235400,2026-01-12 12:09:50,0.0,5,7.716,0.0,0.0,0.0,18.1,7.2,-3.2,1024,1024,1024,1024,0,0,0,0,84,4.344,68.18,163.385832,P-GPS,,49.8
927,235500,2026-01-12 12:09:50,0.0,5,7.716,0.0,0.0,0.0,18.2,6.1,-2.6,1024,1024,1024,1024,0,0,0,0,84,4.344,68.18,163.057748,P-GPS,,49.7
928,235600,2026-01-12 12:09:51,0.0,5,7.716,0.0,0.0,0.0,18.2,5.9,-2.5,1024,1024,1024,1024,0,0,0,0,84,4.344,68.18,163.057748,P-GPS,,49.7
929,235700,2026-01-12 12:09:51,0.0,5,7.716,0.0,0.0,0.0,18.2,5.7,-2.6,1024,1024,1024,1024,0,0,0,0,84,4.344,68.18,163.057748,P-GPS,,49.7
930,235800,2026-01-12 12:09:51,0.0,5,7.716,0.0,0.0,0.0,18.1,5.5,-2.7,1024,1024,1024,1024,0,0,0,0,84,4.344,68.18,163.057748,P-GPS,,49.7
931,235900,2026-01-12 12:09:51,0.0,5,7.716,0.0,0.0,0.0,18.0,5.6,-2.8,1024,1024,1024,1024,0,0,0,0,84,4.344,68.18,163.057748,P-GPS,,49.7
932,236000,2026-01-12 12:09:51,0.0,5,7.716,0.0,0.0,0.0,18.0,5.8,-2.5,1024,1024,1024,1024,0,0,0,0,84,4.344,68.18,163.057748,P-GPS,,49.7
933,236100,2026-01-12 12:09:51,0.0,5,7.716,0.0,0.0,0.0,18.0,6.3,-3.0,1024,1024,1024,1024,0,0,0,0,84,4.344,68.18,163.057748,P-GPS,,49.7
934,236200,2026-01-12 12:09:51,0.0,5,7.716,0.0,0.0,0.0,18.0,6.1,-2.9,1024,1024,1024,1024,0,0,0,0,84,4.344,68.18,163.057748,P-GPS,,49.7
935,236300,2026-01-12 12:09:51,0.0,5,7.716,0.0,0.0,0.0,18.0,5.1,-2.9,1024,1024,1024,1024,0,0,0,0,84,4.344,68.18,163.057748,P-GPS,,49.7
936,236400,2026-01-12 12:09:51,0.0,5,7.716,0.0,0.0,0.0,17.9,5.1,-3.1,1024,1024,1024,1024,0,0,0,0,84,4.344,68.18,163.057748,P-GPS,,49.7
937,236500,2026-01-12 12:09:51,0.0,5,7.716,0.0,0.0,0.0,17.9,5.3,-3.0,1024,1024,1024,1024,0,0,0,0,84,4.344,68.18,163.057748,P-GPS,,49.7
938,236600,2026-01-12 12:09:52,0.0,5,7.73,0.0,0.0,0.0,17.9,5.0,-3.0,1024,1024,1024,1024,0,0,0,0,84,4.07,68.18,163.057748,P-GPS,,49.7
939,236700,2026-01-12 12:09:52,0.0,5,7.73,0.0,0.0,0.0,17.9,4.7,-2.5,1024,1024,1024,1024,0,0,0,0,84,4.07,68.18,163.057748,P-GPS,,49.7
940,236800,2026-01-12 12:09:52,0.0,5,7.73,0.0,0.0,0.0,17.8,4.6,-2.0,1024,1024,1024,1024,0,0,0,0,84,4.07,68.18,163.057748,P-GPS,,49.7
941,236900,2026-01-12 12:09:52,0.223694,5,7.73,0.0,-0.223694,0.0,17.9,4.1,-1.6,1024,1024,1024,1024,0,0,0,0,84,4.07,68.18,163.057748,P-GPS,,49.7
942,237000,2026-01-12 12:09:52,0.0,5,7.73,0.0,0.0,0.0,18.0,3.6,-1.2,1024,1024,1024,1024,0,0,0,0,84,4.07,68.18,163.385832,P-GPS,,49.8
943,237100,2026-01-12 12:09:52,0.0,5,7.73,0.0,0.0,0.0,18.1,3.7,-1.2,1024,1024,1024,1024,0,0,0,0,84,4.07,68.18,163.385832,P-GPS,,49.8
944,237200,2026-01-12 12:09:52,0.0,5,7.73,0.0,0.0,0.0,18.1,3.5,-1.1,1024,1024,1024,1024,0,0,0,0,84,4.07,68.18,163.385832,P-GPS,,49.8
945,237300,2026-01-12 12:09:52,0.0,5,7.73,0.0,0.0,0.0,18.1,4.0,-1.7,1024,1024,1024,1024,0,0,0,0,84,4.07,68.18,163.385832,P-GPS,,49.8
946,237400,2026-01-12 12:09:52,0.0,5,7.73,0.0,0.0,0.0,18.1,4.5,-1.6,1024,1024,1024,1024,0,0,0,0,84,4.07,68.18,163.385832,P-GPS,,49.8
947,237500,2026-01-12 12:09:52,0.0,5,7.73,0.0,0.0,0.0,18.1,4.4,-2.1,1024,1024,1024,1024,0,0,0,0,84,4.07,68.18,163.385832,P-GPS,,49.8
948,237600,2026-01-12 12:09:53,0.0,5,7.73,0.0,0.0,0.0,18.2,5.2,-2.7,1024,1024,1024,1024,0,0,0,0,84,4.07,68.18,163.385832,P-GPS,,49.8
949,237700,2026-01-12 12:09:53,0.0,5,7.729,0.0,0.0,0.0,18.2,4.6,-2.5,1024,1024,1024,1024,0,0,0,0,84,4.179,68.18,163.713916,P-GPS,,49.9
950,237800,2026-01-12 12:09:53,0.0,5,7.729,0.0,0.0,0.0,18.3,4.8,-2.4,1024,1024,1024,1024,0,0,0,0,84,4.179,68.18,163.713916,P-GPS,,49.9
951,237900,2026-01-12 12:09:53,0.0,5,7.729,0.0,0.0,0.0,18.2,5.4,-3.0,1024,1024,1024,1024,0,0,0,0,84,4.179,68.18,163.385832,P-GPS,,49.8
952,238000,2026-01-12 12:09:53,0.0,5,7.729,0.0,0.0,0.0,18.1,5.2,-3.3,1024,1024,1024,1024,0,0,0,0,84,4.179,68.18,163.385832,P-GPS,,49.8
953,238100,2026-01-12 12:09:53,0.0,5,7.729,0.0,0.0,0.0,18.2,4.9,-3.6,1024,1024,1024,1024,0,0,0,0,84,4.179,68.18,163.385832,P-GPS,,49.8
954,238200,2026-01-12 12:09:53,0.0,5,7.729,0.0,0.0,0.0,18.2,6.3,-3.3,1024,1024,1024,1024,0,0,0,0,84,4.179,68.18,163.385832,P-GPS,,49.8
955,238300,2026-01-12 12:09:53,0.0,5,7.729,0.0,0.0,0.0,18.2,6.9,-3.5,1024,1024,1024,1024,0,0,0,0,84,4.179,68.18,163.385832,P-GPS,,49.8
956,238400,2026-01-12 12:09:53,0.0,5,7.729,0.0,0.0,0.0,18.2,7.2,-3.6,1024,1024,1024,1024,0,0,0,0,84,4.179,68.18,163.385832,P-GPS,,49.8
957,238500,2026-01-12 12:09:53,0.0,5,7.729,0.0,0.0,0.0,18.2,6.4,-3.3,1024,1024,1024,1024,0,0,0,0,84,4.179,68.18,163.385832,P-GPS,,49.8
958,238600,2026-01-12 12:09:54,0.0,5,7.729,0.0,0.0,0.0,18.3,6.0,-3.0,1024,1024,1024,1024,0,0,0,0,84,4.179,68.18,163.385832,P-GPS,,49.8
959,238700,2026-01-12 12:09:54,0.0,5,7.729,0.0,0.0,0.0,18.2,6.1,-3.3,1024,1024,1024,1024,0,0,0,0,84,4.179,68.18,163.057748,P-GPS,,49.7
960,238800,2026-01-12 12:09:54,0.0,5,7.738,0.0,0.0,0.0,18.0,6.7,-3.4,1024,1024,1024,1024,0,0,0,0,84,3.952,68.18,163.057748,P-GPS,,49.7
961,238900,2026-01-12 12:09:54,0.223694,5,7.738,0.223694,0.0,0.0,18.0,6.5,-2.8,1024,1024,1024,1024,0,0,0,0,84,3.952,68.18,163.057748,P-GPS,,49.7
962,239000,2026-01-12 12:09:54,0.223694,5,7.738,0.223694,0.0,0.0,18.0,7.8,-2.0,1024,1024,1024,1024,0,0,0,0,84,3.952,68.18,163.057748,P-GPS,,49.7
963,239100,2026-01-12 12:09:54,0.223694,5,7.738,0.223694,0.0,0.0,18.1,8.0,-1.9,1024,1024,1024,1024,0,0,0,0,84,3.952,68.18,163.057748,P-GPS,,49.7
964,239200,2026-01-12 12:09:54,0.0,5,7.738,0.0,0.0,0.0,18.1,8.3,-2.0,1024,1024,1024,1024,0,0,0,0,84,3.952,68.18,162.729664,P-GPS,,49.6
965,239300,2026-01-12 12:09:54,0.0,5,7.738,0.0,0.0,0.0,18.1,7.0,-2.0,1024,1024,1024,1024,0,0,0,0,84,3.952,68.18,162.729664,P-GPS,,49.6
966,239400,2026-01-12 12:09:54,0.0,5,7.738,0.0,0.0,0.0,18.0,7.2,-1.5,1024,1024,1024,1024,0,0,0,0,84,3.952,68.18,162.729664,P-GPS,,49.6
967,239500,2026-01-12 12:09:54,0.0,5,7.738,0.0,0.0,0.0,18.1,7.2,-1.3,1024,1024,1024,1024,0,0,0,0,84,3.952,68.18,162.729664,P-GPS,,49.6
968,239600,2026-01-12 12:09:54,0.0,5,7.738,0.0,0.0,0.0,18.0,7.8,-2.0,1024,1024,1024,1024,0,0,0,0,84,3.952,68.18,162.729664,P-GPS,,49.6
969,239700,2026-01-12 12:09:55,0.0,5,7.738,0.0,0.0,0.0,18.0,7.9,-2.1,1024,1024,1024,1024,0,0,0,0,84,3.952,68.18,162.729664,P-GPS,,49.6
970,239800,2026-01-12 12:09:55,0.0,5,7.738,0.0,0.0,0.0,17.9,7.7,-1.8,1024,1024,1024,1024,0,0,0,0,84,3.952,68.18,162.729664,P-GPS,,49.6
971,239900,2026-01-12 12:09:55,0.0,5,7.738,0.0,0.0,0.0,17.8,7.7,-1.3,1024,1024,1024,1024,0,0,0,0,84,3.871,68.18,162.729664,P-GPS,,49.6
972,240000,2026-01-12 12:09:55,0.0,5,7.738,0.0,0.0,0.0,18.0,7.0,-0.1,1024,1024,1024,1024,0,0,0,0,84,3.871,68.18,162.729664,P-GPS,,49.6
973,240100,2026-01-12 12:09:55,0.0,5,7.738,0.0,0.0,0.0,18.2,6.4,0.6,1024,1024,1024,1024,0,0,0,0,84,3.871,68.18,162.729664,P-GPS,,49.6
974,240200,2026-01-12 12:09:55,0.0,5,7.738,0.0,0.0,0.0,18.3,6.5,-0.1,1024,1024,1024,1024,0,0,0,0,84,3.871,68.18,162.729664,P-GPS,,49.6
975,240300,2026-01-12 12:09:55,0.0,5,7.738,0.0,0.0,0.0,18.3,6.7,-0.7,1024,1024,1024,1024,0,0,0,0,84,3.871,68.18,163.057748,P-GPS,,49.7
976,240400,2026-01-12 12:09:55,0.0,5,7.738,0.0,0.0,0.0,18.2,6.4,-1.1,1024,1024,1024,1024,0,0,0,0,84,3.871,68.18,163.057748,P-GPS,,49.7
977,240500,2026-01-12 12:09:55,0.0,5,7.738,0.0,0.0,0.0,18.0,5.3,-1.8,1024,1024,1024,1024,0,0,0,0,84,3.871,68.18,163.385832,P-GPS,,49.8
978,240600,2026-01-12 12:09:55,0.223694,5,7.738,-0.223694,0.0,0.0,18.0,4.0,-2.7,1024,1024,1024,1024,0,0,0,0,84,3.871,68.18,163.385832,P-GPS,,49.8
979,240700,2026-01-12 12:09:56,0.0,5,7.738,0.0,0.0,-0.223694,18.1,3.3,-3.2,1024,1024,1024,1024,0,0,0,0,84,3.871,68.18,163.713916,P-GPS,,49.9
980,240800,2026-01-12 12:09:56,0.0,5,7.738,0.0,0.0,-0.223694,18.1,4.3,-3.6,1024,1024,1024,1024,0,0,0,0,84,3.871,68.18,163.713916,P-GPS,,49.9
981,240900,2026-01-12 12:09:56,0.0,5,7.738,0.0,0.0,-0.223694,18.1,4.5,-3.1,1024,1024,1024,1024,0,0,0,0,84,3.871,68.18,163.713916,P-GPS,,49.9
982,241000,2026-01-12 12:09:56,0.0,5,7.736,0.0,0.0,0.0,18.2,2.8,-2.8,1024,1024,1024,1024,0,0,0,0,84,4.124,68.18,163.713916,P-GPS,,49.9
983,241100,2026-01-12 12:09:56,0.0,5,7.736,0.0,0.0,0.0,18.4,3.6,-2.9,1024,1024,1024,1024,0,0,0,0,84,4.124,68.18,163.713916,P-GPS,,49.9
984,241200,2026-01-12 12:09:56,0.0,5,7.736,0.0,0.0,0.0,18.5,4.2,-3.4,1024,1024,1024,1024,0,0,0,0,84,4.124,68.18,163.713916,P-GPS,,49.9
985,241300,2026-01-12 12:09:56,0.0,5,7.736,0.0,0.0,0.0,18.3,4.9,-3.6,1024,1024,1024,1024,0,0,0,0,84,4.124,68.18,163.713916,P-GPS,,49.9
986,241400,2026-01-12 12:09:56,0.0,5,7.736,0.0,0.0,0.0,18.1,5.0,-4.0,1024,1024,1024,1024,0,0,0,0,84,4.124,68.18,163.713916,P-GPS,,49.9
987,241500,2026-01-12 12:09:56,0.0,5,7.736,0.0,0.0,0.0,18.0,5.2,-4.1,1024,1024,1024,1024,0,0,0,0,84,4.124,68.18,163.713916,P-GPS,,49.9
988,241600,2026-01-12 12:09:57,0.0,5,7.736,0.0,0.0,0.0,18.0,4.7,-3.9,1024,1024,1024,1024,0,0,0,0,84,4.124,68.18,163.713916,P-GPS,,49.9
989,241700,2026-01-12 12:09:57,0.0,5,7.736,0.0,0.0,0.0,18.0,4.4,-4.2,1024,1024,1024,1024,0,0,0,0,84,4.124,68.18,163.713916,P-GPS,,49.9
990,241800,2026-01-12 12:09:57,0.0,5,7.736,0.0,0.0,0.0,17.9,4.5,-4.3,1024,1024,1024,1024,0,0,0,0,84,4.124,68.18,163.713916,P-GPS,,49.9
991,241900,2026-01-12 12:09:57,0.0,5,7.736,0.0,0.0,0.0,17.8,4.1,-4.8,1024,1024,1024,1024,0,0,0,0,84,4.124,68.18,163.713916,P-GPS,,49.9
992,242000,2026-01-12 12:09:57,0.0,5,7.736,0.0,0.0,0.0,18.1,2.0,-4.2,1024,1024,1024,1024,0,0,0,0,84,4.124,68.18,163.713916,P-GPS,,49.9
993,242100,2026-01-12 12:09:57,0.0,5,7.733,0.0,0.0,0.0,18.3,2.4,-2.5,1024,1024,1024,1024,0,0,0,0,84,3.898,68.18,163.713916,P-GPS,,49.9
994,242200,2026-01-12 12:09:57,0.0,5,7.733,0.0,0.0,0.0,18.3,2.9,-2.4,1024,1024,1024,1024,0,0,0,0,84,3.898,68.18,163.713916,P-GPS,,49.9
995,242300,2026-01-12 12:09:57,0.0,5,7.733,0.0,0.0,0.0,18.0,3.8,-2.7,1024,1024,1024,1024,0,0,0,0,84,3.898,68.18,163.713916,P-GPS,,49.9
996,242400,2026-01-12 12:09:57,0.0,5,7.733,0.0,0.0,0.0,18.0,4.9,-3.2,1024,1024,1024,1024,0,0,0,0,84,3.898,68.18,163.713916,P-GPS,,49.9
997,242500,2026-01-12 12:09:57,0.0,5,7.733,0.0,0.0,0.0,18.1,5.2,-3.3,1024,1024,1024,1024,0,0,0,0,84,3.898,68.18,163.713916,P-GPS,,49.9
998,242600,2026-01-12 12:09:57,0.0,5,7.733,0.0,0.0,0.0,18.1,5.4,-3.0,1024,1024,1024,1024,0,0,0,0,84,3.898,68.18,163.713916,P-GPS,,49.9
999,242700,2026-01-12 12:09:58,0.0,5,7.733,0.0,0.0,0.0,18.2,5.1,-2.9,1024,1024,1024,1024,0,0,0,0,84,3.898,68.18,163.713916,P-GPS,,49.9
1000,242800,2026-01-12 12:09:58,0.0,5,7.733,0.0,0.0,0.0,18.3,5.5,-2.9,1024,1024,1024,1024,0,0,0,0,84,3.898,68.18,163.713916,P-GPS,,49.9
1001,242900,2026-01-12 12:09:58,0.0,5,7.733,0.0,0.0,0.0,18.3,6.2,-3.4,1024,1024,1024,1024,0,0,0,0,84,3.898,68.18,163.713916,P-GPS,,49.9
1002,243000,2026-01-12 12:09:58,0.0,5,7.733,0.0,0.0,0.0,18.2,5.8,-3.1,1024,1024,1024,1024,0,0,0,0,84,3.898,68.18,163.713916,P-GPS,,49.9
1003,243100,2026-01-12 12:09:58,0.0,5,7.733,0.0,0.0,0.0,18.2,4.8,-3.3,1024,1024,1024,1024,0,0,0,0,84,3.898,68.18,163.713916,P-GPS,,49.9
1004,243200,2026-01-12 12:09:58,0.0,5,7.736,0.0,0.0,0.0,18.2,5.3,-2.8,1024,1024,1024,1024,0,0,0,0,84,3.826,68.18,163.713916,P-GPS,,49.9
1005,243300,2026-01-12 12:09:58,0.0,5,7.736,0.0,0.0,0.0,18.2,4.4,-3.3,1024,1024,1024,1024,0,0,0,0,84,3.826,68.18,163.713916,P-GPS,,49.9
1006,243400,2026-01-12 12:09:58,0.0,5,7.736,0.0,0.0,0.0,18.3,5.5,-3.6,1024,1024,1024,1024,0,0,0,0,84,3.826,68.18,163.713916,P-GPS,,49.9
1007,243500,2026-01-12 12:09:58,0.0,5,7.736,0.0,0.0,0.0,18.2,6.7,-3.6,1024,1024,1024,1024,0,0,0,0,84,3.826,68.18,163.713916,P-GPS,,49.9
1008,243600,2026-01-12 12:09:59,0.0,5,7.736,0.0,0.0,0.0,18.1,7.6,-3.5,1024,1024,1024,1024,0,0,0,0,84,3.826,68.18,163.713916,P-GPS,,49.9
1009,243700,2026-01-12 12:09:59,0.0,5,7.736,0.0,0.0,0.0,18.2,7.8,-3.2,1024,1024,1024,1024,0,0,0,0,84,3.826,68.18,163.713916,P-GPS,,49.9
1010,243800,2026-01-12 12:09:59,0.0,5,7.736,0.0,0.0,0.0,18.2,7.4,-3.0,1024,1024,1024,1024,0,0,0,0,84,3.826,68.18,163.713916,P-GPS,,49.9
1011,243900,2026-01-12 12:09:59,0.0,5,7.736,0.0,0.0,0.0,18.1,7.3,-3.7,1024,1024,1024,1024,0,0,0,0,84,3.826,68.18,163.713916,P-GPS,,49.9
1012,244000,2026-01-12 12:09:59,0.0,5,7.736,0.0,0.0,0.0,18.0,7.2,-4.1,1024,1024,1024,1024,0,0,0,0,84,3.826,68.18,163.713916,P-GPS,,49.9
1013,244100,2026-01-12 12:09:59,0.0,5,7.736,0.0,0.0,0.0,17.9,7.0,-4.1,1024,1024,1024,1024,0,0,0,0,84,3.826,68.18,163.713916,P-GPS,,49.9
1014,244200,2026-01-12 12:09:59,0.0,5,7.736,0.0,0.0,0.0,17.9,7.0,-4.4,1024,1024,1024,1024,0,0,0,0,84,3.826,68.18,164.042,P-GPS,,50.0
1015,244300,2026-01-12 12:09:59,0.0,5,7.732,0.0,0.0,0.0,17.9,6.8,-4.2,1024,1024,1024,1024,0,0,0,0,84,3.924,68.18,164.042,P-GPS,,50.0
1016,244400,2026-01-12 12:09:59,0.0,5,7.732,0.0,0.0,0.0,18.0,6.8,-3.7,1024,1024,1024,1024,0,0,0,0,84,3.924,68.18,164.370084,P-GPS,,50.1
1017,244500,2026-01-12 12:09:59,0.0,5,7.732,0.0,0.0,0.0,18.0,6.4,-3.4,1024,1024,1024,1024,0,0,0,0,84,3.924,68.18,164.370084,P-GPS,,50.1
1018,244600,2026-01-12 12:09:59,0.0,5,7.732,0.0,0.0,0.0,17.9,6.5,-3.3,1024,1024,1024,1024,0,0,0,0,84,3.924,68.18,164.370084,P-GPS,,50.1
1019,244700,2026-01-12 12:10:00,0.0,5,7.732,0.0,0.0,0.0,17.9,6.5,-3.3,1024,1024,1024,1024,0,0,0,0,84,3.924,68.18,164.370084,P-GPS,,50.1
1020,244800,2026-01-12 12:10:00,0.0,5,7.732,0.0,0.0,0.0,17.9,6.3,-3.1,1024,1024,1024,1024,0,0,0,0,84,3.924,68.18,164.698168,P-GPS,,50.2
1021,244900,2026-01-12 12:10:00,0.0,5,7.732,0.0,0.0,0.0,17.9,6.5,-3.3,1024,1024,1024,1024,0,0,0,0,84,3.924,68.18,164.698168,P-GPS,,50.2
1022,245000,2026-01-12 12:10:00,0.0,5,7.732,0.0,0.0,0.0,17.9,7.0,-3.4,1024,1024,1024,1024,0,0,0,0,84,3.924,68.18,164.698168,P-GPS,,50.2
1023,245100,2026-01-12 12:10:00,0.0,5,7.732,0.0,0.0,0.0,18.0,6.7,-3.7,1024,1024,1024,1024,0,0,0,0,84,3.924,68.18,164.698168,P-GPS,,50.2
1024,245200,2026-01-12 12:10:00,0.0,5,7.732,0.0,0.0,0.0,18.0,6.7,-3.7,1024,1024,1024,1024,0,0,0,0,84,3.924,68.18,164.698168,P-GPS,,50.2
1025,245300,2026-01-12 12:10:00,0.0,5,7.732,0.0,0.0,0.0,18.0,6.4,-3.6,1024,1024,1024,1024,0,0,0,0,84,3.924,68.18,164.698168,P-GPS,,50.2
1026,245400,2026-01-12 12:10:00,0.0,5,7.732,0.0,0.0,0.0,18.0,6.5,-3.8,1024,1024,1024,1024,0,0,0,0,84,3.924,68.18,164.698168,P-GPS,,50.2
1027,245500,2026-01-12 12:10:00,0.0,5,7.732,0.0,0.0,0.0,18.0,6.7,-4.0,1024,1024,1024,1024,0,0,0,0,84,3.924,68.18,164.698168,P-GPS,,50.2
1028,245600,2026-01-12 12:10:00,0.0,5,7.732,0.0,0.0,0.0,18.0,6.7,-3.7,1024,1024,1024,1024,0,0,0,0,84,3.924,68.18,164.698168,P-GPS,,50.2
1029,245700,2026-01-12 12:10:01,0.0,5,7.732,0.0,0.0,0.0,18.0,6.5,-3.7,1024,1024,1024,1024,0,0,0,0,84,3.924,68.18,164.698168,P-GPS,,50.2
1030,245800,2026-01-12 12:10:01,0.0,5,7.732,0.0,0.0,0.0,18.0,7.1,-3.7,1024,1024,1024,1024,0,0,0,0,84,3.924,68.18,164.698168,P-GPS,,50.2
1031,245900,2026-01-12 12:10:01,0.0,5,7.732,0.0,0.0,0.0,18.0,7.1,-3.7,1024,1024,1024,1024,0,0,0,0,84,3.924,68.18,164.370084,P-GPS,,50.1
1032,246000,2026-01-12 12:10:01,0.0,5,7.732,0.0,0.0,0.0,17.9,7.1,-3.4,1024,1024,1024,1024,0,0,0,0,84,3.924,68.18,164.370084,P-GPS,,50.1
1033,246100,2026-01-12 12:10:01,0.0,5,7.732,0.0,0.0,0.0,18.0,7.0,-3.2,1024,1024,1024,1024,0,0,0,0,84,3.924,68.18,164.370084,P-GPS,,50.1
1034,246200,2026-01-12 12:10:01,0.0,5,7.732,0.0,0.0,0.0,18.0,6.9,-2.8,1024,1024,1024,1024,0,0,0,0,84,3.924,68.18,164.370084,P-GPS,,50.1
1035,246300,2026-01-12 12:10:01,0.0,5,7.732,0.0,0.0,0.0,18.0,6.7,-2.7,1024,1024,1024,1024,0,0,0,0,84,3.924,68.18,164.370084,P-GPS,,50.1
1036,246400,2026-01-12 12:10:01,0.0,5,7.732,0.0,0.0,0.0,18.0,6.5,-3.0,1024,1024,1024,1024,0,0,0,0,84,3.924,68.18,164.370084,P-GPS,,50.1
1037,246500,2026-01-12 12:10:01,0.0,5,7.716,0.0,0.0,0.0,18.0,6.4,-3.1,1024,1024,1024,1024,0,0,0,0,83,4.401,68.0,164.370084,P-GPS,,50.1
1038,246600,2026-01-12 12:10:02,0.0,5,7.716,0.0,0.0,0.0,18.0,6.3,-3.2,1024,1024,1024,1024,0,0,0,0,83,4.401,68.0,164.370084,P-GPS,,50.1
1039,246700,2026-01-12 12:10:02,0.0,5,7.716,0.0,0.0,0.0,18.0,6.1,-3.1,1024,1024,1024,1024,0,0,0,0,83,4.401,68.0,164.370084,P-GPS,,50.1
1040,246800,2026-01-12 12:10:02,0.0,5,7.716,0.0,0.0,0.0,18.0,6.4,-3.6,1024,1024,1024,1024,0,0,0,0,83,4.401,68.0,164.370084,P-GPS,,50.1
1041,246900,2026-01-12 12:10:02,0.0,5,7.716,0.0,0.0,0.0,17.9,6.4,-3.9,1024,1024,1024,1024,0,0,0,0,83,4.401,68.0,164.370084,P-GPS,,50.1
1042,247000,2026-01-12 12:10:02,0.0,5,7.716,0.0,0.0,0.0,17.9,7.3,-3.9,1024,1024,1024,1024,0,0,0,0,83,4.401,68.0,164.370084,P-GPS,,50.1
1043,247100,2026-01-12 12:10:02,0.0,5,7.716,0.0,0.0,0.0,18.0,7.6,-3.7,1024,1024,1024,1024,0,0,0,0,83,4.401,68.0,164.370084,P-GPS,,50.1
1044,247200,2026-01-12 12:10:02,0.0,5,7.716,0.0,0.0,0.0,18.0,7.2,-3.8,1024,1024,1024,1024,0,0,0,0,83,4.401,68.0,164.370084,P-GPS,,50.1
1045,247300,2026-01-12 12:10:02,0.0,5,7.716,0.0,0.0,0.0,18.1,6.8,-3.4,1024,1024,1024,1024,0,0,0,0,83,4.401,68.0,164.370084,P-GPS,,50.1
1046,247400,2026-01-12 12:10:02,0.0,5,7.716,0.0,0.0,0.0,18.1,6.8,-3.2,1024,1024,1024,1024,0,0,0,0,83,4.401,68.0,164.370084,P-GPS,,50.1
1047,247500,2026-01-12 12:10:02,0.0,5,7.716,0.0,0.0,0.0,18.0,7.2,-3.4,1024,1024,1024,1024,0,0,0,0,83,4.401,68.0,164.370084,P-GPS,,50.1
1048,247600,2026-01-12 12:10:02,0.0,5,7.716,0.0,0.0,0.0,18.0,7.4,-3.3,1024,1024,1024,1024,0,0,0,0,83,4.401,68.0,164.370084,P-GPS,,50.1
1049,247700,2026-01-12 12:10:03,0.0,5,7.716,0.0,0.0,0.0,17.9,7.3,-3.2,1024,1024,1024,1024,0,0,0,0,83,4.401,68.0,164.370084,P-GPS,,50.1
1050,247800,2026-01-12 12:10:03,0.0,5,7.716,0.0,0.0,0.0,17.9,7.6,-3.3,1024,1024,1024,1024,0,0,0,0,83,4.401,68.0,164.042,P-GPS,,50.0
1051,247900,2026-01-12 12:10:03,0.0,5,7.716,0.0,0.0,0.0,18.0,7.1,-2.9,1024,1024,1024,1024,0,0,0,0,83,4.401,68.0,164.042,P-GPS,,50.0
1052,248000,2026-01-12 12:10:03,0.0,5,7.716,0.0,0.0,0.0,18.0,7.5,-2.9,1024,1024,1024,1024,0,0,0,0,83,4.401,68.0,164.042,P-GPS,,50.0
1053,248100,2026-01-12 12:10:03,0.0,5,7.716,0.0,0.0,0.0,18.0,7.2,-2.8,1024,1024,1024,1024,0,0,0,0,83,4.401,68.0,164.042,P-GPS,,50.0
1054,248200,2026-01-12 12:10:03,0.0,5,7.716,0.0,0.0,0.0,18.0,7.1,-2.8,1024,1024,1024,1024,0,0,0,0,83,4.401,68.0,164.042,P-GPS,,50.0
1055,248300,2026-01-12 12:10:03,0.0,5,7.716,0.0,0.0,0.0,18.0,7.2,-2.8,1024,1024,1024,1024,0,0,0,0,83,4.401,68.0,164.042,P-GPS,,50.0
1056,248400,2026-01-12 12:10:03,0.0,5,7.71,0.0,0.0,0.0,18.1,7.3,-2.8,1024,1024,1024,1024,0,0,0,0,83,4.475,68.18,164.042,P-GPS,,50.0
1057,248500,2026-01-12 12:10:03,0.0,5,7.71,0.0,0.0,0.0,18.0,7.4,-2.9,1024,1024,1024,1024,0,0,0,0,83,4.475,68.18,164.042,P-GPS,,50.0
1058,248600,2026-01-12 12:10:03,0.0,5,7.71,0.0,0.0,0.0,18.0,7.6,-3.0,1024,1024,1024,1024,0,0,0,0,83,4.475,68.18,164.042,P-GPS,,50.0
1059,248700,2026-01-12 12:10:04,0.0,5,7.71,0.0,0.0,0.0,18.0,7.9,-2.9,1024,1024,1024,1024,0,0,0,0,83,4.475,68.18,164.042,P-GPS,,50.0
1060,248800,2026-01-12 12:10:04,0.0,5,7.71,0.0,0.0,0.0,18.0,7.7,-2.5,1024,1024,1024,1024,0,0,0,0,83,4.475,68.18,164.042,P-GPS,,50.0
1061,248900,2026-01-12 12:10:04,0.0,5,7.71,0.0,0.0,0.0,18.0,7.6,-2.4,1024,1024,1024,1024,0,0,0,0,83,4.475,68.18,163.713916,P-GPS,,49.9
1062,249000,2026-01-12 12:10:04,0.0,5,7.71,0.0,0.0,0.0,18.0,7.4,-2.4,1024,1024,1024,1024,0,0,0,0,83,4.475,68.18,163.713916,P-GPS,,49.9
1063,249100,2026-01-12 12:10:04,0.0,5,7.71,0.0,0.0,0.0,18.0,7.2,-2.5,1024,1024,1024,1024,0,0,0,0,83,4.475,68.18,163.713916,P-GPS,,49.9
1064,249200,2026-01-12 12:10:04,0.0,5,7.71,0.0,0.0,0.0,18.0,6.9,-2.6,1024,1024,1024,1024,0,0,0,0,83,4.475,68.18,163.713916,P-GPS,,49.9
1065,249300,2026-01-12 12:10:04,0.0,5,7.71,0.0,0.0,0.0,18.0,6.6,-2.6,1024,1024,1024,1024,0,0,0,0,83,4.475,68.18,163.713916,P-GPS,,49.9
1066,249400,2026-01-12 12:10:04,0.0,5,7.706,0.0,0.0,0.0,18.0,6.2,-2.7,1024,1024,1024,1024,0,0,0,0,83,4.618,68.18,163.713916,P-GPS,,49.9
1067,249500,2026-01-12 12:10:04,0.0,5,7.706,0.0,0.0,0.0,18.0,6.2,-2.5,1024,1024,1024,1024,0,0,0,0,83,4.618,68.18,163.713916,P-GPS,,49.9
1068,249600,2026-01-12 12:10:04,0.0,5,7.706,0.0,0.0,0.0,18.0,6.2,-2.1,1024,1024,1024,1024,0,0,0,0,83,4.618,68.18,163.713916,P-GPS,,49.9
1069,249700,2026-01-12 12:10:05,0.0,5,7.706,0.0,0.0,0.0,18.1,6.0,-1.8,1024,1024,1024,1024,0,0,0,0,83,4.618,68.18,163.713916,P-GPS,,49.9
1070,249800,2026-01-12 12:10:05,0.0,5,7.706,0.0,0.0,-0.223694,18.1,5.6,-2.2,1024,1024,1024,1024,0,0,0,0,83,4.618,68.18,163.713916,P-GPS,,49.9
1071,249900,2026-01-12 12:10:05,0.0,5,7.706,0.0,0.0,-0.223694,18.1,6.3,-2.6,1024,1024,1024,1024,0,0,0,0,83,4.618,68.18,163.713916,P-GPS,,49.9
1072,250000,2026-01-12 12:10:05,0.0,5,7.706,0.0,0.0,0.0,18.1,7.3,-3.1,1024,1024,1024,1024,0,0,0,0,83,4.618,68.18,163.713916,P-GPS,,49.9
1073,250100,2026-01-12 12:10:05,0.0,5,7.706,0.0,0.0,0.0,18.1,7.1,-3.4,1024,1024,1024,1024,0,0,0,0,83,4.618,68.18,163.713916,P-GPS,,49.9
