index,time(millisecond),timestamp,speed(mph),gpslevel,voltage(v),xSpeed(mph),ySpeed(mph),zSpeed(mph),compass_heading(degrees),pitch(degrees),roll(degrees),rc_elevator,rc_aileron,rc_throttle,rc_rudder,rc_elevator(percent),rc_aileron(percent),rc_throttle(percent),rc_rudder(percent),battery_percent,current(A),battery_temperature(f),ascent(feet),flycState,message,height_above_takeoff(meters)
460,316400,2026-01-11 17:23:09,0.0,5,7.385,0.0,0.0,-0.223694,28.4,13.6,-9.1,1024,1024,1024,1024,0,0,0,0,78,7.687,61.7,96.78478,P-GPS,,29.5
461,316500,2026-01-11 17:23:09,0.0,5,7.385,0.0,0.0,0.0,28.5,13.6,-8.9,1024,1024,1024,1024,0,0,0,0,78,7.687,61.7,96.78478,P-GPS,,29.5
462,316600,2026-01-11 17:23:09,0.0,5,7.572,-0.223694,0.0,0.0,28.6,13.2,-8.9,1024,1024,1024,1024,0,0,0,0,78,4.469,61.7,96.456696,P-GPS,,29.4
463,316700,2026-01-11 17:23:09,0.223694,5,7.572,-0.223694,0.0,0.0,28.8,12.0,-8.8,1024,1024,1024,1024,0,0,0,0,78,4.469,61.7,96.128612,P-GPS,,29.3
464,316800,2026-01-11 17:23:09,0.223694,5,7.572,-0.223694,0.0,0.0,28.8,11.8,-8.5,1024,1024,1024,1024,0,0,0,0,78,4.469,61.7,96.128612,P-GPS,,29.3
465,316900,2026-01-11 17:23:09,0.223694,5,7.572,-0.223694,0.0,0.0,28.9,11.4,-8.3,1024,1024,1024,1024,0,0,0,0,78,4.469,61.7,95.800528,P-GPS,,29.2
466,317000,2026-01-11 17:23:09,0.223694,5,7.572,-0.223694,0.0,0.0,28.6,12.4,-9.0,1024,1024,1024,1024,0,0,0,0,78,4.469,61.7,95.800528,P-GPS,,29.2
467,317100,2026-01-11 17:23:09,0.223694,5,7.572,-0.223694,0.0,0.0,28.5,12.5,-9.4,1024,1024,1024,1024,0,0,0,0,78,4.469,61.7,95.472444,P-GPS,,29.1
468,317200,2026-01-11 17:23:09,0.223694,5,7.572,-0.223694,0.0,0.0,28.3,13.2,-9.7,1024,1024,1024,1024,0,0,0,0,78,4.469,61.7,95.472444,P-GPS,,29.1
469,317300,2026-01-11 17:23:10,0.0,5,7.572,0.0,0.0,0.223694,28.4,13.1,-9.6,1024,1024,1024,1024,0,0,0,0,78,4.469,61.7,95.472444,P-GPS,,29.1
470,317400,2026-01-11 17:23:10,0.0,5,7.572,0.0,0.0,0.0,28.5,13.2,-9.1,1024,1024,1024,1024,0,0,0,0,78,4.469,61.7,95.472444,P-GPS,,29.1
471,317500,2026-01-11 17:23:10,0.0,5,7.572,0.0,0.0,0.0,28.5,13.2,-8.8,1024,1024,1024,1024,0,0,0,0,78,4.469,61.7,95.14436,P-GPS,,29.0
472,317600,2026-01-11 17:23:10,0.0,5,7.572,0.0,0.0,0.0,28.4,13.4,-9.1,1024,1024,1024,1024,0,0,0,0,78,4.469,61.7,95.14436,P-GPS,,29.0
473,317700,2026-01-11 17:23:10,0.0,5,7.48,0.0,0.0,0.0,28.2,14.7,-9.3,1024,1024,1024,1024,0,0,0,0,78,5.568,61.88,95.472444,P-GPS,,29.1
474,317800,2026-01-11 17:23:10,0.223694,5,7.48,-0.223694,0.0,0.0,28.4,13.6,-9.6,1024,1024,1024,1024,0,0,0,0,78,5.568,61.88,95.472444,P-GPS,,29.1
475,317900,2026-01-11 17:23:10,0.223694,5,7.48,-0.223694,0.0,0.0,28.6,12.2,-9.5,1024,1024,1024,1024,0,0,0,0,78,5.568,61.88,95.800528,P-GPS,,29.2
476,318000,2026-01-11 17:23:10,0.223694,5,7.48,-0.223694,0.0,0.0,28.7,11.1,-9.1,1024,1024,1024,1024,0,0,0,0,78,5.568,61.88,95.800528,P-GPS,,29.2
477,318100,2026-01-11 17:23:10,0.0,5,7.48,0.0,0.0,-0.223694,28.8,10.7,-9.2,1024,1024,1024,1024,0,0,0,0,78,5.568,61.88,95.800528,P-GPS,,29.2
478,318200,2026-01-11 17:23:10,0.0,5,7.48,0.0,0.0,-0.223694,28.6,11.5,-8.6,1024,1024,1024,1024,0,0,0,0,78,5.568,61.88,96.128612,P-GPS,,29.3
479,318300,2026-01-11 17:23:11,0.0,5,7.48,0.0,0.0,-0.223694,28.4,12.0,-9.6,1024,1024,1024,1024,0,0,0,0,78,5.568,61.88,96.128612,P-GPS,,29.3
480,318400,2026-01-11 17:23:11,0.0,5,7.48,0.0,0.0,0.0,28.5,12.4,-9.6,1024,1024,1024,1024,0,0,0,0,78,5.568,61.88,96.128612,P-GPS,,29.3
481,318500,2026-01-11 17:23:11,0.0,5,7.48,0.0,0.0,0.0,28.6,12.8,-8.9,1024,1024,1024,1024,0,0,0,0,78,5.568,61.88,96.128612,P-GPS,,29.3
482,318600,2026-01-11 17:23:11,0.0,5,7.48,0.0,0.0,0.0,28.5,12.9,-8.7,1024,1024,1024,1024,0,0,0,0,78,5.568,61.88,96.128612,P-GPS,,29.3
483,318700,2026-01-11 17:23:11,0.0,5,7.48,0.0,0.0,0.0,28.5,13.3,-9.2,1024,1024,1024,1024,0,0,0,0,78,5.568,61.88,96.456696,P-GPS,,29.4
484,318800,2026-01-11 17:23:11,0.0,5,7.461,0.0,0.0,0.0,28.4,13.7,-8.9,1024,1024,1024,1024,0,0,0,0,78,6.328,61.88,96.456696,P-GPS,,29.4
485,318900,2026-01-11 17:23:11,0.0,5,7.461,0.0,0.0,0.0,28.4,13.8,-9.3,1024,1024,1024,1024,0,0,0,0,78,6.328,61.88,96.456696,P-GPS,,29.4
486,319000,2026-01-11 17:23:11,0.0,5,7.461,0.0,0.0,0.0,28.4,13.9,-8.8,1024,1024,1024,1024,0,0,0,0,78,6.328,61.88,96.456696,P-GPS,,29.4
487,319100,2026-01-11 17:23:11,0.0,5,7.461,0.0,0.0,0.0,28.5,14.0,-8.8,1024,1024,1024,1024,0,0,0,0,78,6.328,61.88,96.456696,P-GPS,,29.4
488,319200,2026-01-11 17:23:11,0.0,5,7.461,0.0,0.0,0.0,28.6,14.1,-8.2,1024,1024,1024,1024,0,0,0,0,78,6.328,61.88,96.456696,P-GPS,,29.4
489,319300,2026-01-11 17:23:12,0.0,5,7.461,0.0,0.0,0.0,28.9,12.9,-6.7,1024,1024,1024,1024,0,0,0,0,78,6.328,61.88,96.456696,P-GPS,,29.4
490,319400,2026-01-11 17:23:12,0.0,5,7.461,0.0,0.0,-0.223694,28.9,12.3,-7.2,1024,1024,1024,1024,0,0,0,0,78,6.328,61.88,96.456696,P-GPS,,29.4
491,319500,2026-01-11 17:23:12,0.0,5,7.461,0.0,0.0,0.0,28.6,13.3,-8.5,1024,1024,1024,1024,0,0,0,0,78,6.328,61.88,96.456696,P-GPS,,29.4
492,319600,2026-01-11 17:23:12,0.0,5,7.461,0.0,0.0,0.0,28.3,14.2,-9.9,1024,1024,1024,1024,0,0,0,0,78,6.328,61.88,96.456696,P-GPS,,29.4
493,319700,2026-01-11 17:23:12,0.0,5,7.461,0.0,0.0,0.223694,28.3,14.5,-9.8,1024,1024,1024,1024,0,0,0,0,78,6.328,61.88,96.456696,P-GPS,,29.4
494,319800,2026-01-11 17:23:12,0.223694,5,7.461,0.0,0.223694,0.0,28.3,14.8,-10.5,1024,1024,1024,1024,0,0,0,0,78,6.328,61.88,96.78478,P-GPS,,29.5
495,319900,2026-01-11 17:23:12,0.223694,5,7.492,0.0,0.223694,0.223694,28.3,14.7,-10.5,1024,1024,1024,1024,0,0,0,0,78,5.992,61.88,96.78478,P-GPS,,29.5
496,320000,2026-01-11 17:23:12,0.223694,5,7.492,0.0,0.223694,0.0,28.4,14.6,-11.0,1024,1024,1024,1024,0,0,0,0,78,5.992,61.88,96.78478,P-GPS,,29.5
497,320100,2026-01-11 17:23:12,0.223694,5,7.492,0.0,0.223694,0.0,28.4,15.4,-11.1,1024,1024,1024,1024,0,0,0,0,78,5.992,61.88,97.112864,P-GPS,,29.6
498,320200,2026-01-11 17:23:12,0.0,5,7.492,0.0,0.0,0.0,28.3,16.0,-10.8,1024,1024,1024,1024,0,0,0,0,78,5.992,61.88,97.112864,P-GPS,,29.6
499,320300,2026-01-11 17:23:13,0.223694,5,7.492,0.0,0.223694,0.223694,28.4,17.6,-10.4,1024,1024,1024,1024,0,0,0,0,78,5.992,61.88,97.440948,P-GPS,,29.7
500,320400,2026-01-11 17:23:13,0.3131716,5,7.492,0.223694,0.223694,0.0,28.4,16.8,-9.9,1024,1024,1024,1024,0,0,0,0,78,5.992,61.88,97.440948,P-GPS,,29.7
501,320500,2026-01-11 17:23:13,0.223694,5,7.492,0.0,0.223694,0.0,28.2,16.9,-10.1,1024,1024,1024,1024,0,0,0,0,78,5.992,61.88,97.440948,P-GPS,,29.7
502,320600,2026-01-11 17:23:13,0.223694,5,7.492,0.0,0.223694,0.0,28.1,17.6,-10.3,1024,1024,1024,1024,0,0,0,0,78,5.992,61.88,97.769032,P-GPS,,29.8
503,320700,2026-01-11 17:23:13,0.0,5,7.492,0.0,0.0,0.0,28.0,17.8,-10.5,1024,1024,1024,1024,0,0,0,0,78,5.992,61.88,97.769032,P-GPS,,29.8
504,320800,2026-01-11 17:23:13,0.0,5,7.492,0.0,0.0,0.0,28.1,18.0,-9.4,1024,1024,1024,1024,0,0,0,0,78,5.992,61.88,97.769032,P-GPS,,29.8
505,320900,2026-01-11 17:23:13,0.0,5,7.492,0.0,0.0,0.0,28.0,18.2,-9.2,1024,1024,1024,1024,0,0,0,0,78,5.992,61.88,97.769032,P-GPS,,29.8
506,321000,2026-01-11 17:23:13,0.0,5,7.395,0.0,0.0,0.0,28.4,16.4,-8.6,1024,1024,1024,1024,0,0,0,0,78,7.31,61.88,97.769032,P-GPS,,29.8
507,321100,2026-01-11 17:23:13,0.0,5,7.395,0.0,0.0,0.0,28.4,15.8,-8.6,1024,1024,1024,1024,0,0,0,0,78,7.31,61.88,97.769032,P-GPS,,29.8
508,321200,2026-01-11 17:23:13,0.0,5,7.395,0.0,0.0,0.0,28.4,15.0,-8.4,1024,1024,1024,1024,0,0,0,0,78,7.31,61.88,97.769032,P-GPS,,29.8
509,321300,2026-01-11 17:23:14,0.0,5,7.395,0.0,0.0,0.0,28.2,14.3,-8.0,1024,1024,1024,1024,0,0,0,0,78,7.31,61.88,97.440948,P-GPS,,29.7
510,321400,2026-01-11 17:23:14,0.0,5,7.395,0.0,0.0,0.0,28.3,13.8,-8.7,1024,1024,1024,1024,0,0,0,0,78,7.31,61.88,97.440948,P-GPS,,29.7
511,321500,2026-01-11 17:23:14,0.0,5,7.395,0.0,0.0,0.0,28.3,13.9,-9.0,1024,1024,1024,1024,0,0,0,0,78,7.31,61.88,97.112864,P-GPS,,29.6
512,321600,2026-01-11 17:23:14,0.0,5,7.395,0.0,0.0,0.223694,28.2,15.0,-9.1,1024,1024,1024,1024,0,0,0,0,78,7.31,61.88,97.112864,P-GPS,,29.6
513,321700,2026-01-11 17:23:14,0.0,5,7.395,0.0,0.0,0.223694,28.4,15.1,-9.1,1024,1024,1024,1024,0,0,0,0,78,7.31,61.88,96.78478,P-GPS,,29.5
514,321800,2026-01-11 17:23:14,0.0,5,7.395,0.0,0.0,0.223694,28.7,14.2,-8.8,1024,1024,1024,1024,0,0,0,0,78,7.31,61.88,96.78478,P-GPS,,29.5
515,321900,2026-01-11 17:23:14,0.0,5,7.395,0.0,0.0,0.0,28.6,13.8,-7.8,1024,1024,1024,1024,0,0,0,0,78,7.31,61.88,96.78478,P-GPS,,29.5
516,322000,2026-01-11 17:23:14,0.0,5,7.395,0.0,0.0,0.0,28.4,13.6,-9.2,1024,1024,1024,1024,0,0,0,0,78,7.31,61.88,96.78478,P-GPS,,29.5
517,322100,2026-01-11 17:23:14,0.0,5,7.422,0.0,0.0,0.0,28.4,14.0,-8.7,1024,1024,1024,1024,0,0,0,0,78,6.251,61.88,96.456696,P-GPS,,29.4
518,322200,2026-01-11 17:23:14,0.0,5,7.422,0.0,0.0,0.0,28.6,12.9,-7.6,1024,1024,1024,1024,0,0,0,0,78,6.251,61.88,96.456696,P-GPS,,29.4
519,322300,2026-01-11 17:23:15,0.0,5,7.422,0.0,0.0,-0.223694,28.4,13.3,-7.2,1024,1024,1024,1024,0,0,0,0,78,6.251,61.88,96.456696,P-GPS,,29.4
520,322400,2026-01-11 17:23:15,0.0,5,7.422,0.0,0.0,0.0,28.6,12.8,-7.0,1024,1024,1024,1024,0,0,0,0,78,6.251,61.88,96.128612,P-GPS,,29.3
521,322500,2026-01-11 17:23:15,0.0,5,7.422,0.0,0.0,0.0,28.5,13.1,-7.8,1024,1024,1024,1024,0,0,0,0,78,6.251,61.88,96.128612,P-GPS,,29.3
522,322600,2026-01-11 17:23:15,0.0,5,7.422,0.0,0.0,0.0,28.7,13.0,-8.0,1024,1024,1024,1024,0,0,0,0,78,6.251,61.88,96.128612,P-GPS,,29.3
523,322700,2026-01-11 17:23:15,0.0,5,7.422,0.0,0.0,0.0,28.6,13.1,-8.2,1024,1024,1024,1024,0,0,0,0,78,6.251,61.88,96.128612,P-GPS,,29.3
524,322800,2026-01-11 17:23:15,0.0,5,7.422,0.0,0.0,0.0,28.4,13.4,-8.6,1024,1024,1024,1024,0,0,0,0,78,6.251,61.88,95.800528,P-GPS,,29.2
525,322900,2026-01-11 17:23:15,0.0,5,7.422,0.0,0.0,0.0,28.3,13.7,-9.3,1024,1024,1024,1024,0,0,0,0,78,6.251,61.88,95.800528,P-GPS,,29.2
526,323000,2026-01-11 17:23:15,0.0,5,7.422,0.0,0.0,0.0,28.3,13.9,-9.2,1024,1024,1024,1024,0,0,0,0,78,6.251,61.88,95.800528,P-GPS,,29.2
527,323100,2026-01-11 17:23:15,0.0,5,7.422,0.0,0.0,0.0,28.3,14.1,-9.1,1024,1024,1024,1024,0,0,0,0,78,6.251,61.88,95.800528,P-GPS,,29.2
528,323200,2026-01-11 17:23:15,0.0,5,7.422,0.0,0.0,0.0,28.1,14.8,-9.4,1024,1024,1024,1024,0,0,0,0,78,6.251,61.88,95.800528,P-GPS,,29.2
529,323300,2026-01-11 17:23:16,0.0,5,7.422,0.0,0.0,0.0,28.3,14.5,-9.5,1024,1024,1024,1024,0,0,0,0,78,6.251,61.88,95.800528,P-GPS,,29.2
530,323400,2026-01-11 17:23:16,0.0,5,7.422,0.0,0.0,0.0,28.5,13.3,-9.3,1024,1024,1024,1024,0,0,0,0,78,6.251,61.88,95.800528,P-GPS,,29.2
531,323500,2026-01-11 17:23:16,0.0,5,7.422,0.0,0.0,0.0,28.5,13.0,-8.5,1024,1024,1024,1024,0,0,0,0,78,6.251,61.88,95.800528,P-GPS,,29.2
532,323600,2026-01-11 17:23:16,0.0,5,7.422,0.0,0.0,-0.223694,28.6,13.1,-8.2,1024,1024,1024,1024,0,0,0,0,78,6.251,61.88,95.800528,P-GPS,,29.2
533,323700,2026-01-11 17:23:16,0.0,5,7.422,0.0,0.0,0.0,28.6,13.0,-8.8,1024,1024,1024,1024,0,0,0,0,78,6.251,61.88,95.800528,P-GPS,,29.2
534,323800,2026-01-11 17:23:16,0.0,5,7.422,0.0,0.0,-0.223694,28.4,13.2,-8.8,1024,1024,1024,1024,0,0,0,0,78,6.251,61.88,95.800528,P-GPS,,29.2
535,323900,2026-01-11 17:23:16,0.0,5,7.422,0.0,0.0,0.0,28.4,13.8,-8.9,1024,1024,1024,1024,0,0,0,0,78,6.251,61.88,95.800528,P-GPS,,29.2
536,324000,2026-01-11 17:23:16,0.0,5,7.422,0.0,0.0,0.0,28.4,14.0,-8.5,1024,1024,1024,1024,0,0,0,0,78,6.251,61.88,95.800528,P-GPS,,29.2
537,324100,2026-01-11 17:23:16,0.0,5,7.422,0.0,0.0,0.0,28.6,13.3,-9.0,1024,1024,1024,1024,0,0,0,0,78,6.251,61.88,95.800528,P-GPS,,29.2
538,324200,2026-01-11 17:23:16,0.0,5,7.422,0.0,0.0,0.0,28.5,13.8,-8.5,1024,1024,1024,1024,0,0,0,0,78,6.251,61.88,95.800528,P-GPS,,29.2
539,324300,2026-01-11 17:23:17,0.0,5,7.506,0.0,0.0,0.0,28.6,13.5,-7.9,1024,1024,1024,1024,0,0,0,0,78,5.357,62.06,95.800528,P-GPS,,29.2
540,324400,2026-01-11 17:23:17,0.0,5,7.506,0.0,0.0,0.0,28.7,13.0,-8.0,1024,1024,1024,1024,0,0,0,0,78,5.357,62.06,95.800528,P-GPS,,29.2
541,324500,2026-01-11 17:23:17,0.0,5,7.506,0.0,0.0,0.0,28.7,12.8,-8.6,1024,1024,1024,1024,0,0,0,0,78,5.357,62.06,95.800528,P-GPS,,29.2
542,324600,2026-01-11 17:23:17,0.0,5,7.506,0.0,0.0,0.0,28.6,12.9,-9.4,1024,1024,1024,1024,0,0,0,0,78,5.357,62.06,95.800528,P-GPS,,29.2
543,324700,2026-01-11 17:23:17,0.0,5,7.506,0.0,0.0,0.0,28.5,12.5,-9.2,1024,1024,1024,1024,0,0,0,0,78,5.357,62.06,96.128612,P-GPS,,29.3
544,324800,2026-01-11 17:23:17,0.0,5,7.506,0.0,0.0,0.223694,28.6,12.0,-8.9,1024,1024,1024,1024,0,0,0,0,78,5.357,62.06,96.128612,P-GPS,,29.3
545,324900,2026-01-11 17:23:17,0.0,5,7.506,0.0,0.0,0.0,28.7,12.0,-8.0,1024,1024,1024,1024,0,0,0,0,78,5.357,62.06,96.128612,P-GPS,,29.3
546,325000,2026-01-11 17:23:17,0.0,5,7.506,0.0,0.0,0.0,28.7,12.2,-7.7,1024,1024,1024,1024,0,0,0,0,78,5.357,62.06,96.128612,P-GPS,,29.3
547,325100,2026-01-11 17:23:17,0.0,5,7.506,0.0,0.0,0.0,28.6,12.4,-7.5,1024,1024,1024,1024,0,0,0,0,78,5.357,62.06,96.128612,P-GPS,,29.3
548,325200,2026-01-11 17:23:17,0.0,5,7.506,0.0,0.0,0.0,28.6,13.0,-7.6,1024,1024,1024,1024,0,0,0,0,78,5.357,62.06,96.456696,P-GPS,,29.4
549,325300,2026-01-11 17:23:17,0.0,5,7.506,0.0,0.0,0.0,28.6,13.3,-7.9,1024,1024,1024,1024,0,0,0,0,78,5.357,62.06,96.456696,P-GPS,,29.4
550,325400,2026-01-11 17:23:18,0.0,5,7.506,0.0,0.0,0.0,28.5,13.6,-8.2,1024,1024,1024,1024,0,0,0,0,78,5.357,62.06,96.456696,P-GPS,,29.4
551,325500,2026-01-11 17:23:18,0.0,5,7.506,0.0,0.0,0.0,28.5,13.7,-8.2,1024,1024,1024,1024,0,0,0,0,78,5.357,62.06,96.456696,P-GPS,,29.4
552,325600,2026-01-11 17:23:18,0.0,5,7.506,0.0,0.0,0.0,28.4,13.7,-8.2,1024,1024,1024,1024,0,0,0,0,78,5.357,62.06,96.456696,P-GPS,,29.4
553,325700,2026-01-11 17:23:18,0.0,5,7.506,0.0,0.0,0.0,28.5,13.8,-8.0,1024,1024,1024,1024,0,0,0,0,78,5.357,62.06,96.456696,P-GPS,,29.4
554,325800,2026-01-11 17:23:18,0.0,5,7.506,0.0,0.0,0.0,28.6,13.4,-8.0,1024,1024,1024,1024,0,0,0,0,78,5.357,62.06,96.456696,P-GPS,,29.4
555,325900,2026-01-11 17:23:18,0.0,5,7.506,0.0,0.0,0.0,28.6,13.3,-7.9,1024,1024,1024,1024,0,0,0,0,78,5.357,62.06,96.456696,P-GPS,,29.4
556,326000,2026-01-11 17:23:18,0.0,5,7.506,0.0,0.0,0.0,28.7,13.2,-7.7,1024,1024,1024,1024,0,0,0,0,78,5.357,62.06,96.456696,P-GPS,,29.4
557,326100,2026-01-11 17:23:18,0.0,5,7.506,0.0,0.0,0.0,28.7,13.3,-7.7,1024,1024,1024,1024,0,0,0,0,78,5.357,62.06,96.456696,P-GPS,,29.4
558,326200,2026-01-11 17:23:18,0.0,5,7.481,0.0,0.0,0.0,28.8,13.4,-7.9,1024,1024,1024,1024,0,0,0,0,78,5.503,62.06,96.456696,P-GPS,,29.4
559,326300,2026-01-11 17:23:19,0.0,5,7.481,0.0,0.0,0.0,28.8,12.9,-8.0,1024,1024,1024,1024,0,0,0,0,78,5.503,62.06,96.456696,P-GPS,,29.4
560,326400,2026-01-11 17:23:19,0.0,5,7.481,0.0,0.0,0.0,28.6,13.1,-8.6,1024,1024,1024,1024,0,0,0,0,78,5.503,62.06,96.456696,P-GPS,,29.4
561,326500,2026-01-11 17:23:19,0.0,5,7.481,0.0,0.0,0.0,28.7,13.1,-8.9,1024,1024,1024,1024,0,0,0,0,78,5.503,62.06,96.456696,P-GPS,,29.4
562,326600,2026-01-11 17:23:19,0.223694,5,7.481,0.0,0.223694,0.0,28.6,13.6,-9.1,1024,1024,1024,1024,0,0,0,0,78,5.503,62.06,96.456696,P-GPS,,29.4
563,326700,2026-01-11 17:23:19,0.223694,5,7.481,0.0,0.223694,0.0,28.4,14.0,-9.3,1024,1024,1024,1024,0,0,0,0,78,5.503,62.06,96.456696,P-GPS,,29.4
564,326800,2026-01-11 17:23:19,0.223694,5,7.481,0.0,0.223694,0.223694,28.4,14.3,-9.9,1024,1024,1024,1024,0,0,0,0,78,5.503,62.06,96.456696,P-GPS,,29.4
565,326900,2026-01-11 17:23:19,0.0,5,7.481,0.0,0.0,0.223694,28.4,14.4,-9.5,1024,1024,1024,1024,0,0,0,0,78,5.503,62.06,96.456696,P-GPS,,29.4
566,327000,2026-01-11 17:23:19,0.0,5,7.481,0.0,0.0,0.223694,28.5,14.8,-9.2,1024,1024,1024,1024,0,0,0,0,78,5.503,62.06,96.456696,P-GPS,,29.4
567,327100,2026-01-11 17:23:19,0.0,5,7.481,0.0,0.0,0.223694,28.8,14.5,-8.5,1024,1024,1024,1024,0,0,0,0,78,5.503,62.06,96.456696,P-GPS,,29.4
568,327200,2026-01-11 17:23:20,0.0,5,7.508,0.0,0.0,0.0,28.5,14.7,-8.2,1024,1024,1024,1024,0,0,0,0,78,5.381,62.06,96.456696,P-GPS,,29.4
569,327300,2026-01-11 17:23:20,0.223694,5,7.508,0.223694,0.0,0.0,28.4,15.7,-7.7,1024,1024,1024,1024,0,0,0,0,78,5.381,62.06,96.456696,P-GPS,,29.4
570,327400,2026-01-11 17:23:20,0.223694,5,7.508,0.223694,0.0,0.0,28.3,16.3,-7.7,1024,1024,1024,1024,0,0,0,0,78,5.381,62.06,96.456696,P-GPS,,29.4
571,327500,2026-01-11 17:23:20,0.0,5,7.508,0.0,0.0,0.0,28.2,16.7,-8.3,1024,1024,1024,1024,0,0,0,0,78,5.381,62.06,96.456696,P-GPS,,29.4
572,327600,2026-01-11 17:23:20,0.0,5,7.508,0.0,0.0,0.0,28.4,16.2,-8.3,1024,1024,1024,1024,0,0,0,0,78,5.381,62.06,96.456696,P-GPS,,29.4
573,327700,2026-01-11 17:23:20,0.0,5,7.508,0.0,0.0,0.0,28.4,15.9,-8.3,1024,1024,1024,1024,0,0,0,0,77,5.381,62.06,96.456696,P-GPS,,29.4
574,327800,2026-01-11 17:23:20,0.0,5,7.508,0.0,0.0,0.0,28.4,15.0,-8.2,1024,1024,1024,1024,0,0,0,0,77,5.381,62.06,96.456696,P-GPS,,29.4
575,327900,2026-01-11 17:23:20,0.0,5,7.508,0.0,0.0,0.0,28.5,14.5,-8.5,1024,1024,1024,1024,0,0,0,0,77,5.381,62.06,96.128612,P-GPS,,29.3
576,328000,2026-01-11 17:23:20,0.0,5,7.508,0.0,0.0,0.0,28.5,14.3,-8.5,1024,1024,1024,1024,0,0,0,0,77,5.381,62.06,96.128612,P-GPS,,29.3
577,328100,2026-01-11 17:23:20,0.0,5,7.508,0.0,0.0,0.0,28.5,13.9,-8.5,1024,1024,1024,1024,0,0,0,0,77,5.381,62.06,96.128612,P-GPS,,29.3
578,328200,2026-01-11 17:23:20,0.0,5,7.478,0.0,0.0,0.0,28.5,13.7,-8.8,1024,1024,1024,1024,0,0,0,0,77,5.823,62.06,95.800528,P-GPS,,29.2
579,328300,2026-01-11 17:23:21,0.0,5,7.478,0.0,0.0,0.223694,28.6,13.4,-8.5,1024,1024,1024,1024,0,0,0,0,77,5.823,62.06,95.800528,P-GPS,,29.2
580,328400,2026-01-11 17:23:21,0.0,5,7.478,0.0,0.0,0.223694,28.6,12.9,-8.3,1024,1024,1024,1024,0,0,0,0,77,5.823,62.06,95.800528,P-GPS,,29.2
581,328500,2026-01-11 17:23:21,0.0,5,7.478,0.0,0.0,0.223694,28.7,12.0,-7.8,1024,1024,1024,1024,0,0,0,0,77,5.823,62.06,95.472444,P-GPS,,29.1
582,328600,2026-01-11 17:23:21,0.0,5,7.478,0.0,0.0,0.0,28.7,11.9,-7.6,1024,1024,1024,1024,0,0,0,0,77,5.823,62.06,95.472444,P-GPS,,29.1
583,328700,2026-01-11 17:23:21,0.0,5,7.478,0.0,0.0,0.0,28.8,12.1,-7.7,1024,1024,1024,1024,0,0,0,0,77,5.823,62.06,95.472444,P-GPS,,29.1
584,328800,2026-01-11 17:23:21,0.0,5,7.478,0.0,0.0,0.0,28.7,12.2,-7.9,1024,1024,1024,1024,0,0,0,0,77,5.823,62.06,95.14436,P-GPS,,29.0
585,328900,2026-01-11 17:23:21,0.0,5,7.478,0.0,0.0,0.0,28.7,12.3,-7.8,1024,1024,1024,1024,0,0,0,0,77,5.823,62.06,95.14436,P-GPS,,29.0
586,329000,2026-01-11 17:23:21,0.0,5,7.478,0.0,0.0,0.0,28.6,12.7,-7.8,1024,1024,1024,1024,0,0,0,0,77,5.823,62.06,95.14436,P-GPS,,29.0
587,329100,2026-01-11 17:23:21,0.0,5,7.478,0.0,0.0,0.0,28.7,12.9,-7.7,1024,1024,1024,1024,0,0,0,0,77,5.823,62.06,95.14436,P-GPS,,29.0
588,329200,2026-01-11 17:23:21,0.0,5,7.485,0.0,0.0,0.0,28.6,12.7,-7.9,1024,1024,1024,1024,0,0,0,0,77,4.772,62.24,95.14436,P-GPS,,29.0
589,329300,2026-01-11 17:23:22,0.0,5,7.485,0.0,0.0,0.0,28.7,12.4,-7.6,1024,1024,1024,1024,0,0,0,0,77,4.772,62.24,95.14436,P-GPS,,29.0
590,329400,2026-01-11 17:23:22,0.0,5,7.485,0.0,0.0,0.0,28.7,12.5,-7.5,1024,1024,1024,1024,0,0,0,0,77,4.772,62.24,95.14436,P-GPS,,29.0
591,329500,2026-01-11 17:23:22,0.0,5,7.485,0.0,0.0,0.0,28.7,12.5,-7.3,1024,1024,1024,1024,0,0,0,0,77,4.772,62.24,95.14436,P-GPS,,29.0
592,329600,2026-01-11 17:23:22,0.0,5,7.485,0.0,0.0,0.0,28.8,12.5,-7.3,1024,1024,1024,1024,0,0,0,0,77,4.772,62.24,95.14436,P-GPS,,29.0
593,329700,2026-01-11 17:23:22,0.0,5,7.485,0.0,0.0,0.0,28.8,12.1,-7.6,1024,1024,1024,1024,0,0,0,0,77,4.772,62.24,95.14436,P-GPS,,29.0
594,329800,2026-01-11 17:23:22,0.0,5,7.485,0.0,0.0,0.0,28.8,12.1,-7.6,1024,1024,1024,1024,0,0,0,0,77,4.772,62.24,95.14436,P-GPS,,29.0
595,329900,2026-01-11 17:23:22,0.0,5,7.485,0.0,0.0,0.0,28.8,12.2,-7.8,1024,1024,1024,1024,0,0,0,0,77,4.772,62.24,95.14436,P-GPS,,29.0
596,330000,2026-01-11 17:23:22,0.0,5,7.485,0.0,0.0,0.0,28.8,12.2,-7.8,1024,1024,1024,1024,0,0,0,0,77,4.772,62.24,95.14436,P-GPS,,29.0
597,330100,2026-01-11 17:23:22,0.0,5,7.485,0.0,0.0,0.0,28.7,12.0,-8.0,1024,1024,1024,1024,0,0,0,0,77,4.772,62.24,95.14436,P-GPS,,29.0
598,330200,2026-01-11 17:23:22,0.0,5,7.518,0.0,0.0,0.0,28.8,11.9,-8.1,1024,1024,1024,1024,0,0,0,0,77,4.869,62.24,95.14436,P-GPS,,29.0
599,330300,2026-01-11 17:23:23,0.0,5,7.518,0.0,0.0,0.0,28.8,11.7,-7.8,1024,1024,1024,1024,0,0,0,0,77,4.869,62.24,95.14436,P-GPS,,29.0
600,330400,2026-01-11 17:23:23,0.0,5,7.518,0.0,0.0,0.0,28.8,11.5,-7.6,1024,1024,1024,1024,0,0,0,0,77,4.869,62.24,95.14436,P-GPS,,29.0
601,330500,2026-01-11 17:23:23,0.0,5,7.518,0.0,0.0,0.0,28.8,11.9,-7.3,1024,1024,1024,1024,0,0,0,0,77,4.869,62.24,95.14436,P-GPS,,29.0
602,330600,2026-01-11 17:23:23,0.0,5,7.518,0.0,0.0,0.0,28.9,12.1,-7.0,1024,1024,1024,1024,0,0,0,0,77,4.869,62.24,95.14436,P-GPS,,29.0
603,330700,2026-01-11 17:23:23,0.0,5,7.518,0.0,0.0,0.0,28.9,12.0,-7.3,1024,1024,1024,1024,0,0,0,0,77,4.869,62.24,95.14436,P-GPS,,29.0
604,330800,2026-01-11 17:23:23,0.0,5,7.518,0.0,0.0,0.0,28.9,11.7,-7.2,1024,1024,1024,1024,0,0,0,0,77,4.869,62.24,95.14436,P-GPS,,29.0
605,330900,2026-01-11 17:23:23,0.0,5,7.518,0.0,0.0,0.0,28.8,12.0,-7.5,1024,1024,1024,1024,0,0,0,0,77,4.869,62.24,95.14436,P-GPS,,29.0
606,331000,2026-01-11 17:23:23,0.0,5,7.518,0.0,0.0,0.0,28.8,12.1,-7.7,1024,1024,1024,1024,0,0,0,0,77,4.869,62.24,95.14436,P-GPS,,29.0
607,331100,2026-01-11 17:23:23,0.0,5,7.518,0.0,0.0,0.0,28.7,12.2,-7.4,1024,1024,1024,1024,0,0,0,0,77,4.869,62.24,95.14436,P-GPS,,29.0
608,331200,2026-01-11 17:23:23,0.0,5,7.538,0.0,0.0,0.0,28.7,12.7,-6.8,1024,1024,1024,1024,0,0,0,0,77,4.605,62.42,95.14436,P-GPS,,29.0
609,331300,2026-01-11 17:23:24,0.0,5,7.538,0.0,0.0,0.0,28.8,12.6,-6.6,1024,1024,1024,1024,0,0,0,0,77,4.605,62.42,95.14436,P-GPS,,29.0
610,331400,2026-01-11 17:23:24,0.0,5,7.538,0.0,0.0,0.0,28.7,12.1,-6.9,1024,1024,1024,1024,0,0,0,0,77,4.605,62.42,95.472444,P-GPS,,29.1
611,331500,2026-01-11 17:23:24,0.0,5,7.538,0.0,0.0,0.0,28.7,12.2,-7.5,1024,1024,1024,1024,0,0,0,0,77,4.605,62.42,95.472444,P-GPS,,29.1
612,331600,2026-01-11 17:23:24,0.0,5,7.538,0.0,0.0,0.0,28.7,11.9,-7.5,1024,1024,1024,1024,0,0,0,0,77,4.605,62.42,95.472444,P-GPS,,29.1
613,331700,2026-01-11 17:23:24,0.0,5,7.538,0.0,0.0,0.0,28.7,11.9,-7.5,1024,1024,1024,1024,0,0,0,0,77,4.605,62.42,95.472444,P-GPS,,29.1
614,331800,2026-01-11 17:23:24,0.0,5,7.538,0.0,0.0,0.0,28.7,11.9,-7.5,1024,1024,1024,1024,0,0,0,0,77,4.605,62.42,95.472444,P-GPS,,29.1
615,331900,2026-01-11 17:23:24,0.0,5,7.538,0.0,0.0,0.0,28.7,11.9,-7.6,1024,1024,1024,1024,0,0,0,0,77,4.605,62.42,95.472444,P-GPS,,29.1
616,332000,2026-01-11 17:23:24,0.0,5,7.538,0.0,0.0,0.0,28.7,12.1,-7.6,1024,1024,1024,1024,0,0,0,0,77,4.605,62.42,95.472444,P-GPS,,29.1
617,332100,2026-01-11 17:23:24,0.0,5,7.538,0.0,0.0,0.0,28.7,12.1,-7.5,1024,1024,1024,1024,0,0,0,0,77,4.605,62.42,95.800528,P-GPS,,29.2
618,332200,2026-01-11 17:23:24,0.0,5,7.511,0.0,0.0,0.0,28.7,12.1,-7.7,1024,1024,1024,1024,0,0,0,0,77,5.209,62.42,95.800528,P-GPS,,29.2
619,332300,2026-01-11 17:23:25,0.0,5,7.511,0.0,0.0,0.0,28.7,12.4,-7.5,1024,1024,1024,1024,0,0,0,0,77,5.209,62.42,95.800528,P-GPS,,29.2
620,332400,2026-01-11 17:23:25,0.0,5,7.511,0.0,0.0,0.0,28.7,12.6,-7.8,1024,1024,1024,1024,0,0,0,0,77,5.209,62.42,95.800528,P-GPS,,29.2
621,332500,2026-01-11 17:23:25,0.0,5,7.511,0.0,0.0,0.0,28.8,12.0,-7.9,1024,1024,1024,1024,0,0,0,0,77,5.209,62.42,95.800528,P-GPS,,29.2
622,332600,2026-01-11 17:23:25,0.0,5,7.511,0.0,0.0,0.0,28.7,11.8,-7.9,1024,1024,1024,1024,0,0,0,0,77,5.209,62.42,96.128612,P-GPS,,29.3
623,332700,2026-01-11 17:23:25,0.0,5,7.511,0.0,0.0,0.0,28.8,11.5,-7.9,1024,1024,1024,1024,0,0,0,0,77,5.209,62.42,96.128612,P-GPS,,29.3
624,332800,2026-01-11 17:23:25,0.0,5,7.511,0.0,0.0,0.0,28.8,11.7,-8.2,1024,1024,1024,1024,0,0,0,0,77,5.209,62.42,96.128612,P-GPS,,29.3
625,332900,2026-01-11 17:23:25,0.0,5,7.511,0.0,0.0,0.0,28.8,11.8,-8.7,1024,1024,1024,1024,0,0,0,0,77,5.209,62.42,96.456696,P-GPS,,29.4
626,333000,2026-01-11 17:23:25,0.0,5,7.511,0.0,0.0,0.0,28.7,12.1,-8.9,1024,1024,1024,1024,0,0,0,0,77,5.209,62.42,96.456696,P-GPS,,29.4
627,333100,2026-01-11 17:23:25,0.0,5,7.509,0.0,0.0,0.0,28.7,12.2,-9.2,1024,1024,1024,1024,0,0,0,0,77,5.267,62.42,96.456696,P-GPS,,29.4
628,333200,2026-01-11 17:23:25,0.0,5,7.509,0.0,0.0,0.0,28.6,12.3,-8.9,1024,1024,1024,1024,0,0,0,0,77,5.267,62.42,96.456696,P-GPS,,29.4
629,333300,2026-01-11 17:23:26,0.0,5,7.509,0.0,0.0,0.0,28.6,12.4,-8.5,1024,1024,1024,1024,0,0,0,0,77,5.267,62.42,96.456696,P-GPS,,29.4
630,333400,2026-01-11 17:23:26,0.0,5,7.509,0.0,0.0,0.0,28.6,12.6,-8.6,1024,1024,1024,1024,0,0,0,0,77,5.267,62.42,96.456696,P-GPS,,29.4
631,333500,2026-01-11 17:23:26,0.0,5,7.509,0.0,0.0,0.0,28.6,12.7,-8.8,1024,1024,1024,1024,0,0,0,0,77,5.267,62.42,96.456696,P-GPS,,29.4
632,333600,2026-01-11 17:23:26,0.0,5,7.509,0.0,0.0,0.0,28.6,13.2,-8.5,1024,1024,1024,1024,0,0,0,0,77,5.267,62.42,96.78478,P-GPS,,29.5
633,333700,2026-01-11 17:23:26,0.0,5,7.509,0.0,0.0,0.0,28.6,13.1,-8.2,1024,1024,1024,1024,0,0,0,0,77,5.267,62.42,96.78478,P-GPS,,29.5
634,333800,2026-01-11 17:23:26,0.0,5,7.509,0.0,0.0,0.0,28.6,13.0,-8.2,1024,1024,1024,1024,0,0,0,0,77,5.267,62.42,96.78478,P-GPS,,29.5
635,333900,2026-01-11 17:23:26,0.0,5,7.509,0.0,0.0,0.0,28.7,12.9,-7.8,1024,1024,1024,1024,0,0,0,0,77,5.267,62.42,96.78478,P-GPS,,29.5
636,334000,2026-01-11 17:23:26,0.0,5,7.509,0.0,0.0,0.0,28.6,12.7,-8.4,1024,1024,1024,1024,0,0,0,0,77,5.267,62.42,96.78478,P-GPS,,29.5
637,334100,2026-01-11 17:23:26,0.0,5,7.509,0.0,0.0,0.0,28.6,12.8,-8.4,1024,1024,1024,1024,0,0,0,0,77,5.267,62.42,96.78478,P-GPS,,29.5
638,334200,2026-01-11 17:23:26,0.0,5,7.51,0.0,0.0,0.0,28.7,12.2,-8.4,1024,1024,1024,1024,0,0,0,0,77,5.476,62.42,96.78478,P-GPS,,29.5
639,334300,2026-01-11 17:23:27,0.0,5,7.51,0.0,0.0,0.0,28.7,12.2,-8.4,1024,1024,1024,1024,0,0,0,0,77,5.476,62.42,97.112864,P-GPS,,29.6
640,334400,2026-01-11 17:23:27,0.0,5,7.51,0.0,0.0,0.0,28.6,12.3,-8.7,1024,1024,1024,1024,0,0,0,0,77,5.476,62.42,97.112864,P-GPS,,29.6
641,334500,2026-01-11 17:23:27,0.0,5,7.51,0.0,0.0,0.0,28.6,12.1,-8.9,1024,1024,1024,1024,0,0,0,0,77,5.476,62.42,97.112864,P-GPS,,29.6
642,334600,2026-01-11 17:23:27,0.0,5,7.51,0.0,0.0,0.0,28.6,12.2,-8.5,1024,1024,1024,1024,0,0,0,0,77,5.476,62.42,97.112864,P-GPS,,29.6
643,334700,2026-01-11 17:23:27,0.0,5,7.51,0.0,0.0,0.0,28.7,11.9,-8.3,1024,1024,1024,1024,0,0,0,0,77,5.476,62.42,97.112864,P-GPS,,29.6
644,334800,2026-01-11 17:23:27,0.0,5,7.51,0.0,0.0,0.0,28.6,11.7,-8.6,1024,1024,1024,1024,0,0,0,0,77,5.476,62.42,97.112864,P-GPS,,29.6
645,334900,2026-01-11 17:23:27,0.0,5,7.51,0.0,0.0,0.0,28.7,11.6,-8.1,1024,1024,1024,1024,0,0,0,0,77,5.476,62.42,97.112864,P-GPS,,29.6
646,335000,2026-01-11 17:23:27,0.0,5,7.51,0.0,0.0,0.0,28.6,11.8,-8.1,1024,1024,1024,1024,0,0,0,0,77,5.476,62.42,97.112864,P-GPS,,29.6
647,335100,2026-01-11 17:23:27,0.0,5,7.51,0.0,0.0,0.0,28.6,12.1,-7.6,1024,1024,1024,1024,0,0,0,0,77,5.476,62.42,97.112864,P-GPS,,29.6
648,335200,2026-01-11 17:23:27,0.0,5,7.51,0.0,0.0,0.0,28.7,11.7,-7.2,1024,1024,1024,1024,0,0,0,0,77,5.476,62.42,97.112864,P-GPS,,29.6
649,335300,2026-01-11 17:23:28,0.0,5,7.51,0.0,0.0,0.0,28.7,12.1,-7.4,1024,1024,1024,1024,0,0,0,0,77,5.476,62.42,97.112864,P-GPS,,29.6
650,335400,2026-01-11 17:23:28,0.0,5,7.483,0.0,0.0,0.0,28.7,12.0,-7.6,1024,1024,1024,1024,0,0,0,0,77,5.506,62.42,97.112864,P-GPS,,29.6
651,335500,2026-01-11 17:23:28,0.0,5,7.483,0.0,0.0,0.0,28.8,11.9,-7.3,1024,1024,1024,1024,0,0,0,0,77,5.506,62.42,97.112864,P-GPS,,29.6
652,335600,2026-01-11 17:23:28,0.0,5,7.483,0.0,0.0,0.0,28.8,11.8,-7.2,1024,1024,1024,1024,0,0,0,0,77,5.506,62.42,97.112864,P-GPS,,29.6
653,335700,2026-01-11 17:23:28,0.0,5,7.483,0.0,0.0,0.0,28.8,11.9,-7.3,1024,1024,1024,1024,0,0,0,0,77,5.506,62.42,97.112864,P-GPS,,29.6
654,335800,2026-01-11 17:23:28,0.0,5,7.483,0.0,0.0,0.0,28.6,12.4,-7.6,1024,1024,1024,1024,0,0,0,0,77,5.506,62.42,97.112864,P-GPS,,29.6
655,335900,2026-01-11 17:23:28,0.0,5,7.483,0.0,0.0,0.0,28.7,12.5,-7.6,1024,1024,1024,1024,0,0,0,0,77,5.506,62.42,97.112864,P-GPS,,29.6
656,336000,2026-01-11 17:23:28,0.0,5,7.483,0.0,0.0,0.0,28.7,12.2,-7.8,1024,1024,1024,1024,0,0,0,0,77,5.506,62.42,97.112864,P-GPS,,29.6
657,336100,2026-01-11 17:23:28,0.0,5,7.483,0.0,0.0,0.0,28.6,12.1,-7.6,1024,1024,1024,1024,0,0,0,0,77,5.506,62.42,97.112864,P-GPS,,29.6
658,336200,2026-01-11 17:23:28,0.0,5,7.483,0.0,0.0,0.0,28.7,11.9,-7.9,1024,1024,1024,1024,0,0,0,0,77,5.506,62.42,97.112864,P-GPS,,29.6
659,336300,2026-01-11 17:23:29,0.0,5,7.483,0.0,0.0,0.0,28.8,11.9,-7.7,1024,1024,1024,1024,0,0,0,0,77,5.506,62.42,97.112864,P-GPS,,29.6
660,336400,2026-01-11 17:23:29,0.0,5,7.483,0.0,0.0,0.0,28.7,12.2,-8.3,1024,1024,1024,1024,0,0,0,0,77,5.506,62.42,97.112864,P-GPS,,29.6
661,336500,2026-01-11 17:23:29,0.0,5,7.493,0.0,0.0,0.0,28.7,12.4,-8.0,1024,1024,1024,1024,0,0,0,0,77,5.491,62.42,97.112864,P-GPS,,29.6
662,336600,2026-01-11 17:23:29,0.0,5,7.493,0.0,0.0,0.0,28.7,12.4,-7.9,1024,1024,1024,1024,0,0,0,0,77,5.491,62.42,97.112864,P-GPS,,29.6
663,336700,2026-01-11 17:23:29,0.0,5,7.493,0.0,0.0,0.0,28.7,12.1,-7.7,1024,1024,1024,1024,0,0,0,0,77,5.491,62.42,97.112864,P-GPS,,29.6
664,336800,2026-01-11 17:23:29,0.0,5,7.493,0.0,0.0,0.0,28.7,12.1,-7.8,1024,1024,1024,1024,0,0,0,0,77,5.491,62.42,97.112864,P-GPS,,29.6
665,336900,2026-01-11 17:23:29,0.0,5,7.493,0.0,0.0,0.0,28.7,12.3,-7.8,1024,1024,1024,1024,0,0,0,0,77,5.491,62.42,97.112864,P-GPS,,29.6
666,337000,2026-01-11 17:23:29,0.0,5,7.493,0.0,0.0,0.0,28.7,12.1,-7.4,1024,1024,1024,1024,0,0,0,0,77,5.491,62.42,97.112864,P-GPS,,29.6
667,337100,2026-01-11 17:23:29,0.0,5,7.493,0.0,0.0,0.0,28.7,12.0,-7.3,1024,1024,1024,1024,0,0,0,0,77,5.491,62.42,97.112864,P-GPS,,29.6
668,337200,2026-01-11 17:23:29,0.0,5,7.493,0.0,0.0,0.0,28.8,12.0,-7.4,1024,1024,1024,1024,0,0,0,0,77,5.491,62.42,97.112864,P-GPS,,29.6
669,337300,2026-01-11 17:23:29,0.0,5,7.493,0.0,0.0,0.0,28.8,12.4,-7.0,1024,1024,1024,1024,0,0,0,0,77,5.491,62.42,97.112864,P-GPS,,29.6
670,337400,2026-01-11 17:23:30,0.0,5,7.493,0.0,0.0,0.0,28.9,12.2,-7.0,1024,1024,1024,1024,0,0,0,0,77,5.491,62.42,97.112864,P-GPS,,29.6
671,337500,2026-01-11 17:23:30,0.0,5,7.493,0.0,0.0,0.0,28.9,12.0,-6.8,1024,1024,1024,1024,0,0,0,0,77,5.491,62.42,97.112864,P-GPS,,29.6
672,337600,2026-01-11 17:23:30,0.0,5,7.468,0.0,0.0,0.0,28.8,12.2,-6.5,1024,1024,1024,1024,0,0,0,0,77,5.602,62.42,97.112864,P-GPS,,29.6
673,337700,2026-01-11 17:23:30,0.0,5,7.468,0.0,0.0,0.0,28.8,12.3,-6.5,1024,1024,1024,1024,0,0,0,0,77,5.602,62.42,97.112864,P-GPS,,29.6
674,337800,2026-01-11 17:23:30,0.0,5,7.468,0.0,0.0,0.0,28.8,12.4,-6.5,1024,1024,1024,1024,0,0,0,0,77,5.602,62.42,97.112864,P-GPS,,29.6
675,337900,2026-01-11 17:23:30,0.0,5,7.468,0.0,0.0,0.0,28.9,12.4,-6.3,1024,1024,1024,1024,0,0,0,0,77,5.602,62.42,97.112864,P-GPS,,29.6
676,338000,2026-01-11 17:23:30,0.0,5,7.468,0.0,0.0,0.0,28.9,12.5,-6.3,1024,1024,1024,1024,0,0,0,0,77,5.602,62.42,97.112864,P-GPS,,29.6
677,338100,2026-01-11 17:23:30,0.0,5,7.468,0.0,0.0,0.0,28.9,12.3,-6.3,1024,1024,1024,1024,0,0,0,0,77,5.602,62.42,97.112864,P-GPS,,29.6
678,338200,2026-01-11 17:23:30,0.0,5,7.468,0.0,0.0,0.0,28.9,12.2,-6.4,1024,1024,1024,1024,0,0,0,0,77,5.602,62.42,97.112864,P-GPS,,29.6
679,338300,2026-01-11 17:23:31,0.0,5,7.468,0.0,0.0,0.0,28.9,12.2,-6.6,1024,1024,1024,1024,0,0,0,0,77,5.602,62.42,97.112864,P-GPS,,29.6
680,338400,2026-01-11 17:23:31,0.0,5,7.468,0.0,0.0,0.0,28.8,12.2,-6.5,1024,1024,1024,1024,0,0,0,0,77,5.602,62.42,97.440948,P-GPS,,29.7
681,338500,2026-01-11 17:23:31,0.0,5,7.468,0.0,0.0,0.0,28.8,12.3,-6.9,1024,1024,1024,1024,0,0,0,0,77,5.602,62.42,97.440948,P-GPS,,29.7
682,338600,2026-01-11 17:23:31,0.0,5,7.468,0.0,0.0,0.0,28.8,12.4,-7.1,1024,1024,1024,1024,0,0,0,0,77,5.602,62.42,97.440948,P-GPS,,29.7
683,338700,2026-01-11 17:23:31,0.0,5,7.476,0.0,0.0,0.0,28.7,12.4,-7.2,1024,1024,1024,1024,0,0,0,0,77,5.68,62.42,97.440948,P-GPS,,29.7
684,338800,2026-01-11 17:23:31,0.0,5,7.476,0.0,0.0,0.0,28.7,12.2,-7.3,1024,1024,1024,1024,0,0,0,0,77,5.68,62.42,97.440948,P-GPS,,29.7
685,338900,2026-01-11 17:23:31,0.0,5,7.476,0.0,0.0,0.0,28.7,11.9,-7.4,1024,1024,1024,1024,0,0,0,0,77,5.68,62.42,97.440948,P-GPS,,29.7
686,339000,2026-01-11 17:23:31,0.0,5,7.476,0.0,0.0,0.0,28.7,12.1,-7.4,1024,1024,1024,1024,0,0,0,0,77,5.68,62.42,97.440948,P-GPS,,29.7
687,339100,2026-01-11 17:23:31,0.0,5,7.476,0.0,0.0,0.0,28.8,11.6,-7.6,1024,1024,1024,1024,0,0,0,0,77,5.68,62.42,97.440948,P-GPS,,29.7
688,339200,2026-01-11 17:23:31,0.0,5,7.476,0.0,0.0,0.0,28.7,11.2,-7.5,1024,1024,1024,1024,0,0,0,0,77,5.68,62.42,97.440948,P-GPS,,29.7
689,339300,2026-01-11 17:23:32,0.0,5,7.476,0.0,0.0,0.0,28.8,11.2,-7.7,1024,1024,1024,1024,0,0,0,0,77,5.68,62.42,97.440948,P-GPS,,29.7
690,339400,2026-01-11 17:23:32,0.0,5,7.476,0.0,0.0,0.0,28.8,11.0,-7.7,1024,1024,1024,1024,0,0,0,0,77,5.68,62.42,97.440948,P-GPS,,29.7
691,339500,2026-01-11 17:23:32,0.0,5,7.476,0.0,0.0,0.0,28.9,11.0,-7.3,1024,1024,1024,1024,0,0,0,0,77,5.68,62.42,97.440948,P-GPS,,29.7
692,339600,2026-01-11 17:23:32,0.0,5,7.476,0.0,0.0,0.0,28.8,11.0,-7.4,1024,1024,1024,1024,0,0,0,0,77,5.68,62.42,97.440948,P-GPS,,29.7
693,339700,2026-01-11 17:23:32,0.0,5,7.476,0.0,0.0,0.0,28.8,11.1,-6.9,1024,1024,1024,1024,0,0,0,0,77,5.68,62.42,97.112864,P-GPS,,29.6
694,339800,2026-01-11 17:23:32,0.0,5,7.507,0.0,0.0,0.0,28.8,11.2,-7.1,1024,1024,1024,1024,0,0,0,0,77,5.232,62.42,97.112864,P-GPS,,29.6
695,339900,2026-01-11 17:23:32,0.0,5,7.507,0.0,0.0,0.0,28.9,10.9,-6.9,1024,1024,1024,1024,0,0,0,0,77,5.232,62.42,97.112864,P-GPS,,29.6
696,340000,2026-01-11 17:23:32,0.0,5,7.507,0.0,0.0,0.0,28.9,10.7,-6.7,1024,1024,1024,1024,0,0,0,0,77,5.232,62.42,97.112864,P-GPS,,29.6
697,340100,2026-01-11 17:23:32,0.0,5,7.507,0.0,0.0,0.0,28.9,10.7,-6.7,1024,1024,1024,1024,0,0,0,0,77,5.232,62.42,97.112864,P-GPS,,29.6
698,340200,2026-01-11 17:23:32,0.0,5,7.507,0.0,0.0,0.0,28.8,11.0,-6.6,1024,1024,1024,1024,0,0,0,0,77,5.232,62.42,97.112864,P-GPS,,29.6
699,340300,2026-01-11 17:23:33,0.0,5,7.507,0.0,0.0,0.0,28.9,11.2,-6.6,1024,1024,1024,1024,0,0,0,0,77,5.232,62.42,97.440948,P-GPS,,29.7
700,340400,2026-01-11 17:23:33,0.0,5,7.507,0.0,0.0,0.0,28.8,11.4,-6.6,1024,1024,1024,1024,0,0,0,0,77,5.232,62.42,97.440948,P-GPS,,29.7
701,340500,2026-01-11 17:23:33,0.0,5,7.507,0.0,0.0,0.0,28.8,11.6,-6.8,1024,1024,1024,1024,0,0,0,0,77,5.232,62.42,97.440948,P-GPS,,29.7
702,340600,2026-01-11 17:23:33,0.0,5,7.507,0.0,0.0,0.0,28.8,11.7,-6.9,1024,1024,1024,1024,0,0,0,0,77,5.232,62.42,97.440948,P-GPS,,29.7
