index,time(millisecond),timestamp,speed(mph),gpslevel,voltage(v),xSpeed(mph),ySpeed(mph),zSpeed(mph),compass_heading(degrees),pitch(degrees),roll(degrees),rc_elevator,rc_aileron,rc_throttle,rc_rudder,rc_elevator(percent),rc_aileron(percent),rc_throttle(percent),rc_rudder(percent),battery_percent,current(A),battery_temperature(f),ascent(feet),flycState,message,height_above_takeoff(meters)
83,144200,2026-01-11 17:20:10,0.0,5,7.761,0.0,0.0,0.0,35.1,1.6,-0.8,1024,1024,1024,1024,0,0,0,0,89,4.495,59.0,36.745408,P-GPS,,11.2
84,144300,2026-01-11 17:20:10,0.0,5,7.761,0.0,0.0,0.0,35.2,2.0,-0.2,1024,1024,1024,1024,0,0,0,0,89,4.495,59.0,36.745408,P-GPS,,11.2
85,144400,2026-01-11 17:20:10,0.0,5,7.761,0.0,0.0,0.0,35.2,2.3,-0.1,1024,1024,1024,1024,0,0,0,0,89,4.495,59.0,36.745408,P-GPS,,11.2
86,144500,2026-01-11 17:20:10,0.0,5,7.761,0.0,0.0,0.0,35.1,2.9,-0.1,1024,1024,1024,1024,0,0,0,0,89,4.495,59.0,36.745408,P-GPS,,11.2
87,144600,2026-01-11 17:20:10,0.0,5,7.761,0.0,0.0,0.0,35.1,2.9,-1.0,1024,1024,1024,1024,0,0,0,0,89,4.495,59.0,36.745408,P-GPS,,11.2
88,144700,2026-01-11 17:20:11,0.0,5,7.761,0.0,0.0,0.0,34.9,3.4,-0.7,1024,1024,1024,1024,0,0,0,0,89,4.495,59.0,36.745408,P-GPS,,11.2
89,144800,2026-01-11 17:20:11,0.0,5,7.761,0.0,0.0,0.0,35.0,3.4,-0.7,1024,1024,1024,1024,0,0,0,0,89,4.495,59.0,36.745408,P-GPS,,11.2
90,144900,2026-01-11 17:20:11,0.0,5,7.761,0.0,0.0,0.0,35.0,3.1,-1.2,1024,1024,1024,1024,0,0,0,0,89,4.495,59.0,36.745408,P-GPS,,11.2
91,145000,2026-01-11 17:20:11,0.0,5,7.761,0.0,0.0,0.0,34.9,3.0,-2.0,1024,1024,1024,1024,0,0,0,0,89,4.495,59.0,36.745408,P-GPS,,11.2
92,145100,2026-01-11 17:20:11,0.0,5,7.761,0.0,0.0,0.0,35.0,2.8,-2.1,1024,1024,1024,1024,0,0,0,0,89,4.495,59.0,36.745408,P-GPS,,11.2
93,145200,2026-01-11 17:20:11,0.223694,5,7.761,0.0,0.223694,0.0,35.1,2.6,-2.4,1024,1024,1024,1024,0,0,0,0,89,4.495,59.0,36.745408,P-GPS,,11.2
94,145300,2026-01-11 17:20:11,0.223694,5,7.761,0.0,0.223694,0.0,34.8,2.8,-3.1,1024,1024,1024,1024,0,0,0,0,89,4.495,59.0,36.745408,P-GPS,,11.2
95,145400,2026-01-11 17:20:11,0.0,5,7.761,0.0,0.0,0.0,34.8,3.4,-2.2,1024,1024,1024,1024,0,0,0,0,89,4.495,59.0,36.745408,P-GPS,,11.2
96,145500,2026-01-11 17:20:11,0.0,5,7.761,0.0,0.0,0.0,35.0,3.7,-2.1,1024,1024,1024,1024,0,0,0,0,89,4.495,59.0,36.745408,P-GPS,,11.2
97,145600,2026-01-11 17:20:11,0.0,5,7.761,0.0,0.223694,0.0,35.3,3.4,-2.3,1024,1024,1024,1024,0,0,0,0,89,4.495,59.0,37.073492,P-GPS,,11.3
98,145700,2026-01-11 17:20:11,0.223694,5,7.761,0.0,0.223694,0.0,35.4,4.0,-2.7,1024,1024,1024,1024,0,0,0,0,89,4.495,59.0,37.073492,P-GPS,,11.3
99,145800,2026-01-11 17:20:12,0.223694,5,7.686,0.0,0.223694,0.0,35.4,4.9,-3.2,1024,1024,1024,1024,0,0,0,0,89,5.021,59.0,37.073492,P-GPS,,11.3
100,145900,2026-01-11 17:20:12,0.223694,5,7.686,0.0,0.223694,0.0,35.3,6.0,-3.6,1024,1024,1024,1024,0,0,0,0,89,5.021,59.0,37.073492,P-GPS,,11.3
101,146000,2026-01-11 17:20:12,0.223694,5,7.686,0.0,0.223694,0.223694,35.2,6.5,-3.4,1024,1024,1024,1024,0,0,0,0,89,5.021,59.0,37.073492,P-GPS,,11.3
102,146100,2026-01-11 17:20:12,0.223694,5,7.686,0.0,0.223694,0.0,35.4,5.8,-2.5,1024,1024,1024,1024,0,0,0,0,89,5.021,59.0,37.073492,P-GPS,,11.3
103,146200,2026-01-11 17:20:12,0.223694,5,7.686,0.0,0.223694,0.0,35.4,5.0,-2.8,1024,1024,1024,1024,0,0,0,0,89,5.021,59.0,37.073492,P-GPS,,11.3
104,146300,2026-01-11 17:20:12,0.0,5,7.686,0.0,0.0,0.0,35.4,5.5,-3.0,1024,1024,1024,1024,0,0,0,0,89,5.021,59.0,37.401576,P-GPS,,11.4
105,146400,2026-01-11 17:20:12,0.0,5,7.686,0.0,0.0,0.0,35.4,5.6,-3.3,1024,1024,1024,1024,0,0,0,0,89,5.021,59.0,37.401576,P-GPS,,11.4
106,146500,2026-01-11 17:20:12,0.0,5,7.686,0.0,0.0,0.0,35.3,6.0,-3.7,1024,1024,1024,1024,0,0,0,0,89,5.021,59.0,37.401576,P-GPS,,11.4
107,146600,2026-01-11 17:20:12,0.0,5,7.686,0.0,0.0,0.0,35.3,5.8,-3.9,1024,1024,1024,1024,0,0,0,0,89,5.021,59.0,37.401576,P-GPS,,11.4
108,146700,2026-01-11 17:20:13,0.0,5,7.686,0.0,0.0,0.223694,35.3,4.3,-2.9,1024,1024,1024,1024,0,0,0,0,89,5.021,59.0,37.073492,P-GPS,,11.3
109,146800,2026-01-11 17:20:13,0.0,5,7.686,0.0,0.0,0.0,35.3,3.5,-3.4,1024,1024,1024,1024,0,0,0,0,89,5.021,59.0,37.073492,P-GPS,,11.3
110,146900,2026-01-11 17:20:13,0.0,5,7.677,0.0,0.0,0.0,35.3,4.0,-3.2,1024,1024,1024,1024,0,0,0,0,89,5.024,59.0,37.073492,P-GPS,,11.3
111,147000,2026-01-11 17:20:13,0.0,5,7.677,0.0,0.0,0.223694,35.3,4.1,-3.9,1024,1024,1024,1024,0,0,0,0,89,5.024,59.0,37.073492,P-GPS,,11.3
112,147100,2026-01-11 17:20:13,0.0,5,7.677,0.0,0.0,0.223694,35.2,4.7,-4.2,1024,1024,1024,1024,0,0,0,0,89,5.024,59.0,37.073492,P-GPS,,11.3
113,147200,2026-01-11 17:20:13,0.0,5,7.677,0.0,0.0,0.223694,35.2,4.2,-3.4,1024,1024,1024,1024,0,0,0,0,89,5.024,59.0,37.073492,P-GPS,,11.3
114,147300,2026-01-11 17:20:13,0.0,5,7.677,0.0,0.0,0.0,35.3,3.4,-2.9,1024,1024,1024,1024,0,0,0,0,89,5.024,59.0,37.073492,P-GPS,,11.3
115,147400,2026-01-11 17:20:13,0.0,5,7.677,0.0,0.0,0.0,35.1,3.6,-3.1,1024,1024,1024,1024,0,0,0,0,89,5.024,59.0,36.745408,P-GPS,,11.2
116,147500,2026-01-11 17:20:13,0.0,5,7.677,0.0,0.0,0.0,35.0,3.1,-3.9,1024,1024,1024,1024,0,0,0,0,89,5.024,59.0,36.745408,P-GPS,,11.2
117,147600,2026-01-11 17:20:13,0.0,5,7.677,0.0,0.0,0.0,35.0,2.5,-4.1,1024,1024,1024,1024,0,0,0,0,89,5.024,59.0,36.745408,P-GPS,,11.2
118,147700,2026-01-11 17:20:14,0.0,5,7.677,0.0,0.0,0.0,35.0,1.8,-4.3,1024,1024,1024,1024,0,0,0,0,89,5.024,59.0,36.745408,P-GPS,,11.2
119,147800,2026-01-11 17:20:14,0.223694,5,7.677,0.0,-0.223694,0.0,34.9,1.6,-3.5,1024,1024,1024,1024,0,0,0,0,89,5.024,59.0,36.417324,P-GPS,,11.1
120,147900,2026-01-11 17:20:14,0.223694,5,7.677,0.0,-0.223694,0.0,34.9,1.6,-2.8,1024,1024,1024,1024,0,0,0,0,89,5.024,59.0,36.417324,P-GPS,,11.1
121,148000,2026-01-11 17:20:14,0.223694,5,7.692,0.0,-0.223694,0.0,34.9,1.4,-2.3,1024,1024,1024,1024,0,0,0,0,89,4.978,59.0,36.08924,P-GPS,,11.0
122,148100,2026-01-11 17:20:14,0.223694,5,7.692,0.0,-0.223694,0.0,35.0,1.2,-2.6,1024,1024,1024,1024,0,0,0,0,89,4.978,59.0,36.08924,P-GPS,,11.0
123,148200,2026-01-11 17:20:14,0.223694,5,7.692,0.0,-0.223694,0.0,35.2,1.8,-2.0,1024,1024,1024,1024,0,0,0,0,89,4.978,59.0,36.08924,P-GPS,,11.0
124,148300,2026-01-11 17:20:14,0.223694,5,7.692,0.0,-0.223694,0.0,35.3,1.9,-1.6,1024,1024,1024,1024,0,0,0,0,89,4.978,59.0,35.761156,P-GPS,,10.9
125,148400,2026-01-11 17:20:14,0.0,5,7.692,0.0,0.0,0.0,35.1,1.9,-1.3,1024,1024,1024,1024,0,0,0,0,89,4.978,59.0,35.761156,P-GPS,,10.9
126,148500,2026-01-11 17:20:14,0.0,5,7.692,0.0,0.0,0.0,35.1,1.9,-0.8,1024,1024,1024,1024,0,0,0,0,89,4.978,59.0,35.761156,P-GPS,,10.9
127,148600,2026-01-11 17:20:14,0.0,5,7.692,0.0,0.0,0.0,35.3,1.9,-1.1,1024,1024,1024,1024,0,0,0,0,89,4.978,59.0,35.761156,P-GPS,,10.9
128,148700,2026-01-11 17:20:15,0.0,5,7.692,0.0,0.0,0.0,35.4,2.3,-1.6,1024,1024,1024,1024,0,0,0,0,89,4.978,59.0,35.761156,P-GPS,,10.9
129,148800,2026-01-11 17:20:15,0.0,5,7.692,0.0,0.0,0.0,35.2,3.8,-2.0,1024,1024,1024,1024,0,0,0,0,89,4.978,59.0,35.761156,P-GPS,,10.9
130,148900,2026-01-11 17:20:15,0.0,5,7.692,0.0,0.0,0.0,35.2,4.6,-2.8,1024,1024,1024,1024,0,0,0,0,89,4.978,59.0,35.761156,P-GPS,,10.9
131,149000,2026-01-11 17:20:15,0.0,5,7.692,0.0,0.0,0.0,35.4,4.1,-3.2,1024,1024,1024,1024,0,0,0,0,89,4.978,59.0,35.761156,P-GPS,,10.9
132,149100,2026-01-11 17:20:15,0.0,5,7.698,0.0,0.0,0.0,35.2,3.3,-3.2,1024,1024,1024,1024,0,0,0,0,89,4.791,59.18,35.761156,P-GPS,,10.9
133,149200,2026-01-11 17:20:15,0.0,5,7.698,0.0,0.0,0.0,35.0,3.4,-2.8,1024,1024,1024,1024,0,0,0,0,89,4.791,59.18,36.08924,P-GPS,,11.0
134,149300,2026-01-11 17:20:15,0.0,5,7.698,0.0,0.0,0.0,34.9,4.1,-1.8,1024,1024,1024,1024,0,0,0,0,89,4.791,59.18,35.761156,P-GPS,,10.9
135,149400,2026-01-11 17:20:15,0.0,5,7.698,0.0,0.0,0.0,34.9,4.4,-1.6,1024,1024,1024,1024,0,0,0,0,89,4.791,59.18,35.761156,P-GPS,,10.9
136,149500,2026-01-11 17:20:15,0.0,5,7.698,0.0,0.0,0.0,34.9,4.5,-1.3,1024,1024,1024,1024,0,0,0,0,89,4.791,59.18,35.761156,P-GPS,,10.9
137,149600,2026-01-11 17:20:15,0.0,5,7.698,0.0,0.0,0.0,35.0,4.3,-1.2,1024,1024,1024,1024,0,0,0,0,89,4.791,59.18,35.761156,P-GPS,,10.9
138,149700,2026-01-11 17:20:16,0.0,5,7.698,0.0,0.0,0.0,35.1,4.0,-0.9,1024,1024,1024,1024,0,0,0,0,89,4.791,59.18,35.761156,P-GPS,,10.9
139,149800,2026-01-11 17:20:16,0.0,5,7.698,0.0,0.0,0.0,35.3,3.8,-1.3,1024,1024,1024,1024,0,0,0,0,89,4.791,59.18,35.433072,P-GPS,,10.8
140,149900,2026-01-11 17:20:16,0.0,5,7.698,0.0,0.0,0.0,35.3,3.7,-1.3,1024,1024,1024,1024,0,0,0,0,89,4.791,59.18,35.433072,P-GPS,,10.8
141,150000,2026-01-11 17:20:16,0.0,5,7.698,0.0,0.0,0.0,35.3,3.3,-1.1,1024,1024,1024,1024,0,0,0,0,89,4.791,59.18,35.433072,P-GPS,,10.8
142,150100,2026-01-11 17:20:16,0.0,5,7.698,0.0,0.0,0.0,35.3,3.6,-1.0,1024,1024,1024,1024,0,0,0,0,89,4.791,59.18,35.433072,P-GPS,,10.8
143,150200,2026-01-11 17:20:16,0.0,5,7.719,0.0,0.0,0.0,35.3,3.5,-0.9,1024,1024,1024,1024,0,0,0,0,89,4.35,59.18,35.433072,P-GPS,,10.8
144,150300,2026-01-11 17:20:16,0.0,5,7.719,0.0,0.0,0.0,35.3,4.0,-0.9,1024,1024,1024,1024,0,0,0,0,89,4.35,59.18,35.433072,P-GPS,,10.8
145,150400,2026-01-11 17:20:16,0.0,5,7.719,0.0,0.0,0.0,35.2,4.2,-1.4,1024,1024,1024,1024,0,0,0,0,89,4.35,59.18,35.433072,P-GPS,,10.8
146,150500,2026-01-11 17:20:16,0.0,5,7.719,0.0,0.0,0.0,35.3,4.0,-1.9,1024,1024,1024,1024,0,0,0,0,89,4.35,59.18,35.433072,P-GPS,,10.8
147,150600,2026-01-11 17:20:16,0.0,5,7.719,0.0,0.0,0.0,35.2,4.3,-1.9,1024,1024,1024,1024,0,0,0,0,89,4.35,59.18,35.433072,P-GPS,,10.8
148,150700,2026-01-11 17:20:17,0.0,5,7.719,0.0,0.0,0.0,35.2,4.3,-1.8,1024,1024,1024,1024,0,0,0,0,89,4.35,59.18,35.104988,P-GPS,,10.7
149,150800,2026-01-11 17:20:17,0.0,5,7.719,0.0,0.0,0.0,35.2,3.9,-1.5,1024,1024,1024,1024,0,0,0,0,89,4.35,59.18,35.104988,P-GPS,,10.7
150,150900,2026-01-11 17:20:17,0.0,5,7.719,0.0,0.0,0.0,35.2,3.6,-1.1,1024,1024,1024,1024,0,0,0,0,89,4.35,59.18,35.104988,P-GPS,,10.7
151,151000,2026-01-11 17:20:17,0.0,5,7.719,0.0,0.0,0.0,35.2,3.4,-1.1,1024,1024,1024,1024,0,0,0,0,89,4.35,59.18,35.104988,P-GPS,,10.7
152,151100,2026-01-11 17:20:17,0.0,5,7.719,0.0,0.0,0.0,35.2,3.4,-0.8,1024,1024,1024,1024,0,0,0,0,89,4.35,59.18,35.104988,P-GPS,,10.7
153,151200,2026-01-11 17:20:17,0.0,5,7.719,0.0,0.0,0.0,35.2,3.6,-0.7,1024,1024,1024,1024,0,0,0,0,89,4.35,59.18,34.776904,P-GPS,,10.6
154,151300,2026-01-11 17:20:17,0.0,5,7.718,0.0,0.0,0.0,35.2,3.2,-0.4,1024,1024,1024,1024,0,0,0,0,89,4.461,59.18,34.776904,P-GPS,,10.6
155,151400,2026-01-11 17:20:17,0.0,5,7.718,0.0,0.0,0.0,35.2,3.0,-0.5,1024,1024,1024,1024,0,0,0,0,89,4.461,59.18,34.776904,P-GPS,,10.6
156,151500,2026-01-11 17:20:17,0.0,5,7.718,0.0,0.0,0.0,35.1,2.9,-0.4,1024,1024,1024,1024,0,0,0,0,89,4.461,59.18,34.776904,P-GPS,,10.6
157,151600,2026-01-11 17:20:17,0.0,5,7.718,0.0,0.0,0.0,35.2,2.7,-0.4,1024,1024,1024,1024,0,0,0,0,89,4.461,59.18,34.44882,P-GPS,,10.5
158,151700,2026-01-11 17:20:18,0.0,5,7.718,0.0,0.0,0.0,35.3,2.8,-0.9,1024,1024,1024,1024,0,0,0,0,89,4.461,59.18,34.44882,P-GPS,,10.5
159,151800,2026-01-11 17:20:18,0.0,5,7.718,0.0,0.0,0.0,35.2,2.4,-1.4,1024,1024,1024,1024,0,0,0,0,89,4.461,59.18,34.44882,P-GPS,,10.5
160,151900,2026-01-11 17:20:18,0.0,5,7.718,0.0,0.0,0.0,35.1,3.0,-1.4,1024,1024,1024,1024,0,0,0,0,89,4.461,59.18,34.44882,P-GPS,,10.5
161,152000,2026-01-11 17:20:18,0.0,5,7.718,0.0,0.0,0.0,35.1,3.9,-0.9,1024,1024,1024,1024,0,0,0,0,89,4.461,59.18,34.44882,P-GPS,,10.5
162,152100,2026-01-11 17:20:18,0.0,5,7.718,0.0,0.0,0.0,35.0,4.0,-1.4,1024,1024,1024,1024,0,0,0,0,89,4.461,59.18,34.44882,P-GPS,,10.5
163,152200,2026-01-11 17:20:18,0.0,5,7.718,0.0,0.0,0.0,35.0,3.7,-1.3,1024,1024,1024,1024,0,0,0,0,89,4.461,59.18,34.44882,P-GPS,,10.5
164,152300,2026-01-11 17:20:18,0.0,5,7.718,0.0,0.0,0.0,35.2,3.8,-0.7,1024,1024,1024,1024,0,0,0,0,89,4.461,59.18,34.44882,P-GPS,,10.5
165,152400,2026-01-11 17:20:18,0.0,5,7.708,0.0,0.0,0.0,35.3,3.6,-1.2,1024,1024,1024,1024,0,0,0,0,89,4.519,59.36,34.44882,P-GPS,,10.5
166,152500,2026-01-11 17:20:18,0.0,5,7.708,0.0,0.0,0.0,35.3,3.9,-1.0,1024,1024,1024,1024,0,0,0,0,89,4.519,59.36,34.44882,P-GPS,,10.5
167,152600,2026-01-11 17:20:18,0.0,5,7.708,0.0,0.0,0.0,35.3,4.2,-0.6,1024,1024,1024,1024,0,0,0,0,89,4.519,59.36,34.44882,P-GPS,,10.5
168,152700,2026-01-11 17:20:19,0.0,5,7.708,0.0,0.0,0.0,35.2,4.1,-0.5,1024,1024,1024,1024,0,0,0,0,89,4.519,59.36,34.44882,P-GPS,,10.5
169,152800,2026-01-11 17:20:19,0.0,5,7.708,0.0,0.0,0.0,35.2,4.0,-0.7,1024,1024,1024,1024,0,0,0,0,89,4.519,59.36,34.120736,P-GPS,,10.4
170,152900,2026-01-11 17:20:19,0.0,5,7.708,0.0,0.0,0.0,35.2,3.8,-0.4,1024,1024,1024,1024,0,0,0,0,89,4.519,59.36,34.120736,P-GPS,,10.4
171,153000,2026-01-11 17:20:19,0.0,5,7.708,0.0,0.0,0.0,35.2,3.9,-0.2,1024,1024,1024,1024,0,0,0,0,89,4.519,59.36,34.120736,P-GPS,,10.4
172,153100,2026-01-11 17:20:19,0.0,5,7.708,0.0,0.0,0.0,35.1,4.2,0.0,1024,1024,1024,1024,0,0,0,0,89,4.519,59.36,34.120736,P-GPS,,10.4
173,153200,2026-01-11 17:20:19,0.0,5,7.708,0.0,0.0,0.0,35.1,4.6,0.0,1024,1024,1024,1024,0,0,0,0,89,4.519,59.36,34.120736,P-GPS,,10.4
174,153300,2026-01-11 17:20:19,0.0,5,7.708,0.0,0.0,0.0,35.0,4.4,-0.2,1024,1024,1024,1024,0,0,0,0,89,4.519,59.36,34.120736,P-GPS,,10.4
175,153400,2026-01-11 17:20:19,0.0,5,7.708,0.0,0.0,0.0,34.9,4.3,0.0,1024,1024,1024,1024,0,0,0,0,89,4.519,59.36,34.120736,P-GPS,,10.4
176,153500,2026-01-11 17:20:19,0.0,5,7.706,0.0,0.0,0.0,35.0,4.4,0.4,1024,1024,1024,1024,0,0,0,0,89,4.502,59.36,34.120736,P-GPS,,10.4
177,153600,2026-01-11 17:20:19,0.0,5,7.706,0.0,0.0,0.0,35.0,4.3,0.1,1024,1024,1024,1024,0,0,0,0,89,4.502,59.36,34.120736,P-GPS,,10.4
178,153700,2026-01-11 17:20:20,0.0,5,7.706,0.0,0.0,0.0,34.9,4.0,-0.3,1024,1024,1024,1024,0,0,0,0,89,4.502,59.36,34.120736,P-GPS,,10.4
179,153800,2026-01-11 17:20:20,0.0,5,7.706,0.0,0.0,0.0,34.9,4.1,-0.5,1024,1024,1024,1024,0,0,0,0,89,4.502,59.36,34.120736,P-GPS,,10.4
180,153900,2026-01-11 17:20:20,0.0,5,7.706,0.0,0.0,0.0,34.7,4.1,-0.7,1024,1024,1024,1024,0,0,0,0,89,4.502,59.36,34.120736,P-GPS,,10.4
181,154000,2026-01-11 17:20:20,0.0,5,7.706,0.0,0.0,0.0,34.8,4.4,-0.5,1024,1024,1024,1024,0,0,0,0,89,4.502,59.36,34.120736,P-GPS,,10.4
182,154100,2026-01-11 17:20:20,0.0,5,7.706,0.0,0.0,0.0,35.0,4.5,-0.8,1024,1024,1024,1024,0,0,0,0,89,4.502,59.36,34.120736,P-GPS,,10.4
183,154200,2026-01-11 17:20:20,0.0,5,7.706,0.0,0.0,0.0,35.0,4.5,-1.0,1024,1024,1024,1024,0,0,0,0,89,4.502,59.36,34.120736,P-GPS,,10.4
184,154300,2026-01-11 17:20:20,0.0,5,7.706,0.0,0.0,0.0,35.0,4.4,-1.0,1024,1024,1024,1024,0,0,0,0,89,4.502,59.36,34.120736,P-GPS,,10.4
185,154400,2026-01-11 17:20:20,0.0,5,7.706,0.0,0.0,0.0,35.0,4.5,-0.9,1024,1024,1024,1024,0,0,0,0,89,4.502,59.36,34.44882,P-GPS,,10.5
186,154500,2026-01-11 17:20:20,0.0,5,7.706,0.0,0.0,0.0,35.0,4.6,-0.6,1024,1024,1024,1024,0,0,0,0,89,4.502,59.36,34.44882,P-GPS,,10.5
187,154600,2026-01-11 17:20:20,0.0,5,7.705,0.0,0.0,0.0,35.1,3.8,-0.9,1024,1024,1024,1024,0,0,0,0,89,4.597,59.36,34.44882,P-GPS,,10.5
188,154700,2026-01-11 17:20:21,0.0,5,7.705,0.0,0.0,0.0,35.2,3.2,-0.9,1024,1024,1024,1024,0,0,0,0,89,4.597,59.36,34.44882,P-GPS,,10.5
189,154800,2026-01-11 17:20:21,0.0,5,7.705,0.0,0.0,0.0,35.2,2.9,-1.3,1024,1024,1024,1024,0,0,0,0,89,4.597,59.36,34.44882,P-GPS,,10.5
190,154900,2026-01-11 17:20:21,0.0,5,7.705,0.0,0.0,0.0,35.2,3.1,-0.5,1024,1024,1024,1024,0,0,0,0,89,4.597,59.36,34.44882,P-GPS,,10.5
191,155000,2026-01-11 17:20:21,0.0,5,7.705,0.0,0.0,0.0,35.2,2.7,-0.6,1024,1024,1024,1024,0,0,0,0,89,4.597,59.36,34.44882,P-GPS,,10.5
192,155100,2026-01-11 17:20:21,0.0,5,7.705,0.0,0.0,0.0,35.3,2.7,-0.9,1024,1024,1024,1024,0,0,0,0,89,4.597,59.36,34.44882,P-GPS,,10.5
193,155200,2026-01-11 17:20:21,0.0,5,7.705,0.0,0.0,0.0,35.3,3.4,-1.9,1024,1024,1024,1024,0,0,0,0,89,4.597,59.36,34.44882,P-GPS,,10.5
194,155300,2026-01-11 17:20:21,0.0,5,7.705,0.0,0.0,0.0,35.3,3.7,-1.9,1024,1024,1024,1024,0,0,0,0,89,4.597,59.36,34.44882,P-GPS,,10.5
195,155400,2026-01-11 17:20:21,0.0,5,7.705,0.0,0.0,0.0,35.3,3.3,-1.5,1024,1024,1024,1024,0,0,0,0,89,4.597,59.36,34.44882,P-GPS,,10.5
196,155500,2026-01-11 17:20:21,0.0,5,7.705,0.0,0.0,0.0,35.3,3.9,-1.3,1024,1024,1024,1024,0,0,0,0,89,4.597,59.36,34.776904,P-GPS,,10.6
197,155600,2026-01-11 17:20:21,0.0,5,7.705,0.0,0.0,0.0,35.4,4.1,-0.9,1024,1024,1024,1024,0,0,0,0,89,4.597,59.36,34.776904,P-GPS,,10.6
198,155700,2026-01-11 17:20:22,0.0,5,7.705,0.0,0.0,0.0,35.3,4.1,-1.2,1024,1024,1024,1024,0,0,0,0,89,4.597,59.36,34.776904,P-GPS,,10.6
199,155800,2026-01-11 17:20:22,0.0,5,7.705,0.0,0.0,0.0,35.2,4.0,-1.4,1024,1024,1024,1024,0,0,0,0,89,4.597,59.36,34.776904,P-GPS,,10.6
200,155900,2026-01-11 17:20:22,0.0,5,7.705,0.0,0.0,0.0,35.2,3.8,-1.3,1024,1024,1024,1024,0,0,0,0,89,4.597,59.36,34.776904,P-GPS,,10.6
201,156000,2026-01-11 17:20:22,0.0,5,7.705,0.0,0.0,0.0,35.1,4.5,-1.0,1024,1024,1024,1024,0,0,0,0,89,4.597,59.36,34.776904,P-GPS,,10.6
202,156100,2026-01-11 17:20:22,0.0,5,7.705,0.0,0.0,0.0,35.1,4.7,-0.6,1024,1024,1024,1024,0,0,0,0,89,4.597,59.36,34.776904,P-GPS,,10.6
203,156200,2026-01-11 17:20:22,0.0,5,7.705,0.0,0.0,0.0,35.1,4.6,-0.8,1024,1024,1024,1024,0,0,0,0,89,4.597,59.36,34.776904,P-GPS,,10.6
204,156300,2026-01-11 17:20:22,0.0,5,7.705,0.0,0.0,0.0,35.1,4.0,-1.4,1024,1024,1024,1024,0,0,0,0,89,4.597,59.36,34.776904,P-GPS,,10.6
205,156400,2026-01-11 17:20:22,0.0,5,7.705,0.0,0.0,0.0,35.2,3.4,-1.6,1024,1024,1024,1024,0,0,0,0,89,4.597,59.36,34.776904,P-GPS,,10.6
206,156500,2026-01-11 17:20:22,0.0,5,7.705,0.0,0.0,0.0,35.3,2.9,-1.3,1024,1024,1024,1024,0,0,0,0,89,4.597,59.36,34.776904,P-GPS,,10.6
207,156600,2026-01-11 17:20:22,0.0,5,7.705,0.0,0.0,0.0,35.2,3.3,-1.2,1024,1024,1024,1024,0,0,0,0,89,4.597,59.36,34.776904,P-GPS,,10.6
208,156700,2026-01-11 17:20:23,0.0,5,7.705,0.0,0.0,0.0,35.2,3.8,-0.7,1024,1024,1024,1024,0,0,0,0,89,4.597,59.36,34.776904,P-GPS,,10.6
209,156800,2026-01-11 17:20:23,0.0,5,7.722,0.0,0.0,0.0,35.2,4.6,-1.7,1024,1024,1024,1024,0,0,0,0,89,4.367,59.36,35.104988,P-GPS,,10.7
210,156900,2026-01-11 17:20:23,0.0,5,7.722,0.0,0.0,0.0,35.1,5.1,-1.4,1024,1024,1024,1024,0,0,0,0,89,4.367,59.36,35.104988,P-GPS,,10.7
211,157000,2026-01-11 17:20:23,0.0,5,7.722,0.0,0.0,0.0,35.0,5.2,-0.9,1024,1024,1024,1024,0,0,0,0,89,4.367,59.36,35.104988,P-GPS,,10.7
212,157100,2026-01-11 17:20:23,0.0,5,7.722,0.0,0.0,0.0,35.0,5.8,-0.8,1024,1024,1024,1024,0,0,0,0,89,4.367,59.36,35.104988,P-GPS,,10.7
213,157200,2026-01-11 17:20:23,0.0,5,7.722,0.0,0.0,0.0,35.0,5.5,-1.1,1024,1024,1024,1024,0,0,0,0,89,4.367,59.36,35.104988,P-GPS,,10.7
214,157300,2026-01-11 17:20:23,0.0,5,7.722,0.0,0.0,0.0,35.1,4.6,-1.2,1024,1024,1024,1024,0,0,0,0,89,4.367,59.36,35.104988,P-GPS,,10.7
215,157400,2026-01-11 17:20:23,0.0,5,7.722,0.0,0.0,0.0,35.1,4.2,-0.9,1024,1024,1024,1024,0,0,0,0,89,4.367,59.36,35.104988,P-GPS,,10.7
216,157500,2026-01-11 17:20:23,0.0,5,7.722,0.0,0.0,0.0,35.2,3.6,-0.7,1024,1024,1024,1024,0,0,0,0,89,4.367,59.36,35.104988,P-GPS,,10.7
217,157600,2026-01-11 17:20:23,0.0,5,7.722,0.0,0.0,0.0,35.2,3.7,-0.7,1024,1024,1024,1024,0,0,0,0,89,4.367,59.36,35.104988,P-GPS,,10.7
218,157700,2026-01-11 17:20:24,0.0,5,7.722,0.0,0.0,0.0,35.2,3.5,-1.1,1024,1024,1024,1024,0,0,0,0,89,4.367,59.36,35.104988,P-GPS,,10.7
219,157800,2026-01-11 17:20:24,0.0,5,7.722,0.0,0.0,0.0,35.2,3.6,-1.2,1024,1024,1024,1024,0,0,0,0,89,4.367,59.36,35.104988,P-GPS,,10.7
220,157900,2026-01-11 17:20:24,0.0,5,7.708,0.0,0.0,0.0,35.2,3.8,-1.1,1024,1024,1024,1024,0,0,0,0,89,4.578,59.36,34.776904,P-GPS,,10.6
221,158000,2026-01-11 17:20:24,0.0,5,7.708,0.0,0.0,0.0,35.2,3.5,-1.0,1024,1024,1024,1024,0,0,0,0,89,4.578,59.36,34.776904,P-GPS,,10.6
222,158100,2026-01-11 17:20:24,0.0,5,7.708,0.0,0.0,0.0,35.2,3.5,-0.6,1024,1024,1024,1024,0,0,0,0,89,4.578,59.36,34.776904,P-GPS,,10.6
223,158200,2026-01-11 17:20:24,0.0,5,7.708,0.0,0.0,0.0,35.2,3.6,-0.4,1024,1024,1024,1024,0,0,0,0,89,4.578,59.36,34.776904,P-GPS,,10.6
224,158300,2026-01-11 17:20:24,0.0,5,7.708,0.0,0.0,0.0,35.1,3.6,-0.7,1024,1024,1024,1024,0,0,0,0,89,4.578,59.36,34.776904,P-GPS,,10.6
225,158400,2026-01-11 17:20:24,0.0,5,7.708,0.0,0.0,0.0,35.1,3.6,-0.4,1024,1024,1024,1024,0,0,0,0,89,4.578,59.36,34.776904,P-GPS,,10.6
226,158500,2026-01-11 17:20:24,0.0,5,7.708,0.0,0.0,0.0,35.1,3.4,-0.5,1024,1024,1024,1024,0,0,0,0,89,4.578,59.36,34.776904,P-GPS,,10.6
227,158600,2026-01-11 17:20:24,0.0,5,7.708,0.0,0.0,0.0,35.1,3.4,0.0,1024,1024,1024,1024,0,0,0,0,89,4.578,59.36,34.776904,P-GPS,,10.6
228,158700,2026-01-11 17:20:25,0.0,5,7.708,0.0,0.0,0.0,35.2,3.0,0.1,1024,1024,1024,1024,0,0,0,0,89,4.578,59.36,34.776904,P-GPS,,10.6
229,158800,2026-01-11 17:20:25,0.0,5,7.708,0.0,0.0,0.0,35.3,4.1,0.1,1024,1024,1024,1024,0,0,0,0,89,4.578,59.36,34.776904,P-GPS,,10.6
230,158900,2026-01-11 17:20:25,0.0,5,7.708,0.0,0.0,0.0,35.2,4.0,-0.2,1024,1024,1024,1024,0,0,0,0,89,4.578,59.36,34.776904,P-GPS,,10.6
231,159000,2026-01-11 17:20:25,0.0,5,7.689,0.0,0.0,0.0,35.2,4.8,-0.5,1024,1024,1024,1024,0,0,0,0,88,4.691,59.36,34.776904,P-GPS,,10.6
232,159100,2026-01-11 17:20:25,0.0,5,7.689,0.0,0.0,0.0,35.1,4.9,-0.3,1024,1024,1024,1024,0,0,0,0,88,4.691,59.36,34.776904,P-GPS,,10.6
233,159200,2026-01-11 17:20:25,0.0,5,7.689,0.0,0.0,0.0,35.1,4.6,-0.1,1024,1024,1024,1024,0,0,0,0,88,4.691,59.36,34.776904,P-GPS,,10.6
234,159300,2026-01-11 17:20:25,0.0,5,7.689,0.0,0.0,0.0,35.1,4.2,0.0,1024,1024,1024,1024,0,0,0,0,88,4.691,59.36,34.776904,P-GPS,,10.6
235,159400,2026-01-11 17:20:25,0.0,5,7.689,0.0,0.0,0.0,35.1,4.8,0.0,1024,1024,1024,1024,0,0,0,0,88,4.691,59.36,34.776904,P-GPS,,10.6
236,159500,2026-01-11 17:20:25,0.0,5,7.689,0.0,0.0,0.0,34.9,5.3,-0.1,1024,1024,1024,1024,0,0,0,0,88,4.691,59.36,34.776904,P-GPS,,10.6
237,159600,2026-01-11 17:20:25,0.0,5,7.689,0.0,0.0,0.0,35.0,5.4,-0.1,1024,1024,1024,1024,0,0,0,0,88,4.691,59.36,35.104988,P-GPS,,10.7
238,159700,2026-01-11 17:20:26,0.0,5,7.689,0.0,0.0,0.0,35.0,4.9,0.1,1024,1024,1024,1024,0,0,0,0,88,4.691,59.36,35.104988,P-GPS,,10.7
239,159800,2026-01-11 17:20:26,0.0,5,7.689,0.0,0.0,0.0,35.0,3.3,0.8,1024,1024,1024,1024,0,0,0,0,88,4.691,59.36,35.104988,P-GPS,,10.7
240,159900,2026-01-11 17:20:26,0.0,5,7.689,0.0,0.0,0.0,35.0,2.4,0.6,1024,1024,1024,1024,0,0,0,0,88,4.691,59.36,35.104988,P-GPS,,10.7
241,160000,2026-01-11 17:20:26,0.223694,5,7.689,-0.223694,0.0,0.0,35.1,2.7,-0.1,1024,1024,1024,1024,0,0,0,0,88,4.691,59.36,35.104988,P-GPS,,10.7
242,160100,2026-01-11 17:20:26,0.223694,5,7.693,-0.223694,0.0,0.0,35.1,2.6,-1.4,1024,1024,1024,1024,0,0,0,0,88,4.802,59.36,35.104988,P-GPS,,10.7
243,160200,2026-01-11 17:20:26,0.223694,5,7.693,-0.223694,0.0,0.0,35.1,2.2,-2.2,1024,1024,1024,1024,0,0,0,0,88,4.802,59.36,35.104988,P-GPS,,10.7
244,160300,2026-01-11 17:20:26,0.223694,5,7.693,-0.223694,0.0,0.0,35.1,2.8,-2.4,1024,1024,1024,1024,0,0,0,0,88,4.802,59.36,35.433072,P-GPS,,10.8
245,160400,2026-01-11 17:20:26,0.0,5,7.693,0.0,0.0,0.0,35.2,3.2,-2.5,1024,1024,1024,1024,0,0,0,0,88,4.802,59.36,35.433072,P-GPS,,10.8
246,160500,2026-01-11 17:20:26,0.0,5,7.693,0.0,0.0,0.0,35.2,3.5,-2.8,1024,1024,1024,1024,0,0,0,0,88,4.802,59.36,35.433072,P-GPS,,10.8
247,160600,2026-01-11 17:20:26,0.0,5,7.693,0.0,0.0,0.0,35.2,3.9,-3.2,1024,1024,1024,1024,0,0,0,0,88,4.802,59.36,35.433072,P-GPS,,10.8
248,160700,2026-01-11 17:20:27,0.0,5,7.693,0.0,0.0,0.0,35.3,3.5,-2.7,1024,1024,1024,1024,0,0,0,0,88,4.802,59.36,35.433072,P-GPS,,10.8
249,160800,2026-01-11 17:20:27,0.0,5,7.693,0.0,0.0,0.0,35.1,4.0,-1.8,1024,1024,1024,1024,0,0,0,0,88,4.802,59.36,35.433072,P-GPS,,10.8
250,160900,2026-01-11 17:20:27,0.0,5,7.693,0.0,0.0,0.0,35.1,4.0,-0.7,1024,1024,1024,1024,0,0,0,0,88,4.802,59.36,35.104988,P-GPS,,10.7
251,161000,2026-01-11 17:20:27,0.0,5,7.693,0.0,0.0,0.0,35.2,3.8,-0.3,1024,1024,1024,1024,0,0,0,0,88,4.802,59.36,35.104988,P-GPS,,10.7
252,161100,2026-01-11 17:20:27,0.0,5,7.693,0.0,0.0,0.0,35.3,3.1,-0.6,1024,1024,1024,1024,0,0,0,0,88,4.802,59.36,35.104988,P-GPS,,10.7
253,161200,2026-01-11 17:20:27,0.0,5,7.714,0.0,0.0,0.0,35.3,3.4,-0.5,1024,1024,1024,1024,0,0,0,0,88,4.337,59.36,35.104988,P-GPS,,10.7
254,161300,2026-01-11 17:20:27,0.0,5,7.714,0.0,0.0,0.0,35.2,2.8,-0.6,1024,1024,1024,1024,0,0,0,0,88,4.337,59.36,35.104988,P-GPS,,10.7
255,161400,2026-01-11 17:20:27,0.0,5,7.714,0.0,0.0,0.0,35.3,2.7,-0.8,1024,1024,1024,1024,0,0,0,0,88,4.337,59.36,34.776904,P-GPS,,10.6
256,161500,2026-01-11 17:20:27,0.0,5,7.714,0.0,0.0,0.0,35.4,2.9,-0.7,1024,1024,1024,1024,0,0,0,0,88,4.337,59.36,34.776904,P-GPS,,10.6
257,161600,2026-01-11 17:20:27,0.0,5,7.714,0.0,0.0,0.0,35.5,2.9,-1.2,1024,1024,1024,1024,0,0,0,0,88,4.337,59.36,34.776904,P-GPS,,10.6
258,161700,2026-01-11 17:20:28,0.0,5,7.714,0.0,0.0,0.0,35.4,2.8,-1.6,1024,1024,1024,1024,0,0,0,0,88,4.337,59.36,34.776904,P-GPS,,10.6
259,161800,2026-01-11 17:20:28,0.0,5,7.714,0.0,0.0,0.0,35.2,2.8,-0.7,1024,1024,1024,1024,0,0,0,0,88,4.337,59.36,34.776904,P-GPS,,10.6
260,161900,2026-01-11 17:20:28,0.0,5,7.714,0.0,0.0,0.0,35.3,2.9,0.0,1024,1024,1024,1024,0,0,0,0,88,4.337,59.36,34.776904,P-GPS,,10.6
261,162000,2026-01-11 17:20:28,0.0,5,7.714,0.0,0.0,0.0,35.4,2.9,0.2,1024,1024,1024,1024,0,0,0,0,88,4.337,59.36,34.776904,P-GPS,,10.6
262,162100,2026-01-11 17:20:28,0.0,5,7.714,0.0,0.0,0.0,35.7,3.0,1.3,1024,1024,1024,1024,0,0,0,0,88,4.337,59.36,34.776904,P-GPS,,10.6
263,162200,2026-01-11 17:20:28,0.0,5,7.714,0.0,0.0,0.0,35.3,4.2,-0.9,1024,1024,1024,1024,0,0,0,0,88,4.337,59.36,34.44882,P-GPS,,10.5
264,162300,2026-01-11 17:20:28,0.0,5,7.706,0.0,0.0,0.0,35.2,4.8,-2.0,1024,1024,1024,1024,0,0,0,0,88,4.459,59.36,34.776904,P-GPS,,10.6
265,162400,2026-01-11 17:20:28,0.0,5,7.706,0.0,0.0,0.0,35.5,4.3,-2.1,1024,1024,1024,1024,0,0,0,0,88,4.459,59.36,34.776904,P-GPS,,10.6
266,162500,2026-01-11 17:20:28,0.0,5,7.706,0.0,0.0,0.0,35.4,4.2,-2.4,1024,1024,1024,1024,0,0,0,0,88,4.459,59.36,34.776904,P-GPS,,10.6
267,162600,2026-01-11 17:20:28,0.0,5,7.706,0.0,0.0,0.0,35.3,4.3,-2.6,1024,1024,1024,1024,0,0,0,0,88,4.459,59.36,35.104988,P-GPS,,10.7
268,162700,2026-01-11 17:20:29,0.0,5,7.706,0.0,0.0,0.0,35.3,4.0,-2.1,1024,1024,1024,1024,0,0,0,0,88,4.459,59.36,35.104988,P-GPS,,10.7
269,162800,2026-01-11 17:20:29,0.0,5,7.706,0.0,0.0,0.0,35.2,4.0,-2.8,1024,1024,1024,1024,0,0,0,0,88,4.459,59.36,35.104988,P-GPS,,10.7
270,162900,2026-01-11 17:20:29,0.0,5,7.706,0.0,0.0,0.0,35.0,3.6,-2.5,1024,1024,1024,1024,0,0,0,0,88,4.459,59.36,35.104988,P-GPS,,10.7
271,163000,2026-01-11 17:20:29,0.0,5,7.706,0.0,0.0,0.0,35.0,3.0,-3.0,1024,1024,1024,1024,0,0,0,0,88,4.459,59.36,35.433072,P-GPS,,10.8
272,163100,2026-01-11 17:20:29,0.0,5,7.706,0.0,0.0,0.0,35.0,3.0,-2.8,1024,1024,1024,1024,0,0,0,0,88,4.459,59.36,35.104988,P-GPS,,10.7
273,163200,2026-01-11 17:20:29,0.0,5,7.706,0.0,0.0,0.0,35.3,3.1,-2.3,1024,1024,1024,1024,0,0,0,0,88,4.459,59.36,35.104988,P-GPS,,10.7
274,163300,2026-01-11 17:20:29,0.0,5,7.706,0.0,0.0,0.0,35.2,4.1,-3.1,1024,1024,1024,1024,0,0,0,0,88,4.459,59.36,35.104988,P-GPS,,10.7
275,163400,2026-01-11 17:20:29,0.0,5,7.73,0.0,0.0,0.0,35.2,5.0,-2.6,1024,1024,1024,1024,0,0,0,0,88,4.36,59.36,35.104988,P-GPS,,10.7
276,163500,2026-01-11 17:20:29,0.0,5,7.73,0.0,0.0,0.0,35.1,5.0,-1.7,1024,1024,1024,1024,0,0,0,0,88,4.36,59.36,35.104988,P-GPS,,10.7
277,163600,2026-01-11 17:20:29,0.0,5,7.73,0.0,0.0,0.0,35.0,4.7,-1.2,1024,1024,1024,1024,0,0,0,0,88,4.36,59.36,34.776904,P-GPS,,10.6
278,163700,2026-01-11 17:20:30,0.0,5,7.73,0.0,0.0,0.0,35.1,3.9,-0.9,1024,1024,1024,1024,0,0,0,0,88,4.36,59.36,34.776904,P-GPS,,10.6
279,163800,2026-01-11 17:20:30,0.223694,5,7.73,0.0,-0.223694,0.0,35.0,4.0,-0.2,1024,1024,1024,1024,0,0,0,0,88,4.36,59.36,34.776904,P-GPS,,10.6
280,163900,2026-01-11 17:20:30,0.223694,5,7.73,0.0,-0.223694,0.0,35.1,3.2,-0.2,1024,1024,1024,1024,0,0,0,0,88,4.36,59.36,34.776904,P-GPS,,10.6
281,164000,2026-01-11 17:20:30,0.223694,5,7.73,0.0,-0.223694,0.0,35.5,2.9,-0.6,1024,1024,1024,1024,0,0,0,0,88,4.36,59.36,34.776904,P-GPS,,10.6
282,164100,2026-01-11 17:20:30,0.0,5,7.73,0.0,0.0,0.0,35.6,2.2,-0.4,1024,1024,1024,1024,0,0,0,0,88,4.36,59.36,34.776904,P-GPS,,10.6
283,164200,2026-01-11 17:20:30,0.0,5,7.73,0.0,0.0,0.0,35.5,1.9,-1.3,1024,1024,1024,1024,0,0,0,0,88,4.36,59.36,34.776904,P-GPS,,10.6
284,164300,2026-01-11 17:20:30,0.0,5,7.73,0.0,0.0,0.0,35.4,2.4,-0.9,1024,1024,1024,1024,0,0,0,0,88,4.36,59.36,34.776904,P-GPS,,10.6
285,164400,2026-01-11 17:20:30,0.0,5,7.73,0.0,0.0,0.0,35.4,1.9,-0.7,1024,1024,1024,1024,0,0,0,0,88,4.36,59.36,34.776904,P-GPS,,10.6
286,164500,2026-01-11 17:20:30,0.0,5,7.708,0.0,0.0,0.0,35.2,2.2,-0.9,1024,1024,1024,1024,0,0,0,0,88,4.5,59.54,34.776904,P-GPS,,10.6
287,164600,2026-01-11 17:20:30,0.0,5,7.708,0.0,0.0,0.0,35.0,2.3,-0.7,1024,1024,1024,1024,0,0,0,0,88,4.5,59.54,34.776904,P-GPS,,10.6
288,164700,2026-01-11 17:20:31,0.223694,5,7.708,0.0,-0.223694,0.0,35.0,2.1,-0.8,1024,1024,1024,1024,0,0,0,0,88,4.5,59.54,34.776904,P-GPS,,10.6
289,164800,2026-01-11 17:20:31,0.223694,5,7.708,0.0,-0.223694,0.0,34.9,1.5,-0.3,1024,1024,1024,1024,0,0,0,0,88,4.5,59.54,34.776904,P-GPS,,10.6
290,164900,2026-01-11 17:20:31,0.223694,5,7.708,0.0,-0.223694,0.0,35.0,0.8,0.3,1024,1024,1024,1024,0,0,0,0,88,4.5,59.54,34.776904,P-GPS,,10.6
291,165000,2026-01-11 17:20:31,0.0,5,7.708,0.0,0.0,0.0,35.1,0.7,0.2,1024,1024,1024,1024,0,0,0,0,88,4.5,59.54,34.776904,P-GPS,,10.6
292,165100,2026-01-11 17:20:31,0.0,5,7.708,0.0,0.0,0.0,35.1,0.2,0.3,1024,1024,1024,1024,0,0,0,0,88,4.5,59.54,34.776904,P-GPS,,10.6
293,165200,2026-01-11 17:20:31,0.0,5,7.708,0.0,0.0,0.0,35.1,0.7,0.1,1024,1024,1024,1024,0,0,0,0,88,4.5,59.54,34.776904,P-GPS,,10.6
294,165300,2026-01-11 17:20:31,0.0,5,7.708,0.0,0.0,0.0,35.2,1.0,-0.1,1024,1024,1024,1024,0,0,0,0,88,4.5,59.54,34.776904,P-GPS,,10.6
295,165400,2026-01-11 17:20:31,0.0,5,7.708,0.0,0.0,0.0,35.3,0.9,-0.4,1024,1024,1024,1024,0,0,0,0,88,4.5,59.54,34.776904,P-GPS,,10.6
296,165500,2026-01-11 17:20:31,0.0,5,7.708,0.0,0.0,0.0,35.3,2.0,-1.0,1024,1024,1024,1024,0,0,0,0,88,4.5,59.54,34.776904,P-GPS,,10.6
297,165600,2026-01-11 17:20:31,0.0,5,7.699,0.0,0.0,0.0,35.2,1.9,-1.1,1024,1024,1024,1024,0,0,0,0,88,4.682,59.36,34.776904,P-GPS,,10.6
298,165700,2026-01-11 17:20:32,0.0,5,7.699,0.0,0.0,0.0,35.2,2.0,-0.9,1024,1024,1024,1024,0,0,0,0,88,4.682,59.36,35.104988,P-GPS,,10.7
299,165800,2026-01-11 17:20:32,0.0,5,7.699,0.0,0.0,0.0,35.2,1.4,-0.9,1024,1024,1024,1024,0,0,0,0,88,4.682,59.36,35.104988,P-GPS,,10.7
300,165900,2026-01-11 17:20:32,0.0,5,7.699,0.0,0.0,0.0,35.3,0.8,-0.9,1024,1024,1024,1024,0,0,0,0,88,4.682,59.36,35.104988,P-GPS,,10.7
301,166000,2026-01-11 17:20:32,0.0,5,7.699,0.0,0.0,0.0,35.5,0.4,-1.1,1024,1024,1024,1024,0,0,0,0,88,4.682,59.36,35.104988,P-GPS,,10.7
302,166100,2026-01-11 17:20:32,0.0,5,7.699,0.0,0.0,0.0,35.3,0.0,-1.3,1024,1024,1024,1024,0,0,0,0,88,4.682,59.36,35.104988,P-GPS,,10.7
303,166200,2026-01-11 17:20:32,0.0,5,7.699,0.0,0.0,0.0,35.1,0.4,-1.4,1024,1024,1024,1024,0,0,0,0,88,4.682,59.36,35.104988,P-GPS,,10.7
304,166300,2026-01-11 17:20:32,0.0,5,7.699,0.0,0.0,0.0,35.1,0.7,-1.2,1024,1024,1024,1024,0,0,0,0,88,4.682,59.36,35.104988,P-GPS,,10.7
305,166400,2026-01-11 17:20:32,0.0,5,7.699,0.0,0.0,0.0,35.2,0.6,-0.9,1024,1024,1024,1024,0,0,0,0,88,4.682,59.36,35.104988,P-GPS,,10.7
306,166500,2026-01-11 17:20:32,0.0,5,7.699,0.0,0.0,0.0,35.0,0.8,-1.0,1024,1024,1024,1024,0,0,0,0,88,4.682,59.36,35.104988,P-GPS,,10.7
307,166600,2026-01-11 17:20:32,0.0,5,7.699,0.0,0.0,0.0,35.0,0.2,-0.8,1024,1024,1024,1024,0,0,0,0,88,4.682,59.36,35.433072,P-GPS,,10.8
308,166700,2026-01-11 17:20:33,0.0,5,7.699,0.0,0.0,0.0,35.0,0.0,-0.8,1024,1024,1024,1024,0,0,0,0,88,4.682,59.36,35.433072,P-GPS,,10.8
309,166800,2026-01-11 17:20:33,0.0,5,7.699,0.0,0.0,0.0,35.1,0.2,-1.0,1024,1024,1024,1024,0,0,0,0,88,4.682,59.36,35.433072,P-GPS,,10.8
310,166900,2026-01-11 17:20:33,0.0,5,7.699,0.0,0.0,0.0,35.3,0.1,-1.1,1024,1024,1024,1024,0,0,0,0,88,4.682,59.36,35.433072,P-GPS,,10.8
311,167000,2026-01-11 17:20:33,0.0,5,7.699,0.0,0.0,0.0,35.2,0.1,-1.9,1024,1024,1024,1024,0,0,0,0,88,4.682,59.36,35.433072,P-GPS,,10.8
312,167100,2026-01-11 17:20:33,0.0,5,7.699,0.0,0.0,0.0,35.0,0.1,-2.7,1024,1024,1024,1024,0,0,0,0,88,4.682,59.36,35.761156,P-GPS,,10.9
313,167200,2026-01-11 17:20:33,0.0,5,7.699,0.0,0.0,0.0,35.0,0.1,-2.6,1024,1024,1024,1024,0,0,0,0,88,4.682,59.36,35.761156,P-GPS,,10.9
314,167300,2026-01-11 17:20:33,0.0,5,7.699,0.0,0.0,0.0,35.1,-0.7,-3.1,1024,1024,1024,1024,0,0,0,0,88,4.682,59.36,35.761156,P-GPS,,10.9
315,167400,2026-01-11 17:20:33,0.0,5,7.699,0.0,0.0,0.0,35.1,-0.6,-3.5,1024,1024,1024,1024,0,0,0,0,88,4.682,59.36,36.08924,P-GPS,,11.0
316,167500,2026-01-11 17:20:33,0.0,5,7.699,0.0,0.0,0.0,35.2,-0.3,-3.3,1024,1024,1024,1024,0,0,0,0,88,4.682,59.36,36.08924,P-GPS,,11.0
317,167600,2026-01-11 17:20:33,0.0,5,7.699,0.0,0.0,0.0,35.3,0.0,-3.0,1024,1024,1024,1024,0,0,0,0,88,4.682,59.36,36.08924,P-GPS,,11.0
