index,time(millisecond),timestamp,speed(mph),gpslevel,voltage(v),xSpeed(mph),ySpeed(mph),zSpeed(mph),compass_heading(degrees),pitch(degrees),roll(degrees),rc_elevator,rc_aileron,rc_throttle,rc_rudder,rc_elevator(percent),rc_aileron(percent),rc_throttle(percent),rc_rudder(percent),battery_percent,current(A),battery_temperature(f),ascent(feet),flycState,message,height_above_takeoff(meters)
430,334700,2026-01-12 12:11:51,0.0,5,7.616,0.0,0.0,0.0,19.3,5.9,-1.2,1024,1024,1024,1024,0,0,0,0,78,5.193,70.88,97.440948,P-GPS,,29.7
431,334800,2026-01-12 12:11:51,0.0,5,7.616,0.0,0.0,0.0,19.2,5.5,-1.4,1024,1024,1024,1024,0,0,0,0,78,5.193,70.88,97.440948,P-GPS,,29.7
432,334900,2026-01-12 12:11:51,0.223694,5,7.702,-0.223694,0.0,0.0,19.2,5.0,-2.2,1024,1024,1024,1024,0,0,0,0,78,4.043,70.88,97.440948,P-GPS,,29.7
433,335000,2026-01-12 12:11:51,0.223694,5,7.702,-0.223694,0.0,0.0,19.3,4.0,-1.7,1024,1024,1024,1024,0,0,0,0,78,4.043,70.88,97.769032,P-GPS,,29.8
434,335100,2026-01-12 12:11:51,0.223694,5,7.702,-0.223694,0.0,0.0,19.2,3.8,-2.4,1024,1024,1024,1024,0,0,0,0,78,4.043,70.88,97.769032,P-GPS,,29.8
435,335200,2026-01-12 12:11:52,0.223694,5,7.702,-0.223694,0.0,0.0,19.2,3.3,-2.5,1024,1024,1024,1024,0,0,0,0,78,4.043,70.88,97.769032,P-GPS,,29.8
436,335300,2026-01-12 12:11:52,0.223694,5,7.702,-0.223694,0.0,0.0,19.1,3.2,-3.1,1024,1024,1024,1024,0,0,0,0,78,4.043,70.88,97.769032,P-GPS,,29.8
437,335400,2026-01-12 12:11:52,0.223694,5,7.702,-0.223694,0.0,0.0,19.1,3.1,-2.9,1024,1024,1024,1024,0,0,0,0,78,4.043,70.88,97.769032,P-GPS,,29.8
438,335500,2026-01-12 12:11:52,0.223694,5,7.702,-0.223694,0.0,0.0,19.0,2.6,-3.1,1024,1024,1024,1024,0,0,0,0,78,4.043,70.88,97.769032,P-GPS,,29.8
439,335600,2026-01-12 12:11:52,0.223694,5,7.702,-0.223694,0.0,0.0,19.0,2.4,-2.7,1024,1024,1024,1024,0,0,0,0,78,4.043,70.88,97.769032,P-GPS,,29.8
440,335700,2026-01-12 12:11:52,0.223694,5,7.702,-0.223694,0.0,0.0,19.1,2.2,-3.6,1024,1024,1024,1024,0,0,0,0,78,4.043,70.88,97.769032,P-GPS,,29.8
441,335800,2026-01-12 12:11:52,0.223694,5,7.702,0.0,0.0,0.0,19.1,2.6,-3.3,1024,1024,1024,1024,0,0,0,0,78,4.043,70.88,97.769032,P-GPS,,29.8
442,335900,2026-01-12 12:11:52,0.0,5,7.65,0.0,0.0,0.0,19.1,3.1,-3.5,1024,1024,1024,1024,0,0,0,0,78,4.165,70.88,97.769032,P-GPS,,29.8
443,336000,2026-01-12 12:11:52,0.0,5,7.65,0.0,0.0,0.0,19.2,3.5,-3.4,1024,1024,1024,1024,0,0,0,0,78,4.165,70.88,97.769032,P-GPS,,29.8
444,336100,2026-01-12 12:11:52,0.0,5,7.65,0.0,0.0,0.0,19.2,3.6,-3.0,1024,1024,1024,1024,0,0,0,0,78,4.165,70.88,97.769032,P-GPS,,29.8
445,336200,2026-01-12 12:11:53,0.0,5,7.65,0.0,0.0,0.0,19.2,3.6,-2.6,1024,1024,1024,1024,0,0,0,0,78,4.165,70.88,97.769032,P-GPS,,29.8
446,336300,2026-01-12 12:11:53,0.0,5,7.65,0.0,0.0,0.0,19.1,3.9,-2.3,1024,1024,1024,1024,0,0,0,0,78,4.165,70.88,97.769032,P-GPS,,29.8
447,336400,2026-01-12 12:11:53,0.0,5,7.65,0.0,0.0,0.0,19.2,4.5,-1.9,1024,1024,1024,1024,0,0,0,0,78,4.165,70.88,97.769032,P-GPS,,29.8
448,336500,2026-01-12 12:11:53,0.223694,5,7.65,0.0,-0.223694,0.0,19.1,4.7,-1.9,1024,1024,1024,1024,0,0,0,0,78,4.165,70.88,97.769032,P-GPS,,29.8
449,336600,2026-01-12 12:11:53,0.223694,5,7.65,0.0,-0.223694,0.0,19.0,4.9,-1.4,1024,1024,1024,1024,0,0,0,0,78,4.165,70.88,97.440948,P-GPS,,29.7
450,336700,2026-01-12 12:11:53,0.223694,5,7.65,0.0,-0.223694,0.0,18.8,4.6,-1.0,1024,1024,1024,1024,0,0,0,0,78,4.165,70.88,97.440948,P-GPS,,29.7
451,336800,2026-01-12 12:11:53,0.223694,5,7.65,0.0,-0.223694,0.0,18.7,4.2,-0.3,1024,1024,1024,1024,0,0,0,0,78,4.165,70.88,97.440948,P-GPS,,29.7
452,336900,2026-01-12 12:11:53,0.223694,5,7.645,0.0,-0.223694,0.0,18.7,4.0,0.7,1024,1024,1024,1024,0,0,0,0,78,4.253,70.88,97.440948,P-GPS,,29.7
453,337000,2026-01-12 12:11:53,0.223694,5,7.645,0.0,-0.223694,0.0,18.7,3.3,1.2,1024,1024,1024,1024,0,0,0,0,78,4.253,70.88,97.112864,P-GPS,,29.6
454,337100,2026-01-12 12:11:53,0.223694,5,7.645,0.0,-0.223694,0.0,18.8,2.6,1.5,1024,1024,1024,1024,0,0,0,0,78,4.253,70.88,97.112864,P-GPS,,29.6
455,337200,2026-01-12 12:11:54,0.0,5,7.645,0.0,0.0,0.0,19.0,2.8,0.9,1024,1024,1024,1024,0,0,0,0,78,4.253,70.88,97.112864,P-GPS,,29.6
456,337300,2026-01-12 12:11:54,0.0,5,7.645,0.0,0.0,0.0,19.1,2.7,-0.3,1024,1024,1024,1024,0,0,0,0,78,4.253,70.88,97.112864,P-GPS,,29.6
457,337400,2026-01-12 12:11:54,0.0,5,7.645,0.0,0.0,0.0,19.1,3.1,-0.5,1024,1024,1024,1024,0,0,0,0,78,4.253,70.88,97.112864,P-GPS,,29.6
458,337500,2026-01-12 12:11:54,0.0,5,7.645,0.0,0.0,0.0,18.9,3.4,-0.9,1024,1024,1024,1024,0,0,0,0,78,4.253,70.88,97.112864,P-GPS,,29.6
459,337600,2026-01-12 12:11:54,0.0,5,7.645,0.0,0.0,0.0,18.8,3.3,-1.1,1024,1024,1024,1024,0,0,0,0,78,4.253,70.88,97.112864,P-GPS,,29.6
460,337700,2026-01-12 12:11:54,0.0,5,7.645,0.0,0.0,0.0,18.6,2.8,-1.0,1024,1024,1024,1024,0,0,0,0,78,4.253,70.88,97.112864,P-GPS,,29.6
461,337800,2026-01-12 12:11:54,0.0,5,7.645,0.0,0.0,0.0,18.5,2.3,-0.4,1024,1024,1024,1024,0,0,0,0,78,4.253,70.88,96.78478,P-GPS,,29.5
462,337900,2026-01-12 12:11:54,0.0,5,7.637,0.0,0.0,0.0,18.6,2.3,0.0,1024,1024,1024,1024,0,0,0,0,78,4.516,70.88,96.78478,P-GPS,,29.5
463,338000,2026-01-12 12:11:54,0.0,5,7.637,0.0,0.0,0.0,18.8,2.5,0.1,1024,1024,1024,1024,0,0,0,0,78,4.516,70.88,96.78478,P-GPS,,29.5
464,338100,2026-01-12 12:11:54,0.0,5,7.637,0.0,0.0,0.0,18.8,1.5,0.3,1024,1024,1024,1024,0,0,0,0,78,4.516,70.88,96.78478,P-GPS,,29.5
465,338200,2026-01-12 12:11:55,0.0,5,7.637,0.0,0.0,0.0,18.8,1.2,0.8,1024,1024,1024,1024,0,0,0,0,78,4.516,70.88,96.78478,P-GPS,,29.5
466,338300,2026-01-12 12:11:55,0.0,5,7.637,0.0,0.0,0.0,18.8,1.0,0.5,1024,1024,1024,1024,0,0,0,0,78,4.516,70.88,96.78478,P-GPS,,29.5
467,338400,2026-01-12 12:11:55,0.0,5,7.637,0.0,0.0,0.0,18.8,1.7,0.5,1024,1024,1024,1024,0,0,0,0,78,4.516,70.88,96.78478,P-GPS,,29.5
468,338500,2026-01-12 12:11:55,0.0,5,7.637,0.0,0.0,0.0,19.0,1.8,0.7,1024,1024,1024,1024,0,0,0,0,78,4.516,70.88,96.78478,P-GPS,,29.5
469,338600,2026-01-12 12:11:55,0.0,5,7.637,0.0,0.0,0.0,18.8,1.8,0.0,1024,1024,1024,1024,0,0,0,0,78,4.516,70.88,96.78478,P-GPS,,29.5
470,338700,2026-01-12 12:11:55,0.0,5,7.637,0.0,0.0,0.0,18.8,1.6,-0.8,1024,1024,1024,1024,0,0,0,0,78,4.516,70.88,97.112864,P-GPS,,29.6
471,338800,2026-01-12 12:11:55,0.0,5,7.637,0.0,0.0,0.0,19.0,1.3,-0.9,1024,1024,1024,1024,0,0,0,0,78,4.516,70.88,97.112864,P-GPS,,29.6
472,338900,2026-01-12 12:11:55,0.0,5,7.632,0.0,0.0,0.0,19.2,1.2,-1.2,1024,1024,1024,1024,0,0,0,0,78,4.512,70.88,97.112864,P-GPS,,29.6
473,339000,2026-01-12 12:11:55,0.0,5,7.632,0.0,0.0,0.0,19.3,1.7,-1.4,1024,1024,1024,1024,0,0,0,0,78,4.512,70.88,97.112864,P-GPS,,29.6
474,339100,2026-01-12 12:11:56,0.0,5,7.632,0.0,0.0,0.0,19.4,2.0,-1.3,1024,1024,1024,1024,0,0,0,0,78,4.512,70.88,97.112864,P-GPS,,29.6
475,339200,2026-01-12 12:11:56,0.0,5,7.632,0.0,0.0,0.0,19.3,2.6,-1.0,1024,1024,1024,1024,0,0,0,0,78,4.512,70.88,97.112864,P-GPS,,29.6
476,339300,2026-01-12 12:11:56,0.0,5,7.632,0.0,0.0,0.0,19.2,2.5,-0.7,1024,1024,1024,1024,0,0,0,0,78,4.512,70.88,97.112864,P-GPS,,29.6
477,339400,2026-01-12 12:11:56,0.0,5,7.632,0.0,0.0,0.0,19.2,2.4,-1.1,1024,1024,1024,1024,0,0,0,0,78,4.512,70.88,97.112864,P-GPS,,29.6
478,339500,2026-01-12 12:11:56,0.0,5,7.632,0.0,0.0,0.0,19.2,1.8,-0.6,1024,1024,1024,1024,0,0,0,0,78,4.512,70.88,97.112864,P-GPS,,29.6
479,339600,2026-01-12 12:11:56,0.0,5,7.632,0.0,0.0,0.0,19.2,2.6,0.0,1024,1024,1024,1024,0,0,0,0,78,4.512,70.88,96.78478,P-GPS,,29.5
480,339700,2026-01-12 12:11:56,0.0,5,7.632,0.0,0.0,0.0,19.3,2.6,0.9,1024,1024,1024,1024,0,0,0,0,78,4.512,70.88,96.78478,P-GPS,,29.5
481,339800,2026-01-12 12:11:56,0.0,5,7.632,0.0,0.0,0.0,19.3,3.0,0.1,1024,1024,1024,1024,0,0,0,0,78,4.512,70.88,96.78478,P-GPS,,29.5
482,339900,2026-01-12 12:11:56,0.0,5,7.637,0.0,0.0,0.0,18.6,3.4,-1.5,1024,1024,1024,1024,0,0,0,0,78,4.466,70.88,97.112864,P-GPS,,29.6
483,340000,2026-01-12 12:11:56,0.0,5,7.637,0.0,0.0,0.0,18.4,3.1,-1.4,1024,1024,1024,1024,0,0,0,0,78,4.466,70.88,97.112864,P-GPS,,29.6
484,340100,2026-01-12 12:11:56,0.0,5,7.637,0.0,0.0,0.0,18.4,2.9,-0.3,1024,1024,1024,1024,0,0,0,0,78,4.466,70.88,96.78478,P-GPS,,29.5
485,340200,2026-01-12 12:11:57,0.0,5,7.637,0.0,0.0,0.0,19.0,3.2,1.5,1024,1024,1024,1024,0,0,0,0,78,4.466,70.88,97.112864,P-GPS,,29.6
486,340300,2026-01-12 12:11:57,0.0,5,7.637,0.0,0.0,0.0,19.2,1.7,2.6,1024,1024,1024,1024,0,0,0,0,78,4.466,70.88,97.112864,P-GPS,,29.6
487,340400,2026-01-12 12:11:57,0.0,5,7.637,0.0,0.0,0.0,18.8,1.6,1.6,1024,1024,1024,1024,0,0,0,0,78,4.466,70.88,97.112864,P-GPS,,29.6
488,340500,2026-01-12 12:11:57,0.0,5,7.637,0.0,0.0,0.0,18.2,2.9,-0.8,1024,1024,1024,1024,0,0,0,0,78,4.466,70.88,97.112864,P-GPS,,29.6
489,340600,2026-01-12 12:11:57,0.0,5,7.637,0.0,0.0,0.0,18.0,4.0,-0.9,1024,1024,1024,1024,0,0,0,0,78,4.466,70.88,97.112864,P-GPS,,29.6
490,340700,2026-01-12 12:11:57,0.0,5,7.637,0.0,0.0,0.0,18.8,1.1,0.2,1024,1024,1024,1024,0,0,0,0,78,4.466,70.88,97.112864,P-GPS,,29.6
491,340800,2026-01-12 12:11:57,0.0,5,7.594,0.0,0.0,0.0,18.9,2.4,-0.7,1024,1024,1024,1024,0,0,0,0,78,5.088,70.88,97.112864,P-GPS,,29.6
492,340900,2026-01-12 12:11:57,0.0,5,7.594,0.0,0.0,0.0,19.1,1.4,0.3,1024,1024,1024,1024,0,0,0,0,78,5.088,70.88,97.112864,P-GPS,,29.6
493,341000,2026-01-12 12:11:57,0.0,5,7.594,0.0,0.0,0.0,18.9,1.9,-0.9,1024,1024,1024,1024,0,0,0,0,78,5.088,70.88,97.112864,P-GPS,,29.6
494,341100,2026-01-12 12:11:57,0.0,5,7.594,0.0,0.0,0.0,18.8,2.0,-1.2,1024,1024,1024,1024,0,0,0,0,78,5.088,70.88,97.112864,P-GPS,,29.6
495,341200,2026-01-12 12:11:58,0.0,5,7.594,0.0,0.0,0.0,18.8,1.5,-0.9,1024,1024,1024,1024,0,0,0,0,78,5.088,70.88,97.112864,P-GPS,,29.6
496,341300,2026-01-12 12:11:58,0.0,5,7.594,0.0,0.0,0.0,18.6,1.3,-0.6,1024,1024,1024,1024,0,0,0,0,78,5.088,70.88,97.112864,P-GPS,,29.6
497,341400,2026-01-12 12:11:58,0.0,5,7.594,0.0,0.0,0.0,18.6,3.1,-0.4,1024,1024,1024,1024,0,0,0,0,78,5.088,70.88,97.112864,P-GPS,,29.6
498,341500,2026-01-12 12:11:58,0.0,5,7.594,0.0,0.0,0.0,18.9,3.9,0.7,1024,1024,1024,1024,0,0,0,0,78,5.088,70.88,97.112864,P-GPS,,29.6
499,341600,2026-01-12 12:11:58,0.0,5,7.594,0.0,0.0,0.0,19.1,2.5,1.8,1024,1024,1024,1024,0,0,0,0,78,5.088,70.88,97.112864,P-GPS,,29.6
500,341700,2026-01-12 12:11:58,0.0,5,7.594,0.0,0.0,0.0,19.1,2.5,1.6,1024,1024,1024,1024,0,0,0,0,78,5.088,70.88,97.112864,P-GPS,,29.6
501,341800,2026-01-12 12:11:58,0.0,5,7.594,0.0,0.0,0.0,19.1,2.6,0.5,1024,1024,1024,1024,0,0,0,0,78,5.088,70.88,97.112864,P-GPS,,29.6
502,341900,2026-01-12 12:11:58,0.0,5,7.594,0.0,0.0,0.0,19.3,2.8,0.3,1024,1024,1024,1024,0,0,0,0,78,5.088,70.88,96.78478,P-GPS,,29.5
503,342000,2026-01-12 12:11:58,0.0,5,7.594,0.0,0.0,0.0,19.2,3.2,0.1,1024,1024,1024,1024,0,0,0,0,78,5.088,70.88,96.78478,P-GPS,,29.5
504,342100,2026-01-12 12:11:58,0.0,5,7.594,0.0,0.0,0.0,18.7,4.5,-0.8,1024,1024,1024,1024,0,0,0,0,78,5.088,70.88,96.78478,P-GPS,,29.5
505,342200,2026-01-12 12:11:59,0.0,5,7.594,0.0,0.0,0.0,18.7,2.6,-0.7,1024,1024,1024,1024,0,0,0,0,78,5.088,70.88,96.78478,P-GPS,,29.5
506,342300,2026-01-12 12:11:59,0.0,5,7.594,0.0,0.0,0.0,18.8,2.1,-0.2,1024,1024,1024,1024,0,0,0,0,78,5.088,70.88,96.78478,P-GPS,,29.5
507,342400,2026-01-12 12:11:59,0.0,5,7.594,0.0,0.0,0.0,18.3,3.1,-2.0,1024,1024,1024,1024,0,0,0,0,78,5.088,70.88,96.78478,P-GPS,,29.5
508,342500,2026-01-12 12:11:59,0.0,5,7.594,0.0,0.0,0.0,19.0,1.2,-1.1,1024,1024,1024,1024,0,0,0,0,78,5.088,70.88,96.78478,P-GPS,,29.5
509,342600,2026-01-12 12:11:59,0.0,5,7.594,0.0,0.0,0.0,19.2,0.9,-1.3,1024,1024,1024,1024,0,0,0,0,77,5.088,70.88,97.112864,P-GPS,,29.6
510,342700,2026-01-12 12:11:59,0.0,5,7.594,0.0,0.0,0.0,19.1,1.8,-2.5,1024,1024,1024,1024,0,0,0,0,77,5.088,70.88,97.112864,P-GPS,,29.6
511,342800,2026-01-12 12:11:59,0.0,5,7.594,0.0,0.0,0.0,19.3,1.4,-2.6,1024,1024,1024,1024,0,0,0,0,77,5.088,70.88,97.112864,P-GPS,,29.6
512,342900,2026-01-12 12:11:59,0.0,5,7.594,0.0,0.0,0.0,19.5,0.5,-2.2,1024,1024,1024,1024,0,0,0,0,77,5.088,70.88,97.112864,P-GPS,,29.6
513,343000,2026-01-12 12:11:59,0.223694,5,7.618,-0.223694,0.0,0.0,19.8,0.0,-1.7,1024,1024,1024,1024,0,0,0,0,77,4.698,71.06,96.78478,P-GPS,,29.5
514,343100,2026-01-12 12:12:00,0.0,5,7.618,0.0,0.0,0.0,19.9,-0.5,-2.1,1024,1024,1024,1024,0,0,0,0,77,4.698,71.06,96.78478,P-GPS,,29.5
515,343200,2026-01-12 12:12:00,0.0,5,7.618,0.0,0.0,0.0,19.8,-0.1,-2.3,1024,1024,1024,1024,0,0,0,0,77,4.698,71.06,96.78478,P-GPS,,29.5
516,343300,2026-01-12 12:12:00,0.0,5,7.618,0.0,0.0,0.0,19.4,0.1,-2.6,1024,1024,1024,1024,0,0,0,0,77,4.698,71.06,96.78478,P-GPS,,29.5
517,343400,2026-01-12 12:12:00,0.0,5,7.618,0.0,0.0,0.0,19.2,1.5,-2.6,1024,1024,1024,1024,0,0,0,0,77,4.698,71.06,96.78478,P-GPS,,29.5
518,343500,2026-01-12 12:12:00,0.0,5,7.618,0.0,0.0,0.0,19.0,2.4,-3.1,1024,1024,1024,1024,0,0,0,0,77,4.698,71.06,96.78478,P-GPS,,29.5
519,343600,2026-01-12 12:12:00,0.0,5,7.618,0.0,0.0,0.0,19.2,1.5,-2.6,1024,1024,1024,1024,0,0,0,0,77,4.698,71.06,96.78478,P-GPS,,29.5
520,343700,2026-01-12 12:12:00,0.0,5,7.618,0.0,0.0,0.0,19.4,1.0,-2.1,1024,1024,1024,1024,0,0,0,0,77,4.698,71.06,96.78478,P-GPS,,29.5
521,343800,2026-01-12 12:12:00,0.0,5,7.618,0.0,0.0,0.0,19.4,2.2,-2.3,1024,1024,1024,1024,0,0,0,0,77,4.698,71.06,96.78478,P-GPS,,29.5
522,343900,2026-01-12 12:12:00,0.0,5,7.618,0.0,0.0,0.0,19.4,1.9,-2.3,1024,1024,1024,1024,0,0,0,0,77,4.698,71.06,96.78478,P-GPS,,29.5
523,344000,2026-01-12 12:12:00,0.0,5,7.618,0.0,0.0,0.0,19.5,1.4,-2.3,1024,1024,1024,1024,0,0,0,0,77,4.698,71.06,96.78478,P-GPS,,29.5
524,344100,2026-01-12 12:12:00,0.0,5,7.618,0.0,0.0,0.0,19.5,0.9,-2.4,1024,1024,1024,1024,0,0,0,0,77,4.698,71.06,96.78478,P-GPS,,29.5
525,344200,2026-01-12 12:12:01,0.0,5,7.618,0.0,0.0,0.0,19.5,1.5,-1.6,1024,1024,1024,1024,0,0,0,0,77,4.698,71.06,96.78478,P-GPS,,29.5
526,344300,2026-01-12 12:12:01,0.0,5,7.618,0.0,0.0,0.0,19.6,1.8,-1.7,1024,1024,1024,1024,0,0,0,0,77,4.698,71.06,96.78478,P-GPS,,29.5
527,344400,2026-01-12 12:12:01,0.0,5,7.618,0.0,0.0,0.0,19.6,2.1,-1.8,1024,1024,1024,1024,0,0,0,0,77,4.698,71.06,96.78478,P-GPS,,29.5
528,344500,2026-01-12 12:12:01,0.0,5,7.618,0.0,0.0,0.0,19.6,1.6,-1.4,1024,1024,1024,1024,0,0,0,0,77,4.698,71.06,96.78478,P-GPS,,29.5
529,344600,2026-01-12 12:12:01,0.0,5,7.618,0.0,0.0,0.0,19.6,2.0,-1.6,1024,1024,1024,1024,0,0,0,0,77,4.698,71.06,96.78478,P-GPS,,29.5
530,344700,2026-01-12 12:12:01,0.0,5,7.618,0.0,0.0,0.0,19.4,2.6,-1.9,1024,1024,1024,1024,0,0,0,0,77,4.698,71.06,96.78478,P-GPS,,29.5
531,344800,2026-01-12 12:12:01,0.0,5,7.618,0.0,0.0,0.0,19.4,3.0,-1.6,1024,1024,1024,1024,0,0,0,0,77,4.698,71.06,96.78478,P-GPS,,29.5
532,344900,2026-01-12 12:12:01,0.0,5,7.63,0.0,0.0,0.0,19.4,3.3,-1.4,1024,1024,1024,1024,0,0,0,0,77,4.633,71.06,96.78478,P-GPS,,29.5
533,345000,2026-01-12 12:12:01,0.0,5,7.63,0.0,0.0,0.0,19.5,3.3,-1.5,1024,1024,1024,1024,0,0,0,0,77,4.633,71.06,96.456696,P-GPS,,29.4
534,345100,2026-01-12 12:12:02,0.0,5,7.63,0.0,0.0,0.0,19.5,3.3,-1.8,1024,1024,1024,1024,0,0,0,0,77,4.633,71.06,96.456696,P-GPS,,29.4
535,345200,2026-01-12 12:12:02,0.0,5,7.63,0.0,0.0,0.0,19.3,3.7,-2.1,1024,1024,1024,1024,0,0,0,0,77,4.633,71.06,96.456696,P-GPS,,29.4
536,345300,2026-01-12 12:12:02,0.0,5,7.63,0.0,0.0,0.0,19.2,4.9,-1.9,1024,1024,1024,1024,0,0,0,0,77,4.633,71.06,96.456696,P-GPS,,29.4
537,345400,2026-01-12 12:12:02,0.0,5,7.63,0.0,0.0,0.0,19.1,5.0,-2.0,1024,1024,1024,1024,0,0,0,0,77,4.633,71.06,96.456696,P-GPS,,29.4
538,345500,2026-01-12 12:12:02,0.0,5,7.63,0.0,0.0,0.0,19.3,4.1,-2.4,1024,1024,1024,1024,0,0,0,0,77,4.633,71.06,96.456696,P-GPS,,29.4
539,345600,2026-01-12 12:12:02,0.0,5,7.63,0.0,0.0,0.0,19.3,4.1,-2.9,1024,1024,1024,1024,0,0,0,0,77,4.633,71.06,96.456696,P-GPS,,29.4
540,345700,2026-01-12 12:12:02,0.0,5,7.63,0.0,0.0,0.0,19.4,3.1,-3.1,1024,1024,1024,1024,0,0,0,0,77,4.633,71.06,96.456696,P-GPS,,29.4
541,345800,2026-01-12 12:12:02,0.0,5,7.63,0.0,0.0,0.0,19.5,2.5,-3.2,1024,1024,1024,1024,0,0,0,0,77,4.633,71.06,96.456696,P-GPS,,29.4
542,345900,2026-01-12 12:12:02,0.0,5,7.639,0.0,0.0,0.0,19.4,2.2,-3.2,1024,1024,1024,1024,0,0,0,0,77,4.357,71.06,96.456696,P-GPS,,29.4
543,346000,2026-01-12 12:12:02,0.0,5,7.639,0.0,0.0,0.0,19.2,3.1,-3.7,1024,1024,1024,1024,0,0,0,0,77,4.357,71.06,96.78478,P-GPS,,29.5
544,346100,2026-01-12 12:12:02,0.0,5,7.639,0.0,0.0,0.0,19.2,3.7,-3.8,1024,1024,1024,1024,0,0,0,0,77,4.357,71.06,96.78478,P-GPS,,29.5
545,346200,2026-01-12 12:12:03,0.0,5,7.639,0.0,0.0,0.0,19.2,3.6,-4.1,1024,1024,1024,1024,0,0,0,0,77,4.357,71.06,96.78478,P-GPS,,29.5
546,346300,2026-01-12 12:12:03,0.0,5,7.639,0.0,0.0,0.0,19.2,4.0,-4.3,1024,1024,1024,1024,0,0,0,0,77,4.357,71.06,96.78478,P-GPS,,29.5
547,346400,2026-01-12 12:12:03,0.0,5,7.639,0.0,0.0,0.0,19.2,3.8,-4.4,1024,1024,1024,1024,0,0,0,0,77,4.357,71.06,96.78478,P-GPS,,29.5
548,346500,2026-01-12 12:12:03,0.0,5,7.639,0.0,0.0,0.0,19.1,3.5,-4.5,1024,1024,1024,1024,0,0,0,0,77,4.357,71.06,97.112864,P-GPS,,29.6
549,346600,2026-01-12 12:12:03,0.0,5,7.639,0.0,0.0,0.0,19.1,3.4,-4.4,1024,1024,1024,1024,0,0,0,0,77,4.357,71.06,97.112864,P-GPS,,29.6
550,346700,2026-01-12 12:12:03,0.0,5,7.639,0.0,0.0,0.0,19.1,3.2,-4.4,1024,1024,1024,1024,0,0,0,0,77,4.357,71.06,97.112864,P-GPS,,29.6
551,346800,2026-01-12 12:12:03,0.0,5,7.639,0.0,0.0,0.0,19.1,2.7,-4.5,1024,1024,1024,1024,0,0,0,0,77,4.357,71.06,97.112864,P-GPS,,29.6
552,346900,2026-01-12 12:12:03,0.0,5,7.628,0.0,0.0,0.0,19.2,2.2,-4.4,1024,1024,1024,1024,0,0,0,0,77,4.51,71.06,97.112864,P-GPS,,29.6
553,347000,2026-01-12 12:12:03,0.0,5,7.628,0.0,0.0,0.0,19.1,2.3,-4.8,1024,1024,1024,1024,0,0,0,0,77,4.51,71.06,97.112864,P-GPS,,29.6
554,347100,2026-01-12 12:12:04,0.0,5,7.628,0.0,0.0,0.0,19.0,2.9,-4.3,1024,1024,1024,1024,0,0,0,0,77,4.51,71.06,97.112864,P-GPS,,29.6
555,347200,2026-01-12 12:12:04,0.0,5,7.628,0.0,0.0,0.0,18.9,3.5,-4.0,1024,1024,1024,1024,0,0,0,0,77,4.51,71.06,97.440948,P-GPS,,29.7
556,347300,2026-01-12 12:12:04,0.0,5,7.628,0.0,0.0,0.0,18.8,3.7,-4.2,1024,1024,1024,1024,0,0,0,0,77,4.51,71.06,97.440948,P-GPS,,29.7
557,347400,2026-01-12 12:12:04,0.0,5,7.628,0.0,0.0,0.0,18.8,4.1,-3.9,1024,1024,1024,1024,0,0,0,0,77,4.51,71.06,97.440948,P-GPS,,29.7
558,347500,2026-01-12 12:12:04,0.0,5,7.628,0.0,0.0,0.0,18.8,3.9,-3.5,1024,1024,1024,1024,0,0,0,0,77,4.51,71.06,97.440948,P-GPS,,29.7
559,347600,2026-01-12 12:12:04,0.0,5,7.628,0.0,0.0,0.0,18.8,3.7,-3.8,1024,1024,1024,1024,0,0,0,0,77,4.51,71.06,97.440948,P-GPS,,29.7
560,347700,2026-01-12 12:12:04,0.0,5,7.628,0.0,0.0,0.0,18.8,3.5,-3.7,1024,1024,1024,1024,0,0,0,0,77,4.51,71.06,97.440948,P-GPS,,29.7
561,347800,2026-01-12 12:12:04,0.0,5,7.628,0.0,0.0,0.0,18.8,3.0,-4.1,1024,1024,1024,1024,0,0,0,0,77,4.51,71.06,97.440948,P-GPS,,29.7
562,347900,2026-01-12 12:12:04,0.0,5,7.638,0.0,0.0,0.0,18.8,3.2,-4.0,1024,1024,1024,1024,0,0,0,0,77,4.436,71.06,97.440948,P-GPS,,29.7
563,348000,2026-01-12 12:12:04,0.0,5,7.638,0.0,0.0,0.0,18.8,3.8,-3.5,1024,1024,1024,1024,0,0,0,0,77,4.436,71.06,97.440948,P-GPS,,29.7
564,348100,2026-01-12 12:12:04,0.0,5,7.638,0.0,0.0,0.0,18.8,3.9,-3.4,1024,1024,1024,1024,0,0,0,0,77,4.436,71.06,97.440948,P-GPS,,29.7
565,348200,2026-01-12 12:12:05,0.0,5,7.638,0.0,0.0,0.0,18.9,3.3,-3.9,1024,1024,1024,1024,0,0,0,0,77,4.436,71.06,97.440948,P-GPS,,29.7
566,348300,2026-01-12 12:12:05,0.0,5,7.638,0.0,0.0,0.0,19.0,3.3,-4.4,1024,1024,1024,1024,0,0,0,0,77,4.436,71.06,97.440948,P-GPS,,29.7
567,348400,2026-01-12 12:12:05,0.0,5,7.638,0.0,0.0,0.0,19.0,3.2,-4.3,1024,1024,1024,1024,0,0,0,0,77,4.436,71.06,97.112864,P-GPS,,29.6
568,348500,2026-01-12 12:12:05,0.0,5,7.638,0.0,0.0,0.0,19.0,2.9,-4.2,1024,1024,1024,1024,0,0,0,0,77,4.436,71.06,97.112864,P-GPS,,29.6
569,348600,2026-01-12 12:12:05,0.0,5,7.638,0.0,0.0,0.0,19.0,2.5,-4.2,1024,1024,1024,1024,0,0,0,0,77,4.436,71.06,97.112864,P-GPS,,29.6
570,348700,2026-01-12 12:12:05,0.0,5,7.638,0.0,0.0,0.0,18.9,2.0,-4.5,1024,1024,1024,1024,0,0,0,0,77,4.436,71.06,97.112864,P-GPS,,29.6
571,348800,2026-01-12 12:12:05,0.0,5,7.638,0.0,0.0,0.0,18.9,1.4,-4.6,1024,1024,1024,1024,0,0,0,0,77,4.436,71.06,97.112864,P-GPS,,29.6
572,348900,2026-01-12 12:12:05,0.0,5,7.627,0.0,0.0,0.0,18.9,1.4,-4.5,1024,1024,1024,1024,0,0,0,0,77,4.44,71.24,97.112864,P-GPS,,29.6
573,349000,2026-01-12 12:12:05,0.0,5,7.627,0.0,0.0,0.0,19.0,1.6,-4.0,1024,1024,1024,1024,0,0,0,0,77,4.44,71.24,97.112864,P-GPS,,29.6
574,349100,2026-01-12 12:12:05,0.0,5,7.627,0.0,0.0,0.0,19.0,2.8,-4.1,1024,1024,1024,1024,0,0,0,0,77,4.44,71.24,97.112864,P-GPS,,29.6
575,349200,2026-01-12 12:12:06,0.0,5,7.627,0.0,0.0,0.0,19.0,3.6,-3.9,1024,1024,1024,1024,0,0,0,0,77,4.44,71.24,97.112864,P-GPS,,29.6
576,349300,2026-01-12 12:12:06,0.0,5,7.627,0.0,0.0,0.0,18.9,3.7,-4.1,1024,1024,1024,1024,0,0,0,0,77,4.44,71.24,97.112864,P-GPS,,29.6
577,349400,2026-01-12 12:12:06,0.0,5,7.627,0.0,0.0,0.0,19.0,3.9,-4.5,1024,1024,1024,1024,0,0,0,0,77,4.44,71.24,97.112864,P-GPS,,29.6
578,349500,2026-01-12 12:12:06,0.0,5,7.627,0.0,0.0,0.0,19.1,3.7,-4.7,1024,1024,1024,1024,0,0,0,0,77,4.44,71.24,96.78478,P-GPS,,29.5
579,349600,2026-01-12 12:12:06,0.0,5,7.627,0.0,0.0,0.0,19.2,3.6,-4.6,1024,1024,1024,1024,0,0,0,0,77,4.44,71.24,96.78478,P-GPS,,29.5
580,349700,2026-01-12 12:12:06,0.0,5,7.627,0.0,0.0,0.0,19.2,3.1,-4.8,1024,1024,1024,1024,0,0,0,0,77,4.44,71.24,96.78478,P-GPS,,29.5
581,349800,2026-01-12 12:12:06,0.0,5,7.627,0.0,0.0,0.0,19.2,2.6,-4.5,1024,1024,1024,1024,0,0,0,0,77,4.44,71.24,96.78478,P-GPS,,29.5
582,349900,2026-01-12 12:12:06,0.0,5,7.629,0.0,0.0,0.0,19.1,2.3,-4.4,1024,1024,1024,1024,0,0,0,0,77,4.414,71.06,96.78478,P-GPS,,29.5
583,350000,2026-01-12 12:12:06,0.0,5,7.629,0.0,0.0,0.0,19.0,2.8,-4.3,1024,1024,1024,1024,0,0,0,0,77,4.414,71.06,96.78478,P-GPS,,29.5
584,350100,2026-01-12 12:12:06,0.0,5,7.629,0.0,0.0,0.0,19.0,3.1,-4.3,1024,1024,1024,1024,0,0,0,0,77,4.414,71.06,96.78478,P-GPS,,29.5
585,350200,2026-01-12 12:12:07,0.0,5,7.629,0.0,0.0,0.0,18.9,3.6,-3.9,1024,1024,1024,1024,0,0,0,0,77,4.414,71.06,96.78478,P-GPS,,29.5
586,350300,2026-01-12 12:12:07,0.0,5,7.629,0.0,0.0,0.0,18.9,3.4,-3.9,1024,1024,1024,1024,0,0,0,0,77,4.414,71.06,96.456696,P-GPS,,29.4
587,350400,2026-01-12 12:12:07,0.0,5,7.629,0.0,0.0,0.0,18.8,3.2,-3.9,1024,1024,1024,1024,0,0,0,0,77,4.414,71.06,96.456696,P-GPS,,29.4
588,350500,2026-01-12 12:12:07,0.0,5,7.629,0.0,0.0,0.0,18.9,3.4,-3.8,1024,1024,1024,1024,0,0,0,0,77,4.414,71.06,96.456696,P-GPS,,29.4
589,350600,2026-01-12 12:12:07,0.0,5,7.629,0.0,0.0,0.0,19.0,3.2,-3.9,1024,1024,1024,1024,0,0,0,0,77,4.414,71.06,96.456696,P-GPS,,29.4
590,350700,2026-01-12 12:12:07,0.0,5,7.629,0.0,0.0,0.0,19.0,3.3,-3.6,1024,1024,1024,1024,0,0,0,0,77,4.414,71.06,96.456696,P-GPS,,29.4
591,350800,2026-01-12 12:12:07,0.0,5,7.629,0.0,0.0,0.0,18.9,3.9,-3.4,1024,1024,1024,1024,0,0,0,0,77,4.403,71.06,96.456696,P-GPS,,29.4
592,350900,2026-01-12 12:12:07,0.0,5,7.629,0.0,0.0,0.0,18.9,3.4,-3.5,1024,1024,1024,1024,0,0,0,0,77,4.403,71.06,96.456696,P-GPS,,29.4
593,351000,2026-01-12 12:12:07,0.0,5,7.629,0.0,0.0,0.0,19.0,3.3,-3.9,1024,1024,1024,1024,0,0,0,0,77,4.403,71.06,96.456696,P-GPS,,29.4
594,351100,2026-01-12 12:12:07,0.0,5,7.629,0.0,0.0,0.0,19.1,3.0,-4.1,1024,1024,1024,1024,0,0,0,0,77,4.403,71.06,96.456696,P-GPS,,29.4
595,351200,2026-01-12 12:12:08,0.0,5,7.629,0.0,0.0,0.0,19.2,2.8,-4.1,1024,1024,1024,1024,0,0,0,0,77,4.403,71.06,96.456696,P-GPS,,29.4
596,351300,2026-01-12 12:12:08,0.0,5,7.629,0.0,0.0,0.0,19.2,3.2,-4.0,1024,1024,1024,1024,0,0,0,0,77,4.403,71.06,96.128612,P-GPS,,29.3
597,351400,2026-01-12 12:12:08,0.0,5,7.629,0.0,0.0,0.0,19.1,3.2,-4.3,1024,1024,1024,1024,0,0,0,0,77,4.403,71.06,96.128612,P-GPS,,29.3
598,351500,2026-01-12 12:12:08,0.0,5,7.629,0.0,0.0,0.0,19.1,3.3,-4.3,1024,1024,1024,1024,0,0,0,0,77,4.403,71.06,96.128612,P-GPS,,29.3
599,351600,2026-01-12 12:12:08,0.0,5,7.629,0.0,0.0,0.0,19.0,3.5,-4.2,1024,1024,1024,1024,0,0,0,0,77,4.403,71.06,96.128612,P-GPS,,29.3
600,351700,2026-01-12 12:12:08,0.0,5,7.629,0.0,0.0,0.0,19.0,3.5,-4.1,1024,1024,1024,1024,0,0,0,0,77,4.403,71.06,96.128612,P-GPS,,29.3
601,351800,2026-01-12 12:12:08,0.0,5,7.629,0.0,0.0,0.0,19.0,3.7,-4.1,1024,1024,1024,1024,0,0,0,0,77,4.403,71.06,95.800528,P-GPS,,29.2
602,351900,2026-01-12 12:12:08,0.0,5,7.61,0.0,0.0,0.0,18.9,3.8,-4.1,1024,1024,1024,1024,0,0,0,0,77,4.705,71.24,95.800528,P-GPS,,29.2
603,352000,2026-01-12 12:12:08,0.0,5,7.61,0.0,0.0,0.0,18.9,3.9,-4.0,1024,1024,1024,1024,0,0,0,0,77,4.705,71.24,95.800528,P-GPS,,29.2
604,352100,2026-01-12 12:12:09,0.0,5,7.61,0.0,0.0,0.0,18.9,3.8,-4.1,1024,1024,1024,1024,0,0,0,0,77,4.705,71.24,95.800528,P-GPS,,29.2
605,352200,2026-01-12 12:12:09,0.0,5,7.61,0.0,0.0,0.0,18.9,3.9,-4.0,1024,1024,1024,1024,0,0,0,0,77,4.705,71.24,95.800528,P-GPS,,29.2
606,352300,2026-01-12 12:12:09,0.0,5,7.61,0.0,0.0,0.0,18.9,3.8,-3.9,1024,1024,1024,1024,0,0,0,0,77,4.705,71.24,95.800528,P-GPS,,29.2
607,352400,2026-01-12 12:12:09,0.0,5,7.61,0.0,0.0,0.0,18.8,3.7,-4.0,1024,1024,1024,1024,0,0,0,0,77,4.705,71.24,95.472444,P-GPS,,29.1
608,352500,2026-01-12 12:12:09,0.0,5,7.61,0.0,0.0,0.0,18.8,3.4,-4.0,1024,1024,1024,1024,0,0,0,0,77,4.705,71.24,95.472444,P-GPS,,29.1
609,352600,2026-01-12 12:12:09,0.0,5,7.61,0.0,0.0,0.0,18.8,3.2,-4.0,1024,1024,1024,1024,0,0,0,0,77,4.705,71.24,95.472444,P-GPS,,29.1
610,352700,2026-01-12 12:12:09,0.0,5,7.61,0.0,0.0,0.0,18.9,2.6,-3.7,1024,1024,1024,1024,0,0,0,0,77,4.705,71.24,95.472444,P-GPS,,29.1
611,352800,2026-01-12 12:12:09,0.0,5,7.61,0.0,0.0,0.0,18.9,2.3,-3.6,1024,1024,1024,1024,0,0,0,0,77,4.705,71.24,95.472444,P-GPS,,29.1
612,352900,2026-01-12 12:12:09,0.0,5,7.61,0.0,0.0,0.0,19.0,2.3,-3.7,1024,1024,1024,1024,0,0,0,0,77,4.705,71.24,95.472444,P-GPS,,29.1
613,353000,2026-01-12 12:12:09,0.0,5,7.61,0.0,0.0,0.0,19.1,2.2,-3.7,1024,1024,1024,1024,0,0,0,0,77,4.705,71.24,95.472444,P-GPS,,29.1
614,353100,2026-01-12 12:12:09,0.0,5,7.61,0.0,0.0,0.0,19.3,2.3,-4.0,1024,1024,1024,1024,0,0,0,0,77,4.705,71.24,95.472444,P-GPS,,29.1
615,353200,2026-01-12 12:12:10,0.0,5,7.61,0.0,0.0,0.0,19.4,3.0,-3.8,1024,1024,1024,1024,0,0,0,0,77,4.705,71.24,95.472444,P-GPS,,29.1
616,353300,2026-01-12 12:12:10,0.0,5,7.61,0.0,0.0,0.0,19.3,3.9,-4.0,1024,1024,1024,1024,0,0,0,0,77,4.705,71.24,95.472444,P-GPS,,29.1
617,353400,2026-01-12 12:12:10,0.0,5,7.61,0.0,0.0,0.0,19.2,4.5,-3.9,1024,1024,1024,1024,0,0,0,0,77,4.705,71.24,95.472444,P-GPS,,29.1
618,353500,2026-01-12 12:12:10,0.0,5,7.61,0.0,0.0,0.0,19.2,4.7,-3.8,1024,1024,1024,1024,0,0,0,0,77,4.705,71.24,95.472444,P-GPS,,29.1
619,353600,2026-01-12 12:12:10,0.0,5,7.61,0.0,0.0,0.0,19.3,4.4,-3.9,1024,1024,1024,1024,0,0,0,0,77,4.705,71.24,95.472444,P-GPS,,29.1
620,353700,2026-01-12 12:12:10,0.0,5,7.61,0.0,0.0,0.0,19.3,4.6,-4.1,1024,1024,1024,1024,0,0,0,0,77,4.705,71.24,95.472444,P-GPS,,29.1
621,353800,2026-01-12 12:12:10,0.0,5,7.61,0.0,0.0,0.0,19.2,5.0,-3.6,1024,1024,1024,1024,0,0,0,0,77,4.705,71.24,95.472444,P-GPS,,29.1
622,353900,2026-01-12 12:12:10,0.0,5,7.61,0.0,0.0,0.0,19.3,4.4,-3.5,1024,1024,1024,1024,0,0,0,0,77,4.705,71.24,95.472444,P-GPS,,29.1
623,354000,2026-01-12 12:12:10,0.0,5,7.61,0.0,0.0,0.0,19.2,4.5,-3.7,1024,1024,1024,1024,0,0,0,0,77,4.705,71.24,95.472444,P-GPS,,29.1
624,354100,2026-01-12 12:12:11,0.0,5,7.605,0.0,0.0,0.0,19.2,4.3,-3.9,1024,1024,1024,1024,0,0,0,0,77,4.765,71.42,95.472444,P-GPS,,29.1
625,354200,2026-01-12 12:12:11,0.0,5,7.605,0.0,0.0,0.0,19.1,4.6,-3.8,1024,1024,1024,1024,0,0,0,0,77,4.765,71.42,95.472444,P-GPS,,29.1
626,354300,2026-01-12 12:12:11,0.0,5,7.605,0.0,0.0,0.0,19.1,4.5,-3.7,1024,1024,1024,1024,0,0,0,0,77,4.765,71.42,95.472444,P-GPS,,29.1
627,354400,2026-01-12 12:12:11,0.0,5,7.605,0.0,0.0,0.0,19.0,4.4,-3.7,1024,1024,1024,1024,0,0,0,0,77,4.765,71.42,95.472444,P-GPS,,29.1
628,354500,2026-01-12 12:12:11,0.0,5,7.605,0.0,0.0,0.0,19.0,4.3,-3.7,1024,1024,1024,1024,0,0,0,0,77,4.765,71.42,95.472444,P-GPS,,29.1
629,354600,2026-01-12 12:12:11,0.0,5,7.605,0.0,0.0,0.0,19.0,4.2,-3.5,1024,1024,1024,1024,0,0,0,0,77,4.765,71.42,95.472444,P-GPS,,29.1
630,354700,2026-01-12 12:12:11,0.0,5,7.605,0.0,0.0,0.0,19.0,4.0,-3.5,1024,1024,1024,1024,0,0,0,0,77,4.765,71.42,95.472444,P-GPS,,29.1
631,354800,2026-01-12 12:12:11,0.0,5,7.605,0.0,0.0,0.0,19.0,4.0,-3.5,1024,1024,1024,1024,0,0,0,0,77,4.765,71.42,95.472444,P-GPS,,29.1
632,354900,2026-01-12 12:12:11,0.0,5,7.605,0.0,0.0,0.0,19.0,3.7,-3.3,1024,1024,1024,1024,0,0,0,0,77,4.765,71.42,95.472444,P-GPS,,29.1
633,355000,2026-01-12 12:12:11,0.0,5,7.605,0.0,0.0,0.0,19.1,3.4,-3.4,1024,1024,1024,1024,0,0,0,0,77,4.765,71.42,95.472444,P-GPS,,29.1
634,355100,2026-01-12 12:12:11,0.0,5,7.605,0.0,0.0,0.0,19.1,3.4,-3.7,1024,1024,1024,1024,0,0,0,0,77,4.765,71.42,95.472444,P-GPS,,29.1
635,355200,2026-01-12 12:12:12,0.0,5,7.598,0.0,0.0,0.0,19.1,3.6,-4.1,1024,1024,1024,1024,0,0,0,0,77,4.917,71.42,95.472444,P-GPS,,29.1
636,355300,2026-01-12 12:12:12,0.0,5,7.598,0.0,0.0,0.0,19.0,4.5,-4.3,1024,1024,1024,1024,0,0,0,0,77,4.917,71.42,95.472444,P-GPS,,29.1
637,355400,2026-01-12 12:12:12,0.0,5,7.598,0.0,0.0,0.0,18.9,4.8,-4.3,1024,1024,1024,1024,0,0,0,0,77,4.917,71.42,95.472444,P-GPS,,29.1
638,355500,2026-01-12 12:12:12,0.0,5,7.598,0.0,0.0,0.0,18.9,4.5,-4.5,1024,1024,1024,1024,0,0,0,0,77,4.917,71.42,95.800528,P-GPS,,29.2
639,355600,2026-01-12 12:12:12,0.0,5,7.598,0.0,0.0,0.0,18.9,4.8,-4.7,1024,1024,1024,1024,0,0,0,0,77,4.917,71.42,95.800528,P-GPS,,29.2
640,355700,2026-01-12 12:12:12,0.0,5,7.598,0.0,0.0,0.0,18.9,4.6,-4.8,1024,1024,1024,1024,0,0,0,0,77,4.917,71.42,95.800528,P-GPS,,29.2
641,355800,2026-01-12 12:12:12,0.0,5,7.598,0.0,0.0,0.0,18.9,4.9,-4.8,1024,1024,1024,1024,0,0,0,0,77,4.917,71.42,95.800528,P-GPS,,29.2
642,355900,2026-01-12 12:12:12,0.0,5,7.598,0.0,0.0,0.0,18.9,4.9,-4.7,1024,1024,1024,1024,0,0,0,0,77,4.917,71.42,95.800528,P-GPS,,29.2
643,356000,2026-01-12 12:12:12,0.0,5,7.598,0.0,0.0,0.0,18.9,4.9,-4.7,1024,1024,1024,1024,0,0,0,0,77,4.917,71.42,95.800528,P-GPS,,29.2
644,356100,2026-01-12 12:12:13,0.0,5,7.598,0.0,0.0,0.0,18.8,4.7,-4.7,1024,1024,1024,1024,0,0,0,0,77,4.917,71.42,95.800528,P-GPS,,29.2
645,356200,2026-01-12 12:12:13,0.0,5,7.598,0.0,0.0,0.0,18.8,4.7,-4.7,1024,1024,1024,1024,0,0,0,0,77,4.917,71.42,95.800528,P-GPS,,29.2
646,356300,2026-01-12 12:12:13,0.0,5,7.598,0.0,0.0,0.0,18.9,4.3,-4.6,1024,1024,1024,1024,0,0,0,0,77,4.92,71.42,95.800528,P-GPS,,29.2
647,356400,2026-01-12 12:12:13,0.0,5,7.598,0.0,0.0,0.0,19.0,4.3,-4.5,1024,1024,1024,1024,0,0,0,0,77,4.92,71.42,95.800528,P-GPS,,29.2
648,356500,2026-01-12 12:12:13,0.0,5,7.598,0.0,0.0,0.0,19.0,4.4,-4.4,1024,1024,1024,1024,0,0,0,0,77,4.92,71.42,95.800528,P-GPS,,29.2
649,356600,2026-01-12 12:12:13,0.0,5,7.598,0.0,0.0,0.0,19.0,4.5,-4.4,1024,1024,1024,1024,0,0,0,0,77,4.92,71.42,95.800528,P-GPS,,29.2
650,356700,2026-01-12 12:12:13,0.0,5,7.598,0.0,0.0,0.0,19.0,4.7,-4.4,1024,1024,1024,1024,0,0,0,0,77,4.92,71.42,95.800528,P-GPS,,29.2
651,356800,2026-01-12 12:12:13,0.0,5,7.598,0.0,0.0,0.0,19.0,4.7,-4.2,1024,1024,1024,1024,0,0,0,0,77,4.92,71.42,95.800528,P-GPS,,29.2
652,356900,2026-01-12 12:12:13,0.0,5,7.598,0.0,0.0,0.0,19.0,4.6,-4.1,1024,1024,1024,1024,0,0,0,0,77,4.92,71.42,95.800528,P-GPS,,29.2
653,357000,2026-01-12 12:12:13,0.0,5,7.598,0.0,0.0,0.0,19.0,4.4,-4.1,1024,1024,1024,1024,0,0,0,0,77,4.92,71.42,95.800528,P-GPS,,29.2
654,357100,2026-01-12 12:12:13,0.0,5,7.598,0.0,0.0,0.0,19.0,4.5,-4.1,1024,1024,1024,1024,0,0,0,0,77,4.92,71.42,95.800528,P-GPS,,29.2
655,357200,2026-01-12 12:12:14,0.0,5,7.598,0.0,0.0,0.0,19.0,4.7,-4.0,1024,1024,1024,1024,0,0,0,0,77,4.92,71.42,95.800528,P-GPS,,29.2
656,357300,2026-01-12 12:12:14,0.0,5,7.598,0.0,0.0,0.0,19.0,4.7,-3.9,1024,1024,1024,1024,0,0,0,0,77,4.92,71.42,95.800528,P-GPS,,29.2
657,357400,2026-01-12 12:12:14,0.0,5,7.6,0.0,0.0,0.0,19.0,4.5,-3.8,1024,1024,1024,1024,0,0,0,0,77,4.875,71.6,95.800528,P-GPS,,29.2
658,357500,2026-01-12 12:12:14,0.0,5,7.6,0.0,0.0,0.0,19.0,4.3,-3.8,1024,1024,1024,1024,0,0,0,0,77,4.875,71.6,95.800528,P-GPS,,29.2
659,357600,2026-01-12 12:12:14,0.0,5,7.6,0.0,0.0,0.0,19.0,4.4,-3.9,1024,1024,1024,1024,0,0,0,0,77,4.875,71.6,95.800528,P-GPS,,29.2
660,357700,2026-01-12 12:12:14,0.0,5,7.6,0.0,0.0,0.0,19.0,4.2,-4.0,1024,1024,1024,1024,0,0,0,0,77,4.875,71.6,95.800528,P-GPS,,29.2
661,357800,2026-01-12 12:12:14,0.0,5,7.6,0.0,0.0,0.0,19.0,4.2,-4.1,1024,1024,1024,1024,0,0,0,0,77,4.875,71.6,95.800528,P-GPS,,29.2
662,357900,2026-01-12 12:12:14,0.0,5,7.6,0.0,0.0,0.0,19.1,4.4,-3.9,1024,1024,1024,1024,0,0,0,0,77,4.875,71.6,95.472444,P-GPS,,29.1
663,358000,2026-01-12 12:12:14,0.0,5,7.6,0.0,0.0,0.0,19.0,4.9,-3.6,1024,1024,1024,1024,0,0,0,0,77,4.875,71.6,95.472444,P-GPS,,29.1
664,358100,2026-01-12 12:12:14,0.0,5,7.6,0.0,0.0,0.0,19.0,5.0,-3.7,1024,1024,1024,1024,0,0,0,0,77,4.875,71.6,95.472444,P-GPS,,29.1
665,358200,2026-01-12 12:12:15,0.0,5,7.6,0.0,0.0,0.0,19.0,4.9,-3.7,1024,1024,1024,1024,0,0,0,0,77,4.875,71.6,95.472444,P-GPS,,29.1
666,358300,2026-01-12 12:12:15,0.0,5,7.6,0.0,0.0,0.0,19.0,4.7,-3.6,1024,1024,1024,1024,0,0,0,0,77,4.875,71.6,95.472444,P-GPS,,29.1
667,358400,2026-01-12 12:12:15,0.0,5,7.6,0.0,0.0,0.0,19.0,4.6,-3.5,1024,1024,1024,1024,0,0,0,0,77,4.875,71.6,95.472444,P-GPS,,29.1
