index,time(millisecond),timestamp,speed(mph),gpslevel,voltage(v),xSpeed(mph),ySpeed(mph),zSpeed(mph),compass_heading(degrees),pitch(degrees),roll(degrees),rc_elevator,rc_aileron,rc_throttle,rc_rudder,rc_elevator(percent),rc_aileron(percent),rc_throttle(percent),rc_rudder(percent),battery_percent,current(A),battery_temperature(f),ascent(feet),flycState,message,height_above_takeoff(meters)
791,79100,2026-01-11 17:19:02,0.0,5,7.533,0.0,0.0,0.0,16.2,9.8,-12.5,1024,1024,1024,1024,0,0,0,0,93,7.288,58.28,165.68242,P-GPS,,50.5
792,79200,2026-01-11 17:19:02,0.0,5,7.533,0.0,0.0,0.0,16.1,10.2,-12.9,1024,1024,1024,1024,0,0,0,0,93,7.288,58.28,165.68242,P-GPS,,50.5
793,79300,2026-01-11 17:19:02,0.0,5,7.533,0.0,0.0,0.0,16.0,10.4,-12.8,1024,1024,1024,1024,0,0,0,0,93,7.288,58.28,165.68242,P-GPS,,50.5
794,79400,2026-01-11 17:19:02,0.0,5,7.533,0.0,0.0,0.0,15.9,10.8,-12.7,1024,1024,1024,1024,0,0,0,0,93,7.288,58.28,165.68242,P-GPS,,50.5
795,79500,2026-01-11 17:19:02,0.0,5,7.692,0.0,0.0,0.0,15.9,10.5,-12.1,1024,1024,1024,1024,0,0,0,0,93,5.256,58.46,165.68242,P-GPS,,50.5
796,79600,2026-01-11 17:19:03,0.0,5,7.692,0.0,0.0,0.0,16.1,9.7,-11.9,1024,1024,1024,1024,0,0,0,0,93,5.256,58.46,165.68242,P-GPS,,50.5
797,79700,2026-01-11 17:19:03,0.0,5,7.692,0.0,0.0,0.0,16.2,9.4,-12.1,1024,1024,1024,1024,0,0,0,0,93,5.256,58.46,165.68242,P-GPS,,50.5
798,79800,2026-01-11 17:19:03,0.0,5,7.692,0.0,0.0,0.0,16.2,9.2,-11.7,1024,1024,1024,1024,0,0,0,0,93,5.256,58.46,165.68242,P-GPS,,50.5
799,79900,2026-01-11 17:19:03,0.0,5,7.692,0.0,0.0,0.0,16.2,9.0,-11.2,1024,1024,1024,1024,0,0,0,0,93,5.256,58.46,165.68242,P-GPS,,50.5
800,80000,2026-01-11 17:19:03,0.0,5,7.692,0.0,0.0,0.0,16.3,8.8,-11.1,1024,1024,1024,1024,0,0,0,0,93,5.256,58.46,165.68242,P-GPS,,50.5
801,80100,2026-01-11 17:19:03,0.0,5,7.692,0.0,0.0,0.0,16.3,8.8,-11.0,1024,1024,1024,1024,0,0,0,0,93,5.256,58.46,165.354336,P-GPS,,50.4
802,80200,2026-01-11 17:19:03,0.0,5,7.692,0.0,0.0,0.0,16.2,9.0,-10.8,1024,1024,1024,1024,0,0,0,0,93,5.256,58.46,165.354336,P-GPS,,50.4
803,80300,2026-01-11 17:19:03,0.0,5,7.692,0.0,0.0,0.0,16.2,9.1,-10.6,1024,1024,1024,1024,0,0,0,0,93,5.256,58.46,165.354336,P-GPS,,50.4
804,80400,2026-01-11 17:19:03,0.0,5,7.692,0.0,0.0,0.0,16.3,8.6,-10.4,1024,1024,1024,1024,0,0,0,0,93,5.256,58.46,165.354336,P-GPS,,50.4
805,80500,2026-01-11 17:19:03,0.0,5,7.651,0.0,0.0,0.0,16.4,7.9,-10.3,1024,1024,1024,1024,0,0,0,0,93,5.409,58.46,165.026252,P-GPS,,50.3
806,80600,2026-01-11 17:19:04,0.0,5,7.651,0.0,0.0,0.0,16.3,8.0,-10.1,1024,1024,1024,1024,0,0,0,0,93,5.409,58.46,165.026252,P-GPS,,50.3
807,80700,2026-01-11 17:19:04,0.0,5,7.651,0.0,0.0,0.0,16.2,8.1,-9.5,1024,1024,1024,1024,0,0,0,0,93,5.409,58.46,165.026252,P-GPS,,50.3
808,80800,2026-01-11 17:19:04,0.0,5,7.651,0.0,0.0,0.0,16.3,7.8,-8.8,1024,1024,1024,1024,0,0,0,0,93,5.409,58.46,164.698168,P-GPS,,50.2
809,80900,2026-01-11 17:19:04,0.223694,5,7.651,0.0,-0.223694,0.0,16.4,7.4,-8.7,1024,1024,1024,1024,0,0,0,0,93,5.409,58.46,164.698168,P-GPS,,50.2
810,81000,2026-01-11 17:19:04,0.223694,5,7.651,0.0,-0.223694,0.0,16.3,7.6,-8.5,1024,1024,1024,1024,0,0,0,0,93,5.409,58.46,164.698168,P-GPS,,50.2
811,81100,2026-01-11 17:19:04,0.223694,5,7.651,0.0,-0.223694,0.0,16.4,7.2,-8.2,1024,1024,1024,1024,0,0,0,0,93,5.409,58.46,164.698168,P-GPS,,50.2
812,81200,2026-01-11 17:19:04,0.0,5,7.651,0.0,0.0,0.0,16.6,6.2,-7.5,1024,1024,1024,1024,0,0,0,0,93,5.409,58.46,164.370084,P-GPS,,50.1
813,81300,2026-01-11 17:19:04,0.0,5,7.651,0.0,0.0,0.0,16.6,6.0,-8.0,1024,1024,1024,1024,0,0,0,0,93,5.409,58.46,164.370084,P-GPS,,50.1
814,81400,2026-01-11 17:19:04,0.0,5,7.651,0.0,0.0,0.0,16.5,6.3,-8.3,1024,1024,1024,1024,0,0,0,0,93,5.409,58.46,164.370084,P-GPS,,50.1
815,81500,2026-01-11 17:19:04,0.0,5,7.709,0.0,0.0,0.0,16.4,6.6,-8.3,1024,1024,1024,1024,0,0,0,0,93,4.664,58.46,164.370084,P-GPS,,50.1
816,81600,2026-01-11 17:19:05,0.0,5,7.709,0.0,0.0,0.0,16.5,6.4,-8.2,1024,1024,1024,1024,0,0,0,0,93,4.664,58.46,164.370084,P-GPS,,50.1
817,81700,2026-01-11 17:19:05,0.0,5,7.709,0.0,0.0,0.0,16.6,6.4,-8.2,1024,1024,1024,1024,0,0,0,0,93,4.664,58.46,164.370084,P-GPS,,50.1
818,81800,2026-01-11 17:19:05,0.0,5,7.709,0.0,0.0,0.0,16.6,6.8,-7.9,1024,1024,1024,1024,0,0,0,0,93,4.664,58.46,164.370084,P-GPS,,50.1
819,81900,2026-01-11 17:19:05,0.0,5,7.709,0.0,0.0,0.0,16.6,7.1,-8.0,1024,1024,1024,1024,0,0,0,0,93,4.664,58.46,164.370084,P-GPS,,50.1
820,82000,2026-01-11 17:19:05,0.0,5,7.709,0.0,0.0,0.0,16.5,7.6,-7.8,1024,1024,1024,1024,0,0,0,0,93,4.664,58.46,164.370084,P-GPS,,50.1
821,82100,2026-01-11 17:19:05,0.0,5,7.709,0.0,0.0,0.0,16.4,8.6,-7.8,1024,1024,1024,1024,0,0,0,0,93,4.664,58.46,164.698168,P-GPS,,50.2
822,82200,2026-01-11 17:19:05,0.0,5,7.709,0.0,0.0,0.0,16.7,7.7,-7.4,1024,1024,1024,1024,0,0,0,0,93,4.664,58.46,164.698168,P-GPS,,50.2
823,82300,2026-01-11 17:19:05,0.0,5,7.709,0.0,0.0,0.0,16.6,8.4,-7.6,1024,1024,1024,1024,0,0,0,0,93,4.664,58.46,164.698168,P-GPS,,50.2
824,82400,2026-01-11 17:19:05,0.0,5,7.709,0.0,0.0,0.0,16.5,8.7,-8.1,1024,1024,1024,1024,0,0,0,0,93,4.664,58.46,164.698168,P-GPS,,50.2
825,82500,2026-01-11 17:19:05,0.0,5,7.727,0.0,0.0,0.0,16.5,8.7,-8.6,1024,1024,1024,1024,0,0,0,0,93,4.449,58.46,165.026252,P-GPS,,50.3
826,82600,2026-01-11 17:19:06,0.0,5,7.727,0.0,0.0,0.0,16.4,9.0,-8.7,1024,1024,1024,1024,0,0,0,0,93,4.449,58.46,165.026252,P-GPS,,50.3
827,82700,2026-01-11 17:19:06,0.0,5,7.727,0.0,0.0,0.0,16.2,9.7,-8.7,1024,1024,1024,1024,0,0,0,0,93,4.449,58.46,165.026252,P-GPS,,50.3
828,82800,2026-01-11 17:19:06,0.0,5,7.727,0.0,0.0,0.0,16.3,8.7,-8.8,1024,1024,1024,1024,0,0,0,0,93,4.449,58.46,165.026252,P-GPS,,50.3
829,82900,2026-01-11 17:19:06,0.0,5,7.727,0.0,0.0,0.0,16.3,7.8,-8.8,1024,1024,1024,1024,0,0,0,0,93,4.449,58.46,165.026252,P-GPS,,50.3
830,83000,2026-01-11 17:19:06,0.0,5,7.727,0.0,0.0,0.0,16.5,7.2,-8.4,1024,1024,1024,1024,0,0,0,0,93,4.449,58.46,165.026252,P-GPS,,50.3
831,83100,2026-01-11 17:19:06,0.0,5,7.727,0.0,0.0,0.0,16.5,6.7,-8.4,1024,1024,1024,1024,0,0,0,0,93,4.449,58.46,165.026252,P-GPS,,50.3
832,83200,2026-01-11 17:19:06,0.0,5,7.727,0.0,0.0,0.0,16.5,6.5,-8.2,1024,1024,1024,1024,0,0,0,0,93,4.449,58.46,164.698168,P-GPS,,50.2
833,83300,2026-01-11 17:19:06,0.0,5,7.727,0.0,0.0,0.0,16.4,7.1,-8.0,1024,1024,1024,1024,0,0,0,0,93,4.449,58.46,164.698168,P-GPS,,50.2
834,83400,2026-01-11 17:19:06,0.0,5,7.662,0.0,0.0,0.0,16.5,6.9,-8.3,1024,1024,1024,1024,0,0,0,0,93,5.094,58.46,164.698168,P-GPS,,50.2
835,83500,2026-01-11 17:19:06,0.0,5,7.662,0.0,0.0,0.0,16.6,6.5,-8.6,1024,1024,1024,1024,0,0,0,0,93,5.094,58.46,164.698168,P-GPS,,50.2
836,83600,2026-01-11 17:19:07,0.0,5,7.662,0.0,0.0,0.0,16.7,6.6,-8.3,1024,1024,1024,1024,0,0,0,0,93,5.094,58.46,164.698168,P-GPS,,50.2
837,83700,2026-01-11 17:19:07,0.0,5,7.662,0.0,0.0,0.0,16.6,7.1,-8.1,1024,1024,1024,1024,0,0,0,0,93,5.094,58.46,164.698168,P-GPS,,50.2
838,83800,2026-01-11 17:19:07,0.0,5,7.662,0.0,0.0,0.0,16.5,7.2,-8.1,1024,1024,1024,1024,0,0,0,0,93,5.094,58.46,164.698168,P-GPS,,50.2
839,83900,2026-01-11 17:19:07,0.0,5,7.662,0.0,0.0,0.0,16.7,6.5,-8.3,1024,1024,1024,1024,0,0,0,0,93,5.094,58.46,164.698168,P-GPS,,50.2
840,84000,2026-01-11 17:19:07,0.0,5,7.662,0.0,0.0,0.0,16.8,7.0,-8.0,1024,1024,1024,1024,0,0,0,0,93,5.094,58.46,164.698168,P-GPS,,50.2
841,84100,2026-01-11 17:19:07,0.0,5,7.662,0.0,0.0,0.0,16.6,8.1,-8.4,1024,1024,1024,1024,0,0,0,0,93,5.094,58.46,165.026252,P-GPS,,50.3
842,84200,2026-01-11 17:19:07,0.223694,5,7.662,0.0,0.223694,0.0,16.4,9.1,-8.7,1024,1024,1024,1024,0,0,0,0,93,5.094,58.46,165.026252,P-GPS,,50.3
843,84300,2026-01-11 17:19:07,0.223694,5,7.662,0.0,0.223694,0.0,16.4,9.3,-8.7,1024,1024,1024,1024,0,0,0,0,93,5.094,58.46,165.026252,P-GPS,,50.3
844,84400,2026-01-11 17:19:07,0.223694,5,7.662,0.0,0.223694,0.0,16.4,8.6,-9.0,1024,1024,1024,1024,0,0,0,0,93,5.094,58.46,165.026252,P-GPS,,50.3
845,84500,2026-01-11 17:19:07,0.223694,5,7.662,0.0,0.223694,0.0,16.5,9.0,-8.9,1024,1024,1024,1024,0,0,0,0,93,5.094,58.46,165.026252,P-GPS,,50.3
846,84600,2026-01-11 17:19:08,0.223694,5,7.662,0.0,0.223694,0.0,16.4,8.9,-9.1,1024,1024,1024,1024,0,0,0,0,93,5.094,58.46,165.026252,P-GPS,,50.3
847,84700,2026-01-11 17:19:08,0.223694,5,7.662,0.0,0.223694,0.0,16.4,8.7,-9.0,1024,1024,1024,1024,0,0,0,0,93,5.094,58.46,165.026252,P-GPS,,50.3
848,84800,2026-01-11 17:19:08,0.223694,5,7.662,0.0,0.223694,0.0,16.5,8.6,-9.3,1024,1024,1024,1024,0,0,0,0,93,5.094,58.46,165.354336,P-GPS,,50.4
849,84900,2026-01-11 17:19:08,0.223694,5,7.662,0.0,0.223694,0.0,16.5,8.8,-9.5,1024,1024,1024,1024,0,0,0,0,93,5.094,58.46,165.354336,P-GPS,,50.4
850,85000,2026-01-11 17:19:08,0.223694,5,7.662,0.0,0.223694,0.0,16.5,8.7,-9.5,1024,1024,1024,1024,0,0,0,0,93,5.094,58.46,165.354336,P-GPS,,50.4
851,85100,2026-01-11 17:19:08,0.223694,5,7.662,0.0,0.223694,0.0,16.5,9.0,-8.7,1024,1024,1024,1024,0,0,0,0,93,5.094,58.46,165.354336,P-GPS,,50.4
852,85200,2026-01-11 17:19:08,0.223694,5,7.662,0.0,0.0,0.0,16.5,9.0,-9.5,1024,1024,1024,1024,0,0,0,0,93,5.094,58.46,165.354336,P-GPS,,50.4
853,85300,2026-01-11 17:19:08,0.0,5,7.662,0.0,0.0,0.0,16.4,9.3,-9.5,1024,1024,1024,1024,0,0,0,0,93,5.094,58.46,165.354336,P-GPS,,50.4
854,85400,2026-01-11 17:19:08,0.0,5,7.662,0.0,0.0,0.223694,16.4,9.2,-9.4,1024,1024,1024,1024,0,0,0,0,93,5.094,58.46,165.354336,P-GPS,,50.4
855,85500,2026-01-11 17:19:08,0.0,5,7.662,0.0,0.0,0.223694,16.3,9.6,-9.2,1024,1024,1024,1024,0,0,0,0,93,5.094,58.46,165.354336,P-GPS,,50.4
856,85600,2026-01-11 17:19:09,0.0,5,7.661,0.0,0.0,0.0,16.5,8.3,-8.2,1024,1024,1024,1024,0,0,0,0,93,5.498,58.64,165.026252,P-GPS,,50.3
857,85700,2026-01-11 17:19:09,0.0,5,7.661,0.0,0.0,0.0,16.5,7.3,-8.0,1024,1024,1024,1024,0,0,0,0,93,5.498,58.64,165.026252,P-GPS,,50.3
858,85800,2026-01-11 17:19:09,0.0,5,7.661,0.0,0.0,0.0,16.5,7.0,-7.8,1024,1024,1024,1024,0,0,0,0,93,5.498,58.64,165.026252,P-GPS,,50.3
859,85900,2026-01-11 17:19:09,0.0,5,7.661,0.0,0.0,0.0,16.5,7.4,-7.9,1024,1024,1024,1024,0,0,0,0,93,5.498,58.64,165.026252,P-GPS,,50.3
860,86000,2026-01-11 17:19:09,0.0,5,7.661,0.0,0.0,0.0,16.4,8.1,-7.7,1024,1024,1024,1024,0,0,0,0,93,5.498,58.64,165.026252,P-GPS,,50.3
861,86100,2026-01-11 17:19:09,0.0,5,7.661,0.0,0.0,0.0,16.4,7.5,-7.7,1024,1024,1024,1024,0,0,0,0,93,5.498,58.64,164.698168,P-GPS,,50.2
862,86200,2026-01-11 17:19:09,0.0,5,7.661,0.0,0.0,0.0,16.6,7.0,-7.8,1024,1024,1024,1024,0,0,0,0,93,5.498,58.64,164.698168,P-GPS,,50.2
863,86300,2026-01-11 17:19:09,0.0,5,7.661,0.0,0.0,0.223694,16.5,7.4,-8.1,1024,1024,1024,1024,0,0,0,0,93,5.498,58.64,164.698168,P-GPS,,50.2
864,86400,2026-01-11 17:19:09,0.0,5,7.661,0.0,0.0,0.223694,16.5,7.1,-8.0,1024,1024,1024,1024,0,0,0,0,93,5.498,58.64,164.698168,P-GPS,,50.2
865,86500,2026-01-11 17:19:09,0.0,5,7.661,0.0,0.0,0.223694,16.5,6.9,-8.1,1024,1024,1024,1024,0,0,0,0,93,5.498,58.64,164.698168,P-GPS,,50.2
866,86600,2026-01-11 17:19:10,0.0,5,7.661,0.0,0.0,0.0,16.7,5.9,-7.7,1024,1024,1024,1024,0,0,0,0,93,5.498,58.64,164.370084,P-GPS,,50.1
867,86700,2026-01-11 17:19:10,0.0,5,7.668,0.0,0.0,0.0,16.7,6.1,-8.1,1024,1024,1024,1024,0,0,0,0,93,4.657,58.64,164.698168,P-GPS,,50.2
868,86800,2026-01-11 17:19:10,0.0,5,7.668,0.0,0.0,0.0,16.7,6.6,-8.7,1024,1024,1024,1024,0,0,0,0,93,4.657,58.64,164.698168,P-GPS,,50.2
869,86900,2026-01-11 17:19:10,0.0,5,7.668,0.0,0.0,0.0,16.6,7.4,-9.2,1024,1024,1024,1024,0,0,0,0,93,4.657,58.64,164.698168,P-GPS,,50.2
870,87000,2026-01-11 17:19:10,0.0,5,7.668,0.0,0.223694,0.0,16.4,8.4,-9.5,1024,1024,1024,1024,0,0,0,0,93,4.657,58.64,164.698168,P-GPS,,50.2
871,87100,2026-01-11 17:19:10,0.223694,5,7.668,0.0,0.223694,0.0,16.3,8.5,-9.5,1024,1024,1024,1024,0,0,0,0,93,4.657,58.64,164.698168,P-GPS,,50.2
872,87200,2026-01-11 17:19:10,0.223694,5,7.668,0.0,0.223694,0.0,16.4,8.3,-9.6,1024,1024,1024,1024,0,0,0,0,93,4.657,58.64,164.698168,P-GPS,,50.2
873,87300,2026-01-11 17:19:10,0.223694,5,7.668,0.0,0.223694,0.0,16.5,7.9,-9.7,1024,1024,1024,1024,0,0,0,0,93,4.657,58.64,164.698168,P-GPS,,50.2
874,87400,2026-01-11 17:19:10,0.0,5,7.668,0.0,0.0,0.0,16.6,7.7,-9.6,1024,1024,1024,1024,0,0,0,0,93,4.657,58.64,164.698168,P-GPS,,50.2
875,87500,2026-01-11 17:19:10,0.0,5,7.668,0.0,0.0,0.0,16.5,7.8,-9.4,1024,1024,1024,1024,0,0,0,0,93,4.657,58.64,164.698168,P-GPS,,50.2
876,87600,2026-01-11 17:19:11,0.0,5,7.668,0.0,0.0,0.0,16.6,7.3,-8.9,1024,1024,1024,1024,0,0,0,0,93,4.657,58.64,164.698168,P-GPS,,50.2
877,87700,2026-01-11 17:19:11,0.0,5,7.668,0.0,0.0,0.0,16.7,7.4,-8.7,1024,1024,1024,1024,0,0,0,0,93,4.657,58.64,164.698168,P-GPS,,50.2
878,87800,2026-01-11 17:19:11,0.0,5,7.63,0.0,0.0,0.0,16.7,7.6,-8.9,1024,1024,1024,1024,0,0,0,0,93,5.697,58.64,164.698168,P-GPS,,50.2
879,87900,2026-01-11 17:19:11,0.0,5,7.63,0.0,0.0,0.0,16.6,7.9,-9.0,1024,1024,1024,1024,0,0,0,0,93,5.697,58.64,164.698168,P-GPS,,50.2
880,88000,2026-01-11 17:19:11,0.0,5,7.63,0.0,0.0,0.0,16.6,8.0,-9.0,1024,1024,1024,1024,0,0,0,0,93,5.697,58.64,164.698168,P-GPS,,50.2
881,88100,2026-01-11 17:19:11,0.0,5,7.63,0.0,0.0,0.0,16.6,8.2,-9.3,1024,1024,1024,1024,0,0,0,0,93,5.697,58.64,165.026252,P-GPS,,50.3
882,88200,2026-01-11 17:19:11,0.0,5,7.63,0.0,0.0,0.0,16.7,7.8,-9.1,1024,1024,1024,1024,0,0,0,0,93,5.697,58.64,165.026252,P-GPS,,50.3
883,88300,2026-01-11 17:19:11,0.0,5,7.63,0.0,0.0,0.0,16.5,8.3,-9.5,1024,1024,1024,1024,0,0,0,0,93,5.697,58.64,165.026252,P-GPS,,50.3
884,88400,2026-01-11 17:19:11,0.0,5,7.63,0.0,0.0,0.0,16.6,8.2,-9.9,1024,1024,1024,1024,0,0,0,0,93,5.697,58.64,165.026252,P-GPS,,50.3
885,88500,2026-01-11 17:19:11,0.0,5,7.63,0.0,0.0,0.0,16.6,8.5,-9.5,1024,1024,1024,1024,0,0,0,0,93,5.697,58.64,164.698168,P-GPS,,50.2
886,88600,2026-01-11 17:19:12,0.0,5,7.63,0.0,0.0,0.0,16.5,8.9,-9.1,1024,1024,1024,1024,0,0,0,0,93,5.697,58.64,164.698168,P-GPS,,50.2
887,88700,2026-01-11 17:19:12,0.0,5,7.63,0.0,0.0,0.0,16.5,8.8,-8.8,1024,1024,1024,1024,0,0,0,0,93,5.697,58.64,164.698168,P-GPS,,50.2
888,88800,2026-01-11 17:19:12,0.0,5,7.63,0.0,0.0,0.0,16.6,8.2,-8.5,1024,1024,1024,1024,0,0,0,0,93,5.697,58.64,164.698168,P-GPS,,50.2
889,88900,2026-01-11 17:19:12,0.0,5,7.665,0.0,0.0,0.0,16.6,7.8,-8.4,1024,1024,1024,1024,0,0,0,0,93,5.201,58.64,164.698168,P-GPS,,50.2
890,89000,2026-01-11 17:19:12,0.0,5,7.665,0.0,0.0,0.0,16.5,7.8,-8.5,1024,1024,1024,1024,0,0,0,0,93,5.201,58.64,164.698168,P-GPS,,50.2
891,89100,2026-01-11 17:19:12,0.0,5,7.665,0.0,0.0,0.0,16.5,8.0,-8.9,1024,1024,1024,1024,0,0,0,0,93,5.201,58.64,164.698168,P-GPS,,50.2
892,89200,2026-01-11 17:19:12,0.0,5,7.665,0.0,0.0,0.0,16.6,7.6,-8.9,1024,1024,1024,1024,0,0,0,0,93,5.201,58.64,164.698168,P-GPS,,50.2
893,89300,2026-01-11 17:19:12,0.0,5,7.665,0.0,0.0,0.0,16.7,7.5,-8.8,1024,1024,1024,1024,0,0,0,0,93,5.201,58.64,164.698168,P-GPS,,50.2
894,89400,2026-01-11 17:19:12,0.0,5,7.665,0.0,0.0,0.0,16.6,7.5,-9.0,1024,1024,1024,1024,0,0,0,0,93,5.201,58.64,164.698168,P-GPS,,50.2
895,89500,2026-01-11 17:19:12,0.0,5,7.665,0.0,0.0,0.0,16.6,7.8,-9.1,1024,1024,1024,1024,0,0,0,0,93,5.201,58.64,164.698168,P-GPS,,50.2
896,89600,2026-01-11 17:19:13,0.0,5,7.665,0.0,0.0,0.0,16.6,7.8,-9.1,1024,1024,1024,1024,0,0,0,0,93,5.201,58.64,164.698168,P-GPS,,50.2
897,89700,2026-01-11 17:19:13,0.0,5,7.665,0.0,0.0,0.0,16.6,7.9,-9.2,1024,1024,1024,1024,0,0,0,0,93,5.201,58.64,164.698168,P-GPS,,50.2
898,89800,2026-01-11 17:19:13,0.0,5,7.665,0.0,0.0,0.0,16.6,7.8,-9.2,1024,1024,1024,1024,0,0,0,0,93,5.201,58.64,164.698168,P-GPS,,50.2
899,89900,2026-01-11 17:19:13,0.0,5,7.665,0.0,0.0,0.0,16.6,7.6,-9.0,1024,1024,1024,1024,0,0,0,0,93,5.201,58.64,164.698168,P-GPS,,50.2
900,90000,2026-01-11 17:19:13,0.0,5,7.689,0.0,0.0,0.0,16.6,7.4,-9.2,1024,1024,1024,1024,0,0,0,0,92,4.905,58.82,164.698168,P-GPS,,50.2
901,90100,2026-01-11 17:19:13,0.0,5,7.689,0.0,0.0,0.0,16.6,7.5,-9.0,1024,1024,1024,1024,0,0,0,0,92,4.905,58.82,164.698168,P-GPS,,50.2
902,90200,2026-01-11 17:19:13,0.0,5,7.689,0.0,0.0,0.0,16.5,7.7,-9.3,1024,1024,1024,1024,0,0,0,0,92,4.905,58.82,164.698168,P-GPS,,50.2
903,90300,2026-01-11 17:19:13,0.0,5,7.689,0.0,0.0,0.0,16.6,7.8,-9.7,1024,1024,1024,1024,0,0,0,0,92,4.905,58.82,164.698168,P-GPS,,50.2
904,90400,2026-01-11 17:19:13,0.0,5,7.689,0.0,0.0,0.0,16.7,7.7,-9.8,1024,1024,1024,1024,0,0,0,0,92,4.905,58.82,164.698168,P-GPS,,50.2
905,90500,2026-01-11 17:19:13,0.0,5,7.689,0.0,0.0,0.0,16.6,8.3,-10.1,1024,1024,1024,1024,0,0,0,0,92,4.905,58.82,164.698168,P-GPS,,50.2
906,90600,2026-01-11 17:19:14,0.0,5,7.689,0.0,0.0,0.0,16.6,8.2,-10.3,1024,1024,1024,1024,0,0,0,0,92,4.905,58.82,164.698168,P-GPS,,50.2
907,90700,2026-01-11 17:19:14,0.0,5,7.689,0.0,0.0,0.0,16.6,8.7,-10.4,1024,1024,1024,1024,0,0,0,0,92,4.905,58.82,164.698168,P-GPS,,50.2
908,90800,2026-01-11 17:19:14,0.0,5,7.689,0.0,0.0,0.0,16.5,9.3,-10.3,1024,1024,1024,1024,0,0,0,0,92,4.905,58.82,164.698168,P-GPS,,50.2
909,90900,2026-01-11 17:19:14,0.0,5,7.689,0.0,0.0,0.0,16.4,9.5,-10.1,1024,1024,1024,1024,0,0,0,0,92,4.905,58.82,164.698168,P-GPS,,50.2
910,91000,2026-01-11 17:19:14,0.0,5,7.689,0.0,0.0,0.0,16.4,9.1,-9.5,1024,1024,1024,1024,0,0,0,0,92,4.905,58.82,164.698168,P-GPS,,50.2
911,91100,2026-01-11 17:19:14,0.0,5,7.715,0.0,0.0,0.0,16.3,9.3,-9.2,1024,1024,1024,1024,0,0,0,0,92,4.615,58.82,164.698168,P-GPS,,50.2
912,91200,2026-01-11 17:19:14,0.0,5,7.715,0.0,0.0,0.0,16.3,8.9,-8.9,1024,1024,1024,1024,0,0,0,0,92,4.615,58.82,164.698168,P-GPS,,50.2
913,91300,2026-01-11 17:19:14,0.0,5,7.715,0.0,0.0,0.0,16.4,8.6,-8.7,1024,1024,1024,1024,0,0,0,0,92,4.615,58.82,164.698168,P-GPS,,50.2
914,91400,2026-01-11 17:19:14,0.0,5,7.715,0.0,0.0,0.0,16.5,8.2,-8.7,1024,1024,1024,1024,0,0,0,0,92,4.615,58.82,164.698168,P-GPS,,50.2
915,91500,2026-01-11 17:19:14,0.0,5,7.715,0.0,0.0,0.0,16.4,8.2,-8.8,1024,1024,1024,1024,0,0,0,0,92,4.615,58.82,164.698168,P-GPS,,50.2
916,91600,2026-01-11 17:19:15,0.0,5,7.715,0.0,0.0,0.0,16.5,7.8,-8.8,1024,1024,1024,1024,0,0,0,0,92,4.615,58.82,164.370084,P-GPS,,50.1
917,91700,2026-01-11 17:19:15,0.0,5,7.715,0.0,0.0,0.0,16.5,7.8,-8.9,1024,1024,1024,1024,0,0,0,0,92,4.615,58.82,164.370084,P-GPS,,50.1
918,91800,2026-01-11 17:19:15,0.0,5,7.715,0.0,0.0,0.0,16.6,7.3,-9.0,1024,1024,1024,1024,0,0,0,0,92,4.615,58.82,164.370084,P-GPS,,50.1
919,91900,2026-01-11 17:19:15,0.0,5,7.715,0.0,0.0,0.0,16.6,6.9,-8.7,1024,1024,1024,1024,0,0,0,0,92,4.615,58.82,164.370084,P-GPS,,50.1
920,92000,2026-01-11 17:19:15,0.0,5,7.715,0.0,0.0,0.0,16.6,6.8,-9.0,1024,1024,1024,1024,0,0,0,0,92,4.615,58.82,164.370084,P-GPS,,50.1
921,92100,2026-01-11 17:19:15,0.0,5,7.715,0.0,0.0,0.0,16.6,6.8,-8.7,1024,1024,1024,1024,0,0,0,0,92,4.615,58.82,164.370084,P-GPS,,50.1
922,92200,2026-01-11 17:19:15,0.0,5,7.709,0.0,0.0,0.0,16.6,6.9,-8.4,1024,1024,1024,1024,0,0,0,0,92,4.707,58.82,164.370084,P-GPS,,50.1
923,92300,2026-01-11 17:19:15,0.0,5,7.709,0.0,0.0,0.0,16.6,7.1,-8.5,1024,1024,1024,1024,0,0,0,0,92,4.707,58.82,164.370084,P-GPS,,50.1
924,92400,2026-01-11 17:19:15,0.0,5,7.709,0.0,0.0,0.0,16.6,7.3,-8.5,1024,1024,1024,1024,0,0,0,0,92,4.707,58.82,164.370084,P-GPS,,50.1
925,92500,2026-01-11 17:19:16,0.0,5,7.709,0.0,0.0,0.0,16.5,7.6,-8.5,1024,1024,1024,1024,0,0,0,0,92,4.707,58.82,164.370084,P-GPS,,50.1
926,92600,2026-01-11 17:19:16,0.0,5,7.709,0.0,0.0,0.0,16.6,7.3,-8.5,1024,1024,1024,1024,0,0,0,0,92,4.707,58.82,164.370084,P-GPS,,50.1
927,92700,2026-01-11 17:19:16,0.0,5,7.709,0.0,0.0,0.0,16.5,7.8,-8.5,1024,1024,1024,1024,0,0,0,0,92,4.707,58.82,164.370084,P-GPS,,50.1
928,92800,2026-01-11 17:19:16,0.0,5,7.709,0.0,0.0,0.0,16.6,7.5,-8.6,1024,1024,1024,1024,0,0,0,0,92,4.707,58.82,164.370084,P-GPS,,50.1
929,92900,2026-01-11 17:19:16,0.0,5,7.709,0.0,0.0,0.0,16.6,8.0,-8.7,1024,1024,1024,1024,0,0,0,0,92,4.707,58.82,164.370084,P-GPS,,50.1
930,93000,2026-01-11 17:19:16,0.0,5,7.709,0.0,0.0,0.0,16.7,7.7,-8.5,1024,1024,1024,1024,0,0,0,0,92,4.707,58.82,164.370084,P-GPS,,50.1
931,93100,2026-01-11 17:19:16,0.0,5,7.709,0.0,0.0,0.0,16.6,8.0,-8.4,1024,1024,1024,1024,0,0,0,0,92,4.707,58.82,164.370084,P-GPS,,50.1
932,93200,2026-01-11 17:19:16,0.0,5,7.709,0.0,0.0,0.0,16.6,7.9,-8.0,1024,1024,1024,1024,0,0,0,0,92,4.707,58.82,164.370084,P-GPS,,50.1
933,93300,2026-01-11 17:19:16,0.0,5,7.684,0.0,0.0,0.0,16.5,7.8,-8.2,1024,1024,1024,1024,0,0,0,0,92,4.824,58.82,164.370084,P-GPS,,50.1
934,93400,2026-01-11 17:19:16,0.0,5,7.684,0.0,0.0,0.0,16.4,7.9,-8.1,1024,1024,1024,1024,0,0,0,0,92,4.824,58.82,164.370084,P-GPS,,50.1
935,93500,2026-01-11 17:19:16,0.0,5,7.684,0.0,0.0,0.0,16.4,7.9,-8.0,1024,1024,1024,1024,0,0,0,0,92,4.824,58.82,164.370084,P-GPS,,50.1
936,93600,2026-01-11 17:19:17,0.0,5,7.684,0.0,0.0,0.0,16.5,7.6,-7.9,1024,1024,1024,1024,0,0,0,0,92,4.824,58.82,164.042,P-GPS,,50.0
937,93700,2026-01-11 17:19:17,0.0,5,7.684,0.0,0.0,0.0,16.5,7.4,-7.8,1024,1024,1024,1024,0,0,0,0,92,4.824,58.82,164.042,P-GPS,,50.0
938,93800,2026-01-11 17:19:17,0.0,5,7.684,0.0,0.0,0.0,16.6,7.3,-7.7,1024,1024,1024,1024,0,0,0,0,92,4.824,58.82,164.042,P-GPS,,50.0
939,93900,2026-01-11 17:19:17,0.0,5,7.684,0.0,0.0,0.0,16.5,7.4,-7.6,1024,1024,1024,1024,0,0,0,0,92,4.824,58.82,164.042,P-GPS,,50.0
940,94000,2026-01-11 17:19:17,0.0,5,7.684,0.0,0.0,0.0,16.5,7.4,-7.8,1024,1024,1024,1024,0,0,0,0,92,4.824,58.82,164.042,P-GPS,,50.0
941,94100,2026-01-11 17:19:17,0.0,5,7.684,0.0,0.0,0.0,16.5,7.5,-8.0,1024,1024,1024,1024,0,0,0,0,92,4.824,58.82,164.042,P-GPS,,50.0
942,94200,2026-01-11 17:19:17,0.0,5,7.684,0.0,0.0,0.0,16.5,7.4,-7.8,1024,1024,1024,1024,0,0,0,0,92,4.824,58.82,164.042,P-GPS,,50.0
943,94300,2026-01-11 17:19:17,0.0,5,7.684,0.0,0.0,0.0,16.5,7.8,-7.9,1024,1024,1024,1024,0,0,0,0,92,4.824,58.82,164.042,P-GPS,,50.0
944,94400,2026-01-11 17:19:17,0.0,5,7.71,0.0,0.0,0.0,16.5,7.9,-8.1,1024,1024,1024,1024,0,0,0,0,92,4.631,58.82,164.370084,P-GPS,,50.1
945,94500,2026-01-11 17:19:18,0.0,5,7.71,0.0,0.0,0.0,16.5,8.1,-7.9,1024,1024,1024,1024,0,0,0,0,92,4.631,58.82,164.370084,P-GPS,,50.1
946,94600,2026-01-11 17:19:18,0.0,5,7.71,0.0,0.0,0.0,16.4,8.2,-8.1,1024,1024,1024,1024,0,0,0,0,92,4.631,58.82,164.370084,P-GPS,,50.1
947,94700,2026-01-11 17:19:18,0.0,5,7.71,0.0,0.0,0.0,16.5,7.9,-7.8,1024,1024,1024,1024,0,0,0,0,92,4.631,58.82,164.370084,P-GPS,,50.1
948,94800,2026-01-11 17:19:18,0.0,5,7.71,0.0,0.0,0.0,16.6,7.4,-7.7,1024,1024,1024,1024,0,0,0,0,92,4.631,58.82,164.042,P-GPS,,50.0
949,94900,2026-01-11 17:19:18,0.0,5,7.71,0.0,0.0,0.0,16.6,7.2,-8.1,1024,1024,1024,1024,0,0,0,0,92,4.631,58.82,164.370084,P-GPS,,50.1
950,95000,2026-01-11 17:19:18,0.0,5,7.71,0.0,0.0,0.0,16.6,7.4,-8.3,1024,1024,1024,1024,0,0,0,0,92,4.631,58.82,164.370084,P-GPS,,50.1
951,95100,2026-01-11 17:19:18,0.0,5,7.71,0.0,0.0,0.0,16.5,7.7,-8.4,1024,1024,1024,1024,0,0,0,0,92,4.631,58.82,164.370084,P-GPS,,50.1
952,95200,2026-01-11 17:19:18,0.0,5,7.71,0.0,0.0,0.0,16.4,7.9,-8.2,1024,1024,1024,1024,0,0,0,0,92,4.631,58.82,164.370084,P-GPS,,50.1
953,95300,2026-01-11 17:19:18,0.0,5,7.71,0.0,0.0,0.0,16.5,7.6,-8.0,1024,1024,1024,1024,0,0,0,0,92,4.631,58.82,164.042,P-GPS,,50.0
954,95400,2026-01-11 17:19:18,0.0,5,7.71,0.0,0.0,0.0,16.6,7.3,-7.9,1024,1024,1024,1024,0,0,0,0,92,4.631,58.82,164.042,P-GPS,,50.0
955,95500,2026-01-11 17:19:18,0.0,5,7.71,0.0,0.0,0.0,16.6,7.2,-7.7,1024,1024,1024,1024,0,0,0,0,92,4.631,58.82,164.042,P-GPS,,50.0
956,95600,2026-01-11 17:19:19,0.0,5,7.71,0.0,0.0,0.0,16.6,7.1,-7.7,1024,1024,1024,1024,0,0,0,0,92,4.631,58.82,164.042,P-GPS,,50.0
957,95700,2026-01-11 17:19:19,0.0,5,7.71,0.0,0.0,0.0,16.6,7.0,-7.9,1024,1024,1024,1024,0,0,0,0,92,4.631,58.82,164.042,P-GPS,,50.0
958,95800,2026-01-11 17:19:19,0.0,5,7.71,0.0,0.0,0.0,16.6,7.1,-8.1,1024,1024,1024,1024,0,0,0,0,92,4.631,58.82,164.370084,P-GPS,,50.1
959,95900,2026-01-11 17:19:19,0.0,5,7.71,0.0,0.0,0.0,16.6,7.0,-8.2,1024,1024,1024,1024,0,0,0,0,92,4.631,58.82,164.370084,P-GPS,,50.1
960,96000,2026-01-11 17:19:19,0.0,5,7.71,0.0,0.0,0.0,16.6,6.9,-8.2,1024,1024,1024,1024,0,0,0,0,92,4.631,58.82,164.370084,P-GPS,SD card speed low SD card speed low. Normal use may be affected. Replace SD card (Code: 10028). Gimbal stuck. Make sure gimbal cover is removed and manually check whether gimbal can rotate freely (Code: 40002),50.1
961,96100,2026-01-11 17:19:19,0.0,5,7.71,0.0,0.0,0.0,16.7,6.3,-8.6,1024,1024,1024,1024,0,0,0,0,92,4.631,58.82,164.370084,P-GPS,,50.1
962,96200,2026-01-11 17:19:19,0.0,5,7.71,0.0,0.0,0.0,16.7,6.4,-8.7,1024,1024,1024,1024,0,0,0,0,92,4.631,58.82,164.370084,P-GPS,,50.1
963,96300,2026-01-11 17:19:19,0.0,5,7.71,0.0,0.0,0.0,16.6,6.6,-8.7,1024,1024,1024,1024,0,0,0,0,92,4.631,58.82,164.370084,P-GPS,,50.1
964,96400,2026-01-11 17:19:19,0.0,5,7.71,0.0,0.0,0.0,16.7,6.7,-8.6,1024,1024,1024,1024,0,0,0,0,92,4.631,58.82,164.370084,P-GPS,,50.1
965,96500,2026-01-11 17:19:20,0.0,5,7.71,0.0,0.0,0.0,16.7,6.6,-8.6,1024,1024,1024,1024,0,0,0,0,92,4.631,58.82,164.370084,P-GPS,,50.1
966,96600,2026-01-11 17:19:20,0.0,5,7.722,0.0,0.0,0.0,16.6,6.9,-8.9,1024,1024,1024,1024,0,0,0,0,92,4.411,58.82,164.370084,P-GPS,,50.1
967,96700,2026-01-11 17:19:20,0.0,5,7.722,0.0,0.0,0.0,16.6,7.0,-8.7,1024,1024,1024,1024,0,0,0,0,92,4.411,58.82,164.370084,P-GPS,,50.1
968,96800,2026-01-11 17:19:20,0.0,5,7.722,0.0,0.0,0.0,16.7,6.9,-8.7,1024,1024,1024,1024,0,0,0,0,92,4.411,58.82,164.370084,P-GPS,,50.1
969,96900,2026-01-11 17:19:20,0.0,5,7.722,0.0,0.0,0.0,16.6,7.0,-8.3,1024,1024,1024,1024,0,0,0,0,92,4.411,58.82,164.370084,P-GPS,,50.1
970,97000,2026-01-11 17:19:20,0.0,5,7.722,0.0,0.0,0.0,16.7,6.7,-8.5,1024,1024,1024,1024,0,0,0,0,92,4.411,58.82,164.370084,P-GPS,,50.1
971,97100,2026-01-11 17:19:20,0.0,5,7.722,0.0,0.0,0.0,16.9,5.7,-8.5,1024,1024,1024,1024,0,0,0,0,92,4.411,58.82,164.370084,P-GPS,,50.1
972,97200,2026-01-11 17:19:20,0.0,5,7.722,0.0,0.0,0.0,16.8,6.2,-8.7,1024,1024,1024,1024,0,0,0,0,92,4.411,58.82,164.370084,P-GPS,,50.1
973,97300,2026-01-11 17:19:20,0.0,5,7.722,0.0,0.0,0.0,16.7,6.7,-8.6,1024,1024,1024,1024,0,0,0,0,92,4.411,58.82,164.698168,P-GPS,,50.2
974,97400,2026-01-11 17:19:20,0.0,5,7.722,0.0,0.0,0.0,16.7,6.9,-8.4,1024,1024,1024,1024,0,0,0,0,92,4.411,58.82,164.698168,P-GPS,,50.2
975,97500,2026-01-11 17:19:20,0.0,5,7.722,0.0,0.0,0.0,16.6,7.3,-8.6,1024,1024,1024,1024,0,0,0,0,92,4.411,58.82,164.698168,P-GPS,,50.2
976,97600,2026-01-11 17:19:21,0.0,5,7.722,0.0,0.0,0.0,16.6,7.5,-8.5,1024,1024,1024,1024,0,0,0,0,92,4.411,58.82,164.698168,P-GPS,,50.2
977,97700,2026-01-11 17:19:21,0.0,5,7.722,0.0,0.0,0.0,16.6,7.4,-8.5,1024,1024,1024,1024,0,0,0,0,92,4.411,58.82,164.698168,P-GPS,,50.2
978,97800,2026-01-11 17:19:21,0.0,5,7.722,0.0,0.0,0.0,16.7,7.5,-8.7,1024,1024,1024,1024,0,0,0,0,92,4.411,58.82,164.698168,P-GPS,,50.2
979,97900,2026-01-11 17:19:21,0.0,5,7.722,0.0,0.0,0.0,16.7,7.5,-9.3,1024,1024,1024,1024,0,0,0,0,92,4.411,58.82,164.698168,P-GPS,,50.2
980,98000,2026-01-11 17:19:21,0.0,5,7.722,0.0,0.0,0.0,16.6,7.9,-9.2,1024,1024,1024,1024,0,0,0,0,92,4.411,58.82,165.026252,P-GPS,,50.3
981,98100,2026-01-11 17:19:21,0.0,5,7.722,0.0,0.0,0.0,16.7,7.7,-8.9,1024,1024,1024,1024,0,0,0,0,92,4.411,58.82,165.026252,P-GPS,,50.3
982,98200,2026-01-11 17:19:21,0.0,5,7.722,0.0,0.0,0.0,16.7,7.7,-8.8,1024,1024,1024,1024,0,0,0,0,92,4.411,58.82,165.026252,P-GPS,,50.3
983,98300,2026-01-11 17:19:21,0.0,5,7.722,0.0,0.0,0.0,16.7,7.4,-8.4,1024,1024,1024,1024,0,0,0,0,92,4.411,58.82,165.026252,P-GPS,,50.3
984,98400,2026-01-11 17:19:21,0.0,5,7.722,0.0,0.0,0.0,16.7,7.6,-8.4,1024,1024,1024,1024,0,0,0,0,92,4.411,58.82,165.026252,P-GPS,,50.3
985,98500,2026-01-11 17:19:21,0.0,5,7.723,0.0,0.0,0.0,16.6,8.1,-8.2,1024,1024,1024,1024,0,0,0,0,92,4.61,58.82,165.026252,P-GPS,,50.3
986,98600,2026-01-11 17:19:22,0.0,5,7.723,0.0,0.0,0.0,16.6,7.9,-8.5,1024,1024,1024,1024,0,0,0,0,92,4.61,58.82,165.026252,P-GPS,,50.3
987,98700,2026-01-11 17:19:22,0.0,5,7.723,0.0,0.0,0.0,16.6,7.9,-8.3,1024,1024,1024,1024,0,0,0,0,92,4.61,58.82,165.026252,P-GPS,,50.3
988,98800,2026-01-11 17:19:22,0.0,5,7.723,0.0,0.0,0.0,16.7,8.3,-8.4,1024,1024,1024,1024,0,0,0,0,92,4.61,58.82,165.026252,P-GPS,,50.3
989,98900,2026-01-11 17:19:22,0.0,5,7.723,0.0,0.0,0.0,16.6,8.3,-8.2,1024,1024,1024,1024,0,0,0,0,92,4.61,58.82,165.026252,P-GPS,,50.3
990,99000,2026-01-11 17:19:22,0.0,5,7.723,0.0,0.0,0.0,16.7,7.4,-8.3,1024,1024,1024,1024,0,0,0,0,92,4.61,58.82,165.026252,P-GPS,,50.3
991,99100,2026-01-11 17:19:22,0.0,5,7.723,0.0,0.0,0.0,16.7,7.6,-8.4,1024,1024,1024,1024,0,0,0,0,92,4.61,58.82,165.026252,P-GPS,,50.3
992,99200,2026-01-11 17:19:22,0.0,5,7.723,0.0,0.0,0.0,16.7,7.3,-8.2,1024,1024,1024,1024,0,0,0,0,92,4.61,58.82,165.026252,P-GPS,,50.3
993,99300,2026-01-11 17:19:22,0.0,5,7.723,0.0,0.0,0.0,16.7,7.5,-8.0,1024,1024,1024,1024,0,0,0,0,92,4.61,58.82,165.026252,P-GPS,,50.3
994,99400,2026-01-11 17:19:22,0.0,5,7.723,0.0,0.0,0.0,16.6,8.0,-7.6,1024,1024,1024,1024,0,0,0,0,92,4.61,58.82,165.026252,P-GPS,,50.3
995,99500,2026-01-11 17:19:22,0.0,5,7.739,0.0,0.0,0.0,16.5,8.0,-7.7,1024,1024,1024,1024,0,0,0,0,92,4.488,58.82,165.026252,P-GPS,,50.3
996,99600,2026-01-11 17:19:23,0.0,5,7.739,0.0,0.0,0.0,16.7,7.2,-7.6,1024,1024,1024,1024,0,0,0,0,92,4.488,58.82,164.698168,P-GPS,,50.2
997,99700,2026-01-11 17:19:23,0.0,5,7.739,0.0,0.0,0.0,16.8,6.7,-7.4,1024,1024,1024,1024,0,0,0,0,92,4.488,58.82,164.698168,P-GPS,,50.2
998,99800,2026-01-11 17:19:23,0.0,5,7.739,0.0,0.0,0.0,16.7,6.5,-7.6,1024,1024,1024,1024,0,0,0,0,92,4.488,58.82,165.026252,P-GPS,,50.3
999,99900,2026-01-11 17:19:23,0.0,5,7.739,0.0,0.0,0.0,16.6,7.6,-8.5,1024,1024,1024,1024,0,0,0,0,92,4.488,58.82,165.026252,P-GPS,,50.3
1000,100000,2026-01-11 17:19:23,0.0,5,7.739,0.0,0.0,0.0,16.5,7.4,-9.0,1024,1024,1024,1024,0,0,0,0,92,4.488,58.82,165.026252,P-GPS,,50.3
1001,100100,2026-01-11 17:19:23,0.0,5,7.739,0.0,0.0,0.0,16.5,6.6,-9.5,1024,1024,1024,1024,0,0,0,0,92,4.488,58.82,164.698168,P-GPS,,50.2
1002,100200,2026-01-11 17:19:23,0.0,5,7.739,0.0,0.0,0.0,16.6,5.4,-9.7,1024,1024,1024,1024,0,0,0,0,92,4.488,58.82,164.698168,P-GPS,,50.2
1003,100300,2026-01-11 17:19:23,0.0,5,7.739,0.0,0.0,0.0,16.6,5.4,-10.2,1024,1024,1024,1024,0,0,0,0,92,4.488,58.82,164.698168,P-GPS,,50.2
1004,100400,2026-01-11 17:19:23,0.0,5,7.739,0.0,0.0,0.0,16.5,6.2,-9.8,1024,1024,1024,1024,0,0,0,0,92,4.488,58.82,164.698168,P-GPS,,50.2
1005,100500,2026-01-11 17:19:24,0.0,5,7.733,0.0,0.0,0.0,16.5,6.3,-9.1,1024,1024,1024,1024,0,0,0,0,92,4.379,58.82,164.370084,P-GPS,,50.1
1006,100600,2026-01-11 17:19:24,0.0,5,7.733,0.0,0.0,0.0,16.6,5.9,-9.1,1024,1024,1024,1024,0,0,0,0,92,4.379,58.82,164.370084,P-GPS,,50.1
1007,100700,2026-01-11 17:19:24,0.0,5,7.733,0.0,0.0,0.0,16.6,5.6,-9.8,1024,1024,1024,1024,0,0,0,0,92,4.379,58.82,164.370084,P-GPS,,50.1
1008,100800,2026-01-11 17:19:24,0.0,5,7.733,0.0,0.0,0.0,16.8,4.9,-10.1,1024,1024,1024,1024,0,0,0,0,92,4.379,58.82,164.370084,P-GPS,,50.1
1009,100900,2026-01-11 17:19:24,0.0,5,7.733,0.0,0.0,0.0,16.8,4.8,-10.7,1024,1024,1024,1024,0,0,0,0,92,4.379,58.82,164.698168,P-GPS,,50.2
1010,101000,2026-01-11 17:19:24,0.0,5,7.733,0.0,0.0,0.0,16.8,4.9,-11.0,1024,1024,1024,1024,0,0,0,0,92,4.379,58.82,164.698168,P-GPS,,50.2
1011,101100,2026-01-11 17:19:24,0.0,5,7.733,0.0,0.0,0.0,16.8,4.9,-11.1,1024,1024,1024,1024,0,0,0,0,92,4.379,58.82,164.698168,P-GPS,,50.2
1012,101200,2026-01-11 17:19:24,0.0,5,7.733,0.0,0.0,0.0,16.7,5.7,-11.0,1024,1024,1024,1024,0,0,0,0,92,4.379,58.82,164.698168,P-GPS,,50.2
1013,101300,2026-01-11 17:19:24,0.0,5,7.733,0.0,0.0,0.0,16.5,7.1,-9.9,1024,1024,1024,1024,0,0,0,0,92,4.379,58.82,164.698168,P-GPS,,50.2
1014,101400,2026-01-11 17:19:24,0.0,5,7.733,0.0,0.0,0.0,16.5,7.1,-9.3,1024,1024,1024,1024,0,0,0,0,92,4.379,58.82,164.698168,P-GPS,,50.2
