index,time(millisecond),timestamp,speed(mph),gpslevel,voltage(v),xSpeed(mph),ySpeed(mph),zSpeed(mph),compass_heading(degrees),pitch(degrees),roll(degrees),rc_elevator,rc_aileron,rc_throttle,rc_rudder,rc_elevator(percent),rc_aileron(percent),rc_throttle(percent),rc_rudder(percent),battery_percent,current(A),battery_temperature(f),ascent(feet),flycState,message,height_above_takeoff(meters)
782,541200,2026-01-13 17:42:10,0.223694,5,7.268,-0.223694,0.0,0.0,37.5,11.1,-7.6,1024,1024,1024,1024,0,0,0,0,60,7.242,75.2,162.073496,P-GPS,,49.4
783,541300,2026-01-13 17:42:10,0.223694,5,7.268,-0.223694,0.0,0.0,37.6,10.4,-7.5,1024,1024,1024,1024,0,0,0,0,60,7.242,75.2,162.073496,P-GPS,,49.4
784,541400,2026-01-13 17:42:10,0.223694,5,7.388,-0.223694,0.0,0.0,37.6,10.1,-7.4,1024,1024,1024,1024,0,0,0,0,60,4.05,75.2,161.745412,P-GPS,,49.3
785,541500,2026-01-13 17:42:10,0.223694,5,7.388,-0.223694,0.0,0.0,37.6,9.8,-7.3,1024,1024,1024,1024,0,0,0,0,60,4.05,75.2,161.745412,P-GPS,,49.3
786,541600,2026-01-13 17:42:10,0.0,5,7.388,0.0,0.0,0.0,37.8,8.4,-7.1,1024,1024,1024,1024,0,0,0,0,60,4.05,75.2,161.417328,P-GPS,,49.2
787,541700,2026-01-13 17:42:10,0.0,5,7.388,0.0,0.0,0.0,37.7,9.0,-6.8,1024,1024,1024,1024,0,0,0,0,60,4.05,75.2,161.417328,P-GPS,,49.2
788,541800,2026-01-13 17:42:10,0.0,5,7.388,0.0,0.0,0.0,37.7,8.9,-6.4,1024,1024,1024,1024,0,0,0,0,60,4.05,75.2,161.417328,P-GPS,,49.2
789,541900,2026-01-13 17:42:10,0.0,5,7.388,0.0,0.0,0.0,37.7,9.5,-5.9,1024,1024,1024,1024,0,0,0,0,60,4.05,75.2,161.089244,P-GPS,,49.1
790,542000,2026-01-13 17:42:11,0.0,5,7.388,0.0,0.0,0.0,37.7,9.9,-5.6,1024,1024,1024,1024,0,0,0,0,60,4.05,75.2,161.089244,P-GPS,,49.1
791,542100,2026-01-13 17:42:11,0.0,5,7.388,0.0,0.0,0.0,37.8,9.9,-4.8,1024,1024,1024,1024,0,0,0,0,60,4.05,75.2,160.76116,P-GPS,,49.0
792,542200,2026-01-13 17:42:11,0.0,5,7.388,0.0,0.0,0.0,37.8,9.2,-4.3,1024,1024,1024,1024,0,0,0,0,60,4.05,75.2,160.76116,P-GPS,,49.0
793,542300,2026-01-13 17:42:11,0.0,5,7.388,0.0,0.0,0.0,37.8,10.0,-4.0,1024,1024,1024,1024,0,0,0,0,60,4.05,75.2,160.433076,P-GPS,,48.9
794,542400,2026-01-13 17:42:11,0.0,5,7.388,0.0,0.0,0.0,37.8,10.3,-3.8,1024,1024,1024,1024,0,0,0,0,60,4.05,75.2,160.433076,P-GPS,,48.9
795,542500,2026-01-13 17:42:11,0.0,5,7.397,0.0,0.0,0.0,37.8,10.3,-4.2,1024,1024,1024,1024,0,0,0,0,60,4.135,75.2,160.433076,P-GPS,,48.9
796,542600,2026-01-13 17:42:11,0.0,5,7.397,0.0,0.0,0.0,37.8,10.0,-4.1,1024,1024,1024,1024,0,0,0,0,60,4.135,75.2,160.433076,P-GPS,,48.9
797,542700,2026-01-13 17:42:11,0.0,5,7.397,0.0,0.0,0.0,37.8,10.2,-4.4,1024,1024,1024,1024,0,0,0,0,60,4.135,75.2,160.433076,P-GPS,,48.9
798,542800,2026-01-13 17:42:11,0.0,5,7.397,0.0,0.0,0.0,37.9,9.0,-4.0,1024,1024,1024,1024,0,0,0,0,60,4.135,75.2,160.433076,P-GPS,,48.9
799,542900,2026-01-13 17:42:11,0.0,5,7.397,0.0,0.0,0.0,37.9,9.4,-4.6,1024,1024,1024,1024,0,0,0,0,60,4.135,75.2,160.433076,P-GPS,,48.9
800,543000,2026-01-13 17:42:11,0.0,5,7.397,0.0,0.0,0.0,37.8,9.6,-5.0,1024,1024,1024,1024,0,0,0,0,60,4.135,75.2,160.433076,P-GPS,,48.9
801,543100,2026-01-13 17:42:12,0.0,5,7.397,0.0,0.0,0.0,37.8,9.8,-5.0,1024,1024,1024,1024,0,0,0,0,60,4.135,75.2,160.433076,P-GPS,,48.9
802,543200,2026-01-13 17:42:12,0.0,5,7.397,0.0,0.0,-0.223694,37.8,10.2,-5.0,1024,1024,1024,1024,0,0,0,0,60,4.135,75.2,160.433076,P-GPS,,48.9
803,543300,2026-01-13 17:42:12,0.0,5,7.397,0.0,0.0,0.0,37.7,10.6,-5.0,1024,1024,1024,1024,0,0,0,0,60,4.135,75.2,160.433076,P-GPS,,48.9
804,543400,2026-01-13 17:42:12,0.0,5,7.397,0.0,0.0,0.0,37.7,11.0,-5.1,1024,1024,1024,1024,0,0,0,0,60,4.135,75.2,160.433076,P-GPS,,48.9
805,543500,2026-01-13 17:42:12,0.0,5,7.397,0.0,0.0,0.0,37.7,10.8,-5.3,1024,1024,1024,1024,0,0,0,0,60,4.135,75.2,160.433076,P-GPS,,48.9
806,543600,2026-01-13 17:42:12,0.0,5,7.399,0.0,0.0,0.0,37.5,11.1,-5.2,1024,1024,1024,1024,0,0,0,0,60,4.213,75.2,160.76116,P-GPS,,49.0
807,543700,2026-01-13 17:42:12,0.0,5,7.399,0.0,0.0,0.0,37.6,10.5,-5.6,1024,1024,1024,1024,0,0,0,0,60,4.213,75.2,160.76116,P-GPS,,49.0
808,543800,2026-01-13 17:42:12,0.0,5,7.399,0.0,0.0,0.0,37.6,10.4,-6.6,1024,1024,1024,1024,0,0,0,0,60,4.213,75.2,161.089244,P-GPS,,49.1
809,543900,2026-01-13 17:42:12,0.0,5,7.399,0.0,0.0,0.0,37.7,9.4,-7.0,1024,1024,1024,1024,0,0,0,0,60,4.213,75.2,161.089244,P-GPS,,49.1
810,544000,2026-01-13 17:42:13,0.0,5,7.399,0.0,0.0,0.0,37.7,9.6,-6.7,1024,1024,1024,1024,0,0,0,0,60,4.213,75.2,161.089244,P-GPS,,49.1
811,544100,2026-01-13 17:42:13,0.0,5,7.399,0.0,0.0,0.0,37.5,9.3,-7.0,1024,1024,1024,1024,0,0,0,0,60,4.213,75.2,161.089244,P-GPS,,49.1
812,544200,2026-01-13 17:42:13,0.0,5,7.399,0.0,0.0,0.0,37.5,9.1,-7.3,1024,1024,1024,1024,0,0,0,0,60,4.213,75.2,161.417328,P-GPS,,49.2
813,544300,2026-01-13 17:42:13,0.0,5,7.399,0.0,0.0,0.0,37.6,8.8,-7.4,1024,1024,1024,1024,0,0,0,0,60,4.213,75.2,161.417328,P-GPS,,49.2
814,544400,2026-01-13 17:42:13,0.0,5,7.399,0.0,0.0,0.0,37.6,8.9,-7.7,1024,1024,1024,1024,0,0,0,0,60,4.213,75.2,161.745412,P-GPS,,49.3
815,544500,2026-01-13 17:42:13,0.223694,5,7.399,0.0,0.223694,0.0,37.5,9.6,-7.5,1024,1024,1024,1024,0,0,0,0,60,4.213,75.2,161.745412,P-GPS,,49.3
816,544600,2026-01-13 17:42:13,0.223694,5,7.399,0.0,0.223694,0.0,37.4,9.9,-8.1,1024,1024,1024,1024,0,0,0,0,60,4.213,75.2,161.745412,P-GPS,,49.3
817,544700,2026-01-13 17:42:13,0.223694,5,7.399,0.0,0.223694,0.0,37.2,11.2,-9.2,1024,1024,1024,1024,0,0,0,0,60,4.213,75.2,162.073496,P-GPS,,49.4
818,544800,2026-01-13 17:42:13,0.223694,5,7.399,0.0,0.223694,0.223694,37.3,10.8,-9.1,1024,1024,1024,1024,0,0,0,0,60,4.213,75.2,162.073496,P-GPS,,49.4
819,544900,2026-01-13 17:42:13,0.0,5,7.399,0.0,0.0,0.0,37.3,10.4,-8.3,1024,1024,1024,1024,0,0,0,0,60,4.213,75.2,162.073496,P-GPS,,49.4
820,545000,2026-01-13 17:42:14,0.0,5,7.399,0.0,0.0,0.0,37.5,9.8,-8.3,1024,1024,1024,1024,0,0,0,0,60,4.213,75.2,162.073496,P-GPS,,49.4
821,545100,2026-01-13 17:42:14,0.0,5,7.399,0.0,0.0,0.0,37.5,10.0,-8.2,1024,1024,1024,1024,0,0,0,0,60,4.213,75.2,162.40158,P-GPS,,49.5
822,545200,2026-01-13 17:42:14,0.0,5,7.399,0.0,0.0,0.0,37.6,9.6,-8.1,1024,1024,1024,1024,0,0,0,0,60,4.213,75.2,162.073496,P-GPS,,49.4
823,545300,2026-01-13 17:42:14,0.0,5,7.399,0.0,0.0,0.0,37.6,9.3,-7.4,1024,1024,1024,1024,0,0,0,0,60,4.213,75.2,162.073496,P-GPS,,49.4
824,545400,2026-01-13 17:42:14,0.0,5,7.399,0.0,0.0,0.0,37.6,9.0,-7.0,1024,1024,1024,1024,0,0,0,0,60,4.213,75.2,162.073496,P-GPS,,49.4
825,545500,2026-01-13 17:42:14,0.0,5,7.399,0.0,0.0,0.0,37.5,9.4,-6.6,1024,1024,1024,1024,0,0,0,0,60,4.213,75.2,161.745412,P-GPS,,49.3
826,545600,2026-01-13 17:42:14,0.0,5,7.399,0.0,0.0,0.0,37.6,9.6,-6.7,1024,1024,1024,1024,0,0,0,0,60,4.213,75.2,161.745412,P-GPS,,49.3
827,545700,2026-01-13 17:42:14,0.0,5,7.399,0.0,0.0,0.223694,37.7,9.8,-6.6,1024,1024,1024,1024,0,0,0,0,60,4.213,75.2,161.745412,P-GPS,,49.3
828,545800,2026-01-13 17:42:14,0.0,5,7.402,0.0,0.0,0.223694,37.6,10.2,-6.0,1024,1024,1024,1024,0,0,0,0,60,4.463,75.2,161.417328,P-GPS,,49.2
829,545900,2026-01-13 17:42:14,0.0,5,7.402,0.0,0.0,0.223694,37.6,9.5,-6.1,1024,1024,1024,1024,0,0,0,0,60,4.463,75.2,161.417328,P-GPS,,49.2
830,546000,2026-01-13 17:42:15,0.0,5,7.402,0.0,0.0,0.223694,37.7,9.0,-6.0,1024,1024,1024,1024,0,0,0,0,60,4.463,75.2,161.417328,P-GPS,,49.2
831,546100,2026-01-13 17:42:15,0.0,5,7.402,0.0,0.0,0.223694,37.7,9.0,-6.1,1024,1024,1024,1024,0,0,0,0,60,4.463,75.2,161.745412,P-GPS,,49.3
832,546200,2026-01-13 17:42:15,0.0,5,7.402,0.0,0.0,0.0,37.6,9.1,-6.0,1024,1024,1024,1024,0,0,0,0,60,4.463,75.2,161.745412,P-GPS,,49.3
833,546300,2026-01-13 17:42:15,0.0,5,7.402,0.0,0.0,0.0,37.8,8.5,-5.5,1024,1024,1024,1024,0,0,0,0,60,4.463,75.2,161.745412,P-GPS,,49.3
834,546400,2026-01-13 17:42:15,0.0,5,7.402,0.0,0.0,0.0,37.8,8.8,-5.5,1024,1024,1024,1024,0,0,0,0,60,4.463,75.2,161.745412,P-GPS,,49.3
835,546500,2026-01-13 17:42:15,0.0,5,7.402,0.0,0.0,0.0,37.7,8.3,-6.5,1024,1024,1024,1024,0,0,0,0,60,4.463,75.2,162.073496,P-GPS,,49.4
836,546600,2026-01-13 17:42:15,0.0,5,7.402,0.0,0.0,0.0,37.7,8.4,-6.4,1024,1024,1024,1024,0,0,0,0,60,4.463,75.2,162.073496,P-GPS,,49.4
837,546700,2026-01-13 17:42:15,0.0,5,7.402,0.0,0.0,0.0,37.7,8.8,-6.2,1024,1024,1024,1024,0,0,0,0,60,4.463,75.2,162.073496,P-GPS,,49.4
838,546800,2026-01-13 17:42:15,0.0,5,7.402,0.0,0.0,0.0,37.8,8.3,-6.3,1024,1024,1024,1024,0,0,0,0,60,4.463,75.2,162.073496,P-GPS,,49.4
839,546900,2026-01-13 17:42:15,0.0,5,7.359,0.0,0.0,0.0,37.8,7.7,-4.9,1024,1024,1024,1024,0,0,0,0,60,5.05,75.2,162.073496,P-GPS,,49.4
840,547000,2026-01-13 17:42:15,0.0,5,7.359,0.0,0.0,0.0,37.7,6.5,-4.1,1024,1024,1024,1024,0,0,0,0,60,5.05,75.2,162.073496,P-GPS,,49.4
841,547100,2026-01-13 17:42:16,0.0,5,7.359,0.0,0.0,-0.223694,37.5,7.7,-4.3,1024,1024,1024,1024,0,0,0,0,60,5.05,75.2,161.745412,P-GPS,,49.3
842,547200,2026-01-13 17:42:16,0.0,5,7.359,0.0,0.0,0.0,37.6,7.2,-5.6,1024,1024,1024,1024,0,0,0,0,60,5.05,75.2,161.745412,P-GPS,,49.3
843,547300,2026-01-13 17:42:16,0.0,5,7.359,0.0,0.0,0.0,37.6,7.8,-6.1,1024,1024,1024,1024,0,0,0,0,60,5.05,75.2,161.745412,P-GPS,,49.3
844,547400,2026-01-13 17:42:16,0.0,5,7.359,0.0,0.0,0.0,37.6,7.8,-5.9,1024,1024,1024,1024,0,0,0,0,60,5.05,75.2,161.745412,P-GPS,,49.3
845,547500,2026-01-13 17:42:16,0.0,5,7.359,0.0,0.0,0.223694,37.6,8.0,-5.5,1024,1024,1024,1024,0,0,0,0,60,5.05,75.2,161.745412,P-GPS,,49.3
846,547600,2026-01-13 17:42:16,0.0,5,7.359,0.0,0.0,0.0,37.7,7.9,-6.3,1024,1024,1024,1024,0,0,0,0,60,5.05,75.2,161.745412,P-GPS,,49.3
847,547700,2026-01-13 17:42:16,0.0,5,7.359,0.0,0.0,0.0,37.8,8.2,-6.5,1024,1024,1024,1024,0,0,0,0,60,5.05,75.2,161.745412,P-GPS,,49.3
848,547800,2026-01-13 17:42:16,0.0,5,7.359,0.0,0.0,0.0,37.8,9.0,-6.1,1024,1024,1024,1024,0,0,0,0,60,5.05,75.2,161.745412,P-GPS,,49.3
849,547900,2026-01-13 17:42:16,0.0,5,7.359,0.0,0.0,0.0,37.8,8.7,-6.2,1024,1024,1024,1024,0,0,0,0,60,5.05,75.2,161.745412,P-GPS,,49.3
850,548000,2026-01-13 17:42:17,0.0,5,7.399,0.0,0.0,0.0,37.8,8.2,-6.6,1024,1024,1024,1024,0,0,0,0,60,3.839,75.2,161.745412,P-GPS,,49.3
851,548100,2026-01-13 17:42:17,0.0,5,7.399,0.0,0.0,0.0,37.9,8.1,-6.5,1024,1024,1024,1024,0,0,0,0,60,3.839,75.2,161.745412,P-GPS,,49.3
852,548200,2026-01-13 17:42:17,0.0,5,7.399,0.0,0.0,0.0,37.9,8.4,-6.3,1024,1024,1024,1024,0,0,0,0,60,3.839,75.2,161.745412,P-GPS,,49.3
853,548300,2026-01-13 17:42:17,0.0,5,7.399,0.0,0.0,0.0,37.8,8.9,-6.7,1024,1024,1024,1024,0,0,0,0,60,3.839,75.2,161.745412,P-GPS,,49.3
854,548400,2026-01-13 17:42:17,0.0,5,7.399,0.0,0.0,0.0,37.7,9.1,-6.7,1024,1024,1024,1024,0,0,0,0,60,3.839,75.2,161.745412,P-GPS,,49.3
855,548500,2026-01-13 17:42:17,0.0,5,7.399,0.0,0.0,0.0,37.7,9.1,-6.7,1024,1024,1024,1024,0,0,0,0,60,3.839,75.2,161.745412,P-GPS,,49.3
856,548600,2026-01-13 17:42:17,0.0,5,7.399,0.0,0.0,0.0,37.6,8.9,-6.9,1024,1024,1024,1024,0,0,0,0,60,3.839,75.2,161.745412,P-GPS,,49.3
857,548700,2026-01-13 17:42:17,0.0,5,7.399,0.0,0.0,0.0,37.7,8.0,-6.8,1024,1024,1024,1024,0,0,0,0,60,3.839,75.2,162.073496,P-GPS,,49.4
858,548800,2026-01-13 17:42:17,0.0,5,7.399,0.0,0.0,0.0,37.8,7.8,-6.5,1024,1024,1024,1024,0,0,0,0,60,3.839,75.2,162.073496,P-GPS,,49.4
859,548900,2026-01-13 17:42:17,0.0,5,7.399,0.0,0.0,0.0,37.9,7.8,-6.7,1024,1024,1024,1024,0,0,0,0,60,3.839,75.2,162.073496,P-GPS,,49.4
860,549000,2026-01-13 17:42:18,0.0,5,7.399,0.0,0.0,0.0,37.8,8.5,-6.5,1024,1024,1024,1024,0,0,0,0,60,3.839,75.2,162.073496,P-GPS,,49.4
861,549100,2026-01-13 17:42:18,0.0,5,7.406,0.0,0.0,0.0,37.9,8.2,-6.1,1024,1024,1024,1024,0,0,0,0,60,4.011,75.2,161.745412,P-GPS,,49.3
862,549200,2026-01-13 17:42:18,0.0,5,7.406,0.0,0.0,0.0,38.0,8.1,-5.8,1024,1024,1024,1024,0,0,0,0,60,4.011,75.2,161.745412,P-GPS,SD card speed low SD card speed low. Normal use may be affected. Replace SD card (Code: 10028). Gimbal stuck. Make sure gimbal cover is removed and manually check whether gimbal can rotate freely (Code: 40002),49.3
863,549300,2026-01-13 17:42:18,0.0,5,7.406,0.0,0.0,0.0,37.9,8.9,-5.9,1024,1024,1024,1024,0,0,0,0,60,4.011,75.2,161.745412,P-GPS,,49.3
864,549400,2026-01-13 17:42:18,0.0,5,7.406,0.0,0.0,0.0,37.9,8.7,-5.3,1024,1024,1024,1024,0,0,0,0,60,4.011,75.2,161.745412,P-GPS,,49.3
865,549500,2026-01-13 17:42:18,0.0,5,7.406,0.0,0.0,0.0,37.8,8.3,-5.6,1024,1024,1024,1024,0,0,0,0,60,4.011,75.2,161.417328,P-GPS,,49.2
866,549600,2026-01-13 17:42:18,0.0,5,7.406,0.0,0.0,0.0,37.6,8.5,-5.3,1024,1024,1024,1024,0,0,0,0,60,4.011,75.2,161.417328,P-GPS,,49.2
867,549700,2026-01-13 17:42:18,0.0,5,7.406,0.0,0.0,0.0,37.5,8.1,-5.4,1024,1024,1024,1024,0,0,0,0,60,4.011,75.2,161.417328,P-GPS,,49.2
868,549800,2026-01-13 17:42:18,0.0,5,7.406,0.0,0.0,0.0,37.6,7.6,-6.0,1024,1024,1024,1024,0,0,0,0,60,4.011,75.2,161.417328,P-GPS,,49.2
869,549900,2026-01-13 17:42:18,0.0,5,7.406,0.0,0.0,0.0,37.8,7.5,-5.4,1024,1024,1024,1024,0,0,0,0,60,4.011,75.2,161.417328,P-GPS,,49.2
870,550000,2026-01-13 17:42:19,0.0,5,7.406,0.0,0.0,0.0,37.7,8.1,-4.9,1024,1024,1024,1024,0,0,0,0,60,4.011,75.2,161.089244,P-GPS,,49.1
871,550100,2026-01-13 17:42:19,0.0,5,7.406,0.0,0.0,0.0,37.7,8.3,-4.7,1024,1024,1024,1024,0,0,0,0,60,4.011,75.2,161.089244,P-GPS,,49.1
872,550200,2026-01-13 17:42:19,0.0,5,7.427,0.0,0.0,0.0,37.7,8.8,-4.5,1024,1024,1024,1024,0,0,0,0,60,3.766,75.2,161.089244,P-GPS,,49.1
873,550300,2026-01-13 17:42:19,0.0,5,7.427,0.0,0.0,0.0,37.7,8.1,-4.0,1024,1024,1024,1024,0,0,0,0,60,3.766,75.2,161.089244,P-GPS,,49.1
874,550400,2026-01-13 17:42:19,0.0,5,7.427,0.0,0.0,0.0,37.7,7.5,-4.1,1024,1024,1024,1024,0,0,0,0,60,3.766,75.2,161.089244,P-GPS,,49.1
875,550500,2026-01-13 17:42:19,0.0,5,7.427,0.0,0.0,0.0,37.8,6.8,-4.2,1024,1024,1024,1024,0,0,0,0,60,3.766,75.2,161.089244,P-GPS,,49.1
876,550600,2026-01-13 17:42:19,0.0,5,7.427,0.0,0.0,0.0,37.8,7.6,-4.3,1024,1024,1024,1024,0,0,0,0,60,3.766,75.2,161.089244,P-GPS,,49.1
877,550700,2026-01-13 17:42:19,0.0,5,7.427,0.0,0.0,0.0,37.9,8.2,-4.4,1024,1024,1024,1024,0,0,0,0,60,3.766,75.2,161.089244,P-GPS,,49.1
878,550800,2026-01-13 17:42:19,0.0,5,7.427,0.0,0.0,0.0,38.0,8.0,-4.5,1024,1024,1024,1024,0,0,0,0,60,3.766,75.2,161.089244,P-GPS,,49.1
879,550900,2026-01-13 17:42:19,0.0,5,7.427,0.0,0.0,0.0,38.0,7.0,-4.2,1024,1024,1024,1024,0,0,0,0,60,3.766,75.2,161.089244,P-GPS,,49.1
880,551000,2026-01-13 17:42:20,0.0,5,7.427,0.0,0.0,-0.223694,37.8,7.1,-4.7,1024,1024,1024,1024,0,0,0,0,60,3.766,75.2,161.089244,P-GPS,,49.1
881,551100,2026-01-13 17:42:20,0.0,5,7.427,0.0,0.0,-0.223694,37.6,8.1,-5.4,1024,1024,1024,1024,0,0,0,0,60,3.766,75.2,161.417328,P-GPS,,49.2
882,551200,2026-01-13 17:42:20,0.0,5,7.427,0.0,0.0,-0.223694,37.8,6.8,-5.8,1024,1024,1024,1024,0,0,0,0,60,3.766,75.2,161.417328,P-GPS,,49.2
883,551300,2026-01-13 17:42:20,0.0,5,7.423,0.0,0.0,-0.223694,37.9,8.2,-5.3,1024,1024,1024,1024,0,0,0,0,60,3.924,75.2,161.417328,P-GPS,,49.2
884,551400,2026-01-13 17:42:20,0.0,5,7.423,0.0,0.0,0.0,37.8,9.3,-5.3,1024,1024,1024,1024,0,0,0,0,60,3.924,75.2,161.417328,P-GPS,,49.2
885,551500,2026-01-13 17:42:20,0.0,5,7.423,0.0,0.0,0.0,37.8,9.1,-5.2,1024,1024,1024,1024,0,0,0,0,60,3.924,75.2,161.417328,P-GPS,,49.2
886,551600,2026-01-13 17:42:20,0.0,5,7.423,0.0,0.0,0.0,37.7,9.7,-4.6,1024,1024,1024,1024,0,0,0,0,60,3.924,75.2,161.417328,P-GPS,,49.2
887,551700,2026-01-13 17:42:20,0.0,5,7.423,0.0,0.0,0.0,37.8,9.9,-4.5,1024,1024,1024,1024,0,0,0,0,60,3.924,75.2,161.417328,P-GPS,,49.2
888,551800,2026-01-13 17:42:20,0.223694,5,7.423,0.0,0.223694,0.0,37.8,10.5,-5.0,1024,1024,1024,1024,0,0,0,0,60,3.924,75.2,161.417328,P-GPS,,49.2
889,551900,2026-01-13 17:42:20,0.223694,5,7.423,0.0,0.223694,0.0,37.7,10.6,-5.0,1024,1024,1024,1024,0,0,0,0,60,3.924,75.2,161.417328,P-GPS,,49.2
890,552000,2026-01-13 17:42:21,0.223694,5,7.423,0.0,0.223694,0.0,37.8,9.7,-5.4,1024,1024,1024,1024,0,0,0,0,60,3.924,75.2,161.417328,P-GPS,,49.2
891,552100,2026-01-13 17:42:21,0.223694,5,7.423,0.0,0.223694,-0.223694,37.7,10.3,-5.9,1024,1024,1024,1024,0,0,0,0,60,3.924,75.2,161.417328,P-GPS,,49.2
892,552200,2026-01-13 17:42:21,0.223694,5,7.423,0.0,0.223694,0.0,37.6,11.3,-5.8,1024,1024,1024,1024,0,0,0,0,60,3.924,75.2,161.417328,P-GPS,,49.2
893,552300,2026-01-13 17:42:21,0.223694,5,7.423,0.0,0.223694,0.0,37.5,12.3,-5.8,1024,1024,1024,1024,0,0,0,0,60,3.924,75.2,161.417328,P-GPS,,49.2
894,552400,2026-01-13 17:42:21,0.223694,5,7.419,0.0,0.223694,0.0,37.5,12.8,-6.0,1024,1024,1024,1024,0,0,0,0,60,3.819,75.2,161.417328,P-GPS,,49.2
895,552500,2026-01-13 17:42:21,0.223694,5,7.419,0.0,0.223694,0.223694,37.7,11.5,-5.7,1024,1024,1024,1024,0,0,0,0,60,3.819,75.2,161.417328,P-GPS,,49.2
896,552600,2026-01-13 17:42:21,0.223694,5,7.419,0.0,0.223694,0.0,37.7,11.7,-5.8,1024,1024,1024,1024,0,0,0,0,60,3.819,75.2,161.417328,P-GPS,,49.2
897,552700,2026-01-13 17:42:21,0.223694,5,7.419,0.0,0.223694,0.0,37.5,12.9,-6.5,1024,1024,1024,1024,0,0,0,0,60,3.819,75.2,161.745412,P-GPS,,49.3
898,552800,2026-01-13 17:42:21,0.3131716,5,7.419,0.223694,0.223694,0.0,37.5,13.7,-6.0,1024,1024,1024,1024,0,0,0,0,60,3.819,75.2,161.745412,P-GPS,,49.3
899,552900,2026-01-13 17:42:21,0.3131716,5,7.419,0.223694,0.223694,0.0,37.4,14.3,-6.0,1024,1024,1024,1024,0,0,0,0,60,3.819,75.2,161.745412,P-GPS,,49.3
900,553000,2026-01-13 17:42:21,0.3131716,5,7.419,0.223694,0.223694,0.223694,37.1,15.8,-6.9,1024,1024,1024,1024,0,0,0,0,60,3.819,75.2,161.745412,P-GPS,,49.3
901,553100,2026-01-13 17:42:22,0.3131716,5,7.419,0.223694,0.223694,0.223694,37.5,14.8,-5.5,1024,1024,1024,1024,0,0,0,0,60,3.819,75.2,161.745412,P-GPS,,49.3
902,553200,2026-01-13 17:42:22,0.223694,5,7.419,0.223694,0.0,0.0,37.4,15.1,-4.9,1024,1024,1024,1024,0,0,0,0,60,3.819,75.2,162.073496,P-GPS,,49.4
903,553300,2026-01-13 17:42:22,0.223694,5,7.419,0.223694,0.0,0.0,37.5,15.0,-4.3,1024,1024,1024,1024,0,0,0,0,60,3.819,75.2,162.073496,P-GPS,,49.4
904,553400,2026-01-13 17:42:22,0.3131716,5,7.419,0.223694,0.223694,0.0,37.4,16.2,-4.8,1024,1024,1024,1024,0,0,0,0,60,3.819,75.2,162.073496,P-GPS,,49.4
905,553500,2026-01-13 17:42:22,0.3131716,5,7.348,0.223694,0.223694,0.0,37.2,16.5,-5.1,1024,1024,1024,1024,0,0,0,0,60,5.153,75.2,162.40158,P-GPS,,49.5
906,553600,2026-01-13 17:42:22,0.223694,5,7.348,0.0,0.223694,0.0,37.2,16.6,-6.1,1024,1024,1024,1024,0,0,0,0,60,5.153,75.2,162.40158,P-GPS,,49.5
907,553700,2026-01-13 17:42:22,0.223694,5,7.348,0.0,0.223694,0.0,37.3,16.4,-6.4,1024,1024,1024,1024,0,0,0,0,60,5.153,75.2,162.40158,P-GPS,,49.5
908,553800,2026-01-13 17:42:22,0.223694,5,7.348,0.0,0.223694,0.223694,37.3,16.6,-6.9,1024,1024,1024,1024,0,0,0,0,60,5.153,75.2,162.729664,P-GPS,,49.6
909,553900,2026-01-13 17:42:22,0.223694,5,7.348,0.0,0.223694,0.223694,37.2,17.4,-7.0,1024,1024,1024,1024,0,0,0,0,60,5.153,75.2,162.729664,P-GPS,,49.6
910,554000,2026-01-13 17:42:23,0.447388,5,7.348,0.0,0.447388,0.223694,37.2,18.0,-8.4,1024,1024,1024,1024,0,0,0,0,60,5.153,75.2,163.057748,P-GPS,,49.7
911,554100,2026-01-13 17:42:23,0.447388,5,7.348,0.0,0.447388,0.223694,36.8,18.8,-9.3,1024,1024,1024,1024,0,0,0,0,60,5.153,75.2,163.385832,P-GPS,,49.8
912,554200,2026-01-13 17:42:23,0.447388,5,7.348,0.0,0.447388,0.223694,36.8,18.4,-9.3,1024,1024,1024,1024,0,0,0,0,60,5.153,75.2,163.385832,P-GPS,,49.8
913,554300,2026-01-13 17:42:23,0.447388,5,7.348,0.0,0.447388,0.0,36.7,17.7,-9.8,1024,1024,1024,1024,0,0,0,0,60,5.153,75.2,163.713916,P-GPS,,49.9
914,554400,2026-01-13 17:42:23,0.447388,5,7.348,0.0,0.447388,-0.223694,36.7,17.1,-10.9,1024,1024,1024,1024,0,0,0,0,60,5.153,75.2,163.713916,P-GPS,,49.9
915,554500,2026-01-13 17:42:23,0.447388,5,7.348,0.0,0.447388,0.0,36.7,16.4,-11.2,1024,1024,1024,1024,0,0,0,0,60,5.153,75.2,164.042,P-GPS,,50.0
916,554600,2026-01-13 17:42:23,0.447388,5,7.266,0.0,0.447388,0.0,36.6,16.0,-11.7,1024,1024,1024,1024,0,0,0,0,59,6.408,75.2,164.042,P-GPS,,50.0
917,554700,2026-01-13 17:42:23,0.223694,5,7.266,0.0,0.223694,0.0,36.7,16.3,-12.2,1024,1024,1024,1024,0,0,0,0,59,6.408,75.2,163.713916,P-GPS,,49.9
918,554800,2026-01-13 17:42:23,0.223694,5,7.266,0.0,0.223694,0.0,36.6,16.2,-10.8,1024,1024,1024,1024,0,0,0,0,59,6.408,75.2,163.713916,P-GPS,,49.9
919,554900,2026-01-13 17:42:23,0.0,5,7.266,0.0,0.0,0.0,36.7,16.1,-10.9,1024,1024,1024,1024,0,0,0,0,59,6.408,75.2,163.385832,P-GPS,,49.8
920,555000,2026-01-13 17:42:24,0.0,5,7.266,0.0,0.0,0.447388,36.4,16.8,-10.0,1024,1024,1024,1024,0,0,0,0,59,6.408,75.2,163.385832,P-GPS,,49.8
921,555100,2026-01-13 17:42:24,0.0,5,7.266,0.0,0.0,0.223694,36.5,16.9,-9.3,1024,1024,1024,1024,0,0,0,0,59,6.408,75.2,163.057748,P-GPS,,49.7
922,555200,2026-01-13 17:42:24,0.0,5,7.266,0.0,0.0,0.223694,36.7,16.3,-8.5,1024,1024,1024,1024,0,0,0,0,59,6.408,75.2,162.729664,P-GPS,,49.6
923,555300,2026-01-13 17:42:24,0.0,5,7.266,0.0,0.0,0.223694,36.7,16.5,-8.1,1024,1024,1024,1024,0,0,0,0,59,6.408,75.2,162.40158,P-GPS,,49.5
924,555400,2026-01-13 17:42:24,0.0,5,7.266,0.0,0.0,0.223694,36.8,16.6,-7.7,1024,1024,1024,1024,0,0,0,0,59,6.408,75.2,162.073496,P-GPS,,49.4
925,555500,2026-01-13 17:42:24,0.0,5,7.266,0.0,0.0,0.223694,37.0,16.4,-7.3,1024,1024,1024,1024,0,0,0,0,59,6.408,75.2,162.073496,P-GPS,,49.4
926,555600,2026-01-13 17:42:24,0.0,5,7.266,0.0,0.0,0.223694,37.0,15.9,-7.1,1024,1024,1024,1024,0,0,0,0,59,6.408,75.2,161.745412,P-GPS,,49.3
927,555700,2026-01-13 17:42:24,0.0,5,7.266,0.0,0.0,0.223694,37.1,15.8,-6.8,1024,1024,1024,1024,0,0,0,0,59,6.408,75.2,161.417328,P-GPS,,49.2
928,555800,2026-01-13 17:42:24,0.0,5,7.266,0.0,0.0,0.0,37.2,15.8,-6.2,1024,1024,1024,1024,0,0,0,0,59,6.408,75.2,161.417328,P-GPS,,49.2
929,555900,2026-01-13 17:42:24,0.0,5,7.266,0.0,0.0,0.0,37.2,15.8,-6.1,1024,1024,1024,1024,0,0,0,0,59,6.408,75.2,161.089244,P-GPS,,49.1
930,556000,2026-01-13 17:42:25,0.0,5,7.266,0.0,0.0,0.0,37.2,15.9,-6.0,1024,1024,1024,1024,0,0,0,0,59,6.408,75.2,161.089244,P-GPS,,49.1
931,556100,2026-01-13 17:42:25,0.0,5,7.266,0.0,0.0,0.0,37.1,16.1,-5.4,1024,1024,1024,1024,0,0,0,0,59,6.408,75.2,161.089244,P-GPS,,49.1
932,556200,2026-01-13 17:42:25,0.0,5,7.266,0.0,0.0,0.0,37.2,15.9,-5.8,1024,1024,1024,1024,0,0,0,0,59,6.408,75.2,161.089244,P-GPS,,49.1
933,556300,2026-01-13 17:42:25,0.0,5,7.266,0.0,0.0,0.0,37.3,15.7,-6.0,1024,1024,1024,1024,0,0,0,0,59,6.408,75.2,161.089244,P-GPS,,49.1
934,556400,2026-01-13 17:42:25,0.0,5,7.266,0.0,0.0,0.0,37.3,15.3,-6.1,1024,1024,1024,1024,0,0,0,0,59,6.408,75.2,161.089244,P-GPS,,49.1
935,556500,2026-01-13 17:42:25,0.0,5,7.266,0.0,0.0,0.0,37.3,15.3,-6.0,1024,1024,1024,1024,0,0,0,0,59,6.408,75.2,161.089244,P-GPS,,49.1
936,556600,2026-01-13 17:42:25,0.0,5,7.266,0.0,0.0,0.0,37.3,15.1,-5.9,1024,1024,1024,1024,0,0,0,0,59,6.408,75.2,160.76116,P-GPS,,49.0
937,556700,2026-01-13 17:42:25,0.0,5,7.266,0.0,0.0,0.0,37.3,14.7,-6.1,1024,1024,1024,1024,0,0,0,0,59,6.408,75.2,160.76116,P-GPS,,49.0
938,556800,2026-01-13 17:42:25,0.0,5,7.311,0.0,0.0,-0.223694,37.3,14.8,-5.7,1024,1024,1024,1024,0,0,0,0,59,6.22,75.38,160.76116,P-GPS,,49.0
939,556900,2026-01-13 17:42:25,0.0,5,7.311,0.0,0.0,0.0,37.3,14.8,-5.2,1024,1024,1024,1024,0,0,0,0,59,6.22,75.38,160.76116,P-GPS,,49.0
940,557000,2026-01-13 17:42:26,0.0,5,7.311,0.0,0.0,-0.223694,37.5,13.9,-4.8,1024,1024,1024,1024,0,0,0,0,59,6.22,75.38,160.433076,P-GPS,,48.9
941,557100,2026-01-13 17:42:26,0.0,5,7.311,0.0,0.0,-0.223694,37.6,12.7,-4.8,1024,1024,1024,1024,0,0,0,0,59,6.22,75.38,160.433076,P-GPS,,48.9
942,557200,2026-01-13 17:42:26,0.0,5,7.311,0.0,0.0,-0.223694,37.7,12.5,-5.3,1024,1024,1024,1024,0,0,0,0,59,6.22,75.38,160.104992,P-GPS,,48.8
943,557300,2026-01-13 17:42:26,0.0,5,7.311,0.0,0.0,0.0,37.6,13.0,-6.1,1024,1024,1024,1024,0,0,0,0,59,6.22,75.38,160.104992,P-GPS,,48.8
944,557400,2026-01-13 17:42:26,0.0,5,7.311,0.0,0.0,0.0,37.5,13.5,-6.6,1024,1024,1024,1024,0,0,0,0,59,6.22,75.38,160.104992,P-GPS,,48.8
945,557500,2026-01-13 17:42:26,0.0,5,7.311,0.0,0.0,0.0,37.4,13.5,-6.9,1024,1024,1024,1024,0,0,0,0,59,6.22,75.38,160.104992,P-GPS,,48.8
946,557600,2026-01-13 17:42:26,0.223694,5,7.311,-0.223694,0.0,0.0,37.3,13.5,-7.4,1024,1024,1024,1024,0,0,0,0,59,6.22,75.38,160.104992,P-GPS,,48.8
947,557700,2026-01-13 17:42:26,0.0,5,7.311,0.0,0.0,0.0,37.4,12.9,-7.8,1024,1024,1024,1024,0,0,0,0,59,6.22,75.38,160.104992,P-GPS,,48.8
948,557800,2026-01-13 17:42:26,0.0,5,7.311,0.0,0.0,0.0,37.2,14.0,-8.3,1024,1024,1024,1024,0,0,0,0,59,6.22,75.38,160.104992,P-GPS,,48.8
949,557900,2026-01-13 17:42:26,0.0,5,7.354,0.0,0.0,0.0,37.1,14.6,-9.2,1024,1024,1024,1024,0,0,0,0,59,4.922,75.38,160.104992,P-GPS,,48.8
950,558000,2026-01-13 17:42:27,0.223694,5,7.354,0.0,0.223694,0.0,37.2,13.9,-9.8,1024,1024,1024,1024,0,0,0,0,59,4.922,75.38,160.104992,P-GPS,,48.8
951,558100,2026-01-13 17:42:27,0.223694,5,7.354,0.0,0.0,0.0,37.0,14.7,-9.8,1024,1024,1024,1024,0,0,0,0,59,4.922,75.38,160.433076,P-GPS,,48.9
952,558200,2026-01-13 17:42:27,0.0,5,7.354,0.0,0.0,0.0,37.1,15.0,-9.6,1024,1024,1024,1024,0,0,0,0,59,4.922,75.38,160.433076,P-GPS,,48.9
953,558300,2026-01-13 17:42:27,0.0,5,7.354,0.0,0.0,0.0,37.2,14.8,-8.8,1024,1024,1024,1024,0,0,0,0,59,4.922,75.38,160.76116,P-GPS,,49.0
954,558400,2026-01-13 17:42:27,0.0,5,7.354,0.0,0.0,0.0,37.5,13.9,-7.0,1024,1024,1024,1024,0,0,0,0,59,4.922,75.38,160.76116,P-GPS,,49.0
955,558500,2026-01-13 17:42:27,0.0,5,7.354,0.0,0.0,-0.447388,37.6,13.0,-6.4,1024,1024,1024,1024,0,0,0,0,59,4.922,75.38,160.76116,P-GPS,,49.0
956,558600,2026-01-13 17:42:27,0.0,5,7.354,0.0,0.0,-0.447388,37.5,14.3,-7.8,1024,1024,1024,1024,0,0,0,0,59,4.922,75.38,160.76116,P-GPS,,49.0
957,558700,2026-01-13 17:42:27,0.0,5,7.354,0.0,0.0,0.0,37.1,14.8,-8.8,1024,1024,1024,1024,0,0,0,0,59,4.922,75.38,161.089244,P-GPS,,49.1
958,558800,2026-01-13 17:42:27,0.0,5,7.354,0.0,0.0,0.0,36.9,15.6,-8.8,1024,1024,1024,1024,0,0,0,0,59,4.922,75.38,161.089244,P-GPS,,49.1
959,558900,2026-01-13 17:42:27,0.0,5,7.354,0.0,0.0,0.223694,36.8,16.3,-9.4,1024,1024,1024,1024,0,0,0,0,59,4.922,75.38,161.089244,P-GPS,,49.1
960,559000,2026-01-13 17:42:28,0.0,5,7.313,0.0,0.0,0.223694,37.0,15.9,-8.2,1024,1024,1024,1024,0,0,0,0,59,5.942,75.38,161.089244,P-GPS,,49.1
961,559100,2026-01-13 17:42:28,0.0,5,7.313,0.0,0.0,0.0,37.1,15.8,-8.5,1024,1024,1024,1024,0,0,0,0,59,5.942,75.38,161.089244,P-GPS,,49.1
962,559200,2026-01-13 17:42:28,0.0,5,7.313,0.0,0.0,0.223694,37.3,14.7,-8.4,1024,1024,1024,1024,0,0,0,0,59,5.942,75.38,161.089244,P-GPS,,49.1
963,559300,2026-01-13 17:42:28,0.0,5,7.313,0.0,0.0,0.0,37.3,14.5,-8.0,1024,1024,1024,1024,0,0,0,0,59,5.942,75.38,161.089244,P-GPS,,49.1
964,559400,2026-01-13 17:42:28,0.0,5,7.313,0.0,0.0,0.0,37.2,14.9,-8.1,1024,1024,1024,1024,0,0,0,0,59,5.942,75.38,161.089244,P-GPS,,49.1
965,559500,2026-01-13 17:42:28,0.0,5,7.313,0.0,0.0,0.0,37.0,15.3,-8.1,1024,1024,1024,1024,0,0,0,0,59,5.942,75.38,161.089244,P-GPS,,49.1
966,559600,2026-01-13 17:42:28,0.0,5,7.313,0.0,0.0,0.0,37.0,15.1,-7.8,1024,1024,1024,1024,0,0,0,0,59,5.942,75.38,161.089244,P-GPS,,49.1
967,559700,2026-01-13 17:42:28,0.0,5,7.313,0.0,0.0,-0.223694,37.2,14.4,-7.6,1024,1024,1024,1024,0,0,0,0,59,5.942,75.38,161.089244,P-GPS,,49.1
968,559800,2026-01-13 17:42:28,0.0,5,7.313,0.0,0.0,-0.223694,37.4,14.0,-7.5,1024,1024,1024,1024,0,0,0,0,59,5.942,75.38,161.089244,P-GPS,,49.1
969,559900,2026-01-13 17:42:28,0.0,5,7.313,0.0,0.0,-0.223694,37.3,14.3,-7.8,1024,1024,1024,1024,0,0,0,0,59,5.942,75.38,160.76116,P-GPS,,49.0
970,560000,2026-01-13 17:42:28,0.0,5,7.313,0.0,0.0,0.0,37.3,14.8,-8.2,1024,1024,1024,1024,0,0,0,0,59,5.942,75.38,160.76116,P-GPS,,49.0
971,560100,2026-01-13 17:42:29,0.0,5,7.364,0.0,0.0,0.0,37.4,14.6,-7.8,1024,1024,1024,1024,0,0,0,0,59,5.612,75.38,160.76116,P-GPS,,49.0
972,560200,2026-01-13 17:42:29,0.0,5,7.364,0.0,0.0,0.0,37.4,14.7,-7.3,1024,1024,1024,1024,0,0,0,0,59,5.612,75.38,160.433076,P-GPS,Strong wind warning Strong wind warning. Aircraft unable to return to home automatically. Lower altitude immediately and return to home manually (Code: 30149). SD card speed low. Normal use may be affected. Replace SD card (Code: 10028). Gimbal stuck. Make sure gimbal c,48.9
973,560300,2026-01-13 17:42:29,0.0,5,7.364,0.0,0.0,0.0,37.4,14.7,-6.9,1024,1024,1024,1024,0,0,0,0,59,5.612,75.38,160.433076,P-GPS,,48.9
974,560400,2026-01-13 17:42:29,0.0,5,7.364,0.0,0.0,0.0,37.2,15.3,-6.4,1024,1024,1024,1024,0,0,0,0,59,5.612,75.38,160.104992,P-GPS,,48.8
975,560500,2026-01-13 17:42:29,0.0,5,7.364,0.0,0.0,0.223694,37.1,15.9,-6.3,1024,1024,1024,1024,0,0,0,0,59,5.612,75.38,160.104992,P-GPS,,48.8
976,560600,2026-01-13 17:42:29,0.0,5,7.364,0.0,0.0,0.223694,37.2,16.1,-6.6,1024,1024,1024,1024,0,0,0,0,59,5.612,75.38,160.104992,P-GPS,,48.8
977,560700,2026-01-13 17:42:29,0.0,5,7.364,0.0,0.0,0.223694,37.4,15.7,-5.7,1024,1024,1024,1024,0,0,0,0,59,5.612,75.38,160.104992,P-GPS,,48.8
978,560800,2026-01-13 17:42:29,0.0,5,7.364,0.0,0.0,0.0,37.4,15.7,-5.5,1024,1024,1024,1024,0,0,0,0,59,5.612,75.38,160.104992,P-GPS,,48.8
979,560900,2026-01-13 17:42:29,0.0,5,7.364,0.0,0.0,0.0,37.4,16.1,-5.4,1024,1024,1024,1024,0,0,0,0,59,5.612,75.38,160.104992,P-GPS,,48.8
980,561000,2026-01-13 17:42:30,0.0,5,7.364,0.0,0.0,0.0,37.3,16.6,-5.7,1024,1024,1024,1024,0,0,0,0,59,5.612,75.38,160.104992,P-GPS,,48.8
981,561100,2026-01-13 17:42:30,0.0,5,7.364,0.0,0.0,0.0,37.2,17.1,-6.2,1024,1024,1024,1024,0,0,0,0,59,5.612,75.38,160.433076,P-GPS,,48.9
982,561200,2026-01-13 17:42:30,0.0,5,7.301,0.0,0.0,-0.223694,37.1,16.7,-6.4,1024,1024,1024,1024,0,0,0,0,59,6.0,75.38,160.433076,P-GPS,,48.9
983,561300,2026-01-13 17:42:30,0.0,5,7.301,0.0,0.0,-0.223694,37.1,16.4,-6.7,1024,1024,1024,1024,0,0,0,0,59,6.0,75.38,160.433076,P-GPS,,48.9
984,561400,2026-01-13 17:42:30,0.0,5,7.301,0.0,0.0,-0.223694,37.1,16.4,-6.9,1024,1024,1024,1024,0,0,0,0,59,6.0,75.38,160.76116,P-GPS,,49.0
985,561500,2026-01-13 17:42:30,0.0,5,7.301,0.0,0.0,-0.223694,37.1,16.3,-6.6,1024,1024,1024,1024,0,0,0,0,59,6.0,75.38,160.76116,P-GPS,,49.0
986,561700,2026-01-13 17:42:31,0.0,5,7.301,0.0,0.0,0.0,37.0,17.5,-7.2,1024,1024,1024,1024,0,0,0,0,59,6.0,75.38,160.76116,P-GPS,,49.0
987,561900,2026-01-13 17:42:31,0.0,5,7.301,0.0,0.0,0.0,37.0,17.4,-7.5,1024,1024,1024,1024,0,0,0,0,59,6.0,75.38,160.76116,P-GPS,,49.0
988,562000,2026-01-13 17:42:31,0.0,5,7.301,0.0,0.0,0.0,37.0,17.8,-7.1,1024,1024,1024,1024,0,0,0,0,59,6.0,75.38,160.76116,P-GPS,,49.0
989,562100,2026-01-13 17:42:31,0.0,5,7.301,0.0,0.0,0.223694,37.3,17.3,-6.9,1024,1024,1024,1024,0,0,0,0,59,6.0,75.38,160.76116,P-GPS,,49.0
990,562200,2026-01-13 17:42:31,0.0,5,7.301,0.0,0.0,0.0,37.4,16.4,-6.5,1024,1024,1024,1024,0,0,0,0,59,6.0,75.38,160.76116,P-GPS,,49.0
991,562300,2026-01-13 17:42:31,0.0,5,7.289,0.0,0.0,-0.223694,37.3,16.3,-5.8,1024,1024,1024,1024,0,0,0,0,59,5.911,75.38,160.76116,P-GPS,,49.0
992,562400,2026-01-13 17:42:31,0.0,5,7.289,0.0,0.0,0.0,37.4,16.9,-5.5,1024,1024,1024,1024,0,0,0,0,59,5.911,75.38,160.76116,P-GPS,,49.0
993,562500,2026-01-13 17:42:31,0.0,5,7.289,0.0,0.0,0.0,37.3,17.2,-5.6,1024,1024,1024,1024,0,0,0,0,59,5.911,75.38,160.76116,P-GPS,,49.0
994,562600,2026-01-13 17:42:31,0.0,5,7.289,0.0,0.0,0.0,37.2,17.3,-6.5,1024,1024,1024,1024,0,0,0,0,59,5.911,75.38,161.089244,P-GPS,,49.1
995,562700,2026-01-13 17:42:31,0.0,5,7.289,0.0,0.0,0.0,37.3,16.8,-6.8,1024,1024,1024,1024,0,0,0,0,59,5.911,75.38,161.089244,P-GPS,,49.1
996,562800,2026-01-13 17:42:31,0.0,5,7.289,0.0,0.0,0.0,37.3,16.9,-6.9,1024,1024,1024,1024,0,0,0,0,59,5.911,75.38,161.089244,P-GPS,,49.1
997,562900,2026-01-13 17:42:31,0.0,5,7.289,0.0,0.0,0.0,37.2,16.6,-6.8,1024,1024,1024,1024,0,0,0,0,59,5.911,75.38,161.089244,P-GPS,,49.1
998,563000,2026-01-13 17:42:32,0.0,5,7.289,0.0,0.0,0.0,37.1,16.4,-7.5,1024,1024,1024,1024,0,0,0,0,59,5.911,75.38,161.089244,P-GPS,,49.1
999,563100,2026-01-13 17:42:32,0.223694,5,7.289,-0.223694,0.0,0.0,37.3,15.4,-7.9,1024,1024,1024,1024,0,0,0,0,59,5.911,75.38,161.417328,P-GPS,,49.2
1000,563200,2026-01-13 17:42:32,0.223694,5,7.289,-0.223694,0.0,0.0,37.3,15.5,-8.2,1024,1024,1024,1024,0,0,0,0,59,5.911,75.38,161.417328,P-GPS,,49.2
1001,563300,2026-01-13 17:42:32,0.0,5,7.289,0.0,0.0,0.0,37.2,15.6,-7.7,1024,1024,1024,1024,0,0,0,0,59,5.911,75.38,161.417328,P-GPS,,49.2
1002,563400,2026-01-13 17:42:32,0.0,5,7.3,0.0,0.0,0.0,37.1,15.6,-7.8,1024,1024,1024,1024,0,0,0,0,59,6.13,75.38,161.417328,P-GPS,,49.2
1003,563500,2026-01-13 17:42:32,0.0,5,7.3,0.0,0.0,0.0,37.0,16.5,-8.5,1024,1024,1024,1024,0,0,0,0,59,6.13,75.38,161.417328,P-GPS,,49.2
1004,563600,2026-01-13 17:42:32,0.0,5,7.3,0.0,0.0,0.223694,37.0,17.2,-7.9,1024,1024,1024,1024,0,0,0,0,59,6.13,75.38,161.417328,P-GPS,,49.2
1005,563700,2026-01-13 17:42:32,0.0,5,7.3,0.0,0.0,0.0,37.3,15.7,-7.5,1024,1024,1024,1024,0,0,0,0,59,6.13,75.38,161.417328,P-GPS,,49.2
1006,563800,2026-01-13 17:42:32,0.0,5,7.3,0.0,0.0,0.0,37.4,14.1,-7.6,1024,1024,1024,1024,0,0,0,0,59,6.13,75.38,161.417328,P-GPS,,49.2
1007,563900,2026-01-13 17:42:32,0.0,5,7.3,0.0,0.0,0.0,37.3,14.9,-7.9,1024,1024,1024,1024,0,0,0,0,59,6.13,75.38,161.417328,P-GPS,,49.2
1008,564000,2026-01-13 17:42:32,0.0,5,7.3,0.0,0.0,0.0,37.3,15.9,-8.1,1024,1024,1024,1024,0,0,0,0,59,6.13,75.38,161.417328,P-GPS,,49.2
1009,564100,2026-01-13 17:42:33,0.223694,5,7.3,-0.223694,0.0,0.0,37.5,14.6,-7.6,1024,1024,1024,1024,0,0,0,0,59,6.13,75.38,161.417328,P-GPS,,49.2
1010,564200,2026-01-13 17:42:33,0.0,5,7.3,0.0,0.0,0.0,37.5,14.7,-7.9,1024,1024,1024,1024,0,0,0,0,59,6.13,75.38,161.089244,P-GPS,,49.1
1011,564300,2026-01-13 17:42:33,0.223694,5,7.3,-0.223694,0.0,0.223694,37.6,14.4,-7.9,1024,1024,1024,1024,0,0,0,0,59,6.13,75.38,161.417328,P-GPS,,49.2
1012,564400,2026-01-13 17:42:33,0.223694,5,7.3,-0.223694,0.0,0.0,37.5,13.9,-7.5,1024,1024,1024,1024,0,0,0,0,59,6.13,75.38,161.417328,P-GPS,,49.2
1013,564500,2026-01-13 17:42:33,0.223694,5,7.297,-0.223694,0.0,0.0,37.3,13.7,-7.4,1024,1024,1024,1024,0,0,0,0,59,6.051,75.38,161.089244,P-GPS,,49.1
1014,564600,2026-01-13 17:42:33,0.0,5,7.297,0.0,0.0,0.0,37.3,13.5,-7.5,1024,1024,1024,1024,0,0,0,0,59,6.051,75.38,161.417328,P-GPS,,49.2
1015,564700,2026-01-13 17:42:33,0.0,5,7.297,0.0,0.0,0.0,37.2,14.6,-7.0,1024,1024,1024,1024,0,0,0,0,59,6.051,75.38,161.417328,P-GPS,,49.2
1016,564800,2026-01-13 17:42:33,0.0,5,7.297,0.0,0.0,0.0,37.3,14.5,-7.7,1024,1024,1024,1024,0,0,0,0,59,6.051,75.38,161.417328,P-GPS,,49.2
1017,564900,2026-01-13 17:42:33,0.0,5,7.297,0.0,0.0,0.0,37.2,14.7,-7.3,1024,1024,1024,1024,0,0,0,0,59,6.051,75.38,161.417328,P-GPS,,49.2
1018,565000,2026-01-13 17:42:34,0.0,5,7.297,0.0,0.0,0.0,37.2,15.6,-6.2,1024,1024,1024,1024,0,0,0,0,59,6.051,75.38,161.417328,P-GPS,,49.2
1019,565100,2026-01-13 17:42:34,0.0,5,7.297,0.0,0.0,0.0,37.3,14.5,-6.7,1024,1024,1024,1024,0,0,0,0,59,6.051,75.38,161.417328,P-GPS,,49.2
1020,565200,2026-01-13 17:42:34,0.0,5,7.297,0.0,0.0,-0.223694,37.3,14.5,-6.9,1024,1024,1024,1024,0,0,0,0,59,6.051,75.38,161.417328,P-GPS,,49.2
1021,565300,2026-01-13 17:42:34,0.0,5,7.297,0.0,0.0,-0.223694,37.1,16.2,-6.0,1024,1024,1024,1024,0,0,0,0,59,6.051,75.38,161.417328,P-GPS,,49.2
1022,565400,2026-01-13 17:42:34,0.0,5,7.297,0.0,0.0,0.0,36.8,16.5,-6.4,1024,1024,1024,1024,0,0,0,0,59,6.051,75.38,161.417328,P-GPS,,49.2
1023,565500,2026-01-13 17:42:34,0.0,5,7.297,0.0,0.0,-0.223694,37.2,15.4,-6.9,1024,1024,1024,1024,0,0,0,0,59,6.051,75.38,161.745412,P-GPS,,49.3
1024,565600,2026-01-13 17:42:34,0.223694,5,7.305,-0.223694,0.0,0.0,37.6,12.8,-6.8,1024,1024,1024,1024,0,0,0,0,59,6.174,75.38,161.745412,P-GPS,,49.3
1025,565700,2026-01-13 17:42:34,0.223694,5,7.305,-0.223694,0.0,-0.223694,37.8,11.6,-7.1,1024,1024,1024,1024,0,0,0,0,59,6.174,75.38,161.417328,P-GPS,,49.2
1026,565800,2026-01-13 17:42:34,0.223694,5,7.305,-0.223694,0.0,-0.223694,37.7,11.9,-8.3,1024,1024,1024,1024,0,0,0,0,59,6.174,75.38,161.417328,P-GPS,,49.2
1027,565900,2026-01-13 17:42:34,0.223694,5,7.305,-0.223694,0.0,0.0,37.6,12.4,-8.6,1024,1024,1024,1024,0,0,0,0,59,6.174,75.38,161.417328,P-GPS,,49.2
1028,566000,2026-01-13 17:42:35,0.223694,5,7.305,-0.223694,0.0,0.0,37.5,12.8,-8.2,1024,1024,1024,1024,0,0,0,0,59,6.174,75.38,161.417328,P-GPS,,49.2
1029,566100,2026-01-13 17:42:35,0.223694,5,7.305,-0.223694,0.0,0.0,37.4,12.8,-8.9,1024,1024,1024,1024,0,0,0,0,59,6.174,75.38,161.417328,P-GPS,,49.2
1030,566200,2026-01-13 17:42:35,0.223694,5,7.305,-0.223694,0.0,0.223694,37.4,12.4,-9.3,1024,1024,1024,1024,0,0,0,0,59,6.174,75.38,161.417328,P-GPS,,49.2
1031,566300,2026-01-13 17:42:35,0.223694,5,7.305,-0.223694,0.0,0.447388,37.3,12.4,-9.5,1024,1024,1024,1024,0,0,0,0,59,6.174,75.38,161.417328,P-GPS,,49.2
1032,566400,2026-01-13 17:42:35,0.223694,5,7.305,-0.223694,0.0,0.447388,37.5,11.8,-9.0,1024,1024,1024,1024,0,0,0,0,59,6.174,75.38,161.417328,P-GPS,,49.2
