index,time(millisecond),timestamp,speed(mph),gpslevel,voltage(v),xSpeed(mph),ySpeed(mph),zSpeed(mph),compass_heading(degrees),pitch(degrees),roll(degrees),rc_elevator,rc_aileron,rc_throttle,rc_rudder,rc_elevator(percent),rc_aileron(percent),rc_throttle(percent),rc_rudder(percent),battery_percent,current(A),battery_temperature(f),ascent(feet),flycState,message,height_above_takeoff(meters)
80,78100,2026-01-13 17:33:33,0.223694,5,7.599,0.0,0.223694,0.0,41.9,11.1,-5.4,1024,1024,1024,1024,0,0,0,0,93,7.123,66.38,33.464568,P-GPS,,10.2
81,78200,2026-01-13 17:33:33,0.0,5,7.698,0.0,0.0,0.0,41.8,11.8,-5.2,1024,1024,1024,1024,0,0,0,0,93,4.897,66.38,33.136484,P-GPS,,10.1
82,78300,2026-01-13 17:33:33,0.0,5,7.698,0.0,0.0,0.0,41.8,11.9,-5.1,1024,1024,1024,1024,0,0,0,0,93,4.897,66.38,33.136484,P-GPS,,10.1
83,78400,2026-01-13 17:33:33,0.0,5,7.698,0.0,0.0,0.0,41.8,12.4,-4.8,1024,1024,1024,1024,0,0,0,0,93,4.897,66.38,32.8084,P-GPS,,10.0
84,78500,2026-01-13 17:33:33,0.0,5,7.698,0.0,0.0,0.0,42.0,10.6,-4.4,1024,1024,1024,1024,0,0,0,0,93,4.897,66.38,32.480316,P-GPS,,9.9
85,78600,2026-01-13 17:33:33,0.0,5,7.698,0.0,0.0,0.0,41.9,11.4,-4.4,1024,1024,1024,1024,0,0,0,0,93,4.897,66.38,32.480316,P-GPS,,9.9
86,78700,2026-01-13 17:33:34,0.0,5,7.698,0.0,0.0,0.0,41.8,11.9,-2.9,1024,1024,1024,1024,0,0,0,0,93,4.897,66.38,32.152232,P-GPS,,9.8
87,78800,2026-01-13 17:33:34,0.0,5,7.698,0.0,0.0,0.0,41.8,12.6,-1.9,1024,1024,1024,1024,0,0,0,0,93,4.897,66.38,32.152232,P-GPS,,9.8
88,78900,2026-01-13 17:33:34,0.223694,5,7.698,0.0,-0.223694,0.0,42.1,11.4,-1.4,1024,1024,1024,1024,0,0,0,0,93,4.897,66.38,31.824148,P-GPS,,9.7
89,79000,2026-01-13 17:33:34,0.223694,5,7.698,0.0,-0.223694,0.0,42.2,10.9,-1.2,1024,1024,1024,1024,0,0,0,0,93,4.897,66.38,31.496064,P-GPS,,9.6
90,79100,2026-01-13 17:33:34,0.223694,5,7.698,0.0,-0.223694,0.0,42.2,10.7,-0.9,1024,1024,1024,1024,0,0,0,0,93,4.897,66.38,31.496064,P-GPS,,9.6
91,79200,2026-01-13 17:33:34,0.223694,5,7.698,0.0,-0.223694,0.0,42.3,10.2,-1.2,1024,1024,1024,1024,0,0,0,0,93,4.897,66.38,31.16798,P-GPS,,9.5
92,79300,2026-01-13 17:33:34,0.0,5,7.698,0.0,0.0,0.0,42.3,9.9,-1.9,1024,1024,1024,1024,0,0,0,0,93,4.897,66.38,31.16798,P-GPS,,9.5
93,79400,2026-01-13 17:33:34,0.0,5,7.698,0.0,0.0,0.0,42.2,9.6,-2.8,1024,1024,1024,1024,0,0,0,0,93,4.897,66.38,31.16798,P-GPS,,9.5
94,79500,2026-01-13 17:33:34,0.0,5,7.698,0.0,0.0,0.0,42.1,10.1,-3.3,1024,1024,1024,1024,0,0,0,0,93,4.897,66.38,31.16798,P-GPS,,9.5
95,79600,2026-01-13 17:33:34,0.0,5,7.698,0.0,0.0,0.0,42.2,8.8,-3.9,1024,1024,1024,1024,0,0,0,0,93,4.897,66.38,31.16798,P-GPS,,9.5
96,79700,2026-01-13 17:33:35,0.0,5,7.698,0.0,0.0,-0.223694,41.8,11.4,-4.8,1024,1024,1024,1024,0,0,0,0,93,4.897,66.38,31.496064,P-GPS,,9.6
97,79800,2026-01-13 17:33:35,0.223694,5,7.698,-0.223694,0.0,0.0,42.1,9.1,-4.2,1024,1024,1024,1024,0,0,0,0,93,4.897,66.38,31.496064,P-GPS,,9.6
98,79900,2026-01-13 17:33:35,0.223694,5,7.698,-0.223694,0.0,-0.223694,42.3,8.1,-3.8,1024,1024,1024,1024,0,0,0,0,93,4.897,66.38,31.496064,P-GPS,,9.6
99,80000,2026-01-13 17:33:35,0.223694,5,7.698,-0.223694,0.0,-0.223694,42.2,8.3,-3.8,1024,1024,1024,1024,0,0,0,0,93,4.897,66.38,31.496064,P-GPS,,9.6
100,80100,2026-01-13 17:33:35,0.223694,5,7.698,-0.223694,0.0,-0.223694,42.1,7.5,-4.8,1024,1024,1024,1024,0,0,0,0,93,4.897,66.38,31.496064,P-GPS,,9.6
101,80200,2026-01-13 17:33:35,0.223694,5,7.698,-0.223694,0.0,-0.223694,41.9,8.7,-4.4,1024,1024,1024,1024,0,0,0,0,93,4.897,66.38,31.496064,P-GPS,,9.6
102,80300,2026-01-13 17:33:35,0.223694,5,7.698,0.0,0.0,0.0,41.9,8.9,-5.1,1024,1024,1024,1024,0,0,0,0,93,4.897,66.38,31.496064,P-GPS,,9.6
103,80400,2026-01-13 17:33:35,0.0,5,7.719,0.0,0.0,0.0,41.9,7.9,-6.0,1024,1024,1024,1024,0,0,0,0,93,5.685,66.56,31.496064,P-GPS,,9.6
104,80500,2026-01-13 17:33:35,0.0,5,7.719,0.0,0.0,0.0,41.8,9.5,-6.0,1024,1024,1024,1024,0,0,0,0,93,5.685,66.56,31.496064,P-GPS,,9.6
105,80600,2026-01-13 17:33:35,0.0,5,7.719,0.0,0.0,0.0,41.6,10.3,-5.5,1024,1024,1024,1024,0,0,0,0,93,5.685,66.56,31.496064,P-GPS,,9.6
106,80700,2026-01-13 17:33:35,0.0,5,7.719,0.0,0.0,0.0,42.1,9.0,-3.2,1024,1024,1024,1024,0,0,0,0,93,5.685,66.56,31.496064,P-GPS,,9.6
107,80800,2026-01-13 17:33:36,0.0,5,7.719,0.0,0.0,-0.223694,42.0,7.1,-4.3,1024,1024,1024,1024,0,0,0,0,93,5.685,66.56,31.16798,P-GPS,,9.5
108,80900,2026-01-13 17:33:36,0.0,5,7.719,0.0,0.0,0.0,41.6,10.0,-5.1,1024,1024,1024,1024,0,0,0,0,93,5.685,66.56,31.16798,P-GPS,,9.5
109,81000,2026-01-13 17:33:36,0.223694,5,7.719,-0.223694,0.0,0.223694,41.9,8.2,-4.5,1024,1024,1024,1024,0,0,0,0,93,5.685,66.56,31.16798,P-GPS,,9.5
110,81100,2026-01-13 17:33:36,0.223694,5,7.719,-0.223694,0.0,0.0,41.9,5.6,-5.3,1024,1024,1024,1024,0,0,0,0,93,5.685,66.56,31.16798,P-GPS,,9.5
111,81200,2026-01-13 17:33:36,0.223694,5,7.719,-0.223694,0.0,0.0,41.6,7.7,-5.1,1024,1024,1024,1024,0,0,0,0,93,5.685,66.56,31.16798,P-GPS,,9.5
112,81300,2026-01-13 17:33:36,0.3131716,5,7.719,-0.223694,-0.223694,0.223694,41.8,7.2,-4.9,1024,1024,1024,1024,0,0,0,0,93,5.685,66.56,30.839896,P-GPS,,9.4
113,81400,2026-01-13 17:33:36,0.3131716,5,7.719,-0.223694,-0.223694,0.0,42.2,4.1,-3.9,1024,1024,1024,1024,0,0,0,0,93,5.685,66.56,30.839896,P-GPS,,9.4
114,81500,2026-01-13 17:33:36,0.3131716,5,7.755,-0.223694,-0.223694,0.0,42.1,2.2,-3.9,1024,1024,1024,1024,0,0,0,0,93,4.756,66.56,31.16798,P-GPS,,9.5
115,81600,2026-01-13 17:33:36,0.3131716,5,7.755,-0.223694,-0.223694,0.0,41.9,1.7,-3.7,1024,1024,1024,1024,0,0,0,0,93,4.756,66.56,31.16798,P-GPS,,9.5
116,81700,2026-01-13 17:33:37,0.0,5,7.755,0.0,0.0,-0.223694,41.9,1.3,-3.8,1024,1024,1024,1024,0,0,0,0,93,4.756,66.56,30.839896,P-GPS,,9.4
117,81800,2026-01-13 17:33:37,0.0,5,7.755,0.0,0.0,-0.223694,41.6,5.3,-4.2,1024,1024,1024,1024,0,0,0,0,93,4.756,66.56,30.839896,P-GPS,,9.4
118,81900,2026-01-13 17:33:37,0.223694,5,7.755,0.0,-0.223694,0.0,41.6,4.6,-4.0,1024,1024,1024,1024,0,0,0,0,93,4.756,66.56,30.511812,P-GPS,,9.3
119,82000,2026-01-13 17:33:37,0.223694,5,7.755,0.0,-0.223694,0.0,41.6,3.3,-3.9,1024,1024,1024,1024,0,0,0,0,93,4.756,66.56,30.511812,P-GPS,,9.3
120,82100,2026-01-13 17:33:37,0.223694,5,7.755,0.0,-0.223694,0.223694,41.9,4.0,-3.9,1024,1024,1024,1024,0,0,0,0,93,4.756,66.56,30.511812,P-GPS,,9.3
121,82200,2026-01-13 17:33:37,0.0,5,7.755,0.0,0.0,0.223694,42.0,3.7,-3.7,1024,1024,1024,1024,0,0,0,0,93,4.756,66.56,30.511812,P-GPS,,9.3
122,82300,2026-01-13 17:33:37,0.0,5,7.755,0.0,0.0,0.223694,42.0,4.7,-3.6,1024,1024,1024,1024,0,0,0,0,93,4.756,66.56,30.183728,P-GPS,,9.2
123,82400,2026-01-13 17:33:37,0.0,5,7.755,0.0,0.0,0.223694,42.1,6.2,-4.1,1024,1024,1024,1024,0,0,0,0,93,4.756,66.56,30.511812,P-GPS,,9.3
124,82500,2026-01-13 17:33:37,0.0,5,7.755,0.0,0.0,0.223694,42.3,6.3,-4.4,1024,1024,1024,1024,0,0,0,0,93,4.756,66.56,30.511812,P-GPS,,9.3
125,82600,2026-01-13 17:33:37,0.0,5,7.806,0.0,0.0,0.223694,42.4,6.2,-4.3,1024,1024,1024,1024,0,0,0,0,93,3.911,66.56,30.511812,P-GPS,,9.3
126,82700,2026-01-13 17:33:37,0.0,5,7.806,0.0,0.0,0.0,42.4,6.2,-4.5,1024,1024,1024,1024,0,0,0,0,93,3.911,66.56,30.839896,P-GPS,,9.4
127,82800,2026-01-13 17:33:38,0.0,5,7.806,0.0,0.0,0.0,42.4,6.9,-5.0,1024,1024,1024,1024,0,0,0,0,93,3.911,66.56,30.839896,P-GPS,,9.4
128,82900,2026-01-13 17:33:38,0.223694,5,7.806,0.0,0.223694,0.0,42.2,7.6,-6.1,1024,1024,1024,1024,0,0,0,0,93,3.911,66.56,31.16798,P-GPS,,9.5
129,83000,2026-01-13 17:33:38,0.223694,5,7.806,0.0,0.223694,0.0,42.2,8.2,-5.7,1024,1024,1024,1024,0,0,0,0,93,3.911,66.56,31.16798,P-GPS,,9.5
130,83100,2026-01-13 17:33:38,0.223694,5,7.806,0.0,0.223694,0.0,42.1,8.2,-5.7,1024,1024,1024,1024,0,0,0,0,93,3.911,66.56,31.16798,P-GPS,,9.5
131,83200,2026-01-13 17:33:38,0.223694,5,7.806,0.0,0.223694,0.0,42.1,8.1,-6.0,1024,1024,1024,1024,0,0,0,0,93,3.911,66.56,31.496064,P-GPS,,9.6
132,83300,2026-01-13 17:33:38,0.223694,5,7.806,0.0,0.223694,0.0,42.0,8.7,-6.2,1024,1024,1024,1024,0,0,0,0,93,3.911,66.56,31.496064,P-GPS,,9.6
133,83400,2026-01-13 17:33:38,0.223694,5,7.806,0.0,0.223694,0.0,42.0,9.0,-6.0,1024,1024,1024,1024,0,0,0,0,93,3.911,66.56,31.496064,P-GPS,,9.6
134,83500,2026-01-13 17:33:38,0.0,5,7.806,0.0,0.0,0.0,42.0,8.9,-6.2,1024,1024,1024,1024,0,0,0,0,93,3.911,66.56,31.16798,P-GPS,,9.5
135,83600,2026-01-13 17:33:38,0.0,5,7.806,0.0,0.0,0.223694,41.9,9.9,-6.1,1024,1024,1024,1024,0,0,0,0,93,3.911,66.56,31.16798,P-GPS,,9.5
136,83700,2026-01-13 17:33:39,0.0,5,7.81,0.0,0.0,0.223694,41.8,10.3,-4.8,1024,1024,1024,1024,0,0,0,0,93,4.442,66.56,31.16798,P-GPS,,9.5
137,83800,2026-01-13 17:33:39,0.0,5,7.81,0.0,0.0,0.223694,42.1,8.8,-4.2,1024,1024,1024,1024,0,0,0,0,93,4.442,66.56,31.16798,P-GPS,,9.5
138,83900,2026-01-13 17:33:39,0.0,5,7.81,0.0,0.0,0.223694,42.3,8.1,-3.9,1024,1024,1024,1024,0,0,0,0,93,4.442,66.56,30.839896,P-GPS,,9.4
139,84000,2026-01-13 17:33:39,0.0,5,7.81,0.0,0.0,0.223694,42.2,8.3,-3.6,1024,1024,1024,1024,0,0,0,0,93,4.442,66.56,30.839896,P-GPS,,9.4
140,84100,2026-01-13 17:33:39,0.0,5,7.81,0.0,0.0,0.223694,42.3,8.2,-3.3,1024,1024,1024,1024,0,0,0,0,93,4.442,66.56,30.839896,P-GPS,,9.4
141,84200,2026-01-13 17:33:39,0.0,5,7.81,0.0,0.0,0.0,42.2,6.8,-4.4,1024,1024,1024,1024,0,0,0,0,93,4.442,66.56,30.839896,P-GPS,,9.4
142,84300,2026-01-13 17:33:39,0.0,5,7.81,0.0,0.0,0.0,42.1,7.3,-4.9,1024,1024,1024,1024,0,0,0,0,93,4.442,66.56,30.839896,P-GPS,,9.4
143,84400,2026-01-13 17:33:39,0.0,5,7.81,0.0,0.0,0.0,41.9,7.9,-5.0,1024,1024,1024,1024,0,0,0,0,93,4.442,66.56,30.839896,P-GPS,,9.4
144,84500,2026-01-13 17:33:39,0.0,5,7.81,0.0,0.0,0.223694,41.9,7.6,-4.5,1024,1024,1024,1024,0,0,0,0,93,4.442,66.56,30.839896,P-GPS,,9.4
145,84600,2026-01-13 17:33:39,0.0,5,7.81,0.0,0.0,0.223694,42.1,6.4,-4.3,1024,1024,1024,1024,0,0,0,0,93,4.442,66.56,30.839896,P-GPS,,9.4
146,84700,2026-01-13 17:33:40,0.0,5,7.81,0.0,0.0,0.0,42.1,6.0,-4.1,1024,1024,1024,1024,0,0,0,0,93,4.442,66.56,30.511812,P-GPS,,9.3
147,84800,2026-01-13 17:33:40,0.0,5,7.76,0.0,0.0,0.0,42.1,5.8,-3.8,1024,1024,1024,1024,0,0,0,0,93,4.876,66.74,30.511812,P-GPS,,9.3
148,84900,2026-01-13 17:33:40,0.0,5,7.76,0.0,0.0,0.0,42.1,5.8,-4.1,1024,1024,1024,1024,0,0,0,0,93,4.876,66.74,30.511812,P-GPS,,9.3
149,85000,2026-01-13 17:33:40,0.0,5,7.76,0.0,0.0,0.0,42.1,5.5,-4.1,1024,1024,1024,1024,0,0,0,0,93,4.876,66.74,30.839896,P-GPS,,9.4
150,85100,2026-01-13 17:33:40,0.0,5,7.76,0.0,0.0,0.0,42.0,6.2,-4.8,1024,1024,1024,1024,0,0,0,0,93,4.876,66.74,30.839896,P-GPS,,9.4
151,85200,2026-01-13 17:33:40,0.0,5,7.76,0.0,0.0,0.0,42.1,6.9,-4.7,1024,1024,1024,1024,0,0,0,0,93,4.876,66.74,30.839896,P-GPS,,9.4
152,85300,2026-01-13 17:33:40,0.0,5,7.76,0.0,0.0,0.0,42.2,7.2,-4.1,1024,1024,1024,1024,0,0,0,0,93,4.876,66.74,30.839896,P-GPS,,9.4
153,85400,2026-01-13 17:33:40,0.0,5,7.76,0.0,0.0,0.0,42.2,7.3,-3.7,1024,1024,1024,1024,0,0,0,0,93,4.876,66.74,30.839896,P-GPS,,9.4
154,85500,2026-01-13 17:33:40,0.0,5,7.76,0.0,0.0,0.0,42.2,7.5,-3.7,1024,1024,1024,1024,0,0,0,0,93,4.876,66.74,30.839896,P-GPS,,9.4
155,85600,2026-01-13 17:33:40,0.0,5,7.76,0.0,0.0,0.0,42.2,8.3,-4.1,1024,1024,1024,1024,0,0,0,0,93,4.876,66.74,30.839896,P-GPS,,9.4
156,85700,2026-01-13 17:33:40,0.0,5,7.76,0.0,0.0,0.0,42.1,7.6,-4.6,1024,1024,1024,1024,0,0,0,0,93,4.876,66.74,30.839896,P-GPS,,9.4
157,85800,2026-01-13 17:33:41,0.0,5,7.76,0.0,0.0,0.0,42.0,7.4,-4.9,1024,1024,1024,1024,0,0,0,0,93,4.876,66.74,30.839896,P-GPS,,9.4
158,85900,2026-01-13 17:33:41,0.0,5,7.727,0.0,0.0,0.0,42.1,6.6,-5.0,1024,1024,1024,1024,0,0,0,0,92,5.102,66.74,30.839896,P-GPS,,9.4
159,86000,2026-01-13 17:33:41,0.0,5,7.727,0.0,0.0,0.0,42.2,7.0,-4.7,1024,1024,1024,1024,0,0,0,0,92,5.102,66.74,30.839896,P-GPS,,9.4
160,86100,2026-01-13 17:33:41,0.0,5,7.727,0.0,0.0,0.0,42.2,7.1,-4.6,1024,1024,1024,1024,0,0,0,0,92,5.102,66.74,30.839896,P-GPS,,9.4
161,86200,2026-01-13 17:33:41,0.0,5,7.727,0.0,0.0,0.0,42.1,7.4,-4.8,1024,1024,1024,1024,0,0,0,0,92,5.102,66.74,30.839896,P-GPS,,9.4
162,86300,2026-01-13 17:33:41,0.0,5,7.727,0.0,0.0,0.0,42.0,7.3,-5.3,1024,1024,1024,1024,0,0,0,0,92,5.102,66.74,31.16798,P-GPS,,9.5
163,86400,2026-01-13 17:33:41,0.0,5,7.727,0.0,0.0,0.0,42.0,8.1,-5.2,1024,1024,1024,1024,0,0,0,0,92,5.102,66.74,31.16798,P-GPS,,9.5
164,86500,2026-01-13 17:33:41,0.0,5,7.727,0.0,0.0,0.0,42.0,9.0,-4.8,1024,1024,1024,1024,0,0,0,0,92,5.102,66.74,31.16798,P-GPS,,9.5
165,86600,2026-01-13 17:33:41,0.0,5,7.727,0.0,0.0,0.0,42.0,8.7,-5.1,1024,1024,1024,1024,0,0,0,0,92,5.102,66.74,31.16798,P-GPS,,9.5
166,86700,2026-01-13 17:33:42,0.0,5,7.727,0.0,0.0,0.0,42.0,8.5,-5.0,1024,1024,1024,1024,0,0,0,0,92,5.102,66.74,31.16798,P-GPS,,9.5
167,86800,2026-01-13 17:33:42,0.0,5,7.727,0.0,0.0,0.0,42.1,7.6,-5.2,1024,1024,1024,1024,0,0,0,0,92,5.102,66.74,30.839896,P-GPS,,9.4
168,86900,2026-01-13 17:33:42,0.0,5,7.727,0.0,0.0,0.0,42.1,7.3,-4.7,1024,1024,1024,1024,0,0,0,0,92,5.102,66.74,30.839896,P-GPS,,9.4
169,87000,2026-01-13 17:33:42,0.0,5,7.751,0.0,0.0,0.0,42.1,6.8,-4.7,1024,1024,1024,1024,0,0,0,0,92,5.068,66.74,30.839896,P-GPS,,9.4
170,87100,2026-01-13 17:33:42,0.0,5,7.751,0.0,0.0,0.0,42.1,6.8,-4.6,1024,1024,1024,1024,0,0,0,0,92,5.068,66.74,30.839896,P-GPS,,9.4
171,87200,2026-01-13 17:33:42,0.0,5,7.751,0.0,0.0,0.0,42.2,6.3,-4.1,1024,1024,1024,1024,0,0,0,0,92,5.068,66.74,30.839896,P-GPS,,9.4
172,87300,2026-01-13 17:33:42,0.0,5,7.751,0.0,0.0,0.0,42.0,6.7,-4.0,1024,1024,1024,1024,0,0,0,0,92,5.068,66.74,30.839896,P-GPS,,9.4
173,87400,2026-01-13 17:33:42,0.0,5,7.751,0.0,0.0,0.0,42.0,6.5,-4.3,1024,1024,1024,1024,0,0,0,0,92,5.068,66.74,30.839896,P-GPS,,9.4
174,87500,2026-01-13 17:33:42,0.0,5,7.751,0.0,0.0,0.0,42.0,6.7,-4.4,1024,1024,1024,1024,0,0,0,0,92,5.068,66.74,30.839896,P-GPS,,9.4
175,87600,2026-01-13 17:33:42,0.0,5,7.751,0.0,0.0,0.0,42.0,6.9,-4.0,1024,1024,1024,1024,0,0,0,0,92,5.068,66.74,30.511812,P-GPS,,9.3
176,87700,2026-01-13 17:33:42,0.0,5,7.751,0.0,0.0,0.0,42.1,7.0,-3.9,1024,1024,1024,1024,0,0,0,0,92,5.068,66.74,30.511812,P-GPS,,9.3
177,87800,2026-01-13 17:33:43,0.0,5,7.751,0.0,0.0,0.0,42.2,6.9,-3.9,1024,1024,1024,1024,0,0,0,0,92,5.068,66.74,30.511812,P-GPS,,9.3
178,87900,2026-01-13 17:33:43,0.0,5,7.751,0.0,0.0,0.0,42.1,6.8,-4.0,1024,1024,1024,1024,0,0,0,0,92,5.068,66.74,30.511812,P-GPS,,9.3
179,88000,2026-01-13 17:33:43,0.0,5,7.751,0.0,0.0,0.0,42.1,6.6,-3.9,1024,1024,1024,1024,0,0,0,0,92,5.068,66.74,30.511812,P-GPS,,9.3
180,88100,2026-01-13 17:33:43,0.0,5,7.763,0.0,0.0,0.0,42.2,6.3,-3.4,1024,1024,1024,1024,0,0,0,0,92,4.902,66.92,30.511812,P-GPS,,9.3
181,88200,2026-01-13 17:33:43,0.0,5,7.763,0.0,0.0,0.0,42.2,6.6,-3.2,1024,1024,1024,1024,0,0,0,0,92,4.902,66.92,30.511812,P-GPS,,9.3
182,88300,2026-01-13 17:33:43,0.0,5,7.763,0.0,0.0,0.0,42.2,6.9,-3.3,1024,1024,1024,1024,0,0,0,0,92,4.902,66.92,30.511812,P-GPS,,9.3
183,88400,2026-01-13 17:33:43,0.0,5,7.763,0.0,0.0,0.0,42.1,7.5,-3.6,1024,1024,1024,1024,0,0,0,0,92,4.902,66.92,30.511812,P-GPS,,9.3
184,88500,2026-01-13 17:33:43,0.0,5,7.763,0.0,0.0,0.0,42.2,7.6,-3.5,1024,1024,1024,1024,0,0,0,0,92,4.902,66.92,30.511812,P-GPS,,9.3
185,88600,2026-01-13 17:33:43,0.0,5,7.763,0.0,0.0,0.0,42.2,7.4,-3.4,1024,1024,1024,1024,0,0,0,0,92,4.902,66.92,30.511812,P-GPS,,9.3
186,88700,2026-01-13 17:33:44,0.0,5,7.763,0.0,0.0,0.0,42.2,7.3,-3.6,1024,1024,1024,1024,0,0,0,0,92,4.902,66.92,30.511812,P-GPS,,9.3
187,88800,2026-01-13 17:33:44,0.0,5,7.763,0.0,0.0,0.0,42.1,7.4,-3.3,1024,1024,1024,1024,0,0,0,0,92,4.902,66.92,30.511812,P-GPS,,9.3
188,88900,2026-01-13 17:33:44,0.0,5,7.763,0.0,0.0,0.0,42.1,7.7,-3.4,1024,1024,1024,1024,0,0,0,0,92,4.902,66.92,30.183728,P-GPS,,9.2
189,89000,2026-01-13 17:33:44,0.0,5,7.763,0.0,0.0,0.0,42.2,7.9,-2.8,1024,1024,1024,1024,0,0,0,0,92,4.902,66.92,30.183728,P-GPS,,9.2
190,89100,2026-01-13 17:33:44,0.0,5,7.763,0.0,0.0,0.0,42.2,6.9,-2.4,1024,1024,1024,1024,0,0,0,0,92,4.902,66.92,30.183728,P-GPS,,9.2
191,89200,2026-01-13 17:33:44,0.0,5,7.766,0.0,0.0,0.0,42.1,7.2,-2.6,1024,1024,1024,1024,0,0,0,0,92,4.653,66.92,30.183728,P-GPS,,9.2
192,89300,2026-01-13 17:33:44,0.0,5,7.766,0.0,0.0,0.0,42.2,7.3,-2.2,1024,1024,1024,1024,0,0,0,0,92,4.653,66.92,30.183728,P-GPS,,9.2
193,89400,2026-01-13 17:33:44,0.0,5,7.766,0.0,0.0,0.0,42.2,7.2,-2.3,1024,1024,1024,1024,0,0,0,0,92,4.653,66.92,30.183728,P-GPS,,9.2
194,89500,2026-01-13 17:33:44,0.0,5,7.766,0.0,0.0,0.0,42.2,7.1,-2.5,1024,1024,1024,1024,0,0,0,0,92,4.653,66.92,30.183728,P-GPS,,9.2
195,89600,2026-01-13 17:33:44,0.0,5,7.766,0.0,0.0,0.0,42.3,6.9,-2.5,1024,1024,1024,1024,0,0,0,0,92,4.653,66.92,30.183728,P-GPS,,9.2
196,89700,2026-01-13 17:33:45,0.0,5,7.766,0.0,0.0,0.0,42.2,6.6,-2.1,1024,1024,1024,1024,0,0,0,0,92,4.653,66.92,30.183728,P-GPS,,9.2
197,89800,2026-01-13 17:33:45,0.0,5,7.766,0.0,0.0,0.0,42.1,7.6,-2.8,1024,1024,1024,1024,0,0,0,0,92,4.653,66.92,30.183728,P-GPS,,9.2
198,89900,2026-01-13 17:33:45,0.0,5,7.766,0.0,0.0,0.0,42.0,7.2,-2.9,1024,1024,1024,1024,0,0,0,0,92,4.653,66.92,29.855644,P-GPS,,9.1
199,90000,2026-01-13 17:33:45,0.0,5,7.766,0.0,0.0,0.0,42.0,7.2,-2.3,1024,1024,1024,1024,0,0,0,0,92,4.653,66.92,29.855644,P-GPS,,9.1
200,90100,2026-01-13 17:33:45,0.0,5,7.766,0.0,0.0,0.0,42.0,6.6,-1.9,1024,1024,1024,1024,0,0,0,0,92,4.653,66.92,29.855644,P-GPS,,9.1
201,90200,2026-01-13 17:33:45,0.0,5,7.766,0.0,0.0,0.0,42.0,6.3,-1.6,1024,1024,1024,1024,0,0,0,0,92,4.653,66.92,29.855644,P-GPS,,9.1
202,90300,2026-01-13 17:33:45,0.223694,5,7.766,0.0,-0.223694,0.0,42.0,5.9,-1.1,1024,1024,1024,1024,0,0,0,0,92,4.653,66.92,29.52756,P-GPS,,9.0
203,90400,2026-01-13 17:33:45,0.223694,5,7.766,0.0,-0.223694,0.0,42.1,5.7,-0.7,1024,1024,1024,1024,0,0,0,0,92,4.653,66.92,29.52756,P-GPS,,9.0
204,90500,2026-01-13 17:33:45,0.223694,5,7.766,0.0,-0.223694,0.0,42.0,5.0,-0.4,1024,1024,1024,1024,0,0,0,0,92,4.653,66.92,29.52756,P-GPS,,9.0
205,90600,2026-01-13 17:33:45,0.0,5,7.766,0.0,0.0,0.0,42.1,4.6,-0.1,1024,1024,1024,1024,0,0,0,0,92,4.653,66.92,29.52756,P-GPS,,9.0
206,90700,2026-01-13 17:33:46,0.0,5,7.766,0.0,0.0,0.0,42.1,5.3,-0.7,1024,1024,1024,1024,0,0,0,0,92,4.653,66.92,29.52756,P-GPS,,9.0
207,90800,2026-01-13 17:33:46,0.0,5,7.766,0.0,0.0,0.0,42.2,5.7,-0.8,1024,1024,1024,1024,0,0,0,0,92,4.653,66.92,29.52756,P-GPS,,9.0
208,90900,2026-01-13 17:33:46,0.0,5,7.766,0.0,0.0,0.0,42.1,6.0,-0.4,1024,1024,1024,1024,0,0,0,0,92,4.653,66.92,29.52756,P-GPS,,9.0
209,91000,2026-01-13 17:33:46,0.0,5,7.766,0.0,0.0,0.0,42.1,5.6,-0.2,1024,1024,1024,1024,0,0,0,0,92,4.653,66.92,29.52756,P-GPS,,9.0
210,91100,2026-01-13 17:33:46,0.0,5,7.766,0.0,0.0,0.0,42.1,5.3,0.1,1024,1024,1024,1024,0,0,0,0,92,4.653,66.92,29.52756,P-GPS,,9.0
211,91200,2026-01-13 17:33:46,0.0,5,7.766,0.0,0.0,0.0,42.1,5.5,0.5,1024,1024,1024,1024,0,0,0,0,92,4.653,66.92,29.52756,P-GPS,,9.0
212,91300,2026-01-13 17:33:46,0.0,5,7.766,0.0,0.0,0.0,42.2,5.6,0.6,1024,1024,1024,1024,0,0,0,0,92,4.653,66.92,29.52756,P-GPS,,9.0
213,91400,2026-01-13 17:33:46,0.0,5,7.776,0.0,0.0,0.0,42.2,6.0,-0.5,1024,1024,1024,1024,0,0,0,0,92,4.609,66.92,29.855644,P-GPS,,9.1
214,91500,2026-01-13 17:33:46,0.0,5,7.776,0.0,0.0,0.0,42.3,6.7,-0.6,1024,1024,1024,1024,0,0,0,0,92,4.609,66.92,29.855644,P-GPS,,9.1
215,91600,2026-01-13 17:33:46,0.0,5,7.776,0.0,0.0,0.0,42.2,7.5,-1.7,1024,1024,1024,1024,0,0,0,0,92,4.609,66.92,29.855644,P-GPS,,9.1
216,91700,2026-01-13 17:33:47,0.0,5,7.776,0.0,0.0,0.0,42.4,7.0,-1.3,1024,1024,1024,1024,0,0,0,0,92,4.609,66.92,29.855644,P-GPS,,9.1
217,91800,2026-01-13 17:33:47,0.0,5,7.776,0.0,0.0,0.0,42.3,6.3,-1.7,1024,1024,1024,1024,0,0,0,0,92,4.609,66.92,30.183728,P-GPS,,9.2
218,91900,2026-01-13 17:33:47,0.0,5,7.776,0.0,0.0,0.0,42.1,6.7,-1.7,1024,1024,1024,1024,0,0,0,0,92,4.609,66.92,30.183728,P-GPS,,9.2
219,92000,2026-01-13 17:33:47,0.0,5,7.776,0.0,0.0,0.0,42.1,7.1,-1.7,1024,1024,1024,1024,0,0,0,0,92,4.609,66.92,30.183728,P-GPS,,9.2
220,92100,2026-01-13 17:33:47,0.0,5,7.776,0.0,0.0,0.0,42.1,7.6,-1.4,1024,1024,1024,1024,0,0,0,0,92,4.609,66.92,30.511812,P-GPS,,9.3
221,92200,2026-01-13 17:33:47,0.0,5,7.776,0.0,0.0,0.0,42.2,7.3,-1.4,1024,1024,1024,1024,0,0,0,0,92,4.609,66.92,30.511812,P-GPS,,9.3
222,92300,2026-01-13 17:33:47,0.0,5,7.776,0.0,0.0,0.0,42.2,8.0,-0.6,1024,1024,1024,1024,0,0,0,0,92,4.609,66.92,30.511812,P-GPS,,9.3
223,92400,2026-01-13 17:33:47,0.0,5,7.776,0.0,0.0,0.0,42.2,7.7,-0.8,1024,1024,1024,1024,0,0,0,0,92,4.609,66.92,30.511812,P-GPS,,9.3
224,92500,2026-01-13 17:33:47,0.0,5,7.755,0.0,0.0,0.0,42.3,7.9,-0.7,1024,1024,1024,1024,0,0,0,0,92,5.081,66.92,30.839896,P-GPS,,9.4
225,92600,2026-01-13 17:33:47,0.0,5,7.755,0.0,0.0,0.0,42.4,7.4,-1.0,1024,1024,1024,1024,0,0,0,0,92,5.081,66.92,30.839896,P-GPS,,9.4
226,92700,2026-01-13 17:33:47,0.0,5,7.755,0.0,0.0,0.0,42.3,8.4,-1.3,1024,1024,1024,1024,0,0,0,0,92,5.081,66.92,30.839896,P-GPS,,9.4
227,92800,2026-01-13 17:33:48,0.0,5,7.755,0.0,0.0,0.0,42.3,7.7,-1.2,1024,1024,1024,1024,0,0,0,0,92,5.081,66.92,30.839896,P-GPS,,9.4
228,92900,2026-01-13 17:33:48,0.0,5,7.755,0.0,0.0,0.0,42.4,8.1,-2.1,1024,1024,1024,1024,0,0,0,0,92,5.081,66.92,30.839896,P-GPS,,9.4
229,93000,2026-01-13 17:33:48,0.0,5,7.755,0.0,0.0,0.0,42.2,8.4,-2.7,1024,1024,1024,1024,0,0,0,0,92,5.081,66.92,31.16798,P-GPS,,9.5
230,93100,2026-01-13 17:33:48,0.0,5,7.755,0.0,0.0,0.0,42.1,8.2,-2.6,1024,1024,1024,1024,0,0,0,0,92,5.081,66.92,31.16798,P-GPS,,9.5
231,93200,2026-01-13 17:33:48,0.0,5,7.755,0.0,0.0,0.0,42.2,8.4,-2.1,1024,1024,1024,1024,0,0,0,0,92,5.081,66.92,31.16798,P-GPS,,9.5
232,93300,2026-01-13 17:33:48,0.0,5,7.755,0.0,0.0,0.0,42.3,8.4,-2.3,1024,1024,1024,1024,0,0,0,0,92,5.081,66.92,31.16798,P-GPS,,9.5
233,93400,2026-01-13 17:33:48,0.0,5,7.755,0.0,0.0,0.0,42.3,8.7,-3.0,1024,1024,1024,1024,0,0,0,0,92,5.081,66.92,31.16798,P-GPS,,9.5
234,93500,2026-01-13 17:33:48,0.0,5,7.755,0.0,0.0,0.0,42.3,8.8,-2.9,1024,1024,1024,1024,0,0,0,0,92,5.081,66.92,31.16798,P-GPS,,9.5
235,93600,2026-01-13 17:33:48,0.0,5,7.777,0.0,0.0,0.0,42.2,8.9,-3.1,1024,1024,1024,1024,0,0,0,0,92,4.597,66.92,31.16798,P-GPS,,9.5
236,93700,2026-01-13 17:33:49,0.0,5,7.777,0.0,0.0,0.0,42.2,8.4,-2.9,1024,1024,1024,1024,0,0,0,0,92,4.597,66.92,31.16798,P-GPS,,9.5
237,93800,2026-01-13 17:33:49,0.0,5,7.777,0.0,0.0,0.0,42.3,8.4,-3.3,1024,1024,1024,1024,0,0,0,0,92,4.597,66.92,31.496064,P-GPS,,9.6
238,93900,2026-01-13 17:33:49,0.0,5,7.777,0.0,0.0,0.0,42.1,8.0,-3.4,1024,1024,1024,1024,0,0,0,0,92,4.597,66.92,31.496064,P-GPS,,9.6
239,94000,2026-01-13 17:33:49,0.0,5,7.777,0.0,0.0,0.0,42.3,7.5,-3.4,1024,1024,1024,1024,0,0,0,0,92,4.597,66.92,31.496064,P-GPS,,9.6
240,94100,2026-01-13 17:33:49,0.0,5,7.777,0.0,0.0,0.0,42.3,7.7,-3.2,1024,1024,1024,1024,0,0,0,0,92,4.597,66.92,31.496064,P-GPS,,9.6
241,94200,2026-01-13 17:33:49,0.0,5,7.777,0.0,0.0,0.0,42.3,8.0,-3.6,1024,1024,1024,1024,0,0,0,0,92,4.597,66.92,31.496064,P-GPS,,9.6
242,94300,2026-01-13 17:33:49,0.0,5,7.777,0.0,0.0,0.0,42.3,7.6,-3.5,1024,1024,1024,1024,0,0,0,0,92,4.597,66.92,31.496064,P-GPS,,9.6
243,94400,2026-01-13 17:33:49,0.0,5,7.777,0.0,0.0,0.0,42.2,7.6,-3.9,1024,1024,1024,1024,0,0,0,0,92,4.597,66.92,31.496064,P-GPS,,9.6
244,94500,2026-01-13 17:33:49,0.223694,5,7.777,-0.223694,0.0,0.0,42.1,7.5,-4.5,1024,1024,1024,1024,0,0,0,0,92,4.597,66.92,31.496064,P-GPS,,9.6
245,94600,2026-01-13 17:33:49,0.223694,5,7.777,-0.223694,0.0,0.0,42.1,7.1,-4.9,1024,1024,1024,1024,0,0,0,0,92,4.597,66.92,31.496064,P-GPS,,9.6
246,94700,2026-01-13 17:33:49,0.0,5,7.79,0.0,0.0,0.0,42.2,6.2,-4.3,1024,1024,1024,1024,0,0,0,0,92,4.433,66.92,31.496064,P-GPS,,9.6
247,94800,2026-01-13 17:33:50,0.0,5,7.79,0.0,0.0,0.0,42.2,5.8,-4.4,1024,1024,1024,1024,0,0,0,0,92,4.433,66.92,31.496064,P-GPS,,9.6
248,94900,2026-01-13 17:33:50,0.0,5,7.79,0.0,0.0,0.0,42.2,5.8,-4.1,1024,1024,1024,1024,0,0,0,0,92,4.433,66.92,31.16798,P-GPS,,9.5
249,95000,2026-01-13 17:33:50,0.0,5,7.79,0.0,0.0,0.0,42.2,5.9,-4.4,1024,1024,1024,1024,0,0,0,0,92,4.433,66.92,31.16798,P-GPS,,9.5
250,95100,2026-01-13 17:33:50,0.0,5,7.79,0.0,0.0,0.0,42.1,6.6,-4.1,1024,1024,1024,1024,0,0,0,0,92,4.433,66.92,31.16798,P-GPS,,9.5
251,95200,2026-01-13 17:33:50,0.0,5,7.79,0.0,0.0,0.0,42.2,7.1,-3.4,1024,1024,1024,1024,0,0,0,0,92,4.433,66.92,30.839896,P-GPS,,9.4
252,95300,2026-01-13 17:33:50,0.0,5,7.79,0.0,0.0,0.0,42.3,7.1,-2.7,1024,1024,1024,1024,0,0,0,0,92,4.433,66.92,30.839896,P-GPS,,9.4
253,95400,2026-01-13 17:33:50,0.0,5,7.79,0.0,0.0,0.223694,42.2,7.6,-2.7,1024,1024,1024,1024,0,0,0,0,92,4.433,66.92,30.839896,P-GPS,,9.4
254,95500,2026-01-13 17:33:50,0.0,5,7.79,0.0,0.0,0.0,42.2,7.5,-2.5,1024,1024,1024,1024,0,0,0,0,92,4.433,66.92,30.511812,P-GPS,,9.3
255,95600,2026-01-13 17:33:50,0.0,5,7.79,0.0,0.0,0.0,42.2,7.1,-2.3,1024,1024,1024,1024,0,0,0,0,92,4.433,66.92,30.511812,P-GPS,,9.3
256,95700,2026-01-13 17:33:51,0.0,5,7.79,0.0,0.0,0.0,42.2,6.8,-1.5,1024,1024,1024,1024,0,0,0,0,92,4.433,66.92,30.511812,P-GPS,,9.3
257,95800,2026-01-13 17:33:51,0.0,5,7.768,0.0,0.0,0.0,42.2,6.8,-2.2,1024,1024,1024,1024,0,0,0,0,92,4.458,66.92,30.511812,P-GPS,,9.3
258,95900,2026-01-13 17:33:51,0.0,5,7.768,0.0,0.0,0.0,42.4,7.0,-2.1,1024,1024,1024,1024,0,0,0,0,92,4.458,66.92,30.511812,P-GPS,,9.3
259,96000,2026-01-13 17:33:51,0.0,5,7.768,0.0,0.0,0.0,42.2,7.4,-3.0,1024,1024,1024,1024,0,0,0,0,92,4.458,66.92,30.511812,P-GPS,,9.3
260,96100,2026-01-13 17:33:51,0.0,5,7.768,0.0,0.0,0.0,42.1,6.9,-3.4,1024,1024,1024,1024,0,0,0,0,92,4.458,66.92,30.511812,P-GPS,,9.3
261,96200,2026-01-13 17:33:51,0.0,5,7.768,0.0,0.0,0.0,42.0,6.8,-3.4,1024,1024,1024,1024,0,0,0,0,92,4.458,66.92,30.511812,P-GPS,,9.3
262,96300,2026-01-13 17:33:51,0.0,5,7.768,0.0,0.0,0.0,42.2,6.5,-3.2,1024,1024,1024,1024,0,0,0,0,92,4.458,66.92,30.511812,P-GPS,,9.3
263,96400,2026-01-13 17:33:51,0.0,5,7.768,0.0,0.0,0.0,42.2,6.4,-2.6,1024,1024,1024,1024,0,0,0,0,92,4.458,66.92,30.511812,P-GPS,,9.3
