time(millisecond),timestamp,speed(mph),gpslevel,voltage(v),xSpeed(mph),ySpeed(mph),zSpeed(mph),compass_heading(degrees),pitch(degrees),roll(degrees),rc_elevator,rc_aileron,rc_throttle,rc_rudder,rc_elevator(percent),rc_aileron(percent),rc_throttle(percent),rc_rudder(percent),battery_percent,current(A),battery_temperature(f),ascent(feet),flycState,message,height_above_takeoff(meters)
417700,2026-01-11 17:24:57,0.0,5,7.451,0.0,0.0,-4.250186,38.2,4.7,-2.5,1024,1024,1684,1024,0,0,100,0,72,5.693,62.78,26.902888,P-GPS,,8.2
417800,2026-01-11 17:24:58,0.223694,5,7.451,0.0,-0.223694,-4.250186,38.0,3.7,-1.4,1024,1024,1684,1024,0,0,100,0,72,5.693,62.78,27.559056,P-GPS,,8.4
417900,2026-01-11 17:24:58,0.223694,5,7.451,0.0,-0.223694,-4.250186,38.0,3.6,-0.9,1024,1024,1684,1024,0,0,100,0,72,5.693,62.78,28.215224,P-GPS,,8.6
418000,2026-01-11 17:24:58,0.223694,5,7.451,0.0,-0.223694,-4.250186,38.1,3.1,0.3,1024,1024,1684,1024,0,0,100,0,72,5.693,62.78,28.871392,P-GPS,,8.8
418100,2026-01-11 17:24:58,0.0,5,7.451,0.0,0.0,-4.250186,37.9,3.6,0.8,1024,1024,1684,1024,0,0,100,0,72,5.693,62.78,29.52756,P-GPS,,9.0
418200,2026-01-11 17:24:58,0.0,5,7.451,0.223694,0.0,-4.250186,37.6,5.0,1.0,1024,1024,1684,1024,0,0,100,0,72,5.693,62.78,30.183728,P-GPS,,9.2
418300,2026-01-11 17:24:58,0.0,5,7.443,0.0,0.0,-4.026492,37.9,6.6,1.1,1024,1024,1684,1024,0,0,100,0,71,5.449,62.78,30.839896,P-GPS,,9.4
418400,2026-01-11 17:24:58,0.0,5,7.443,0.0,0.0,-4.026492,38.2,5.3,1.2,1024,1024,1684,1024,0,0,100,0,71,5.449,62.78,31.496064,P-GPS,,9.6
418500,2026-01-11 17:24:58,0.0,5,7.443,0.0,0.0,-4.250186,38.5,4.5,0.3,1024,1024,1024,1024,0,0,0,0,71,5.449,62.78,32.152232,P-GPS,,9.8
418600,2026-01-11 17:24:58,0.0,5,7.443,0.0,0.0,-4.250186,38.5,4.3,-0.5,1024,1024,1024,1024,0,0,0,0,71,5.449,62.78,32.8084,P-GPS,,10.0
418700,2026-01-11 17:24:58,0.223694,5,7.443,0.0,0.223694,-4.250186,38.4,5.2,-1.2,1024,1024,1024,1024,0,0,0,0,71,5.449,62.78,33.464568,P-GPS,,10.2
418800,2026-01-11 17:24:59,0.223694,5,7.443,0.0,0.223694,-4.026492,38.1,5.2,-1.9,1024,1024,1024,1024,0,0,0,0,71,5.449,62.78,34.120736,P-GPS,,10.4
418900,2026-01-11 17:24:59,0.223694,5,7.443,0.0,0.223694,-3.579104,38.0,5.8,-2.7,1024,1024,1024,1024,0,0,0,0,71,5.449,62.78,34.776904,P-GPS,,10.6
419000,2026-01-11 17:24:59,0.223694,5,7.443,0.0,0.223694,-2.908022,38.0,6.4,-2.8,1024,1024,1024,1024,0,0,0,0,71,5.449,62.78,35.433072,P-GPS,,10.8
419100,2026-01-11 17:24:59,0.223694,5,7.443,0.0,0.223694,-2.23694,38.0,6.7,-2.6,1024,1024,1024,1024,0,0,0,0,71,5.449,62.78,35.761156,P-GPS,,10.9
419200,2026-01-11 17:24:59,0.3131716,5,7.443,0.223694,0.223694,-1.565858,37.9,7.7,-2.7,1024,1024,1024,1024,0,0,0,0,71,5.449,62.78,36.08924,P-GPS,,11.0
419300,2026-01-11 17:24:59,0.3131716,5,7.443,0.223694,0.223694,-0.894776,37.8,8.9,-2.2,1024,1024,1024,1024,0,0,0,0,71,5.449,62.78,36.08924,P-GPS,,11.0
419400,2026-01-11 17:24:59,0.3131716,5,7.528,0.223694,0.223694,-0.447388,38.0,8.9,-1.4,1024,1024,1024,1024,0,0,0,0,71,5.057,62.78,36.08924,P-GPS,,11.0
419500,2026-01-11 17:24:59,0.3131716,5,7.528,0.223694,0.223694,-0.223694,38.1,8.4,-1.1,1024,1024,1024,1024,0,0,0,0,71,5.057,62.78,36.08924,P-GPS,,11.0
419600,2026-01-11 17:24:59,0.223694,5,7.528,0.223694,0.0,0.0,38.1,8.7,-1.2,1024,1024,1024,1024,0,0,0,0,71,5.057,62.78,36.08924,P-GPS,,11.0
419700,2026-01-11 17:24:59,0.0,5,7.528,0.0,0.0,0.0,38.0,8.4,-1.2,1024,1024,1024,1024,0,0,0,0,71,5.057,62.78,36.08924,P-GPS,,11.0
419800,2026-01-11 17:24:59,0.0,5,7.528,0.0,0.0,0.0,37.8,8.0,-1.6,1024,1024,1024,1024,0,0,0,0,71,5.057,62.78,35.761156,P-GPS,,10.9
419900,2026-01-11 17:25:00,0.0,5,7.528,0.0,0.0,0.0,37.7,8.0,0.1,1024,1024,1024,1024,0,0,0,0,71,5.057,62.78,35.761156,P-GPS,,10.9
420000,2026-01-11 17:25:00,0.0,5,7.528,0.0,0.0,0.0,38.0,7.8,1.5,1024,1024,1024,1024,0,0,0,0,71,5.057,62.78,35.761156,P-GPS,,10.9
420100,2026-01-11 17:25:00,0.0,5,7.528,0.0,0.0,0.0,38.2,8.2,2.0,1024,1024,1024,1024,0,0,0,0,71,5.057,62.78,35.761156,P-GPS,,10.9
420200,2026-01-11 17:25:00,0.0,5,7.528,0.0,0.0,0.0,38.3,8.3,1.6,1024,1024,1024,1024,0,0,0,0,71,5.057,62.78,35.761156,P-GPS,,10.9
420300,2026-01-11 17:25:00,0.0,5,7.528,0.0,0.0,0.0,38.3,8.4,0.6,1024,1024,1024,1024,0,0,0,0,71,5.057,62.78,35.761156,P-GPS,,10.9
420400,2026-01-11 17:25:00,0.0,5,7.528,0.0,0.0,0.0,38.3,8.0,0.0,1024,1024,1024,1024,0,0,0,0,71,5.057,62.78,35.761156,P-GPS,,10.9
420500,2026-01-11 17:25:00,0.223694,5,7.488,-0.223694,0.0,0.0,38.3,8.0,-1.1,1024,1024,1024,1024,0,0,0,0,71,4.424,62.78,35.761156,P-GPS,,10.9
420600,2026-01-11 17:25:00,0.223694,5,7.488,-0.223694,0.0,0.0,38.2,7.7,-1.8,1024,1024,1024,1024,0,0,0,0,71,4.424,62.78,35.761156,P-GPS,,10.9
420700,2026-01-11 17:25:00,0.223694,5,7.488,-0.223694,0.0,0.0,38.1,6.9,-2.3,1024,1024,1024,1024,0,0,0,0,71,4.424,62.78,36.08924,P-GPS,,11.0
420800,2026-01-11 17:25:01,0.447388,5,7.488,-0.447388,0.0,0.0,38.0,6.2,-3.2,1024,1024,1024,1024,0,0,0,0,71,4.424,62.78,36.08924,P-GPS,,11.0
420900,2026-01-11 17:25:01,0.223694,5,7.488,-0.223694,0.0,0.0,38.0,5.4,-3.6,1024,1024,1024,1024,0,0,0,0,71,4.424,62.78,36.08924,P-GPS,,11.0
421000,2026-01-11 17:25:01,0.223694,5,7.488,-0.223694,0.0,0.0,37.9,5.4,-3.6,1024,1024,1024,1024,0,0,0,0,71,4.424,62.78,36.417324,P-GPS,,11.1
421100,2026-01-11 17:25:01,0.223694,5,7.488,-0.223694,0.0,0.0,38.0,5.0,-3.9,1024,1024,1024,1024,0,0,0,0,71,4.424,62.78,36.417324,P-GPS,,11.1
421200,2026-01-11 17:25:01,0.223694,5,7.488,-0.223694,0.0,0.0,38.0,5.0,-4.3,1024,1024,1024,1024,0,0,0,0,71,4.424,62.78,36.417324,P-GPS,,11.1
421300,2026-01-11 17:25:01,0.223694,5,7.488,-0.223694,0.0,0.0,37.9,5.1,-4.4,1024,1024,1024,1024,0,0,0,0,71,4.424,62.78,36.417324,P-GPS,,11.1
421400,2026-01-11 17:25:01,0.223694,5,7.488,-0.223694,0.0,0.0,37.9,5.5,-4.2,1024,1024,1024,1024,0,0,0,0,71,4.424,62.78,36.417324,P-GPS,,11.1
421500,2026-01-11 17:25:01,0.0,5,7.488,0.0,0.0,0.0,37.9,5.9,-4.0,1024,1024,1024,1024,0,0,0,0,71,4.424,62.78,36.745408,P-GPS,,11.2
421600,2026-01-11 17:25:01,0.0,5,7.489,0.0,0.0,0.0,38.0,6.1,-3.9,1024,1024,1024,1024,0,0,0,0,71,4.557,62.78,36.745408,P-GPS,,11.2
421700,2026-01-11 17:25:01,0.0,5,7.489,0.0,0.0,0.0,37.9,5.7,-3.8,1024,1024,1024,1024,0,0,0,0,71,4.557,62.78,36.745408,P-GPS,,11.2
421800,2026-01-11 17:25:02,0.0,5,7.489,0.0,0.0,0.0,38.0,6.0,-4.2,1024,1024,1024,1024,0,0,0,0,71,4.557,62.78,36.745408,P-GPS,,11.2
421900,2026-01-11 17:25:02,0.0,5,7.489,0.0,0.0,0.0,38.1,5.9,-3.7,1024,1024,1024,1024,0,0,0,0,71,4.557,62.78,36.745408,P-GPS,,11.2
422000,2026-01-11 17:25:02,0.0,5,7.489,0.0,0.0,0.0,38.2,5.2,-3.9,1024,1024,1024,1024,0,0,0,0,71,4.557,62.78,36.745408,P-GPS,,11.2
422100,2026-01-11 17:25:02,0.0,5,7.489,0.0,0.0,0.0,38.1,5.3,-3.6,1024,1024,1024,1024,0,0,0,0,71,4.557,62.78,36.745408,P-GPS,,11.2
422200,2026-01-11 17:25:02,0.223694,5,7.489,0.0,-0.223694,0.0,38.0,4.7,-3.7,1024,1024,1024,1024,0,0,0,0,71,4.557,62.78,36.745408,P-GPS,,11.2
422300,2026-01-11 17:25:02,0.223694,5,7.489,0.0,-0.223694,0.223694,37.9,4.1,-3.0,1024,1024,1024,1024,0,0,0,0,71,4.557,62.78,36.417324,P-GPS,,11.1
422400,2026-01-11 17:25:02,0.223694,5,7.489,0.0,-0.223694,0.0,38.1,2.7,-2.4,1024,1024,1024,1024,0,0,0,0,71,4.557,62.78,36.417324,P-GPS,,11.1
422500,2026-01-11 17:25:02,0.223694,5,7.489,0.0,-0.223694,0.0,37.9,3.0,-1.9,1024,1024,1024,1024,0,0,0,0,71,4.557,62.78,36.417324,P-GPS,,11.1
422600,2026-01-11 17:25:02,0.0,5,7.489,0.0,0.0,0.0,37.9,3.6,-2.4,1024,1024,1024,1024,0,0,0,0,71,4.557,62.78,36.417324,P-GPS,,11.1
422700,2026-01-11 17:25:02,0.0,5,7.431,0.0,0.0,0.0,38.0,2.5,-3.0,1024,1024,1024,1024,0,0,0,0,71,5.329,62.78,36.417324,P-GPS,,11.1
422800,2026-01-11 17:25:03,0.0,5,7.431,0.0,0.0,0.0,37.9,3.4,-3.1,1024,1024,1024,1024,0,0,0,0,71,5.329,62.78,36.417324,P-GPS,,11.1
422900,2026-01-11 17:25:03,0.0,5,7.431,0.0,0.0,0.0,37.9,4.7,-2.9,1024,1024,1024,1024,0,0,0,0,71,5.329,62.78,36.417324,P-GPS,,11.1
423000,2026-01-11 17:25:03,0.0,5,7.431,0.0,0.0,0.0,37.9,5.5,-3.6,1024,1024,1024,1024,0,0,0,0,71,5.329,62.78,36.417324,P-GPS,,11.1
423100,2026-01-11 17:25:03,0.0,5,7.431,0.0,0.0,0.0,37.9,5.4,-3.3,1024,1024,1024,1024,0,0,0,0,71,5.329,62.78,36.417324,P-GPS,,11.1
423200,2026-01-11 17:25:03,0.0,5,7.431,0.0,0.0,0.0,38.0,5.3,-3.1,1024,1024,1024,1024,0,0,0,0,71,5.329,62.78,36.417324,P-GPS,,11.1
423300,2026-01-11 17:25:03,0.0,5,7.431,0.0,0.0,0.0,37.9,6.4,-3.0,1024,1024,1024,1024,0,0,0,0,71,5.329,62.78,36.417324,P-GPS,,11.1
423400,2026-01-11 17:25:03,0.0,5,7.431,0.0,0.0,0.0,37.8,6.6,-3.2,1024,1024,1024,1024,0,0,0,0,71,5.329,62.78,36.417324,P-GPS,,11.1
423500,2026-01-11 17:25:03,0.0,5,7.431,0.0,0.0,0.0,37.7,7.3,-3.0,1024,1024,1024,1024,0,0,0,0,71,5.329,62.78,36.417324,P-GPS,,11.1
423600,2026-01-11 17:25:03,0.0,5,7.431,0.0,0.0,0.0,37.8,7.7,-2.7,1024,1024,1024,1024,0,0,0,0,71,5.329,62.78,36.417324,P-GPS,,11.1
423700,2026-01-11 17:25:04,0.0,5,7.431,0.0,0.0,0.0,37.8,7.4,-2.7,1024,1024,1024,1024,0,0,0,0,71,5.329,62.78,36.417324,P-GPS,,11.1
423800,2026-01-11 17:25:04,0.0,5,7.431,0.0,0.0,0.0,37.8,7.6,-3.1,1024,1024,1024,1024,0,0,0,0,71,5.329,62.78,36.745408,P-GPS,,11.2
423900,2026-01-11 17:25:04,0.0,5,7.431,0.0,0.0,0.0,37.7,7.7,-3.6,1024,1024,1024,1024,0,0,0,0,71,5.329,62.78,36.745408,P-GPS,,11.2
424000,2026-01-11 17:25:04,0.0,5,7.431,0.0,0.0,0.0,37.6,7.9,-3.5,1024,1024,1024,1024,0,0,0,0,71,5.329,62.78,36.745408,P-GPS,,11.2
424100,2026-01-11 17:25:04,0.0,5,7.431,0.0,0.0,0.0,37.6,7.7,-3.9,1024,1024,1024,1024,0,0,0,0,71,5.329,62.78,36.745408,P-GPS,,11.2
424200,2026-01-11 17:25:04,0.0,5,7.431,0.0,0.0,0.0,37.6,7.1,-3.9,1024,1024,1024,1024,0,0,0,0,71,5.329,62.78,36.745408,P-GPS,,11.2
424300,2026-01-11 17:25:04,0.0,5,7.431,0.0,0.0,0.0,37.6,7.0,-4.1,1024,1024,1024,1024,0,0,0,0,71,5.329,62.78,36.745408,P-GPS,,11.2
424400,2026-01-11 17:25:04,0.0,5,7.431,0.0,0.0,0.0,37.7,6.8,-4.1,1024,1024,1024,1024,0,0,0,0,71,5.329,62.78,36.745408,P-GPS,,11.2
424500,2026-01-11 17:25:04,0.0,5,7.431,0.0,0.0,0.0,37.7,7.0,-4.0,1024,1024,1024,1024,0,0,0,0,71,5.329,62.78,36.745408,P-GPS,,11.2
424600,2026-01-11 17:25:04,0.0,5,7.431,0.0,0.0,0.0,37.8,7.3,-4.2,1024,1024,1024,1024,0,0,0,0,71,5.329,62.78,36.417324,P-GPS,,11.1
424700,2026-01-11 17:25:04,0.0,5,7.431,0.0,0.0,0.223694,37.8,7.1,-4.2,1024,1024,1024,1024,0,0,0,0,71,5.329,62.78,36.417324,P-GPS,,11.1
424800,2026-01-11 17:25:05,0.0,5,7.431,0.0,0.0,0.0,37.7,7.2,-4.1,1024,1024,1024,1024,0,0,0,0,71,5.329,62.78,36.417324,P-GPS,,11.1
424900,2026-01-11 17:25:05,0.0,5,7.477,0.0,0.0,0.223694,37.9,6.4,-4.0,1024,1024,1024,1024,0,0,0,0,71,4.644,62.78,36.417324,P-GPS,,11.1
425000,2026-01-11 17:25:05,0.0,5,7.477,0.0,0.0,0.0,37.9,6.2,-3.8,1024,1024,1024,1024,0,0,0,0,71,4.644,62.78,36.417324,P-GPS,,11.1
425100,2026-01-11 17:25:05,0.0,5,7.477,0.0,0.0,0.0,37.8,6.6,-3.9,1024,1024,1024,1024,0,0,0,0,71,4.644,62.78,36.417324,P-GPS,,11.1
425200,2026-01-11 17:25:05,0.0,5,7.477,0.0,0.0,0.0,37.7,6.9,-3.8,1024,1024,1024,1024,0,0,0,0,71,4.644,62.78,36.08924,P-GPS,,11.0
425300,2026-01-11 17:25:05,0.0,5,7.477,0.0,0.0,0.0,37.8,6.8,-3.9,1024,1024,1024,1024,0,0,0,0,71,4.644,62.78,36.08924,P-GPS,,11.0
425400,2026-01-11 17:25:05,0.0,5,7.477,0.0,0.0,0.0,37.8,6.6,-4.1,1024,1024,1024,1024,0,0,0,0,71,4.644,62.78,36.08924,P-GPS,,11.0
425500,2026-01-11 17:25:05,0.0,5,7.477,0.0,0.0,0.0,37.9,5.3,-3.5,1024,1024,1024,1024,0,0,0,0,71,4.644,62.78,36.08924,P-GPS,,11.0
425600,2026-01-11 17:25:05,0.0,5,7.477,0.0,0.0,0.0,38.0,4.8,-3.5,1024,1024,1024,1024,0,0,0,0,71,4.644,62.78,36.08924,P-GPS,,11.0
425700,2026-01-11 17:25:05,0.0,5,7.477,0.0,0.0,0.0,37.8,6.0,-3.8,1024,1024,1024,1024,0,0,0,0,71,4.644,62.78,35.761156,P-GPS,,10.9
425800,2026-01-11 17:25:06,0.0,5,7.477,0.0,0.0,0.0,37.7,7.2,-3.7,1024,1024,1024,1024,0,0,0,0,71,4.644,62.78,35.761156,P-GPS,,10.9
425900,2026-01-11 17:25:06,0.0,5,7.477,0.0,0.0,0.0,37.8,7.2,-3.6,1024,1024,1024,1024,0,0,0,0,71,4.644,62.78,35.761156,P-GPS,,10.9
426000,2026-01-11 17:25:06,0.0,5,7.478,0.0,0.0,0.0,37.7,7.4,-3.3,1024,1024,1024,1024,0,0,0,0,71,4.818,62.78,35.761156,P-GPS,,10.9
426100,2026-01-11 17:25:06,0.0,5,7.478,0.0,0.0,0.0,37.7,7.9,-2.8,1024,1024,1024,1024,0,0,0,0,71,4.818,62.78,35.761156,P-GPS,,10.9
426200,2026-01-11 17:25:06,0.0,5,7.478,0.0,0.0,0.0,37.6,8.4,-2.8,1024,1024,1024,1024,0,0,0,0,71,4.818,62.78,35.433072,P-GPS,,10.8
426300,2026-01-11 17:25:06,0.0,5,7.478,0.0,0.0,0.0,37.7,7.9,-2.6,1024,1024,1024,1024,0,0,0,0,71,4.818,62.78,35.433072,P-GPS,,10.8
426400,2026-01-11 17:25:06,0.0,5,7.478,0.0,0.0,0.0,37.7,7.8,-2.9,1024,1024,1024,1024,0,0,0,0,71,4.818,62.78,35.433072,P-GPS,,10.8
426500,2026-01-11 17:25:06,0.0,5,7.478,0.0,0.0,0.0,37.7,7.6,-2.5,1024,1024,1024,1024,0,0,0,0,71,4.818,62.78,35.433072,P-GPS,,10.8
426600,2026-01-11 17:25:06,0.0,5,7.478,0.0,0.0,0.0,37.7,7.0,-2.9,1024,1024,1024,1024,0,0,0,0,71,4.818,62.78,35.433072,P-GPS,,10.8
426700,2026-01-11 17:25:06,0.0,5,7.478,0.0,0.0,0.0,37.7,6.7,-2.2,1024,1024,1024,1024,0,0,0,0,71,4.818,62.78,35.433072,P-GPS,,10.8
426800,2026-01-11 17:25:07,0.223694,5,7.478,0.0,-0.223694,0.0,37.7,6.3,-2.4,1024,1024,1024,1024,0,0,0,0,71,4.818,62.78,35.433072,P-GPS,,10.8
426900,2026-01-11 17:25:07,0.0,5,7.478,0.0,0.0,0.0,37.9,6.1,-2.4,1024,1024,1024,1024,0,0,0,0,71,4.818,62.78,35.433072,P-GPS,,10.8
427000,2026-01-11 17:25:07,0.0,5,7.478,0.0,0.0,0.0,37.8,6.2,-2.0,1024,1024,1024,1024,0,0,0,0,71,4.818,62.78,35.433072,P-GPS,,10.8
427100,2026-01-11 17:25:07,0.0,5,7.455,0.0,0.0,0.0,37.7,6.2,-1.9,1024,1024,1024,1024,0,0,0,0,71,5.122,62.78,35.433072,P-GPS,,10.8
427200,2026-01-11 17:25:07,0.0,5,7.455,0.0,0.0,0.0,37.7,6.6,-1.9,1024,1024,1024,1024,0,0,0,0,71,5.122,62.78,35.433072,P-GPS,,10.8
427300,2026-01-11 17:25:07,0.0,5,7.455,0.0,0.0,0.0,37.7,6.9,-2.3,1024,1024,1024,1024,0,0,0,0,71,5.122,62.78,35.433072,P-GPS,,10.8
427400,2026-01-11 17:25:07,0.0,5,7.455,0.0,0.0,0.0,37.7,6.9,-2.8,1024,1024,1024,1024,0,0,0,0,71,5.122,62.78,35.433072,P-GPS,,10.8
427500,2026-01-11 17:25:07,0.0,5,7.455,0.0,0.0,0.0,37.7,7.2,-2.7,1024,1024,1024,1024,0,0,0,0,71,5.122,62.78,35.104988,P-GPS,,10.7
427600,2026-01-11 17:25:07,0.0,5,7.455,0.0,0.0,0.0,37.7,7.4,-2.4,1024,1024,1024,1024,0,0,0,0,71,5.122,62.78,35.104988,P-GPS,,10.7
427700,2026-01-11 17:25:07,0.0,5,7.455,0.0,0.0,0.0,37.6,8.0,-2.5,1024,1024,1024,1024,0,0,0,0,71,5.122,62.78,35.104988,P-GPS,,10.7
427800,2026-01-11 17:25:08,0.0,5,7.455,0.0,0.0,0.0,37.7,7.6,-2.1,1024,1024,1024,1024,0,0,0,0,71,5.122,62.78,35.104988,P-GPS,,10.7
427900,2026-01-11 17:25:08,0.0,5,7.455,0.0,0.0,0.0,37.8,7.4,-2.1,1024,1024,1024,1024,0,0,0,0,71,5.122,62.78,35.433072,P-GPS,,10.8
428000,2026-01-11 17:25:08,0.0,5,7.455,0.0,0.0,0.0,37.7,7.5,-2.2,1024,1024,1024,1024,0,0,0,0,71,5.122,62.78,35.433072,P-GPS,,10.8
428100,2026-01-11 17:25:08,0.0,5,7.455,0.0,0.0,0.0,37.8,7.7,-2.3,1024,1024,1024,1024,0,0,0,0,71,5.122,62.78,35.433072,P-GPS,,10.8
428200,2026-01-11 17:25:08,0.0,5,7.452,0.0,0.0,0.0,37.8,7.4,-2.4,1024,1024,1024,1024,0,0,0,0,71,5.122,62.78,35.433072,P-GPS,,10.8
428300,2026-01-11 17:25:08,0.0,5,7.452,0.0,0.0,0.0,37.8,7.0,-2.4,1024,1024,1024,1024,0,0,0,0,71,5.122,62.78,35.433072,P-GPS,,10.8
428400,2026-01-11 17:25:08,0.0,5,7.452,0.0,0.0,0.0,37.7,7.1,-2.5,1024,1024,1024,1024,0,0,0,0,71,5.122,62.78,35.104988,P-GPS,,10.7
428500,2026-01-11 17:25:08,0.0,5,7.452,0.0,0.0,0.0,37.7,7.2,-2.0,1024,1024,1024,1024,0,0,0,0,71,5.122,62.78,35.104988,P-GPS,,10.7
428600,2026-01-11 17:25:08,0.0,5,7.452,0.0,0.0,0.0,37.8,6.1,-2.2,1024,1024,1024,1024,0,0,0,0,71,5.122,62.78,35.104988,P-GPS,,10.7
428700,2026-01-11 17:25:08,0.0,5,7.452,0.0,0.0,0.0,37.8,6.8,-2.0,1024,1024,1024,1024,0,0,0,0,71,5.122,62.78,35.104988,P-GPS,,10.7
428800,2026-01-11 17:25:09,0.0,5,7.452,0.0,0.0,0.0,37.7,6.2,-2.0,1024,1024,1024,1024,0,0,0,0,71,5.122,62.78,35.104988,P-GPS,,10.7
428900,2026-01-11 17:25:09,0.0,5,7.452,0.0,0.0,0.0,37.8,6.1,-1.8,1024,1024,1024,1024,0,0,0,0,71,5.122,62.78,35.104988,P-GPS,,10.7
429000,2026-01-11 17:25:09,0.0,5,7.452,0.0,0.0,0.0,37.8,5.8,-2.0,1024,1024,1024,1024,0,0,0,0,71,5.122,62.78,35.104988,P-GPS,,10.7
429100,2026-01-11 17:25:09,0.0,5,7.452,0.0,0.0,0.0,37.8,5.4,-2.3,1024,1024,1024,1024,0,0,0,0,71,5.122,62.78,35.104988,P-GPS,,10.7
429200,2026-01-11 17:25:09,0.0,5,7.452,0.0,0.0,0.0,37.9,5.3,-2.8,1024,1024,1024,1024,0,0,0,0,71,5.122,62.78,35.433072,P-GPS,,10.8
429300,2026-01-11 17:25:09,0.0,5,7.454,0.0,0.0,0.0,37.9,5.3,-3.1,1024,1024,1024,1024,0,0,0,0,71,4.881,62.96,35.433072,P-GPS,,10.8
429400,2026-01-11 17:25:09,0.0,5,7.454,0.0,0.0,0.0,37.9,5.3,-3.2,1024,1024,1024,1024,0,0,0,0,71,4.881,62.96,35.433072,P-GPS,,10.8
429500,2026-01-11 17:25:09,0.0,5,7.454,0.0,0.0,0.0,37.8,5.6,-3.3,1024,1024,1024,1024,0,0,0,0,71,4.881,62.96,35.433072,P-GPS,,10.8
429600,2026-01-11 17:25:09,0.0,5,7.454,0.0,0.0,0.0,37.8,5.7,-3.4,1024,1024,1024,1024,0,0,0,0,71,4.881,62.96,35.433072,P-GPS,,10.8
429700,2026-01-11 17:25:09,0.0,5,7.454,0.0,0.0,0.0,37.8,5.2,-3.1,1024,1024,1024,1024,0,0,0,0,71,4.881,62.96,35.433072,P-GPS,,10.8
429800,2026-01-11 17:25:10,0.0,5,7.454,0.0,0.0,0.0,37.7,6.0,-3.1,1024,1024,1024,1024,0,0,0,0,71,4.881,62.96,35.433072,P-GPS,,10.8
429900,2026-01-11 17:25:10,0.0,5,7.454,0.0,0.0,0.0,37.8,5.9,-2.9,1024,1024,1024,1024,0,0,0,0,71,4.881,62.96,35.433072,P-GPS,,10.8
430000,2026-01-11 17:25:10,0.0,5,7.454,0.0,0.0,0.0,37.9,5.4,-2.7,1024,1024,1024,1024,0,0,0,0,71,4.881,62.96,35.433072,P-GPS,,10.8
430100,2026-01-11 17:25:10,0.0,5,7.454,0.0,0.0,0.0,37.9,5.3,-2.9,1024,1024,1024,1024,0,0,0,0,71,4.881,62.96,35.433072,P-GPS,,10.8
430200,2026-01-11 17:25:10,0.0,5,7.454,0.0,0.0,0.0,37.8,5.8,-2.9,1024,1024,1024,1024,0,0,0,0,71,4.881,62.96,35.433072,P-GPS,,10.8
430300,2026-01-11 17:25:10,0.0,5,7.454,0.0,0.0,0.0,37.8,6.1,-3.1,1024,1024,1024,1024,0,0,0,0,71,4.881,62.96,35.433072,P-GPS,,10.8
430400,2026-01-11 17:25:10,0.0,5,7.464,0.0,0.0,0.0,37.8,5.9,-3.4,1024,1024,1024,1024,0,0,0,0,71,4.834,62.96,35.433072,P-GPS,,10.8
430500,2026-01-11 17:25:10,0.0,5,7.464,0.0,0.0,0.0,37.8,5.5,-2.8,1024,1024,1024,1024,0,0,0,0,71,4.834,62.96,35.433072,P-GPS,,10.8
430600,2026-01-11 17:25:10,0.0,5,7.464,0.0,0.0,0.0,37.7,5.9,-3.2,1024,1024,1024,1024,0,0,0,0,71,4.834,62.96,35.433072,P-GPS,,10.8
430700,2026-01-11 17:25:10,0.0,5,7.464,0.0,0.0,0.0,37.8,5.9,-3.4,1024,1024,1024,1024,0,0,0,0,71,4.834,62.96,35.433072,P-GPS,,10.8
430800,2026-01-11 17:25:11,0.0,5,7.464,0.0,0.0,0.0,37.9,5.6,-3.4,1024,1024,1024,1024,0,0,0,0,71,4.834,62.96,35.433072,P-GPS,,10.8
430900,2026-01-11 17:25:11,0.0,5,7.464,0.0,0.0,0.0,37.8,5.7,-3.3,1024,1024,1024,1024,0,0,0,0,71,4.834,62.96,35.433072,P-GPS,,10.8
431000,2026-01-11 17:25:11,0.0,5,7.464,0.0,0.0,0.0,37.8,6.2,-3.3,1024,1024,1024,1024,0,0,0,0,71,4.834,62.96,35.433072,P-GPS,,10.8
431100,2026-01-11 17:25:11,0.0,5,7.464,0.0,0.0,0.0,37.8,5.9,-3.5,1024,1024,1024,1024,0,0,0,0,71,4.834,62.96,35.433072,P-GPS,,10.8
431200,2026-01-11 17:25:11,0.0,5,7.464,0.0,0.0,0.0,37.8,6.0,-3.2,1024,1024,1024,1024,0,0,0,0,71,4.834,62.96,35.433072,P-GPS,,10.8
431300,2026-01-11 17:25:11,0.0,5,7.464,0.0,0.0,0.0,37.7,6.1,-2.8,1024,1024,1024,1024,0,0,0,0,71,4.834,62.96,35.433072,P-GPS,,10.8
431400,2026-01-11 17:25:11,0.0,5,7.464,0.0,0.0,0.0,37.7,6.2,-3.1,1024,1024,1024,1024,0,0,0,0,71,4.834,62.96,35.433072,P-GPS,,10.8
431500,2026-01-11 17:25:11,0.0,5,7.449,0.0,0.0,0.0,37.7,6.7,-3.1,1024,1024,1024,1024,0,0,0,0,71,4.939,62.96,35.433072,P-GPS,,10.8
431600,2026-01-11 17:25:11,0.0,5,7.449,0.0,0.0,0.0,37.7,6.6,-2.9,1024,1024,1024,1024,0,0,0,0,71,4.939,62.96,35.433072,P-GPS,,10.8
431700,2026-01-11 17:25:11,0.0,5,7.449,0.0,0.0,0.0,37.7,6.5,-2.5,1024,1024,1024,1024,0,0,0,0,71,4.939,62.96,35.104988,P-GPS,,10.7
431800,2026-01-11 17:25:12,0.0,5,7.449,0.0,0.0,0.0,37.9,6.3,-2.2,1024,1024,1024,1024,0,0,0,0,71,4.939,62.96,35.104988,P-GPS,,10.7
431900,2026-01-11 17:25:12,0.0,5,7.449,0.0,0.0,0.0,37.8,6.4,-1.9,1024,1024,1024,1024,0,0,0,0,71,4.939,62.96,35.104988,P-GPS,,10.7
432000,2026-01-11 17:25:12,0.0,5,7.449,0.0,0.0,0.0,37.8,6.0,-2.0,1024,1024,1024,1024,0,0,0,0,71,4.939,62.96,35.104988,P-GPS,,10.7
432100,2026-01-11 17:25:12,0.0,5,7.449,0.0,0.0,0.0,37.8,6.6,-2.1,1024,1024,1024,1024,0,0,0,0,71,4.939,62.96,35.104988,P-GPS,,10.7
432200,2026-01-11 17:25:12,0.0,5,7.449,0.0,0.0,0.0,37.9,6.7,-2.4,1024,1024,1024,1024,0,0,0,0,71,4.939,62.96,35.104988,P-GPS,,10.7
432300,2026-01-11 17:25:12,0.0,5,7.449,0.0,0.0,0.0,37.9,5.5,-2.5,1024,1024,1024,1024,0,0,0,0,71,4.939,62.96,35.104988,P-GPS,,10.7
432400,2026-01-11 17:25:12,0.0,5,7.449,0.0,0.0,0.0,37.9,5.4,-2.8,1024,1024,1024,1024,0,0,0,0,71,4.939,62.96,35.104988,P-GPS,,10.7
432500,2026-01-11 17:25:12,0.0,5,7.449,0.0,0.0,0.0,37.8,5.0,-2.8,1024,1024,1024,1024,0,0,0,0,71,4.939,62.96,35.104988,P-GPS,,10.7
432600,2026-01-11 17:25:12,0.223694,5,7.443,-0.223694,0.0,0.0,37.8,4.3,-2.4,1024,1024,1024,1024,0,0,0,0,70,5.212,62.96,34.776904,P-GPS,,10.6
432700,2026-01-11 17:25:12,0.223694,5,7.443,-0.223694,0.0,0.0,37.9,3.1,-2.5,1024,1024,1024,1024,0,0,0,0,70,5.212,62.96,34.776904,P-GPS,,10.6
432800,2026-01-11 17:25:13,0.0,5,7.443,0.0,0.0,0.0,37.9,2.5,-2.6,1024,1024,1024,1024,0,0,0,0,70,5.212,62.96,34.776904,P-GPS,,10.6
432900,2026-01-11 17:25:13,0.0,5,7.443,0.0,0.0,0.0,37.8,2.2,-2.8,1024,1024,1024,1024,0,0,0,0,70,5.212,62.96,34.776904,P-GPS,,10.6
433000,2026-01-11 17:25:13,0.0,5,7.443,0.0,0.0,0.0,37.9,2.6,-2.6,1024,1024,1024,1024,0,0,0,0,70,5.212,62.96,34.776904,P-GPS,,10.6
433100,2026-01-11 17:25:13,0.0,5,7.443,0.0,0.0,0.0,37.7,3.0,-2.2,1024,1024,1024,1024,0,0,0,0,70,5.212,62.96,34.776904,P-GPS,,10.6
433200,2026-01-11 17:25:13,0.0,5,7.443,0.0,0.0,0.0,37.7,3.5,-1.4,1024,1024,1024,1024,0,0,0,0,70,5.212,62.96,34.776904,P-GPS,,10.6
433300,2026-01-11 17:25:13,0.0,5,7.443,0.0,0.0,0.0,37.8,4.1,-0.7,1024,1024,1024,1024,0,0,0,0,70,5.212,62.96,34.776904,P-GPS,,10.6
433400,2026-01-11 17:25:13,0.0,5,7.443,0.0,0.0,0.0,38.0,4.5,-0.7,1024,1024,1024,1024,0,0,0,0,70,5.212,62.96,34.776904,P-GPS,,10.6
433500,2026-01-11 17:25:13,0.0,5,7.443,0.0,0.0,0.0,37.9,4.7,-1.8,1024,1024,1024,1024,0,0,0,0,70,5.212,62.96,34.776904,P-GPS,,10.6
433600,2026-01-11 17:25:13,0.0,5,7.443,0.0,0.0,0.0,38.0,5.3,-2.0,1024,1024,1024,1024,0,0,0,0,70,5.212,62.96,34.776904,P-GPS,,10.6
433700,2026-01-11 17:25:13,0.0,5,7.464,0.0,0.0,0.0,37.9,5.4,-1.7,1024,1024,1024,1024,0,0,0,0,70,4.589,62.96,34.776904,P-GPS,,10.6
433800,2026-01-11 17:25:13,0.0,5,7.464,0.0,0.0,0.0,37.9,6.6,-2.1,1024,1024,1024,1024,0,0,0,0,70,4.589,62.96,35.104988,P-GPS,,10.7
433900,2026-01-11 17:25:14,0.0,5,7.464,0.0,0.0,0.0,37.9,6.4,-1.9,1024,1024,1024,1024,0,0,0,0,70,4.589,62.96,35.104988,P-GPS,,10.7
434000,2026-01-11 17:25:14,0.0,5,7.464,0.0,0.0,0.0,37.8,6.0,-2.1,1024,1024,1024,1024,0,0,0,0,70,4.589,62.96,35.104988,P-GPS,,10.7
434100,2026-01-11 17:25:14,0.0,5,7.464,0.0,0.0,0.0,37.8,5.2,-1.4,1024,1024,1024,1024,0,0,0,0,70,4.589,62.96,35.104988,P-GPS,,10.7
434200,2026-01-11 17:25:14,0.0,5,7.464,0.0,0.0,0.0,37.9,4.6,-1.1,1024,1024,1024,1024,0,0,0,0,70,4.589,62.96,35.104988,P-GPS,,10.7
434300,2026-01-11 17:25:14,0.0,5,7.464,0.0,0.0,0.0,38.0,4.3,-1.3,1024,1024,1024,1024,0,0,0,0,70,4.589,62.96,35.104988,P-GPS,,10.7
434400,2026-01-11 17:25:14,0.0,5,7.464,0.0,0.0,0.0,37.9,4.5,-1.9,1024,1024,1024,1024,0,0,0,0,70,4.589,62.96,35.104988,P-GPS,,10.7
434500,2026-01-11 17:25:14,0.0,5,7.464,0.0,0.0,0.0,37.9,4.7,-2.5,1024,1024,1024,1024,0,0,0,0,70,4.589,62.96,35.104988,P-GPS,,10.7
434600,2026-01-11 17:25:14,0.0,5,7.464,0.0,0.0,0.0,37.9,4.6,-3.0,1024,1024,1024,1024,0,0,0,0,70,4.589,62.96,35.433072,P-GPS,,10.8
434700,2026-01-11 17:25:14,0.0,5,7.464,0.0,0.0,0.0,37.9,5.0,-3.2,1024,1024,1024,1024,0,0,0,0,70,4.589,62.96,35.433072,P-GPS,,10.8
434800,2026-01-11 17:25:15,0.0,5,7.464,0.0,0.0,0.0,37.8,4.8,-3.1,1024,1024,1024,1024,0,0,0,0,70,4.589,62.96,35.433072,P-GPS,,10.8
434900,2026-01-11 17:25:15,0.0,5,7.464,0.0,0.0,0.0,37.9,4.9,-3.0,1024,1024,1024,1024,0,0,0,0,70,4.589,62.96,35.433072,P-GPS,,10.8
435000,2026-01-11 17:25:15,0.0,5,7.464,0.0,0.0,0.0,37.9,4.5,-3.1,1024,1024,1024,1024,0,0,0,0,70,4.589,62.96,35.433072,P-GPS,,10.8
435100,2026-01-11 17:25:15,0.0,5,7.464,0.0,0.0,0.0,37.9,3.8,-2.9,1024,1024,1024,1024,0,0,0,0,70,4.589,62.96,35.433072,P-GPS,,10.8
435200,2026-01-11 17:25:15,0.0,5,7.464,0.0,0.0,0.0,37.9,3.7,-2.6,1024,1024,1024,1024,0,0,0,0,70,4.589,62.96,35.433072,P-GPS,,10.8
435300,2026-01-11 17:25:15,0.0,5,7.464,0.0,0.0,0.0,38.0,2.6,-4.7,1024,1024,1024,1024,0,0,0,0,70,4.589,62.96,35.104988,P-GPS,,10.7
435400,2026-01-11 17:25:15,0.0,5,7.464,0.0,0.0,0.0,37.6,5.1,-3.1,1024,1024,1024,1024,0,0,0,0,70,4.589,62.96,35.104988,P-GPS,,10.7
435500,2026-01-11 17:25:15,0.223694,5,7.464,0.223694,0.0,0.0,37.6,7.1,-0.8,1024,1024,1024,1024,0,0,0,0,70,4.589,62.96,34.776904,P-GPS,,10.6
435600,2026-01-11 17:25:15,0.223694,5,7.464,0.223694,0.0,0.0,37.5,7.6,0.4,1024,1024,1024,1024,0,0,0,0,70,4.589,62.96,34.776904,P-GPS,,10.6
435700,2026-01-11 17:25:15,0.0,5,7.464,0.0,0.0,0.0,37.9,7.2,1.3,1024,1024,1024,1024,0,0,0,0,70,4.589,62.96,34.776904,P-GPS,,10.6
435800,2026-01-11 17:25:15,0.0,5,7.464,0.0,0.0,0.0,37.9,6.4,0.8,1024,1024,1024,1024,0,0,0,0,70,4.589,62.96,34.776904,P-GPS,,10.6
435900,2026-01-11 17:25:16,0.0,5,7.466,0.0,0.0,0.0,38.0,5.5,-0.5,1024,1024,1024,1024,0,0,0,0,70,4.311,62.96,34.776904,P-GPS,,10.6
436000,2026-01-11 17:25:16,0.0,5,7.466,0.0,0.0,0.0,38.1,4.7,-0.9,1024,1024,1024,1024,0,0,0,0,70,4.311,62.96,34.776904,P-GPS,,10.6
436100,2026-01-11 17:25:16,0.0,5,7.466,0.0,0.0,0.0,38.0,5.0,-2.2,1024,1024,1024,1024,0,0,0,0,70,4.311,62.96,34.776904,P-GPS,,10.6
436200,2026-01-11 17:25:16,0.0,5,7.466,0.0,0.0,0.0,38.0,4.2,-1.6,1024,1024,1024,1024,0,0,0,0,70,4.311,62.96,34.776904,P-GPS,,10.6
436300,2026-01-11 17:25:16,0.0,5,7.466,0.0,0.0,0.0,38.4,3.7,-0.6,1024,1024,1024,1024,0,0,0,0,70,4.311,62.96,34.776904,P-GPS,,10.6
436400,2026-01-11 17:25:16,0.0,5,7.466,0.0,0.0,0.0,38.5,4.2,-0.7,1024,1024,1024,1024,0,0,0,0,70,4.311,62.96,34.776904,P-GPS,,10.6
436500,2026-01-11 17:25:16,0.0,5,7.466,0.0,0.0,0.0,38.5,4.8,-1.4,1024,1024,1024,1024,0,0,0,0,70,4.311,62.96,35.104988,P-GPS,,10.7
436600,2026-01-11 17:25:16,0.0,5,7.466,0.0,0.0,0.0,38.5,5.5,-1.1,1024,1024,1024,1024,0,0,0,0,70,4.311,62.96,35.104988,P-GPS,,10.7
436700,2026-01-11 17:25:16,0.0,5,7.466,0.0,0.0,0.0,38.4,5.9,-0.7,1024,1024,1024,1024,0,0,0,0,70,4.311,62.96,35.104988,P-GPS,,10.7
436800,2026-01-11 17:25:17,0.0,5,7.466,0.0,0.0,0.0,38.4,5.6,-0.6,1024,1024,1024,1024,0,0,0,0,70,4.311,62.96,35.104988,P-GPS,,10.7
436900,2026-01-11 17:25:17,0.0,5,7.466,0.0,0.0,0.0,38.5,4.6,-0.8,1024,1024,1024,1024,0,0,0,0,70,4.311,62.96,35.104988,P-GPS,,10.7
437000,2026-01-11 17:25:17,0.0,5,7.473,0.0,0.0,0.0,38.4,3.6,-0.5,1024,1024,1024,1024,0,0,0,0,70,4.417,62.96,35.104988,P-GPS,,10.7
437100,2026-01-11 17:25:17,0.0,5,7.473,0.0,0.0,0.0,38.1,3.4,-1.1,1024,1024,1024,1024,0,0,0,0,70,4.417,62.96,35.104988,P-GPS,,10.7
437200,2026-01-11 17:25:17,0.0,5,7.473,0.0,0.0,0.0,38.0,3.7,-0.7,1024,1024,1024,1024,0,0,0,0,70,4.417,62.96,35.104988,P-GPS,,10.7
437300,2026-01-11 17:25:17,0.0,5,7.473,0.0,0.0,0.0,38.2,3.9,0.6,1024,1024,1024,1024,0,0,0,0,70,4.417,62.96,35.104988,P-GPS,,10.7
437400,2026-01-11 17:25:17,0.0,5,7.473,0.0,0.0,0.0,38.0,3.7,0.0,1024,1024,1024,1024,0,0,0,0,70,4.417,62.96,34.776904,P-GPS,,10.6
437500,2026-01-11 17:25:17,0.0,5,7.473,0.0,0.0,0.0,38.1,4.9,0.8,1024,1024,1024,1024,0,0,0,0,70,4.417,62.96,34.776904,P-GPS,,10.6
437600,2026-01-11 17:25:17,0.0,5,7.473,0.0,0.0,0.0,38.7,7.4,2.3,1024,1024,1024,1024,0,0,0,0,70,4.417,62.96,34.776904,P-GPS,,10.6
437700,2026-01-11 17:25:17,0.0,5,7.473,0.0,0.0,0.223694,38.6,8.6,1.0,1024,1024,1024,1024,0,0,0,0,70,4.417,62.96,35.104988,P-GPS,,10.7
437800,2026-01-11 17:25:18,0.0,5,7.473,0.0,0.0,0.223694,38.2,8.0,-0.7,1024,1024,1024,1024,0,0,0,0,70,4.417,62.96,35.104988,P-GPS,,10.7
437900,2026-01-11 17:25:18,0.0,5,7.473,0.0,0.0,0.223694,38.0,7.5,-0.8,1024,1024,1024,1024,0,0,0,0,70,4.417,62.96,35.104988,P-GPS,,10.7
438000,2026-01-11 17:25:18,0.0,5,7.473,0.0,0.0,0.0,37.8,6.5,-0.8,1024,1024,1024,1024,0,0,0,0,70,4.417,62.96,35.104988,P-GPS,,10.7
438100,2026-01-11 17:25:18,0.0,5,7.428,0.0,0.0,0.0,37.9,5.7,-0.6,1024,1024,1024,1024,0,0,0,0,70,4.779,62.96,35.433072,P-GPS,,10.8
438200,2026-01-11 17:25:18,0.0,5,7.428,0.0,0.0,0.0,37.9,4.1,0.0,1024,1024,1024,1024,0,0,0,0,70,4.779,62.96,35.433072,P-GPS,,10.8
438300,2026-01-11 17:25:18,0.0,5,7.428,0.0,0.0,-0.223694,38.0,4.3,0.7,1024,1024,1024,1024,0,0,0,0,70,4.779,62.96,35.433072,P-GPS,,10.8
438400,2026-01-11 17:25:18,0.0,5,7.428,0.0,0.0,-0.223694,38.0,5.0,0.4,1024,1024,1024,1024,0,0,0,0,70,4.779,62.96,35.433072,P-GPS,,10.8
438500,2026-01-11 17:25:18,0.0,5,7.428,0.0,0.0,0.0,38.0,5.3,0.2,1024,1024,1024,1024,0,0,0,0,70,4.779,62.96,35.433072,P-GPS,,10.8
438600,2026-01-11 17:25:18,0.0,5,7.428,0.0,0.0,0.0,37.9,5.6,0.3,1024,1024,1024,1024,0,0,0,0,70,4.779,62.96,35.433072,P-GPS,,10.8
438700,2026-01-11 17:25:18,0.0,5,7.428,0.0,0.0,0.0,38.0,5.4,0.7,1024,1024,1024,1024,0,0,0,0,70,4.779,62.96,35.433072,P-GPS,,10.8
438800,2026-01-11 17:25:19,0.0,5,7.428,0.0,0.0,0.0,38.0,5.8,0.3,1024,1024,1024,1024,0,0,0,0,70,4.779,62.96,35.433072,P-GPS,,10.8
438900,2026-01-11 17:25:19,0.0,5,7.428,0.0,0.0,0.0,38.1,5.7,-0.1,1024,1024,1024,1024,0,0,0,0,70,4.779,62.96,35.761156,P-GPS,,10.9
439000,2026-01-11 17:25:19,0.0,5,7.428,0.0,0.0,0.0,38.1,5.6,-1.1,1024,1024,1024,1024,0,0,0,0,70,4.779,62.96,35.761156,P-GPS,,10.9
439100,2026-01-11 17:25:19,0.0,5,7.428,0.0,0.0,0.0,38.1,5.6,-1.9,1024,1024,1024,1024,0,0,0,0,70,4.779,62.96,35.761156,P-GPS,,10.9
439200,2026-01-11 17:25:19,0.0,5,7.463,0.0,0.0,0.0,38.1,5.7,-2.0,1024,1024,1024,1024,0,0,0,0,70,4.481,62.78,35.761156,P-GPS,,10.9
439300,2026-01-11 17:25:19,0.0,5,7.463,0.0,0.0,0.0,38.0,5.9,-1.9,1024,1024,1024,1024,0,0,0,0,70,4.481,62.78,35.761156,P-GPS,,10.9
439400,2026-01-11 17:25:19,0.0,5,7.463,0.0,0.0,0.0,38.0,6.2,-2.1,1024,1024,1024,1024,0,0,0,0,70,4.481,62.78,35.761156,P-GPS,,10.9
439500,2026-01-11 17:25:19,0.0,5,7.463,0.0,0.0,0.0,38.1,5.8,-1.7,1024,1024,1024,1024,0,0,0,0,70,4.481,62.78,35.761156,P-GPS,,10.9
439600,2026-01-11 17:25:19,0.0,5,7.463,0.0,0.0,0.0,38.1,5.5,-1.8,1024,1024,1024,1024,0,0,0,0,70,4.481,62.78,36.08924,P-GPS,,11.0
439700,2026-01-11 17:25:19,0.0,5,7.463,0.0,0.0,0.0,38.1,5.4,-1.9,1024,1024,1024,1024,0,0,0,0,70,4.481,62.78,36.08924,P-GPS,,11.0
439800,2026-01-11 17:25:20,0.0,5,7.463,0.0,0.0,0.0,38.1,4.9,-2.1,1024,1024,1024,1024,0,0,0,0,70,4.481,62.78,36.08924,P-GPS,,11.0
439900,2026-01-11 17:25:20,0.0,5,7.463,0.0,0.0,0.0,38.0,5.3,-2.5,1024,1024,1024,1024,0,0,0,0,70,4.481,62.78,36.08924,P-GPS,,11.0
440000,2026-01-11 17:25:20,0.0,5,7.463,0.0,0.0,0.0,38.0,5.5,-2.7,1024,1024,1024,1024,0,0,0,0,70,4.481,62.78,36.08924,P-GPS,,11.0
440100,2026-01-11 17:25:20,0.0,5,7.463,0.0,0.0,0.0,38.0,5.4,-2.6,1024,1024,1024,1024,0,0,0,0,70,4.481,62.78,36.417324,P-GPS,,11.1
440200,2026-01-11 17:25:20,0.0,5,7.463,0.0,0.0,0.0,38.1,4.9,-2.6,1024,1024,1024,1024,0,0,0,0,70,4.481,62.78,36.417324,P-GPS,,11.1
440300,2026-01-11 17:25:20,0.0,5,7.466,0.0,0.0,0.0,38.0,5.3,-2.8,1024,1024,1024,1024,0,0,0,0,70,4.679,62.78,36.417324,P-GPS,,11.1
440400,2026-01-11 17:25:20,0.0,5,7.466,0.0,0.0,0.0,38.0,5.3,-3.3,1024,1024,1024,1024,0,0,0,0,70,4.679,62.78,36.745408,P-GPS,,11.2
440500,2026-01-11 17:25:20,0.0,5,7.466,0.0,0.0,0.0,37.9,5.2,-3.5,1024,1024,1024,1024,0,0,0,0,70,4.679,62.78,36.745408,P-GPS,,11.2
440600,2026-01-11 17:25:20,0.0,5,7.466,0.0,0.0,0.0,37.9,5.2,-4.0,1024,1024,1024,1024,0,0,0,0,70,4.679,62.78,36.745408,P-GPS,,11.2
440700,2026-01-11 17:25:20,0.0,5,7.466,0.0,0.0,0.0,37.9,4.7,-4.0,1024,1024,1024,1024,0,0,0,0,70,4.679,62.78,36.745408,P-GPS,,11.2
440800,2026-01-11 17:25:21,0.0,5,7.466,0.0,0.0,0.0,38.0,4.5,-3.9,1024,1024,1024,1024,0,0,0,0,70,4.679,62.78,36.745408,P-GPS,,11.2
440900,2026-01-11 17:25:21,0.0,5,7.466,0.0,0.0,0.0,37.9,5.6,-3.8,1024,1024,1024,1024,0,0,0,0,70,4.679,62.78,36.745408,P-GPS,,11.2
441000,2026-01-11 17:25:21,0.0,5,7.466,0.0,0.0,0.223694,37.9,5.5,-3.5,1024,1024,1024,1024,0,0,0,0,70,4.679,62.78,36.745408,P-GPS,,11.2
441100,2026-01-11 17:25:21,0.0,5,7.466,0.0,0.0,0.223694,38.0,5.1,-3.5,1024,1024,1024,1024,0,0,0,0,70,4.679,62.78,36.745408,P-GPS,,11.2
441200,2026-01-11 17:25:21,0.0,5,7.466,0.0,0.0,0.0,37.9,5.3,-2.9,1024,1024,1024,1024,0,0,0,0,70,4.679,62.78,36.745408,P-GPS,,11.2
441300,2026-01-11 17:25:21,0.0,5,7.466,0.0,0.0,0.0,37.8,5.3,-2.7,1024,1024,1024,1024,0,0,0,0,70,4.679,62.78,37.073492,P-GPS,,11.3
441400,2026-01-11 17:25:21,0.0,5,7.451,0.0,0.0,0.223694,37.8,5.8,-2.6,1024,1024,1024,1024,0,0,0,0,70,4.828,62.96,37.073492,P-GPS,,11.3
441500,2026-01-11 17:25:21,0.0,5,7.451,0.0,0.0,0.0,37.8,5.7,-2.6,1024,1024,1024,1024,0,0,0,0,70,4.828,62.96,37.073492,P-GPS,,11.3
441600,2026-01-11 17:25:21,0.0,5,7.451,0.0,0.0,0.0,37.9,5.7,-2.8,1024,1024,1024,1024,0,0,0,0,70,4.828,62.96,37.073492,P-GPS,,11.3
441700,2026-01-11 17:25:21,0.0,5,7.451,0.0,0.0,0.0,37.8,5.0,-2.8,1024,1024,1024,1024,0,0,0,0,70,4.828,62.96,37.073492,P-GPS,,11.3
441800,2026-01-11 17:25:22,0.0,5,7.451,0.0,0.0,0.0,37.8,5.0,-3.4,1024,1024,1024,1024,0,0,0,0,70,4.828,62.96,37.073492,P-GPS,,11.3
441900,2026-01-11 17:25:22,0.0,5,7.451,0.0,0.0,0.0,37.8,5.5,-3.3,1024,1024,1024,1024,0,0,0,0,70,4.828,62.96,37.073492,P-GPS,,11.3
442000,2026-01-11 17:25:22,0.0,5,7.451,0.0,0.0,0.223694,37.9,5.9,-2.8,1024,1024,1024,1024,0,0,0,0,70,4.828,62.96,37.073492,P-GPS,,11.3
442100,2026-01-11 17:25:22,0.0,5,7.451,0.0,0.0,0.223694,38.0,5.9,-2.5,1024,1024,1024,1024,0,0,0,0,70,4.828,62.96,36.745408,P-GPS,,11.2
442200,2026-01-11 17:25:22,0.0,5,7.451,0.0,0.0,0.223694,38.0,5.6,-2.0,1024,1024,1024,1024,0,0,0,0,70,4.828,62.96,36.745408,P-GPS,,11.2
442300,2026-01-11 17:25:22,0.0,5,7.451,0.0,0.0,0.223694,37.8,5.5,-1.9,1024,1024,1024,1024,0,0,0,0,70,4.828,62.96,36.745408,P-GPS,,11.2
442400,2026-01-11 17:25:22,0.0,5,7.451,0.0,0.0,0.0,37.8,4.8,-1.9,1024,1024,1024,1024,0,0,0,0,70,4.828,62.96,36.417324,P-GPS,,11.1
442500,2026-01-11 17:25:22,0.0,5,7.433,0.0,0.0,0.0,37.8,4.5,-1.9,1024,1024,1024,1024,0,0,0,0,70,4.857,62.78,36.417324,P-GPS,,11.1
442600,2026-01-11 17:25:22,0.0,5,7.433,0.0,0.0,0.0,37.9,4.3,-1.9,1024,1024,1024,1024,0,0,0,0,70,4.857,62.78,36.417324,P-GPS,,11.1
442700,2026-01-11 17:25:22,0.0,5,7.433,0.0,0.0,0.0,37.8,4.4,-1.9,1024,1024,1024,1024,0,0,0,0,70,4.857,62.78,36.417324,P-GPS,,11.1
442800,2026-01-11 17:25:23,0.0,5,7.433,0.0,0.0,0.0,37.8,4.5,-2.2,1024,1024,1024,1024,0,0,0,0,70,4.857,62.78,36.417324,P-GPS,,11.1
442900,2026-01-11 17:25:23,0.0,5,7.433,0.0,0.0,0.0,37.9,4.4,-2.6,1024,1024,1024,1024,0,0,0,0,70,4.857,62.78,36.417324,P-GPS,,11.1
443000,2026-01-11 17:25:23,0.0,5,7.433,0.0,0.0,0.0,37.9,4.4,-2.6,1024,1024,1024,1024,0,0,0,0,70,4.857,62.78,36.417324,P-GPS,,11.1
443100,2026-01-11 17:25:23,0.0,5,7.433,0.0,0.0,0.0,37.8,4.2,-2.4,1024,1024,1024,1024,0,0,0,0,70,4.857,62.78,36.08924,P-GPS,,11.0
443200,2026-01-11 17:25:23,0.0,5,7.433,0.0,0.0,0.0,37.9,4.4,-2.5,1024,1024,1024,1024,0,0,0,0,70,4.857,62.78,36.08924,P-GPS,,11.0
443300,2026-01-11 17:25:23,0.0,5,7.433,0.0,0.0,0.0,37.9,4.1,-2.8,1024,1024,1024,1024,0,0,0,0,70,4.857,62.78,36.08924,P-GPS,,11.0
443400,2026-01-11 17:25:23,0.0,5,7.433,0.0,0.0,0.0,37.9,4.0,-2.7,1024,1024,1082,1024,0,0,9,0,70,4.857,62.78,36.08924,P-GPS,,11.0
443500,2026-01-11 17:25:23,0.0,5,7.433,0.0,0.0,0.0,37.8,3.9,-2.5,1024,1024,1684,1024,0,0,100,0,70,4.857,62.78,36.08924,P-GPS,,11.0
443600,2026-01-11 17:25:23,0.0,5,7.442,0.0,0.0,0.0,37.7,4.1,-2.3,1024,1024,1684,1024,0,0,100,0,70,4.872,62.78,36.08924,P-GPS,,11.0
443700,2026-01-11 17:25:23,0.0,5,7.442,0.0,0.0,0.0,37.7,4.2,-1.7,1024,1024,1684,1024,0,0,100,0,70,4.872,62.78,36.08924,P-GPS,,11.0
443800,2026-01-11 17:25:24,0.0,5,7.442,0.0,0.0,-0.447388,37.9,4.6,-1.3,1024,1024,1684,1024,0,0,100,0,70,4.872,62.78,36.08924,P-GPS,,11.0
443900,2026-01-11 17:25:24,0.0,5,7.442,0.0,0.0,-1.11847,38.0,4.2,-1.3,1024,1024,1684,1024,0,0,100,0,70,4.872,62.78,36.08924,P-GPS,,11.0
444000,2026-01-11 17:25:24,0.0,5,7.442,0.0,0.0,-1.789552,38.1,4.1,-1.2,1024,1024,1684,1024,0,0,100,0,70,4.872,62.78,36.417324,P-GPS,,11.1
444100,2026-01-11 17:25:24,0.223694,5,7.442,0.0,-0.223694,-2.684328,38.0,3.9,-1.0,1024,1024,1684,1024,0,0,100,0,70,4.872,62.78,36.745408,P-GPS,,11.2
444200,2026-01-11 17:25:24,0.223694,5,7.442,0.0,-0.223694,-3.35541,38.0,3.6,-0.9,1024,1024,1684,1024,0,0,100,0,70,4.872,62.78,37.401576,P-GPS,,11.4
444300,2026-01-11 17:25:24,0.0,5,7.442,0.0,0.0,-4.026492,37.9,3.1,-0.8,1024,1024,1684,1024,0,0,100,0,70,4.872,62.78,37.72966,P-GPS,,11.5
444400,2026-01-11 17:25:24,0.0,5,7.442,0.0,0.0,-4.250186,37.8,3.1,-0.7,1024,1024,1684,1024,0,0,100,0,70,4.872,62.78,38.385828,P-GPS,,11.7
444500,2026-01-11 17:25:24,0.0,5,7.442,0.0,0.0,-4.250186,37.7,3.4,-1.0,1024,1024,1684,1024,0,0,100,0,70,4.872,62.78,39.041996,P-GPS,,11.9
535300,2026-01-11 17:26:55,0.223694,5,7.394,0.223694,0.0,4.026492,39.1,2.4,-3.6,1024,1024,364,1024,0,0,-100,0,63,4.197,64.04,39.041996,P-GPS,,11.9
535400,2026-01-11 17:26:55,0.447388,5,7.394,0.447388,0.0,3.802798,39.1,3.1,-3.2,1024,1024,364,1024,0,0,-100,0,63,4.197,64.04,38.713912,P-GPS,,11.8
535500,2026-01-11 17:26:55,0.447388,5,7.394,0.447388,0.0,3.802798,38.9,4.0,-1.7,1024,1024,364,1024,0,0,-100,0,63,4.197,64.04,38.057744,P-GPS,,11.6
535600,2026-01-11 17:26:55,0.447388,5,7.394,0.447388,0.0,3.802798,38.9,4.2,-1.6,1024,1024,364,1024,0,0,-100,0,63,4.197,64.04,37.401576,P-GPS,,11.4
535700,2026-01-11 17:26:56,0.223694,5,7.394,0.223694,0.0,3.802798,38.9,4.9,-1.5,1024,1024,364,1024,0,0,-100,0,63,4.197,64.04,37.073492,P-GPS,,11.3
535800,2026-01-11 17:26:56,0.223694,5,7.394,0.223694,0.0,4.026492,38.9,4.6,-1.6,1024,1024,364,1024,0,0,-100,0,63,4.197,64.04,36.417324,P-GPS,,11.1
535900,2026-01-11 17:26:56,0.0,5,7.394,0.0,0.0,4.026492,39.0,5.1,-1.6,1024,1024,364,1024,0,0,-100,0,63,4.197,64.04,35.761156,P-GPS,,10.9
536000,2026-01-11 17:26:56,0.0,5,7.394,0.0,0.0,4.026492,39.2,4.5,-1.7,1024,1024,364,1024,0,0,-100,0,63,4.197,64.04,35.433072,P-GPS,,10.8
536100,2026-01-11 17:26:56,0.0,5,7.391,0.0,0.0,4.026492,39.3,4.1,-2.5,1024,1024,364,1024,0,0,-100,0,63,4.31,64.04,35.104988,P-GPS,,10.7
536200,2026-01-11 17:26:56,0.0,5,7.391,0.0,0.0,4.026492,39.3,2.7,-2.4,1024,1024,364,1024,0,0,-100,0,63,4.31,64.04,34.776904,P-GPS,,10.6
536300,2026-01-11 17:26:56,0.0,5,7.391,0.0,0.0,3.802798,39.4,2.8,-2.2,1024,1024,364,1024,0,0,-100,0,63,4.31,64.04,34.120736,P-GPS,,10.4
536400,2026-01-11 17:26:56,0.0,5,7.391,0.0,0.0,3.802798,39.6,3.3,-2.4,1024,1024,364,1024,0,0,-100,0,63,4.31,64.04,33.464568,P-GPS,,10.2
536500,2026-01-11 17:26:56,0.0,5,7.391,0.0,0.0,3.802798,39.5,3.4,-2.1,1024,1024,364,1024,0,0,-100,0,63,4.31,64.04,33.136484,P-GPS,,10.1
536600,2026-01-11 17:26:56,0.0,5,7.391,0.0,0.0,3.802798,39.5,2.9,-2.1,1024,1024,364,1024,0,0,-100,0,63,4.31,64.04,32.480316,P-GPS,,9.9
536700,2026-01-11 17:26:56,0.0,5,7.391,0.0,0.0,3.802798,39.4,2.9,-2.2,1024,1024,364,1024,0,0,-100,0,63,4.31,64.04,31.824148,P-GPS,,9.7
536800,2026-01-11 17:26:57,0.0,5,7.391,0.0,0.0,4.026492,39.3,2.6,-2.5,1024,1024,364,1024,0,0,-100,0,63,4.31,64.04,31.496064,P-GPS,,9.6
536900,2026-01-11 17:26:57,0.0,5,7.391,0.0,0.0,4.026492,39.2,3.0,-2.2,1024,1024,364,1024,0,0,-100,0,63,4.31,64.04,30.839896,P-GPS,,9.4
537000,2026-01-11 17:26:57,0.0,5,7.391,0.0,0.0,4.026492,39.2,2.3,-2.1,1024,1024,364,1024,0,0,-100,0,63,4.31,64.04,30.183728,P-GPS,,9.2
537100,2026-01-11 17:26:57,0.0,5,7.391,0.0,0.0,4.026492,39.3,1.6,-1.6,1024,1024,364,1024,0,0,-100,0,63,4.31,64.04,29.52756,P-GPS,,9.0
537200,2026-01-11 17:26:57,0.0,5,7.397,0.0,0.0,4.026492,39.4,1.1,-0.7,1024,1024,364,1024,0,0,-100,0,63,4.457,64.04,29.199476,P-GPS,,8.9
537300,2026-01-11 17:26:57,0.0,5,7.397,0.0,0.0,4.026492,39.3,1.1,-1.3,1024,1024,364,1024,0,0,-100,0,63,4.457,64.04,28.543308,P-GPS,,8.7
537400,2026-01-11 17:26:57,0.0,5,7.397,0.0,0.0,4.026492,39.2,2.3,-1.0,1024,1024,364,1024,0,0,-100,0,63,4.457,64.04,27.88714,P-GPS,,8.5
537500,2026-01-11 17:26:57,0.0,5,7.397,0.0,0.0,4.026492,39.2,1.8,-1.6,1024,1024,364,1024,0,0,-100,0,63,4.457,64.04,27.559056,P-GPS,,8.4
537600,2026-01-11 17:26:57,0.223694,5,7.397,-0.223694,0.0,4.026492,39.2,0.1,-3.2,1024,1024,364,1024,0,0,-100,0,63,4.457,64.04,26.902888,P-GPS,,8.2
537700,2026-01-11 17:26:57,0.223694,5,7.397,-0.223694,0.0,4.026492,39.3,0.0,-3.1,1024,1024,364,1024,0,0,-100,0,63,4.457,64.04,26.574804,P-GPS,,8.1
