index,time(millisecond),timestamp,speed(mph),gpslevel,voltage(v),xSpeed(mph),ySpeed(mph),zSpeed(mph),compass_heading(degrees),pitch(degrees),roll(degrees),rc_elevator,rc_aileron,rc_throttle,rc_rudder,rc_elevator(percent),rc_aileron(percent),rc_throttle(percent),rc_rudder(percent),battery_percent,current(A),battery_temperature(f),ascent(feet),flycState,message,height_above_takeoff(meters)
431,506100,2026-01-13 17:41:35,0.0,5,7.426,0.0,0.0,0.0,37.7,12.5,-3.8,1024,1024,1024,1024,0,0,0,0,63,4.802,74.84,98.753284,P-GPS,,30.1
432,506200,2026-01-13 17:41:35,0.0,5,7.426,0.0,0.0,0.0,37.6,12.7,-3.8,1024,1024,1024,1024,0,0,0,0,63,4.802,74.84,98.753284,P-GPS,,30.1
433,506300,2026-01-13 17:41:35,0.0,5,7.426,0.0,0.0,0.0,37.6,12.4,-4.8,1024,1024,1024,1024,0,0,0,0,63,4.802,74.84,98.753284,P-GPS,,30.1
434,506400,2026-01-13 17:41:35,0.0,5,7.426,0.0,0.0,0.0,37.6,11.4,-4.8,1024,1024,1024,1024,0,0,0,0,63,4.802,74.84,98.4252,P-GPS,,30.0
435,506500,2026-01-13 17:41:35,0.0,5,7.426,0.0,0.0,-0.223694,37.6,11.4,-5.2,1024,1024,1024,1024,0,0,0,0,63,4.802,74.84,98.4252,P-GPS,,30.0
436,506600,2026-01-13 17:41:35,0.0,5,7.426,0.0,0.0,0.0,37.5,12.3,-5.6,1024,1024,1024,1024,0,0,0,0,63,4.802,74.84,98.4252,P-GPS,,30.0
437,506700,2026-01-13 17:41:35,0.0,5,7.426,0.0,0.0,0.0,37.7,11.3,-6.1,1024,1024,1024,1024,0,0,0,0,63,4.802,74.84,98.097116,P-GPS,,29.9
438,506800,2026-01-13 17:41:35,0.0,5,7.426,0.0,0.0,0.0,37.8,10.3,-6.0,1024,1024,1024,1024,0,0,0,0,63,4.802,74.84,98.097116,P-GPS,,29.9
439,506900,2026-01-13 17:41:35,0.0,5,7.426,0.0,0.0,0.0,37.5,11.4,-6.3,1024,1024,1024,1024,0,0,0,0,63,4.802,74.84,98.097116,P-GPS,,29.9
440,507000,2026-01-13 17:41:36,0.0,5,7.426,0.0,0.0,0.0,37.8,10.3,-6.4,1024,1024,1024,1024,0,0,0,0,63,4.802,74.84,97.769032,P-GPS,,29.8
441,507100,2026-01-13 17:41:36,0.0,5,7.426,0.0,0.0,0.0,37.7,10.2,-6.7,1024,1024,1024,1024,0,0,0,0,63,4.802,74.84,97.769032,P-GPS,,29.8
442,507200,2026-01-13 17:41:36,0.0,5,7.421,0.0,0.0,0.0,37.6,10.5,-7.4,1024,1024,1024,1024,0,0,0,0,63,4.218,74.84,97.769032,P-GPS,,29.8
443,507300,2026-01-13 17:41:36,0.0,5,7.421,0.0,0.0,0.0,37.7,9.8,-6.8,1024,1024,1024,1024,0,0,0,0,63,4.218,74.84,97.769032,P-GPS,,29.8
444,507400,2026-01-13 17:41:36,0.0,5,7.421,0.0,0.0,0.0,37.7,9.5,-6.7,1024,1024,1024,1024,0,0,0,0,63,4.218,74.84,97.769032,P-GPS,,29.8
445,507500,2026-01-13 17:41:36,0.0,5,7.421,0.0,0.0,0.0,37.7,10.0,-6.1,1024,1024,1024,1024,0,0,0,0,63,4.218,74.84,97.440948,P-GPS,,29.7
446,507600,2026-01-13 17:41:36,0.0,5,7.421,0.0,0.0,0.0,37.6,10.9,-5.7,1024,1024,1024,1024,0,0,0,0,63,4.218,74.84,97.440948,P-GPS,,29.7
447,507700,2026-01-13 17:41:36,0.0,5,7.421,0.0,0.0,0.0,37.6,11.4,-5.8,1024,1024,1024,1024,0,0,0,0,63,4.218,74.84,97.440948,P-GPS,,29.7
448,507800,2026-01-13 17:41:36,0.0,5,7.421,0.0,0.0,0.0,37.4,12.1,-5.7,1024,1024,1024,1024,0,0,0,0,63,4.218,74.84,97.440948,P-GPS,,29.7
449,507900,2026-01-13 17:41:36,0.0,5,7.421,0.0,0.0,0.0,37.4,12.8,-5.7,1024,1024,1024,1024,0,0,0,0,63,4.218,74.84,97.440948,P-GPS,,29.7
450,508000,2026-01-13 17:41:37,0.0,5,7.421,0.0,0.0,0.0,37.6,12.1,-6.0,1024,1024,1024,1024,0,0,0,0,63,4.218,74.84,97.440948,P-GPS,,29.7
451,508100,2026-01-13 17:41:37,0.0,5,7.421,0.0,0.0,0.0,37.6,12.0,-6.1,1024,1024,1024,1024,0,0,0,0,63,4.218,74.84,97.440948,P-GPS,,29.7
452,508200,2026-01-13 17:41:37,0.0,5,7.421,0.0,0.0,0.0,37.4,12.5,-5.9,1024,1024,1024,1024,0,0,0,0,63,4.218,74.84,97.440948,P-GPS,,29.7
453,508300,2026-01-13 17:41:37,0.0,5,7.35,0.0,0.0,0.0,37.3,12.7,-6.0,1024,1024,1024,1024,0,0,0,0,63,4.978,74.84,97.440948,P-GPS,,29.7
454,508400,2026-01-13 17:41:37,0.0,5,7.35,0.0,0.0,0.0,37.3,13.3,-6.2,1024,1024,1024,1024,0,0,0,0,63,4.978,74.84,97.440948,P-GPS,,29.7
455,508500,2026-01-13 17:41:37,0.0,5,7.35,0.0,0.0,0.0,37.3,13.5,-6.0,1024,1024,1024,1024,0,0,0,0,63,4.978,74.84,97.769032,P-GPS,,29.8
456,508600,2026-01-13 17:41:37,0.0,5,7.35,0.0,0.0,0.0,37.3,13.8,-6.3,1024,1024,1024,1024,0,0,0,0,63,4.978,74.84,97.769032,P-GPS,,29.8
457,508700,2026-01-13 17:41:37,0.223694,5,7.35,0.223694,0.0,0.0,37.4,13.9,-5.4,1024,1024,1024,1024,0,0,0,0,63,4.978,74.84,97.769032,P-GPS,,29.8
458,508800,2026-01-13 17:41:37,0.223694,5,7.35,0.223694,0.0,0.0,37.5,13.9,-5.0,1024,1024,1024,1024,0,0,0,0,63,4.978,74.84,97.769032,P-GPS,,29.8
459,508900,2026-01-13 17:41:37,0.223694,5,7.35,0.223694,0.0,0.0,37.5,13.9,-4.8,1024,1024,1024,1024,0,0,0,0,63,4.978,74.84,97.769032,P-GPS,,29.8
460,509000,2026-01-13 17:41:38,0.0,5,7.35,0.0,0.0,0.0,37.4,13.9,-4.7,1024,1024,1024,1024,0,0,0,0,63,4.978,74.84,97.769032,P-GPS,,29.8
461,509100,2026-01-13 17:41:38,0.0,5,7.35,0.0,0.0,0.0,37.4,13.9,-4.9,1024,1024,1024,1024,0,0,0,0,63,4.978,74.84,97.769032,P-GPS,,29.8
462,509200,2026-01-13 17:41:38,0.0,5,7.35,0.0,0.0,0.0,37.2,14.7,-5.1,1024,1024,1024,1024,0,0,0,0,63,4.978,74.84,98.097116,P-GPS,,29.9
463,509300,2026-01-13 17:41:38,0.0,5,7.35,0.0,0.0,0.0,37.2,15.2,-5.5,1024,1024,1024,1024,0,0,0,0,63,4.978,74.84,98.097116,P-GPS,,29.9
464,509400,2026-01-13 17:41:38,0.0,5,7.37,0.0,0.0,0.0,37.2,15.2,-5.6,1024,1024,1024,1024,0,0,0,0,63,5.798,74.84,98.097116,P-GPS,,29.9
465,509500,2026-01-13 17:41:38,0.0,5,7.37,0.0,0.0,0.0,37.4,15.0,-5.8,1024,1024,1024,1024,0,0,0,0,63,5.798,74.84,98.097116,P-GPS,,29.9
466,509600,2026-01-13 17:41:38,0.0,5,7.37,0.0,0.0,0.0,37.4,14.7,-5.9,1024,1024,1024,1024,0,0,0,0,63,5.798,74.84,98.097116,P-GPS,,29.9
467,509700,2026-01-13 17:41:38,0.0,5,7.37,0.0,0.0,0.0,37.3,14.4,-5.9,1024,1024,1024,1024,0,0,0,0,63,5.798,74.84,98.097116,P-GPS,,29.9
468,509800,2026-01-13 17:41:38,0.0,5,7.37,0.0,0.0,0.0,37.3,14.4,-6.4,1024,1024,1024,1024,0,0,0,0,63,5.798,74.84,98.097116,P-GPS,,29.9
469,509900,2026-01-13 17:41:38,0.0,5,7.37,0.0,0.0,0.0,37.2,15.0,-6.3,1024,1024,1024,1024,0,0,0,0,63,5.798,74.84,98.097116,P-GPS,,29.9
470,510000,2026-01-13 17:41:39,0.0,5,7.37,0.0,0.0,0.0,37.3,15.1,-6.9,1024,1024,1024,1024,0,0,0,0,63,5.798,74.84,98.097116,P-GPS,,29.9
471,510100,2026-01-13 17:41:39,0.0,5,7.37,0.0,0.0,0.0,37.4,14.0,-6.6,1024,1024,1024,1024,0,0,0,0,63,5.798,74.84,98.097116,P-GPS,,29.9
472,510200,2026-01-13 17:41:39,0.0,5,7.37,0.0,0.0,0.0,37.6,13.0,-6.0,1024,1024,1024,1024,0,0,0,0,63,5.798,74.84,98.097116,P-GPS,Strong wind warning Strong wind warning. Aircraft unable to return to home automatically. Lower altitude immediately and return to home manually (Code: 30149). SD card speed low. Normal use may be affected. Replace SD card (Code: 10028). Gimbal stuck. Make sure gimbal c,29.9
473,510300,2026-01-13 17:41:39,0.0,5,7.37,0.0,0.0,0.0,37.7,12.5,-5.3,1024,1024,1024,1024,0,0,0,0,63,5.798,74.84,98.097116,P-GPS,,29.9
474,510400,2026-01-13 17:41:39,0.0,5,7.37,0.0,0.0,-0.223694,37.8,11.4,-4.3,1024,1024,1024,1024,0,0,0,0,63,5.798,74.84,97.769032,P-GPS,,29.8
475,510500,2026-01-13 17:41:39,0.0,5,7.358,0.0,0.0,-0.223694,37.8,11.0,-4.5,1024,1024,1024,1024,0,0,0,0,63,5.569,74.84,97.769032,P-GPS,,29.8
476,510600,2026-01-13 17:41:39,0.0,5,7.358,0.0,0.0,-0.223694,37.8,11.6,-4.6,1024,1024,1024,1024,0,0,0,0,63,5.569,74.84,97.769032,P-GPS,,29.8
477,510700,2026-01-13 17:41:39,0.0,5,7.358,0.0,0.0,0.0,37.8,12.2,-4.0,1024,1024,1024,1024,0,0,0,0,63,5.569,74.84,97.440948,P-GPS,,29.7
478,510800,2026-01-13 17:41:39,0.0,5,7.358,0.0,0.0,0.0,37.8,12.4,-3.4,1024,1024,1024,1024,0,0,0,0,63,5.569,74.84,97.112864,P-GPS,,29.6
479,510900,2026-01-13 17:41:39,0.0,5,7.358,0.0,0.0,0.0,37.8,12.8,-3.1,1024,1024,1024,1024,0,0,0,0,63,5.569,74.84,97.112864,P-GPS,,29.6
480,511000,2026-01-13 17:41:39,0.0,5,7.358,0.0,0.0,0.223694,37.9,12.2,-3.0,1024,1024,1024,1024,0,0,0,0,63,5.569,74.84,96.78478,P-GPS,,29.5
481,511100,2026-01-13 17:41:40,0.0,5,7.358,0.0,0.0,0.223694,37.9,11.6,-3.1,1024,1024,1024,1024,0,0,0,0,63,5.569,74.84,96.78478,P-GPS,,29.5
482,511200,2026-01-13 17:41:40,0.0,5,7.358,0.0,0.0,0.0,37.9,11.0,-3.3,1024,1024,1024,1024,0,0,0,0,63,5.569,74.84,96.456696,P-GPS,,29.4
483,511300,2026-01-13 17:41:40,0.0,5,7.358,0.0,0.0,0.0,37.9,11.1,-3.2,1024,1024,1024,1024,0,0,0,0,63,5.569,74.84,96.456696,P-GPS,,29.4
484,511400,2026-01-13 17:41:40,0.0,5,7.358,0.0,0.0,0.0,37.7,11.8,-4.1,1024,1024,1024,1024,0,0,0,0,63,5.569,74.84,96.456696,P-GPS,,29.4
485,511500,2026-01-13 17:41:40,0.0,5,7.358,0.0,0.0,0.0,37.9,10.9,-3.9,1024,1024,1024,1024,0,0,0,0,63,5.569,74.84,96.456696,P-GPS,,29.4
486,511600,2026-01-13 17:41:40,0.0,5,7.403,0.0,0.0,-0.223694,37.9,11.0,-4.0,1024,1024,1024,1024,0,0,0,0,62,4.206,74.84,96.456696,P-GPS,,29.4
487,511700,2026-01-13 17:41:40,0.0,5,7.403,0.0,0.0,0.0,37.8,11.7,-4.7,1024,1024,1024,1024,0,0,0,0,62,4.206,74.84,96.456696,P-GPS,,29.4
488,511800,2026-01-13 17:41:40,0.0,5,7.403,0.0,0.0,0.0,37.8,11.6,-4.9,1024,1024,1024,1024,0,0,0,0,62,4.206,74.84,96.128612,P-GPS,,29.3
489,511900,2026-01-13 17:41:40,0.0,5,7.403,0.0,0.0,0.0,37.9,11.1,-5.0,1024,1024,1024,1024,0,0,0,0,62,4.206,74.84,96.128612,P-GPS,,29.3
490,512000,2026-01-13 17:41:41,0.0,5,7.403,0.0,0.0,0.0,37.8,11.2,-5.2,1024,1024,1024,1024,0,0,0,0,62,4.206,74.84,96.128612,P-GPS,,29.3
491,512100,2026-01-13 17:41:41,0.0,5,7.403,0.0,0.0,0.0,37.8,11.4,-5.2,1024,1024,1024,1024,0,0,0,0,62,4.206,74.84,96.128612,P-GPS,,29.3
492,512200,2026-01-13 17:41:41,0.0,5,7.403,0.0,0.0,0.0,37.8,11.1,-4.7,1024,1024,1024,1024,0,0,0,0,62,4.206,74.84,96.128612,P-GPS,,29.3
493,512300,2026-01-13 17:41:41,0.0,5,7.403,0.0,0.0,0.0,37.8,11.7,-4.2,1024,1024,1024,1024,0,0,0,0,62,4.206,74.84,96.128612,P-GPS,,29.3
494,512400,2026-01-13 17:41:41,0.0,5,7.403,0.0,0.0,0.0,37.9,10.8,-3.6,1024,1024,1024,1024,0,0,0,0,62,4.206,74.84,96.128612,P-GPS,,29.3
495,512500,2026-01-13 17:41:41,0.0,5,7.403,0.0,0.0,0.0,37.9,9.9,-4.0,1024,1024,1024,1024,0,0,0,0,62,4.206,74.84,96.128612,P-GPS,,29.3
496,512600,2026-01-13 17:41:41,0.0,5,7.403,0.0,0.0,0.0,37.9,9.8,-4.1,1024,1024,1024,1024,0,0,0,0,62,4.206,74.84,96.128612,P-GPS,,29.3
497,512700,2026-01-13 17:41:41,0.0,5,7.403,0.0,0.0,0.0,37.8,10.6,-4.7,1024,1024,1024,1024,0,0,0,0,62,4.206,74.84,96.128612,P-GPS,,29.3
498,512800,2026-01-13 17:41:41,0.0,5,7.403,0.0,0.0,0.0,37.8,10.5,-4.6,1024,1024,1024,1024,0,0,0,0,62,4.206,74.84,96.128612,P-GPS,,29.3
499,512900,2026-01-13 17:41:41,0.0,5,7.403,0.0,0.0,0.0,37.9,10.1,-3.9,1024,1024,1024,1024,0,0,0,0,62,4.206,74.84,96.456696,P-GPS,,29.4
500,513000,2026-01-13 17:41:41,0.0,5,7.403,0.0,0.0,0.0,37.8,10.4,-3.7,1024,1024,1024,1024,0,0,0,0,62,4.206,74.84,96.456696,P-GPS,,29.4
501,513100,2026-01-13 17:41:42,0.0,5,7.403,0.0,0.0,0.0,37.9,10.8,-3.8,1024,1024,1024,1024,0,0,0,0,62,4.206,74.84,96.456696,P-GPS,,29.4
502,513200,2026-01-13 17:41:42,0.0,5,7.403,0.0,0.0,0.0,37.9,10.7,-3.4,1024,1024,1024,1024,0,0,0,0,62,4.206,74.84,96.456696,P-GPS,,29.4
503,513300,2026-01-13 17:41:42,0.0,5,7.403,0.0,0.0,0.0,38.0,10.7,-2.9,1024,1024,1024,1024,0,0,0,0,62,4.206,74.84,96.456696,P-GPS,,29.4
504,513400,2026-01-13 17:41:42,0.0,5,7.403,0.0,0.0,0.0,38.0,10.2,-2.9,1024,1024,1024,1024,0,0,0,0,62,4.206,74.84,96.78478,P-GPS,,29.5
505,513500,2026-01-13 17:41:42,0.0,5,7.403,0.0,0.0,0.0,38.0,10.2,-3.3,1024,1024,1024,1024,0,0,0,0,62,4.206,74.84,96.78478,P-GPS,,29.5
506,513600,2026-01-13 17:41:42,0.0,5,7.403,0.0,0.0,0.0,37.9,10.6,-3.6,1024,1024,1024,1024,0,0,0,0,62,4.206,74.84,96.78478,P-GPS,,29.5
507,513700,2026-01-13 17:41:42,0.0,5,7.403,0.0,0.0,0.0,37.9,10.5,-4.1,1024,1024,1024,1024,0,0,0,0,62,4.206,74.84,96.78478,P-GPS,,29.5
508,513800,2026-01-13 17:41:42,0.0,5,7.408,0.0,0.0,0.0,37.9,10.3,-3.6,1024,1024,1024,1024,0,0,0,0,62,4.746,74.84,97.112864,P-GPS,,29.6
509,513900,2026-01-13 17:41:42,0.0,5,7.408,0.0,0.0,0.0,38.0,9.6,-3.3,1024,1024,1024,1024,0,0,0,0,62,4.746,74.84,97.112864,P-GPS,,29.6
510,514000,2026-01-13 17:41:43,0.0,5,7.408,0.0,0.0,0.0,37.9,9.4,-3.7,1024,1024,1024,1024,0,0,0,0,62,4.746,74.84,97.112864,P-GPS,,29.6
511,514100,2026-01-13 17:41:43,0.0,5,7.408,0.0,0.0,0.0,38.0,9.5,-3.7,1024,1024,1024,1024,0,0,0,0,62,4.746,74.84,97.112864,P-GPS,,29.6
512,514200,2026-01-13 17:41:43,0.0,5,7.408,0.0,0.0,0.0,37.9,10.4,-4.8,1024,1024,1024,1024,0,0,0,0,62,4.746,74.84,97.112864,P-GPS,,29.6
513,514300,2026-01-13 17:41:43,0.0,5,7.408,0.0,0.0,0.0,37.9,9.9,-4.9,1024,1024,1024,1024,0,0,0,0,62,4.746,74.84,97.112864,P-GPS,,29.6
514,514400,2026-01-13 17:41:43,0.0,5,7.408,0.0,0.0,0.0,37.8,11.1,-5.6,1024,1024,1024,1024,0,0,0,0,62,4.746,74.84,97.112864,P-GPS,,29.6
515,514500,2026-01-13 17:41:43,0.0,5,7.408,0.0,0.0,0.223694,37.7,11.5,-6.0,1024,1024,1024,1024,0,0,0,0,62,4.746,74.84,97.440948,P-GPS,,29.7
516,514600,2026-01-13 17:41:43,0.223694,5,7.408,0.0,0.223694,0.223694,37.5,12.4,-6.3,1024,1024,1024,1024,0,0,0,0,62,4.746,74.84,97.440948,P-GPS,,29.7
517,514700,2026-01-13 17:41:43,0.223694,5,7.408,0.0,0.223694,0.223694,37.6,12.6,-7.1,1024,1024,1024,1024,0,0,0,0,62,4.746,74.84,97.440948,P-GPS,,29.7
518,514800,2026-01-13 17:41:43,0.223694,5,7.408,0.0,0.223694,0.223694,37.7,11.3,-6.7,1024,1024,1024,1024,0,0,0,0,62,4.746,74.84,97.769032,P-GPS,,29.8
519,514900,2026-01-13 17:41:43,0.223694,5,7.403,0.0,0.223694,0.0,37.4,12.4,-7.3,1024,1024,1024,1024,0,0,0,0,62,4.524,74.84,97.769032,P-GPS,,29.8
520,515000,2026-01-13 17:41:44,0.223694,5,7.403,0.0,0.223694,0.0,37.4,12.6,-7.2,1024,1024,1024,1024,0,0,0,0,62,4.524,74.84,98.097116,P-GPS,,29.9
521,515100,2026-01-13 17:41:44,0.223694,5,7.403,0.0,0.223694,0.0,37.3,13.4,-7.1,1024,1024,1024,1024,0,0,0,0,62,4.524,74.84,98.097116,P-GPS,,29.9
522,515200,2026-01-13 17:41:44,0.223694,5,7.403,0.0,0.223694,0.0,37.5,12.5,-6.6,1024,1024,1024,1024,0,0,0,0,62,4.524,74.84,98.4252,P-GPS,,30.0
523,515300,2026-01-13 17:41:44,0.223694,5,7.403,0.0,0.0,0.0,37.4,13.2,-7.5,1024,1024,1024,1024,0,0,0,0,62,4.524,74.84,98.4252,P-GPS,,30.0
524,515400,2026-01-13 17:41:44,0.0,5,7.403,0.0,0.0,0.223694,37.4,13.0,-7.6,1024,1024,1024,1024,0,0,0,0,62,4.524,74.84,98.4252,P-GPS,,30.0
525,515500,2026-01-13 17:41:44,0.0,5,7.403,0.0,0.0,0.0,37.5,13.0,-7.4,1024,1024,1024,1024,0,0,0,0,62,4.524,74.84,98.753284,P-GPS,,30.1
526,515600,2026-01-13 17:41:44,0.0,5,7.403,0.0,0.0,0.0,37.5,13.2,-6.5,1024,1024,1024,1024,0,0,0,0,62,4.524,74.84,98.753284,P-GPS,,30.1
527,515700,2026-01-13 17:41:44,0.223694,5,7.403,0.223694,0.0,0.0,37.5,13.3,-6.0,1024,1024,1024,1024,0,0,0,0,62,4.524,74.84,98.753284,P-GPS,,30.1
528,515800,2026-01-13 17:41:44,0.223694,5,7.403,0.223694,0.0,0.0,37.5,13.6,-5.6,1024,1024,1024,1024,0,0,0,0,62,4.524,74.84,98.753284,P-GPS,,30.1
529,515900,2026-01-13 17:41:44,0.223694,5,7.403,0.223694,0.0,0.0,37.6,13.6,-5.4,1024,1024,1024,1024,0,0,0,0,62,4.524,74.84,98.753284,P-GPS,,30.1
530,516000,2026-01-13 17:41:44,0.0,5,7.354,0.0,0.0,0.0,37.6,13.4,-5.3,1024,1024,1024,1024,0,0,0,0,62,5.758,74.84,98.753284,P-GPS,,30.1
531,516100,2026-01-13 17:41:45,0.0,5,7.354,0.0,0.0,0.0,37.5,13.1,-5.2,1024,1024,1024,1024,0,0,0,0,62,5.758,74.84,98.753284,P-GPS,,30.1
532,516200,2026-01-13 17:41:45,0.0,5,7.354,0.0,0.0,0.0,37.4,13.4,-5.5,1024,1024,1024,1024,0,0,0,0,62,5.758,74.84,98.753284,P-GPS,,30.1
533,516300,2026-01-13 17:41:45,0.0,5,7.354,0.0,0.0,0.0,37.5,13.5,-5.1,1024,1024,1024,1024,0,0,0,0,62,5.758,74.84,98.753284,P-GPS,,30.1
534,516400,2026-01-13 17:41:45,0.0,5,7.354,0.0,0.0,0.0,37.5,13.4,-4.8,1024,1024,1024,1024,0,0,0,0,62,5.758,74.84,98.753284,P-GPS,,30.1
535,516500,2026-01-13 17:41:45,0.0,5,7.354,0.0,0.0,0.0,37.5,13.4,-4.7,1024,1024,1024,1024,0,0,0,0,62,5.758,74.84,98.4252,P-GPS,,30.0
536,516600,2026-01-13 17:41:45,0.0,5,7.354,0.0,0.0,0.223694,37.4,13.4,-4.4,1024,1024,1024,1024,0,0,0,0,62,5.758,74.84,98.4252,P-GPS,,30.0
537,516700,2026-01-13 17:41:45,0.0,5,7.354,0.0,0.0,0.0,37.6,13.3,-4.1,1024,1024,1024,1024,0,0,0,0,62,5.758,74.84,98.4252,P-GPS,,30.0
538,516800,2026-01-13 17:41:45,0.0,5,7.354,0.0,0.0,0.0,37.5,13.6,-3.1,1024,1024,1024,1024,0,0,0,0,62,5.758,74.84,98.097116,P-GPS,,29.9
539,516900,2026-01-13 17:41:45,0.223694,5,7.354,0.0,-0.223694,0.0,37.7,13.3,-2.7,1024,1024,1024,1024,0,0,0,0,62,5.758,74.84,98.097116,P-GPS,,29.9
540,517000,2026-01-13 17:41:45,0.223694,5,7.354,0.0,-0.223694,0.0,37.8,12.5,-2.9,1024,1024,1024,1024,0,0,0,0,62,5.758,74.84,98.097116,P-GPS,,29.9
541,517100,2026-01-13 17:41:46,0.223694,5,7.382,0.0,-0.223694,0.0,37.9,12.5,-2.3,1024,1024,1024,1024,0,0,0,0,62,5.4,75.02,98.097116,P-GPS,,29.9
542,517200,2026-01-13 17:41:46,0.0,5,7.382,0.0,0.0,0.0,37.9,12.3,-2.0,1024,1024,1024,1024,0,0,0,0,62,5.4,75.02,98.097116,P-GPS,,29.9
543,517300,2026-01-13 17:41:46,0.0,5,7.382,0.0,0.0,0.0,37.9,11.9,-2.1,1024,1024,1024,1024,0,0,0,0,62,5.4,75.02,98.097116,P-GPS,,29.9
544,517400,2026-01-13 17:41:46,0.0,5,7.382,0.0,0.0,0.0,37.8,12.1,-2.9,1024,1024,1024,1024,0,0,0,0,62,5.4,75.02,98.097116,P-GPS,,29.9
545,517500,2026-01-13 17:41:46,0.0,5,7.382,0.0,0.0,0.0,37.7,11.9,-3.4,1024,1024,1024,1024,0,0,0,0,62,5.4,75.02,98.097116,P-GPS,,29.9
546,517600,2026-01-13 17:41:46,0.0,5,7.382,0.0,0.0,0.0,37.6,12.3,-3.9,1024,1024,1024,1024,0,0,0,0,62,5.4,75.02,98.4252,P-GPS,,30.0
547,517700,2026-01-13 17:41:46,0.0,5,7.382,0.0,0.0,0.0,37.6,12.4,-4.2,1024,1024,1024,1024,0,0,0,0,62,5.4,75.02,98.4252,P-GPS,,30.0
548,517800,2026-01-13 17:41:46,0.0,5,7.382,0.0,0.0,0.0,37.6,12.4,-4.5,1024,1024,1024,1024,0,0,0,0,62,5.4,75.02,98.4252,P-GPS,,30.0
549,517900,2026-01-13 17:41:46,0.0,5,7.382,0.0,0.0,0.0,37.7,12.2,-4.6,1024,1024,1024,1024,0,0,0,0,62,5.4,75.02,98.4252,P-GPS,,30.0
550,518000,2026-01-13 17:41:47,0.0,5,7.382,0.0,0.0,0.0,37.7,12.3,-4.3,1024,1024,1024,1024,0,0,0,0,62,5.4,75.02,98.4252,P-GPS,,30.0
551,518100,2026-01-13 17:41:47,0.0,5,7.382,0.0,0.0,0.0,37.8,11.6,-3.7,1024,1024,1024,1024,0,0,0,0,62,5.4,75.02,98.4252,P-GPS,,30.0
552,518200,2026-01-13 17:41:47,0.0,5,7.373,0.0,0.0,-0.223694,38.0,10.1,-4.3,1024,1024,1024,1024,0,0,0,0,62,5.077,75.02,98.4252,P-GPS,,30.0
553,518300,2026-01-13 17:41:47,0.0,5,7.373,0.0,0.0,0.0,38.0,10.2,-4.5,1024,1024,1024,1024,0,0,0,0,62,5.077,75.02,98.4252,P-GPS,,30.0
554,518400,2026-01-13 17:41:47,0.0,5,7.373,0.0,0.0,0.0,37.9,10.2,-4.7,1024,1024,1024,1024,0,0,0,0,62,5.077,75.02,98.4252,P-GPS,,30.0
555,518500,2026-01-13 17:41:47,0.0,5,7.373,0.0,0.0,0.0,38.0,9.4,-4.6,1024,1024,1024,1024,0,0,0,0,62,5.077,75.02,98.097116,P-GPS,,29.9
556,518600,2026-01-13 17:41:47,0.223694,5,7.373,-0.223694,0.0,0.0,38.0,8.9,-4.7,1024,1024,1024,1024,0,0,0,0,62,5.077,75.02,98.097116,P-GPS,,29.9
557,518700,2026-01-13 17:41:47,0.223694,5,7.373,-0.223694,0.0,0.0,37.9,9.1,-4.5,1024,1024,1024,1024,0,0,0,0,62,5.077,75.02,98.097116,P-GPS,,29.9
558,518800,2026-01-13 17:41:47,0.223694,5,7.373,-0.223694,0.0,0.0,38.0,8.1,-5.0,1024,1024,1024,1024,0,0,0,0,62,5.077,75.02,98.097116,P-GPS,,29.9
559,518900,2026-01-13 17:41:47,0.223694,5,7.373,-0.223694,0.0,0.0,38.0,7.4,-4.9,1024,1024,1024,1024,0,0,0,0,62,5.077,75.02,98.097116,P-GPS,,29.9
560,519000,2026-01-13 17:41:48,0.223694,5,7.373,-0.223694,0.0,0.0,37.9,7.1,-5.2,1024,1024,1024,1024,0,0,0,0,62,5.077,75.02,98.097116,P-GPS,,29.9
561,519100,2026-01-13 17:41:48,0.223694,5,7.373,-0.223694,0.0,0.0,37.9,7.0,-5.6,1024,1024,1024,1024,0,0,0,0,62,5.077,75.02,98.097116,P-GPS,,29.9
562,519200,2026-01-13 17:41:48,0.223694,5,7.373,-0.223694,0.0,0.0,37.8,8.0,-5.8,1024,1024,1024,1024,0,0,0,0,62,5.077,75.02,98.097116,P-GPS,,29.9
563,519300,2026-01-13 17:41:48,0.0,5,7.426,0.0,0.0,0.0,37.9,7.9,-5.5,1024,1024,1024,1024,0,0,0,0,62,3.993,75.02,98.097116,P-GPS,,29.9
564,519400,2026-01-13 17:41:48,0.0,5,7.426,0.0,0.0,0.0,38.0,7.9,-5.2,1024,1024,1024,1024,0,0,0,0,62,3.993,75.02,98.097116,P-GPS,,29.9
565,519500,2026-01-13 17:41:48,0.0,5,7.426,0.0,0.0,0.0,38.0,7.4,-4.8,1024,1024,1024,1024,0,0,0,0,62,3.993,75.02,97.769032,P-GPS,,29.8
566,519600,2026-01-13 17:41:48,0.0,5,7.426,0.0,0.0,0.0,38.1,7.1,-4.6,1024,1024,1024,1024,0,0,0,0,62,3.993,75.02,97.769032,P-GPS,,29.8
567,519700,2026-01-13 17:41:48,0.0,5,7.426,0.0,0.0,0.0,38.1,8.7,-5.1,1024,1024,1024,1024,0,0,0,0,62,3.993,75.02,97.769032,P-GPS,,29.8
568,519800,2026-01-13 17:41:48,0.0,5,7.426,0.0,0.0,0.0,37.9,9.3,-5.1,1024,1024,1024,1024,0,0,0,0,62,3.993,75.02,97.769032,P-GPS,,29.8
569,519900,2026-01-13 17:41:48,0.0,5,7.426,0.0,0.0,0.0,37.9,8.8,-5.1,1024,1024,1024,1024,0,0,0,0,62,3.993,75.02,97.769032,P-GPS,,29.8
570,520000,2026-01-13 17:41:49,0.0,5,7.426,0.0,0.0,0.0,37.9,8.9,-5.2,1024,1024,1024,1024,0,0,0,0,62,3.993,75.02,97.769032,P-GPS,,29.8
571,520100,2026-01-13 17:41:49,0.0,5,7.426,0.0,0.0,0.0,37.9,8.9,-5.1,1024,1024,1024,1024,0,0,0,0,62,3.993,75.02,98.097116,P-GPS,,29.9
572,520200,2026-01-13 17:41:49,0.0,5,7.426,0.0,0.0,0.0,37.9,9.1,-4.9,1024,1024,1024,1024,0,0,0,0,62,3.993,75.02,98.097116,P-GPS,SD card speed low SD card speed low. Normal use may be affected. Replace SD card (Code: 10028). Gimbal stuck. Make sure gimbal cover is removed and manually check whether gimbal can rotate freely (Code: 40002),29.9
573,520300,2026-01-13 17:41:49,0.0,5,7.426,0.0,0.0,0.0,37.9,9.7,-5.2,1024,1024,1024,1024,0,0,0,0,62,3.993,75.02,98.097116,P-GPS,,29.9
574,520400,2026-01-13 17:41:49,0.0,5,7.415,0.0,0.0,0.0,38.0,9.2,-5.1,1024,1024,1024,1024,0,0,0,0,62,4.229,75.02,98.097116,P-GPS,,29.9
575,520500,2026-01-13 17:41:49,0.0,5,7.415,0.0,0.0,0.0,37.9,9.4,-5.0,1024,1024,1024,1024,0,0,0,0,62,4.229,75.02,98.097116,P-GPS,,29.9
576,520600,2026-01-13 17:41:49,0.0,5,7.415,0.0,0.0,0.0,38.0,9.1,-5.0,1024,1024,1024,1024,0,0,0,0,62,4.229,75.02,98.4252,P-GPS,,30.0
577,520700,2026-01-13 17:41:49,0.0,5,7.415,0.0,0.0,-0.223694,37.9,9.7,-5.2,1024,1024,1024,1024,0,0,0,0,62,4.229,75.02,98.4252,P-GPS,,30.0
578,520800,2026-01-13 17:41:49,0.0,5,7.415,0.0,0.0,0.0,37.7,10.7,-6.2,1024,1024,1024,1024,0,0,0,0,62,4.229,75.02,98.4252,P-GPS,,30.0
579,520900,2026-01-13 17:41:49,0.0,5,7.415,0.0,0.0,0.0,37.7,10.7,-6.4,1024,1024,1024,1024,0,0,0,0,62,4.229,75.02,98.753284,P-GPS,,30.1
580,521000,2026-01-13 17:41:50,0.0,5,7.415,0.0,0.0,0.0,37.8,10.0,-6.2,1024,1024,1024,1024,0,0,0,0,62,4.229,75.02,98.753284,P-GPS,,30.1
581,521100,2026-01-13 17:41:50,0.0,5,7.415,0.0,0.0,0.0,37.7,10.3,-6.2,1024,1024,1024,1024,0,0,0,0,62,4.229,75.02,98.753284,P-GPS,,30.1
582,521200,2026-01-13 17:41:50,0.0,5,7.415,0.0,0.0,0.0,37.7,10.5,-6.1,1024,1024,1024,1024,0,0,0,0,62,4.229,75.02,98.753284,P-GPS,,30.1
583,521300,2026-01-13 17:41:50,0.0,5,7.415,0.0,0.0,0.0,37.7,10.5,-6.2,1024,1024,1024,1024,0,0,0,0,62,4.229,75.02,98.753284,P-GPS,,30.1
584,521400,2026-01-13 17:41:50,0.0,5,7.415,0.0,0.0,0.0,37.7,10.9,-6.1,1024,1024,1024,1024,0,0,0,0,62,4.229,75.02,99.081368,P-GPS,,30.2
585,521500,2026-01-13 17:41:50,0.0,5,7.38,0.0,0.0,0.0,37.6,11.1,-6.5,1024,1024,1024,1024,0,0,0,0,62,4.661,75.02,99.081368,P-GPS,,30.2
586,521600,2026-01-13 17:41:50,0.0,5,7.38,0.0,0.0,0.0,37.6,11.1,-6.8,1024,1024,1024,1024,0,0,0,0,62,4.661,75.02,99.409452,P-GPS,,30.3
587,521700,2026-01-13 17:41:50,0.0,5,7.38,0.0,0.0,0.0,37.6,10.9,-7.0,1024,1024,1024,1024,0,0,0,0,62,4.661,75.02,99.409452,P-GPS,,30.3
588,521800,2026-01-13 17:41:50,0.0,5,7.38,0.0,0.0,0.0,37.6,10.4,-7.4,1024,1024,1024,1024,0,0,0,0,62,4.661,75.02,99.737536,P-GPS,,30.4
589,521900,2026-01-13 17:41:50,0.0,5,7.38,0.0,0.0,0.0,37.6,10.1,-7.4,1024,1024,1024,1024,0,0,0,0,62,4.661,75.02,99.737536,P-GPS,,30.4
590,522000,2026-01-13 17:41:51,0.0,5,7.38,0.0,0.0,0.0,37.6,10.0,-7.5,1024,1024,1024,1024,0,0,0,0,62,4.661,75.02,99.737536,P-GPS,,30.4
591,522100,2026-01-13 17:41:51,0.0,5,7.38,0.0,0.0,0.0,37.6,10.0,-7.3,1024,1024,1024,1024,0,0,0,0,62,4.661,75.02,100.06562,P-GPS,,30.5
592,522200,2026-01-13 17:41:51,0.0,5,7.38,0.0,0.0,0.0,37.6,10.3,-6.9,1024,1024,1024,1024,0,0,0,0,62,4.661,75.02,100.06562,P-GPS,,30.5
593,522300,2026-01-13 17:41:51,0.0,5,7.38,0.0,0.0,0.0,37.6,10.1,-6.4,1024,1024,1024,1024,0,0,0,0,62,4.661,75.02,100.06562,P-GPS,,30.5
594,522400,2026-01-13 17:41:51,0.0,5,7.38,0.0,0.0,0.0,37.7,10.3,-5.9,1024,1024,1024,1024,0,0,0,0,62,4.661,75.02,99.737536,P-GPS,,30.4
595,522500,2026-01-13 17:41:51,0.0,5,7.38,0.0,0.0,0.0,37.5,10.3,-5.8,1024,1024,1024,1024,0,0,0,0,62,4.661,75.02,99.737536,P-GPS,,30.4
596,522600,2026-01-13 17:41:51,0.0,5,7.383,0.0,0.0,0.0,37.6,10.1,-6.5,1024,1024,1024,1024,0,0,0,0,62,5.158,75.02,99.737536,P-GPS,,30.4
597,522700,2026-01-13 17:41:51,0.0,5,7.383,0.0,0.0,0.0,37.5,10.6,-5.6,1024,1024,1024,1024,0,0,0,0,62,5.158,75.02,99.737536,P-GPS,,30.4
598,522800,2026-01-13 17:41:51,0.0,5,7.383,0.0,0.0,0.0,37.5,10.2,-5.9,1024,1024,1024,1024,0,0,0,0,62,5.158,75.02,99.737536,P-GPS,,30.4
599,522900,2026-01-13 17:41:51,0.0,5,7.383,0.0,0.0,0.0,37.7,9.3,-5.5,1024,1024,1024,1024,0,0,0,0,62,5.158,75.02,99.737536,P-GPS,,30.4
600,523000,2026-01-13 17:41:51,0.0,5,7.383,0.0,0.0,0.0,37.8,8.8,-5.6,1024,1024,1024,1024,0,0,0,0,62,5.158,75.02,99.409452,P-GPS,,30.3
601,523100,2026-01-13 17:41:52,0.0,5,7.383,0.0,0.0,0.0,38.0,8.3,-5.0,1024,1024,1024,1024,0,0,0,0,62,5.158,75.02,99.409452,P-GPS,,30.3
602,523200,2026-01-13 17:41:52,0.0,5,7.383,0.0,0.0,0.0,37.9,8.5,-5.2,1024,1024,1024,1024,0,0,0,0,62,5.158,75.02,99.409452,P-GPS,,30.3
603,523300,2026-01-13 17:41:52,0.0,5,7.383,0.0,0.0,0.0,37.8,9.0,-5.6,1024,1024,1024,1024,0,0,0,0,62,5.158,75.02,99.081368,P-GPS,,30.2
604,523400,2026-01-13 17:41:52,0.0,5,7.383,0.0,0.0,0.0,37.9,7.8,-5.5,1024,1024,1024,1024,0,0,0,0,62,5.158,75.02,99.081368,P-GPS,,30.2
605,523500,2026-01-13 17:41:52,0.0,5,7.383,0.0,0.0,0.0,38.0,7.2,-6.0,1024,1024,1024,1024,0,0,0,0,62,5.158,75.02,99.081368,P-GPS,,30.2
606,523600,2026-01-13 17:41:52,0.0,5,7.383,0.0,0.0,0.0,37.8,8.3,-4.8,1024,1024,1024,1024,0,0,0,0,62,5.158,75.02,99.081368,P-GPS,,30.2
607,523700,2026-01-13 17:41:52,0.0,5,7.383,0.0,0.0,0.0,37.5,8.1,-4.9,1024,1024,1024,1024,0,0,0,0,62,5.158,75.02,98.753284,P-GPS,,30.1
608,523800,2026-01-13 17:41:52,0.0,5,7.383,0.0,0.0,0.0,37.4,6.9,-5.4,1024,1024,1024,1024,0,0,0,0,62,5.158,75.02,98.753284,P-GPS,,30.1
609,523900,2026-01-13 17:41:52,0.223694,5,7.383,0.0,-0.223694,0.0,37.5,6.8,-5.2,1024,1024,1024,1024,0,0,0,0,62,5.158,75.02,98.4252,P-GPS,,30.0
610,524000,2026-01-13 17:41:53,0.223694,5,7.383,0.0,-0.223694,0.0,37.8,6.3,-5.0,1024,1024,1024,1024,0,0,0,0,62,5.158,75.02,98.4252,P-GPS,,30.0
611,524100,2026-01-13 17:41:53,0.0,5,7.383,0.0,0.0,0.0,37.9,6.6,-4.5,1024,1024,1024,1024,0,0,0,0,62,5.158,75.02,98.4252,P-GPS,,30.0
612,524200,2026-01-13 17:41:53,0.223694,5,7.383,0.0,-0.223694,0.0,37.8,6.4,-4.3,1024,1024,1024,1024,0,0,0,0,62,5.158,75.02,98.4252,P-GPS,,30.0
613,524300,2026-01-13 17:41:53,0.0,5,7.383,0.0,0.0,0.0,37.8,5.9,-4.3,1024,1024,1024,1024,0,0,0,0,62,5.158,75.02,98.097116,P-GPS,,29.9
614,524400,2026-01-13 17:41:53,0.0,5,7.383,0.0,0.0,0.0,37.8,5.9,-4.2,1024,1024,1024,1024,0,0,0,0,62,5.158,75.02,98.097116,P-GPS,,29.9
615,524500,2026-01-13 17:41:53,0.0,5,7.383,0.0,0.0,0.0,37.9,6.0,-4.3,1024,1024,1024,1024,0,0,0,0,62,5.158,75.02,98.097116,P-GPS,,29.9
616,524600,2026-01-13 17:41:53,0.0,5,7.383,0.0,0.0,0.0,38.1,6.2,-4.4,1024,1024,1024,1024,0,0,0,0,62,5.158,75.02,98.097116,P-GPS,,29.9
617,524700,2026-01-13 17:41:53,0.0,5,7.383,0.0,0.0,0.0,38.0,7.8,-4.6,1024,1024,1024,1024,0,0,0,0,62,5.158,75.02,98.097116,P-GPS,,29.9
618,524800,2026-01-13 17:41:53,0.0,5,7.436,0.0,0.0,0.0,38.0,7.6,-4.4,1024,1024,1024,1024,0,0,0,0,62,3.966,75.02,98.097116,P-GPS,,29.9
619,524900,2026-01-13 17:41:53,0.0,5,7.436,0.0,0.0,0.0,38.0,7.8,-4.6,1024,1024,1024,1024,0,0,0,0,62,3.966,75.02,98.097116,P-GPS,,29.9
620,525000,2026-01-13 17:41:53,0.0,5,7.436,0.0,0.0,0.0,38.0,7.4,-4.6,1024,1024,1024,1024,0,0,0,0,62,3.966,75.02,97.769032,P-GPS,,29.8
621,525100,2026-01-13 17:41:54,0.0,5,7.436,0.0,0.0,0.0,38.1,6.5,-4.1,1024,1024,1024,1024,0,0,0,0,62,3.966,75.02,97.769032,P-GPS,,29.8
622,525200,2026-01-13 17:41:54,0.0,5,7.436,0.0,0.0,0.0,38.2,6.9,-4.4,1024,1024,1024,1024,0,0,0,0,62,3.966,75.02,97.769032,P-GPS,,29.8
623,525300,2026-01-13 17:41:54,0.0,5,7.436,0.0,0.0,0.0,38.1,7.1,-4.3,1024,1024,1024,1024,0,0,0,0,62,3.966,75.02,97.769032,P-GPS,,29.8
624,525400,2026-01-13 17:41:54,0.0,5,7.436,0.0,0.0,0.0,38.2,6.3,-4.3,1024,1024,1024,1024,0,0,0,0,62,3.966,75.02,97.769032,P-GPS,,29.8
625,525500,2026-01-13 17:41:54,0.0,5,7.436,0.0,0.0,0.0,38.1,6.6,-4.8,1024,1024,1024,1024,0,0,0,0,62,3.966,75.02,97.440948,P-GPS,,29.7
626,525600,2026-01-13 17:41:54,0.0,5,7.436,0.0,0.0,0.0,38.1,7.0,-4.7,1024,1024,1024,1024,0,0,0,0,62,3.966,75.02,97.440948,P-GPS,,29.7
627,525700,2026-01-13 17:41:54,0.0,5,7.436,0.0,0.0,0.0,38.1,6.2,-4.5,1024,1024,1024,1024,0,0,0,0,62,3.966,75.02,97.440948,P-GPS,,29.7
628,525800,2026-01-13 17:41:54,0.0,5,7.436,0.0,0.0,0.0,38.1,6.0,-4.4,1024,1024,1024,1024,0,0,0,0,62,3.966,75.02,97.440948,P-GPS,,29.7
629,525900,2026-01-13 17:41:54,0.0,5,7.436,0.0,0.0,0.0,38.2,5.6,-4.6,1024,1024,1024,1024,0,0,0,0,62,3.966,75.02,97.440948,P-GPS,,29.7
630,526000,2026-01-13 17:41:55,0.0,5,7.445,0.0,0.0,0.0,38.2,5.7,-4.6,1024,1024,1024,1024,0,0,0,0,62,3.795,75.02,97.440948,P-GPS,,29.7
631,526100,2026-01-13 17:41:55,0.0,5,7.445,0.0,0.0,0.0,38.1,6.0,-4.6,1024,1024,1024,1024,0,0,0,0,62,3.795,75.02,97.440948,P-GPS,,29.7
632,526200,2026-01-13 17:41:55,0.0,5,7.445,0.0,0.0,0.0,38.2,6.5,-4.8,1024,1024,1024,1024,0,0,0,0,62,3.795,75.02,97.440948,P-GPS,,29.7
633,526300,2026-01-13 17:41:55,0.0,5,7.445,0.0,0.0,0.0,38.1,6.6,-5.0,1024,1024,1024,1024,0,0,0,0,62,3.795,75.02,97.440948,P-GPS,,29.7
634,526400,2026-01-13 17:41:55,0.0,5,7.445,0.0,0.0,0.0,38.0,8.0,-4.9,1024,1024,1024,1024,0,0,0,0,62,3.795,75.02,97.440948,P-GPS,,29.7
635,526500,2026-01-13 17:41:55,0.0,5,7.445,0.0,0.0,0.0,37.8,9.0,-4.9,1024,1024,1024,1024,0,0,0,0,62,3.795,75.02,97.769032,P-GPS,,29.8
636,526600,2026-01-13 17:41:55,0.0,5,7.445,0.223694,0.0,0.0,37.7,9.6,-4.7,1024,1024,1024,1024,0,0,0,0,62,3.795,75.02,97.769032,P-GPS,,29.8
637,526700,2026-01-13 17:41:55,0.223694,5,7.445,0.223694,0.0,0.0,37.7,9.9,-4.3,1024,1024,1024,1024,0,0,0,0,62,3.795,75.02,97.769032,P-GPS,,29.8
638,526800,2026-01-13 17:41:55,0.223694,5,7.445,0.223694,0.0,0.0,37.7,10.0,-4.3,1024,1024,1024,1024,0,0,0,0,62,3.795,75.02,97.769032,P-GPS,,29.8
639,526900,2026-01-13 17:41:55,0.0,5,7.445,0.0,0.0,0.0,37.6,10.6,-4.7,1024,1024,1024,1024,0,0,0,0,62,3.795,75.02,98.097116,P-GPS,,29.9
640,527000,2026-01-13 17:41:56,0.0,5,7.445,0.0,0.0,0.0,37.6,10.0,-4.7,1024,1024,1024,1024,0,0,0,0,62,3.795,75.02,98.097116,P-GPS,,29.9
641,527100,2026-01-13 17:41:56,0.0,5,7.422,0.0,0.0,0.0,37.6,10.0,-5.5,1024,1024,1024,1024,0,0,0,0,61,4.061,75.02,98.097116,P-GPS,,29.9
642,527200,2026-01-13 17:41:56,0.0,5,7.422,0.0,0.0,0.0,37.6,10.1,-5.8,1024,1024,1024,1024,0,0,0,0,61,4.061,75.02,98.4252,P-GPS,,30.0
643,527300,2026-01-13 17:41:56,0.0,5,7.422,0.0,0.0,0.0,37.5,9.7,-5.7,1024,1024,1024,1024,0,0,0,0,61,4.061,75.02,98.4252,P-GPS,,30.0
644,527400,2026-01-13 17:41:56,0.0,5,7.422,0.0,0.0,0.0,37.5,8.5,-5.9,1024,1024,1024,1024,0,0,0,0,61,4.061,75.02,98.4252,P-GPS,,30.0
645,527500,2026-01-13 17:41:56,0.0,5,7.422,0.0,0.0,0.0,37.4,8.5,-6.3,1024,1024,1024,1024,0,0,0,0,61,4.061,75.02,98.753284,P-GPS,,30.1
646,527600,2026-01-13 17:41:56,0.0,5,7.422,0.0,0.0,0.0,37.6,8.3,-5.9,1024,1024,1024,1024,0,0,0,0,61,4.061,75.02,98.753284,P-GPS,,30.1
647,527700,2026-01-13 17:41:56,0.0,5,7.422,0.0,0.0,0.0,37.8,7.8,-5.4,1024,1024,1024,1024,0,0,0,0,61,4.061,75.02,98.753284,P-GPS,,30.1
648,527800,2026-01-13 17:41:56,0.0,5,7.422,0.0,0.0,0.0,37.7,8.9,-5.3,1024,1024,1024,1024,0,0,0,0,61,4.061,75.02,98.753284,P-GPS,,30.1
649,527900,2026-01-13 17:41:56,0.0,5,7.422,0.0,0.0,0.0,37.7,9.2,-4.8,1024,1024,1024,1024,0,0,0,0,61,4.061,75.02,98.753284,P-GPS,,30.1
650,528000,2026-01-13 17:41:57,0.0,5,7.422,0.0,0.0,0.0,37.8,9.0,-4.7,1024,1024,1024,1024,0,0,0,0,61,4.061,75.02,98.4252,P-GPS,,30.0
651,528100,2026-01-13 17:41:57,0.0,5,7.422,0.0,0.0,0.0,37.8,10.0,-5.2,1024,1024,1024,1024,0,0,0,0,61,4.061,75.02,98.4252,P-GPS,,30.0
652,528200,2026-01-13 17:41:57,0.0,5,7.438,0.0,0.0,0.0,37.7,11.0,-5.5,1024,1024,1024,1024,0,0,0,0,61,4.106,75.02,98.4252,P-GPS,,30.0
653,528300,2026-01-13 17:41:57,0.0,5,7.438,0.0,0.0,0.223694,37.7,11.8,-5.5,1024,1024,1024,1024,0,0,0,0,61,4.106,75.02,98.4252,P-GPS,,30.0
654,528400,2026-01-13 17:41:57,0.0,5,7.438,0.0,0.0,0.223694,37.6,11.6,-5.5,1024,1024,1024,1024,0,0,0,0,61,4.106,75.02,98.4252,P-GPS,,30.0
655,528500,2026-01-13 17:41:57,0.0,5,7.438,0.0,0.0,0.0,37.7,11.0,-5.5,1024,1024,1024,1024,0,0,0,0,61,4.106,75.02,98.4252,P-GPS,,30.0
656,528600,2026-01-13 17:41:57,0.0,5,7.438,0.0,0.0,0.0,37.6,11.5,-5.5,1024,1024,1024,1024,0,0,0,0,61,4.106,75.02,98.4252,P-GPS,,30.0
657,528700,2026-01-13 17:41:57,0.0,5,7.438,0.0,0.0,0.0,37.5,11.8,-5.6,1024,1024,1024,1024,0,0,0,0,61,4.106,75.02,98.4252,P-GPS,,30.0
658,528800,2026-01-13 17:41:57,0.0,5,7.438,0.0,0.0,0.0,37.6,11.4,-5.7,1024,1024,1024,1024,0,0,0,0,61,4.106,75.02,98.753284,P-GPS,,30.1
659,528900,2026-01-13 17:41:57,0.0,5,7.438,0.0,0.0,0.0,37.5,10.7,-5.3,1024,1024,1024,1024,0,0,0,0,61,4.106,75.02,98.753284,P-GPS,,30.1
660,529000,2026-01-13 17:41:58,0.0,5,7.438,0.0,0.0,-0.223694,37.8,9.2,-5.2,1024,1024,1024,1024,0,0,0,0,61,4.106,75.02,98.753284,P-GPS,,30.1
661,529100,2026-01-13 17:41:58,0.0,5,7.438,0.0,0.0,-0.223694,37.6,10.4,-6.1,1024,1024,1024,1024,0,0,0,0,61,4.106,75.02,98.753284,P-GPS,,30.1
662,529200,2026-01-13 17:41:58,0.0,5,7.438,0.0,0.0,0.0,37.7,10.9,-6.4,1024,1024,1024,1024,0,0,0,0,61,4.106,75.02,98.753284,P-GPS,,30.1
663,529300,2026-01-13 17:41:58,0.0,5,7.439,0.0,0.0,0.0,37.8,10.3,-6.1,1024,1024,1024,1024,0,0,0,0,61,4.634,75.02,98.753284,P-GPS,,30.1
664,529400,2026-01-13 17:41:58,0.0,5,7.439,0.0,0.0,0.0,37.8,10.9,-5.8,1024,1024,1024,1024,0,0,0,0,61,4.634,75.02,98.753284,P-GPS,,30.1
665,529500,2026-01-13 17:41:58,0.0,5,7.439,0.0,0.0,0.0,37.8,10.9,-5.4,1024,1024,1024,1024,0,0,0,0,61,4.634,75.02,98.753284,P-GPS,,30.1
666,529600,2026-01-13 17:41:58,0.0,5,7.439,0.0,0.0,0.0,37.8,10.2,-5.3,1024,1024,1024,1024,0,0,0,0,61,4.634,75.02,98.753284,P-GPS,,30.1
667,529700,2026-01-13 17:41:58,0.0,5,7.439,0.0,0.0,0.0,37.8,10.1,-5.5,1024,1024,1024,1024,0,0,0,0,61,4.634,75.02,98.753284,P-GPS,,30.1
668,529800,2026-01-13 17:41:58,0.0,5,7.439,0.0,0.0,0.0,37.6,10.2,-5.4,1024,1024,1024,1024,0,0,0,0,61,4.634,75.02,98.753284,P-GPS,,30.1
669,529900,2026-01-13 17:41:58,0.0,5,7.439,0.0,0.0,0.0,37.7,10.4,-6.0,1024,1024,1024,1024,0,0,0,0,61,4.634,75.02,98.753284,P-GPS,,30.1
670,530000,2026-01-13 17:41:59,0.0,5,7.439,0.0,0.0,0.0,37.7,9.8,-5.7,1024,1024,1024,1024,0,0,0,0,61,4.634,75.02,98.753284,P-GPS,,30.1
671,530100,2026-01-13 17:41:59,0.0,5,7.439,0.0,0.0,0.0,37.8,9.2,-5.6,1024,1024,1024,1024,0,0,0,0,61,4.634,75.02,98.753284,P-GPS,,30.1
672,530200,2026-01-13 17:41:59,0.0,5,7.439,0.0,0.0,0.0,37.8,8.4,-5.7,1024,1024,1024,1024,0,0,0,0,61,4.634,75.02,98.753284,P-GPS,,30.1
