index,time(millisecond),timestamp,speed(mph),gpslevel,voltage(v),xSpeed(mph),ySpeed(mph),zSpeed(mph),compass_heading(degrees),pitch(degrees),roll(degrees),rc_elevator,rc_aileron,rc_throttle,rc_rudder,rc_elevator(percent),rc_aileron(percent),rc_throttle(percent),rc_rudder(percent),battery_percent,current(A),battery_temperature(f),ascent(feet),flycState,message,height_above_takeoff(meters)
81,8100,2026-01-13 12:19:18,0.223694,5,7.807,-0.223694,0.0,0.0,349.7,0.6,-0.6,1024,1024,1024,1024,0,0,0,0,98,5.389,62.42,36.417324,P-GPS,,11.1
82,8200,2026-01-13 12:19:18,0.223694,5,7.807,-0.223694,0.0,0.0,349.8,0.6,-0.9,1024,1024,1024,1024,0,0,0,0,98,5.389,62.42,36.417324,P-GPS,,11.1
83,8300,2026-01-13 12:19:18,0.0,5,7.825,0.0,0.0,0.0,349.7,0.4,-0.5,1024,1024,1024,1024,0,0,0,0,98,5.006,62.42,36.417324,P-GPS,,11.1
84,8400,2026-01-13 12:19:18,0.0,5,7.825,0.0,0.0,0.0,349.6,0.3,0.0,1024,1024,1024,1024,0,0,0,0,98,5.006,62.42,36.745408,P-GPS,,11.2
85,8500,2026-01-13 12:19:18,0.0,5,7.825,0.0,0.0,0.0,349.3,0.3,0.0,1024,1024,1024,1024,0,0,0,0,98,5.006,62.42,36.745408,P-GPS,,11.2
86,8600,2026-01-13 12:19:18,0.0,5,7.825,0.0,0.0,0.0,349.5,0.0,-0.4,1024,1024,1024,1024,0,0,0,0,98,5.006,62.42,36.745408,P-GPS,,11.2
87,8700,2026-01-13 12:19:18,0.0,5,7.825,0.0,0.0,0.0,349.6,-0.8,-1.1,1024,1024,1024,1024,0,0,0,0,98,5.006,62.42,37.073492,P-GPS,,11.3
88,8800,2026-01-13 12:19:18,0.0,5,7.825,0.0,0.0,0.0,349.6,-1.4,-1.3,1024,1024,1024,1024,0,0,0,0,98,5.006,62.42,37.073492,P-GPS,,11.3
89,8900,2026-01-13 12:19:19,0.0,5,7.825,0.0,0.0,0.0,349.7,-1.3,-0.9,1024,1024,1024,1024,0,0,0,0,98,5.006,62.42,37.401576,P-GPS,,11.4
90,9000,2026-01-13 12:19:19,0.0,5,7.825,0.0,0.0,0.0,349.8,-0.9,-1.1,1024,1024,1024,1024,0,0,0,0,98,5.006,62.42,37.401576,P-GPS,,11.4
91,9100,2026-01-13 12:19:19,0.0,5,7.825,0.0,0.0,0.0,349.5,-0.1,-1.3,1024,1024,1024,1024,0,0,0,0,98,5.006,62.42,37.72966,P-GPS,,11.5
92,9200,2026-01-13 12:19:19,0.0,5,7.825,0.0,0.0,0.0,349.4,0.3,-0.8,1024,1024,1024,1024,0,0,0,0,98,5.006,62.42,37.72966,P-GPS,,11.5
93,9300,2026-01-13 12:19:19,0.0,5,7.825,0.0,0.0,0.0,349.3,-0.2,0.0,1024,1024,1024,1024,0,0,0,0,98,5.006,62.42,38.057744,P-GPS,,11.6
94,9400,2026-01-13 12:19:19,0.0,5,7.825,0.0,0.0,0.0,349.3,0.0,0.6,1024,1024,1024,1024,0,0,0,0,98,5.34,62.6,38.057744,P-GPS,,11.6
95,9500,2026-01-13 12:19:19,0.0,5,7.825,0.0,0.0,0.0,349.2,-0.2,0.4,1024,1024,1024,1024,0,0,0,0,98,5.34,62.6,38.385828,P-GPS,,11.7
96,9600,2026-01-13 12:19:19,0.0,5,7.825,0.0,0.0,0.0,349.2,-0.2,0.2,1024,1024,1024,1024,0,0,0,0,98,5.34,62.6,38.385828,P-GPS,,11.7
97,9700,2026-01-13 12:19:19,0.0,5,7.825,0.0,0.0,0.0,349.1,-0.1,0.0,1024,1024,1024,1024,0,0,0,0,98,5.34,62.6,38.385828,P-GPS,,11.7
98,9800,2026-01-13 12:19:20,0.0,5,7.825,0.0,0.0,0.223694,349.1,-2.7,0.5,1024,1024,1024,1024,0,0,0,0,98,5.34,62.6,38.713912,P-GPS,,11.8
99,9900,2026-01-13 12:19:20,0.0,5,7.825,0.0,0.0,0.223694,349.4,-2.0,0.0,1024,1024,1024,1024,0,0,0,0,98,5.34,62.6,38.713912,P-GPS,,11.8
100,10000,2026-01-13 12:19:20,0.223694,5,7.825,0.0,0.223694,0.223694,349.2,-1.4,-1.9,1024,1024,1024,1024,0,0,0,0,98,5.34,62.6,38.713912,P-GPS,,11.8
101,10100,2026-01-13 12:19:20,0.3131716,5,7.825,0.223694,0.223694,0.223694,349.4,-1.3,-2.9,1024,1024,1024,1024,0,0,0,0,98,5.34,62.6,39.041996,P-GPS,,11.9
102,10200,2026-01-13 12:19:20,0.3131716,5,7.825,0.223694,0.0,0.0,349.3,-0.1,-3.2,1024,1024,1024,1024,0,0,0,0,98,5.34,62.6,39.041996,P-GPS,,11.9
103,10300,2026-01-13 12:19:20,0.223694,5,7.825,0.223694,0.0,0.0,349.4,0.5,-3.4,1024,1024,1024,1024,0,0,0,0,98,5.34,62.6,39.041996,P-GPS,,11.9
104,10400,2026-01-13 12:19:20,0.223694,5,7.825,0.223694,0.0,0.0,349.6,0.6,-4.0,1024,1024,1024,1024,0,0,0,0,98,5.34,62.6,39.041996,P-GPS,,11.9
105,10500,2026-01-13 12:19:20,0.223694,5,7.812,0.223694,0.0,0.0,349.9,0.6,-4.0,1024,1024,1024,1024,0,0,0,0,98,5.052,62.6,39.041996,P-GPS,,11.9
106,10600,2026-01-13 12:19:20,0.223694,5,7.812,0.223694,0.0,0.0,350.0,0.5,-3.3,1024,1024,1024,1024,0,0,0,0,98,5.052,62.6,38.713912,P-GPS,,11.8
107,10700,2026-01-13 12:19:20,0.223694,5,7.812,0.223694,0.0,0.0,350.2,1.5,-2.9,1024,1024,1024,1024,0,0,0,0,98,5.052,62.6,38.713912,P-GPS,,11.8
108,10800,2026-01-13 12:19:21,0.223694,5,7.812,0.223694,0.0,0.0,350.4,0.9,-2.5,1024,1024,1024,1024,0,0,0,0,98,5.052,62.6,38.713912,P-GPS,,11.8
109,10900,2026-01-13 12:19:21,0.223694,5,7.812,0.223694,0.0,0.0,350.6,1.3,-2.1,1024,1024,1024,1024,0,0,0,0,98,5.052,62.6,38.385828,P-GPS,,11.7
110,11000,2026-01-13 12:19:21,0.223694,5,7.812,0.223694,0.0,0.0,350.7,2.2,-1.5,1024,1024,1024,1024,0,0,0,0,98,5.052,62.6,38.385828,P-GPS,SD card speed low. Normal use may be affected. Replace SD card (Code: 10028). Gimbal stuck. Make sure gimbal cover is removed and manually check whether gimbal can rotate freely (Code: 40002),11.7
111,11100,2026-01-13 12:19:21,0.223694,5,7.812,0.223694,0.0,0.0,350.8,3.1,-1.4,1024,1024,1024,1024,0,0,0,0,98,5.052,62.6,38.385828,P-GPS,,11.7
112,11200,2026-01-13 12:19:21,0.223694,5,7.812,0.223694,0.0,0.0,350.7,4.0,-1.5,1024,1024,1024,1024,0,0,0,0,98,5.052,62.6,38.057744,P-GPS,,11.6
113,11300,2026-01-13 12:19:21,0.223694,5,7.812,0.223694,0.0,0.0,350.9,4.1,-1.6,1024,1024,1024,1024,0,0,0,0,98,5.052,62.6,38.057744,P-GPS,,11.6
114,11400,2026-01-13 12:19:21,0.223694,5,7.812,0.223694,0.0,0.0,350.9,5.0,-1.8,1024,1024,1024,1024,0,0,0,0,98,5.052,62.6,38.057744,P-GPS,,11.6
115,11500,2026-01-13 12:19:21,0.223694,5,7.812,0.223694,0.0,0.0,350.8,5.3,-1.6,1024,1024,1024,1024,0,0,0,0,98,5.052,62.6,38.057744,P-GPS,,11.6
116,11600,2026-01-13 12:19:21,0.223694,5,7.812,0.223694,0.0,0.0,350.9,4.9,-2.2,1024,1024,1024,1024,0,0,0,0,98,5.052,62.6,38.057744,P-GPS,,11.6
117,11700,2026-01-13 12:19:21,0.0,5,7.812,0.0,0.0,0.0,350.8,4.9,-2.5,1024,1024,1024,1024,0,0,0,0,98,5.052,62.6,37.72966,P-GPS,,11.5
118,11800,2026-01-13 12:19:21,0.0,5,7.812,0.0,0.0,0.0,350.6,5.6,-2.2,1024,1024,1024,1024,0,0,0,0,98,5.052,62.6,37.72966,P-GPS,,11.5
119,11900,2026-01-13 12:19:22,0.0,5,7.812,0.0,0.0,0.0,350.6,5.7,-1.9,1024,1024,1024,1024,0,0,0,0,98,5.052,62.6,37.72966,P-GPS,,11.5
120,12000,2026-01-13 12:19:22,0.0,5,7.812,0.0,0.0,0.0,350.6,4.1,-1.8,1024,1024,1024,1024,0,0,0,0,98,5.052,62.6,37.72966,P-GPS,,11.5
121,12100,2026-01-13 12:19:22,0.223694,5,7.812,-0.223694,0.0,0.0,350.5,2.1,-2.4,1024,1024,1024,1024,0,0,0,0,98,5.052,62.6,37.72966,P-GPS,,11.5
122,12200,2026-01-13 12:19:22,0.3131716,5,7.812,-0.223694,0.223694,0.0,350.5,1.6,-3.6,1024,1024,1024,1024,0,0,0,0,98,5.052,62.6,37.72966,P-GPS,,11.5
123,12300,2026-01-13 12:19:22,0.3131716,5,7.812,-0.223694,0.223694,0.0,350.5,2.8,-4.0,1024,1024,1024,1024,0,0,0,0,98,5.052,62.6,37.72966,P-GPS,,11.5
124,12400,2026-01-13 12:19:22,0.3131716,5,7.812,-0.223694,0.223694,0.0,350.5,3.2,-4.0,1024,1024,1024,1024,0,0,0,0,98,5.052,62.6,37.72966,P-GPS,,11.5
125,12500,2026-01-13 12:19:22,0.3131716,5,7.812,-0.223694,0.223694,0.0,350.9,0.8,-4.3,1024,1024,1024,1024,0,0,0,0,98,5.052,62.6,37.72966,P-GPS,,11.5
126,12600,2026-01-13 12:19:22,0.4921268,5,7.812,-0.447388,0.223694,0.0,351.1,-1.1,-5.0,1024,1024,1024,1024,0,0,0,0,98,5.052,62.6,37.72966,P-GPS,,11.5
127,12700,2026-01-13 12:19:22,0.3131716,5,7.812,-0.223694,0.223694,0.0,351.3,-2.0,-5.5,1024,1024,1024,1024,0,0,0,0,98,5.052,62.6,38.057744,P-GPS,,11.6
128,12800,2026-01-13 12:19:23,0.3131716,5,7.83,-0.223694,0.223694,0.0,351.3,-1.0,-6.2,1024,1024,1024,1024,0,0,0,0,98,4.729,62.6,38.057744,P-GPS,,11.6
129,12900,2026-01-13 12:19:23,0.223694,5,7.83,0.0,0.223694,0.0,351.3,0.0,-6.4,1024,1024,1024,1024,0,0,0,0,98,4.729,62.6,38.057744,P-GPS,,11.6
130,13000,2026-01-13 12:19:23,0.0,5,7.83,0.0,0.0,0.0,351.6,-0.4,-6.5,1024,1024,1024,1024,0,0,0,0,98,4.729,62.6,38.057744,P-GPS,,11.6
131,13100,2026-01-13 12:19:23,0.0,5,7.83,0.0,0.0,0.0,351.8,-0.2,-6.1,1024,1024,1024,1024,0,0,0,0,98,4.729,62.6,38.057744,P-GPS,,11.6
132,13200,2026-01-13 12:19:23,0.0,5,7.83,0.0,0.0,0.0,352.1,0.8,-6.0,1024,1024,1024,1024,0,0,0,0,98,4.729,62.6,37.72966,P-GPS,,11.5
133,13300,2026-01-13 12:19:23,0.0,5,7.83,0.0,0.0,0.0,352.0,2.2,-5.8,1024,1024,1024,1024,0,0,0,0,98,4.729,62.6,37.72966,P-GPS,,11.5
134,13400,2026-01-13 12:19:23,0.0,5,7.83,0.0,0.0,0.0,352.1,2.9,-5.3,1024,1024,1024,1024,0,0,0,0,98,4.729,62.6,37.72966,P-GPS,,11.5
135,13500,2026-01-13 12:19:23,0.0,5,7.83,0.0,0.0,0.0,352.2,3.3,-4.2,1024,1024,1024,1024,0,0,0,0,98,4.729,62.6,37.401576,P-GPS,,11.4
136,13600,2026-01-13 12:19:23,0.0,5,7.83,0.0,0.0,0.0,352.2,4.1,-4.3,1024,1024,1024,1024,0,0,0,0,98,4.729,62.6,37.401576,P-GPS,,11.4
137,13700,2026-01-13 12:19:23,0.0,5,7.83,0.0,0.0,0.0,352.2,3.6,-4.0,1024,1024,1024,1024,0,0,0,0,98,4.729,62.6,37.073492,P-GPS,,11.3
138,13800,2026-01-13 12:19:23,0.0,5,7.83,0.0,0.0,0.0,352.4,3.8,-3.5,1024,1024,1024,1024,0,0,0,0,98,4.729,62.6,37.073492,P-GPS,,11.3
139,13900,2026-01-13 12:19:24,0.0,5,7.813,0.0,0.0,0.0,352.4,4.2,-3.2,1024,1024,1024,1024,0,0,0,0,98,4.974,62.6,37.073492,P-GPS,,11.3
140,14000,2026-01-13 12:19:24,0.0,5,7.813,0.0,0.0,0.0,352.4,4.8,-2.4,1024,1024,1024,1024,0,0,0,0,98,4.974,62.6,36.745408,P-GPS,,11.2
141,14100,2026-01-13 12:19:24,0.0,5,7.813,0.0,0.0,0.0,352.3,3.6,-3.4,1024,1024,1024,1024,0,0,0,0,98,4.974,62.6,36.745408,P-GPS,,11.2
142,14200,2026-01-13 12:19:24,0.0,5,7.813,0.0,0.0,0.0,352.4,3.0,-4.4,1024,1024,1024,1024,0,0,0,0,98,4.974,62.6,36.745408,P-GPS,,11.2
143,14300,2026-01-13 12:19:24,0.0,5,7.813,0.0,0.0,0.0,352.5,2.4,-4.7,1024,1024,1024,1024,0,0,0,0,98,4.974,62.6,36.745408,P-GPS,,11.2
144,14400,2026-01-13 12:19:24,0.223694,5,7.813,-0.223694,0.0,0.0,352.6,2.0,-4.8,1024,1024,1024,1024,0,0,0,0,98,4.974,62.6,36.745408,P-GPS,,11.2
145,14500,2026-01-13 12:19:24,0.223694,5,7.813,-0.223694,0.0,0.0,352.8,1.6,-4.4,1024,1024,1024,1024,0,0,0,0,98,4.974,62.6,36.745408,P-GPS,,11.2
146,14600,2026-01-13 12:19:24,0.223694,5,7.813,-0.223694,0.0,0.0,353.0,1.4,-4.4,1024,1024,1024,1024,0,0,0,0,98,4.974,62.6,36.745408,P-GPS,,11.2
147,14700,2026-01-13 12:19:24,0.223694,5,7.813,-0.223694,0.0,0.0,353.2,0.1,-3.6,1024,1024,1024,1024,0,0,0,0,98,4.974,62.6,36.417324,P-GPS,,11.1
148,14800,2026-01-13 12:19:25,0.223694,5,7.813,-0.223694,0.0,0.0,353.3,0.4,-3.6,1024,1024,1024,1024,0,0,0,0,98,4.974,62.6,36.417324,P-GPS,,11.1
149,14900,2026-01-13 12:19:25,0.0,5,7.813,0.0,0.0,0.0,353.3,1.2,-3.6,1024,1024,1024,1024,0,0,0,0,98,4.974,62.6,36.417324,P-GPS,,11.1
150,15000,2026-01-13 12:19:25,0.0,5,7.82,0.0,0.0,0.0,353.4,1.2,-3.4,1024,1024,1024,1024,0,0,0,0,98,4.909,62.78,36.08924,P-GPS,,11.0
151,15100,2026-01-13 12:19:25,0.0,5,7.82,0.0,0.0,0.0,353.5,1.4,-3.1,1024,1024,1024,1024,0,0,0,0,98,4.909,62.78,36.08924,P-GPS,,11.0
152,15200,2026-01-13 12:19:25,0.223694,5,7.82,-0.223694,0.0,0.0,353.7,0.5,-3.0,1024,1024,1024,1024,0,0,0,0,98,4.909,62.78,36.08924,P-GPS,,11.0
153,15300,2026-01-13 12:19:25,0.223694,5,7.82,-0.223694,0.0,0.0,353.8,0.2,-2.7,1024,1024,1024,1024,0,0,0,0,98,4.909,62.78,36.08924,P-GPS,,11.0
154,15400,2026-01-13 12:19:25,0.0,5,7.82,0.0,0.0,0.0,354.0,0.0,-2.3,1024,1024,1024,1024,0,0,0,0,98,4.909,62.78,35.761156,P-GPS,,10.9
155,15500,2026-01-13 12:19:25,0.0,5,7.82,0.0,0.0,0.0,354.0,0.3,-2.6,1024,1024,1024,1024,0,0,0,0,98,4.909,62.78,35.761156,P-GPS,,10.9
156,15600,2026-01-13 12:19:25,0.0,5,7.82,0.0,0.0,0.0,354.1,1.0,-3.7,1024,1024,1024,1024,0,0,0,0,98,4.909,62.78,35.761156,P-GPS,,10.9
157,15700,2026-01-13 12:19:25,0.0,5,7.82,0.0,0.0,0.0,354.1,1.2,-3.6,1024,1024,1024,1024,0,0,0,0,98,4.909,62.78,35.761156,P-GPS,,10.9
158,15800,2026-01-13 12:19:25,0.0,5,7.82,0.0,0.0,0.0,354.1,1.7,-4.2,1024,1024,1024,1024,0,0,0,0,98,4.909,62.78,35.761156,P-GPS,,10.9
159,15900,2026-01-13 12:19:26,0.0,5,7.82,0.0,0.0,0.0,354.2,1.9,-4.5,1024,1024,1024,1024,0,0,0,0,98,4.909,62.78,35.761156,P-GPS,,10.9
160,16000,2026-01-13 12:19:26,0.0,5,7.82,0.0,0.0,0.0,354.4,1.2,-4.2,1024,1024,1024,1024,0,0,0,0,98,4.909,62.78,35.761156,P-GPS,,10.9
161,16100,2026-01-13 12:19:26,0.0,5,7.794,0.0,0.0,0.0,354.6,1.2,-4.0,1024,1024,1024,1024,0,0,0,0,98,5.07,62.78,35.433072,P-GPS,,10.8
162,16200,2026-01-13 12:19:26,0.0,5,7.794,0.0,0.0,0.0,354.5,2.1,-3.8,1024,1024,1024,1024,0,0,0,0,98,5.07,62.78,35.433072,P-GPS,,10.8
163,16300,2026-01-13 12:19:26,0.0,5,7.794,0.0,0.0,0.0,354.6,2.5,-3.7,1024,1024,1024,1024,0,0,0,0,98,5.07,62.78,35.433072,P-GPS,,10.8
164,16400,2026-01-13 12:19:26,0.0,5,7.794,0.0,0.0,0.0,354.3,1.5,-3.6,1024,1024,1024,1024,0,0,0,0,98,5.07,62.78,35.433072,P-GPS,,10.8
165,16500,2026-01-13 12:19:26,0.0,5,7.794,0.0,0.0,0.0,354.4,1.6,-3.4,1024,1024,1024,1024,0,0,0,0,98,5.07,62.78,35.433072,P-GPS,,10.8
166,16600,2026-01-13 12:19:26,0.0,5,7.794,0.0,0.0,0.0,354.6,1.8,-3.5,1024,1024,1024,1024,0,0,0,0,98,5.07,62.78,35.433072,P-GPS,,10.8
167,16700,2026-01-13 12:19:26,0.0,5,7.794,0.0,0.0,0.0,354.7,1.7,-3.9,1024,1024,1024,1024,0,0,0,0,98,5.07,62.78,35.433072,P-GPS,,10.8
168,16800,2026-01-13 12:19:27,0.0,5,7.794,0.0,0.0,0.0,354.8,2.1,-4.2,1024,1024,1024,1024,0,0,0,0,98,5.07,62.78,35.433072,P-GPS,,10.8
169,16900,2026-01-13 12:19:27,0.0,5,7.794,0.0,0.0,0.0,354.9,2.3,-4.2,1024,1024,1024,1024,0,0,0,0,98,5.07,62.78,35.433072,P-GPS,,10.8
170,17000,2026-01-13 12:19:27,0.0,5,7.794,0.0,0.0,0.0,354.9,2.7,-4.5,1024,1024,1024,1024,0,0,0,0,98,5.07,62.78,35.433072,P-GPS,,10.8
171,17100,2026-01-13 12:19:27,0.0,5,7.794,0.0,0.0,0.0,355.1,1.6,-3.6,1024,1024,1024,1024,0,0,0,0,98,5.07,62.78,35.433072,P-GPS,,10.8
172,17200,2026-01-13 12:19:27,0.0,5,7.81,0.0,0.0,0.0,354.9,2.3,-3.3,1024,1024,1024,1024,0,0,0,0,98,5.178,62.78,35.433072,P-GPS,,10.8
173,17300,2026-01-13 12:19:27,0.0,5,7.81,0.0,0.0,0.0,354.9,3.2,-3.3,1024,1024,1024,1024,0,0,0,0,98,5.178,62.78,35.433072,P-GPS,,10.8
174,17400,2026-01-13 12:19:27,0.0,5,7.81,0.0,0.0,0.0,354.9,3.6,-3.6,1024,1024,1024,1024,0,0,0,0,98,5.178,62.78,35.433072,P-GPS,,10.8
175,17500,2026-01-13 12:19:27,0.0,5,7.81,0.0,0.0,0.0,355.0,3.2,-3.3,1024,1024,1024,1024,0,0,0,0,98,5.178,62.78,35.433072,P-GPS,,10.8
176,17600,2026-01-13 12:19:27,0.0,5,7.81,0.0,0.0,0.0,355.1,3.5,-3.4,1024,1024,1024,1024,0,0,0,0,98,5.178,62.78,35.433072,P-GPS,,10.8
177,17700,2026-01-13 12:19:27,0.0,5,7.81,0.0,0.0,0.0,355.0,3.5,-3.3,1024,1024,1024,1024,0,0,0,0,98,5.178,62.78,35.433072,P-GPS,,10.8
178,17800,2026-01-13 12:19:27,0.0,5,7.81,0.0,0.0,0.0,354.7,4.3,-3.3,1024,1024,1024,1024,0,0,0,0,98,5.178,62.78,35.433072,P-GPS,,10.8
179,17900,2026-01-13 12:19:28,0.0,5,7.81,0.0,0.0,0.0,354.8,3.2,-3.3,1024,1024,1024,1024,0,0,0,0,98,5.178,62.78,35.433072,P-GPS,,10.8
180,18000,2026-01-13 12:19:28,0.0,5,7.81,0.0,0.0,0.0,354.7,2.4,-3.5,1024,1024,1024,1024,0,0,0,0,98,5.178,62.78,35.433072,P-GPS,,10.8
181,18100,2026-01-13 12:19:28,0.0,5,7.81,0.0,0.0,0.0,354.5,2.2,-3.4,1024,1024,1024,1024,0,0,0,0,98,5.178,62.78,35.433072,P-GPS,,10.8
182,18200,2026-01-13 12:19:28,0.223694,5,7.81,-0.223694,0.0,0.0,354.6,1.8,-3.6,1024,1024,1024,1024,0,0,0,0,98,5.178,62.78,35.433072,P-GPS,,10.8
183,18300,2026-01-13 12:19:28,0.223694,5,7.81,-0.223694,0.0,0.0,354.8,0.8,-3.5,1024,1024,1024,1024,0,0,0,0,98,5.178,62.78,35.433072,P-GPS,,10.8
184,18400,2026-01-13 12:19:28,0.223694,5,7.816,-0.223694,0.0,0.0,354.9,0.4,-3.5,1024,1024,1024,1024,0,0,0,0,98,4.793,62.78,35.433072,P-GPS,,10.8
185,18500,2026-01-13 12:19:28,0.223694,5,7.816,-0.223694,0.0,0.0,354.9,0.0,-3.3,1024,1024,1024,1024,0,0,0,0,98,4.793,62.78,35.433072,P-GPS,,10.8
186,18600,2026-01-13 12:19:28,0.223694,5,7.816,-0.223694,0.0,0.0,355.1,-1.2,-3.2,1024,1024,1024,1024,0,0,0,0,98,4.793,62.78,35.433072,P-GPS,,10.8
187,18700,2026-01-13 12:19:28,0.223694,5,7.816,-0.223694,0.0,0.0,355.0,-0.8,-3.3,1024,1024,1024,1024,0,0,0,0,98,4.793,62.78,35.433072,P-GPS,,10.8
188,18800,2026-01-13 12:19:29,0.223694,5,7.816,-0.223694,0.0,0.0,355.0,-0.6,-3.4,1024,1024,1024,1024,0,0,0,0,98,4.793,62.78,35.433072,P-GPS,,10.8
189,18900,2026-01-13 12:19:29,0.223694,5,7.816,-0.223694,0.0,0.0,355.0,-0.4,-3.4,1024,1024,1024,1024,0,0,0,0,98,4.793,62.78,35.433072,P-GPS,,10.8
190,19000,2026-01-13 12:19:29,0.0,5,7.816,0.0,0.0,0.0,355.1,-0.3,-3.5,1024,1024,1024,1024,0,0,0,0,98,4.793,62.78,35.433072,P-GPS,,10.8
191,19100,2026-01-13 12:19:29,0.0,5,7.816,0.0,0.0,0.0,355.1,-0.5,-3.4,1024,1024,1024,1024,0,0,0,0,98,4.793,62.78,35.433072,P-GPS,,10.8
192,19200,2026-01-13 12:19:29,0.0,5,7.816,0.0,0.0,0.0,355.1,-0.2,-3.2,1024,1024,1024,1024,0,0,0,0,98,4.793,62.78,35.433072,P-GPS,,10.8
193,19300,2026-01-13 12:19:29,0.0,5,7.816,0.0,0.0,0.0,355.1,0.0,-3.1,1024,1024,1024,1024,0,0,0,0,98,4.793,62.78,35.433072,P-GPS,,10.8
194,19400,2026-01-13 12:19:29,0.0,5,7.816,0.0,0.0,0.0,355.2,-0.6,-2.9,1024,1024,1024,1024,0,0,0,0,98,4.793,62.78,35.433072,P-GPS,,10.8
195,19500,2026-01-13 12:19:29,0.0,5,7.815,0.0,0.0,0.0,355.2,-0.8,-3.1,1024,1024,1024,1024,0,0,0,0,98,4.819,62.96,35.433072,P-GPS,,10.8
196,19600,2026-01-13 12:19:29,0.0,5,7.815,0.0,0.0,0.0,355.2,-0.6,-3.2,1024,1024,1024,1024,0,0,0,0,98,4.819,62.96,35.433072,P-GPS,,10.8
197,19700,2026-01-13 12:19:29,0.0,5,7.815,0.0,0.0,0.0,355.2,-0.2,-3.4,1024,1024,1024,1024,0,0,0,0,98,4.819,62.96,35.433072,P-GPS,,10.8
198,19800,2026-01-13 12:19:30,0.0,5,7.815,0.0,0.0,0.0,355.2,0.0,-3.1,1024,1024,1024,1024,0,0,0,0,98,4.819,62.96,35.433072,P-GPS,,10.8
199,19900,2026-01-13 12:19:30,0.0,5,7.815,0.0,0.0,0.0,355.2,0.7,-3.1,1024,1024,1024,1024,0,0,0,0,98,4.819,62.96,35.433072,P-GPS,,10.8
200,20000,2026-01-13 12:19:30,0.0,5,7.815,0.0,0.0,0.0,355.3,0.7,-2.5,1024,1024,1024,1024,0,0,0,0,98,4.819,62.96,35.433072,P-GPS,,10.8
201,20100,2026-01-13 12:19:30,0.0,5,7.815,0.0,0.0,0.0,355.1,2.0,-2.6,1024,1024,1024,1024,0,0,0,0,98,4.819,62.96,35.761156,P-GPS,,10.9
202,20200,2026-01-13 12:19:30,0.0,5,7.815,0.0,0.0,0.0,355.0,0.9,-3.4,1024,1024,1024,1024,0,0,0,0,98,4.819,62.96,35.761156,P-GPS,,10.9
203,20300,2026-01-13 12:19:30,0.0,5,7.815,0.0,0.0,0.0,355.0,0.7,-3.8,1024,1024,1024,1024,0,0,0,0,98,4.819,62.96,35.761156,P-GPS,,10.9
204,20400,2026-01-13 12:19:30,0.0,5,7.815,0.0,0.0,0.0,355.0,1.1,-4.8,1024,1024,1024,1024,0,0,0,0,98,4.819,62.96,35.761156,P-GPS,,10.9
205,20500,2026-01-13 12:19:30,0.223694,5,7.815,0.223694,0.0,0.0,355.0,1.6,-5.4,1024,1024,1024,1024,0,0,0,0,98,4.819,62.96,36.08924,P-GPS,,11.0
206,20600,2026-01-13 12:19:30,0.223694,5,7.827,0.223694,0.0,0.0,355.0,2.9,-5.8,1024,1024,1024,1024,0,0,0,0,98,4.731,62.96,36.08924,P-GPS,,11.0
207,20700,2026-01-13 12:19:30,0.223694,5,7.827,0.223694,0.0,0.0,355.1,2.9,-5.2,1024,1024,1024,1024,0,0,0,0,98,4.731,62.96,36.08924,P-GPS,,11.0
208,20800,2026-01-13 12:19:30,0.223694,5,7.827,0.0,0.0,0.0,355.2,2.7,-4.5,1024,1024,1024,1024,0,0,0,0,98,4.731,62.96,36.08924,P-GPS,,11.0
209,20900,2026-01-13 12:19:31,0.0,5,7.827,0.0,0.0,0.0,355.0,3.2,-4.8,1024,1024,1024,1024,0,0,0,0,98,4.731,62.96,36.08924,P-GPS,,11.0
210,21000,2026-01-13 12:19:31,0.0,5,7.827,0.0,0.0,0.0,354.8,3.8,-5.3,1024,1024,1024,1024,0,0,0,0,98,4.731,62.96,36.417324,P-GPS,,11.1
211,21100,2026-01-13 12:19:31,0.0,5,7.827,0.0,0.0,0.0,355.0,2.9,-4.6,1024,1024,1024,1024,0,0,0,0,98,4.731,62.96,36.417324,P-GPS,,11.1
212,21200,2026-01-13 12:19:31,0.0,5,7.827,0.0,0.0,0.0,355.1,2.3,-4.4,1024,1024,1024,1024,0,0,0,0,98,4.731,62.96,36.417324,P-GPS,,11.1
213,21300,2026-01-13 12:19:31,0.0,5,7.827,0.0,0.0,0.0,355.1,2.5,-4.7,1024,1024,1024,1024,0,0,0,0,98,4.731,62.96,36.417324,P-GPS,,11.1
214,21400,2026-01-13 12:19:31,0.0,5,7.827,0.0,0.0,0.0,355.3,1.9,-4.7,1024,1024,1024,1024,0,0,0,0,98,4.731,62.96,36.417324,P-GPS,,11.1
215,21500,2026-01-13 12:19:31,0.0,5,7.827,0.0,0.0,0.0,355.3,2.2,-4.6,1024,1024,1024,1024,0,0,0,0,98,4.731,62.96,36.417324,P-GPS,,11.1
216,21600,2026-01-13 12:19:31,0.0,5,7.827,0.0,0.0,0.0,355.2,2.5,-5.1,1024,1024,1024,1024,0,0,0,0,98,4.731,62.96,36.417324,P-GPS,,11.1
217,21700,2026-01-13 12:19:31,0.0,5,7.827,0.0,0.0,0.0,355.1,4.1,-5.2,1024,1024,1024,1024,0,0,0,0,98,4.731,62.96,36.417324,P-GPS,,11.1
218,21800,2026-01-13 12:19:32,0.0,5,7.827,0.0,0.0,0.0,355.1,3.4,-5.2,1024,1024,1024,1024,0,0,0,0,98,4.731,62.96,36.417324,P-GPS,,11.1
219,21900,2026-01-13 12:19:32,0.0,5,7.827,0.0,0.0,0.0,355.1,2.1,-5.3,1024,1024,1024,1024,0,0,0,0,98,4.731,62.96,36.417324,P-GPS,,11.1
220,22000,2026-01-13 12:19:32,0.223694,5,7.827,-0.223694,0.0,0.0,355.1,1.1,-5.0,1024,1024,1024,1024,0,0,0,0,98,4.731,62.96,36.417324,P-GPS,,11.1
221,22100,2026-01-13 12:19:32,0.223694,5,7.827,-0.223694,0.0,0.0,355.2,0.0,-5.0,1024,1024,1024,1024,0,0,0,0,98,4.731,62.96,36.417324,P-GPS,,11.1
222,22200,2026-01-13 12:19:32,0.223694,5,7.827,-0.223694,0.0,0.0,355.3,-1.0,-5.1,1024,1024,1024,1024,0,0,0,0,98,4.731,62.96,36.417324,P-GPS,,11.1
223,22300,2026-01-13 12:19:32,0.223694,5,7.827,-0.223694,0.0,0.0,355.6,-1.5,-5.6,1024,1024,1024,1024,0,0,0,0,98,4.731,62.96,36.417324,P-GPS,,11.1
224,22400,2026-01-13 12:19:32,0.0,5,7.827,0.0,0.0,0.0,355.8,-1.1,-5.7,1024,1024,1024,1024,0,0,0,0,98,4.731,62.96,36.745408,P-GPS,,11.2
225,22500,2026-01-13 12:19:32,0.0,5,7.827,0.0,0.0,0.0,355.7,0.4,-6.2,1024,1024,1024,1024,0,0,0,0,98,4.731,62.96,36.745408,P-GPS,,11.2
226,22600,2026-01-13 12:19:32,0.0,5,7.827,0.0,0.0,0.0,355.8,1.2,-5.8,1024,1024,1024,1024,0,0,0,0,98,4.731,62.96,36.417324,P-GPS,,11.1
227,22700,2026-01-13 12:19:32,0.0,5,7.827,0.0,0.0,0.0,356.0,2.0,-5.1,1024,1024,1024,1024,0,0,0,0,98,4.731,62.96,36.417324,P-GPS,,11.1
228,22800,2026-01-13 12:19:32,0.223694,5,7.816,0.0,-0.223694,0.0,356.3,2.4,-4.1,1024,1024,1024,1024,0,0,0,0,98,4.859,62.96,36.417324,P-GPS,,11.1
229,22900,2026-01-13 12:19:33,0.3131716,5,7.816,0.223694,-0.223694,0.0,356.5,2.9,-2.8,1024,1024,1024,1024,0,0,0,0,98,4.859,62.96,36.08924,P-GPS,,11.0
230,23000,2026-01-13 12:19:33,0.3131716,5,7.816,0.223694,-0.223694,0.0,356.5,4.2,-2.1,1024,1024,1024,1024,0,0,0,0,98,4.859,62.96,36.08924,P-GPS,,11.0
231,23100,2026-01-13 12:19:33,0.3131716,5,7.816,0.223694,-0.223694,0.0,356.5,5.7,-1.6,1024,1024,1024,1024,0,0,0,0,98,4.859,62.96,36.08924,P-GPS,,11.0
232,23200,2026-01-13 12:19:33,0.223694,5,7.816,0.223694,0.0,0.0,356.5,6.1,-2.2,1024,1024,1024,1024,0,0,0,0,98,4.859,62.96,36.08924,P-GPS,,11.0
233,23300,2026-01-13 12:19:33,0.223694,5,7.816,0.223694,0.0,0.0,356.5,6.3,-3.0,1024,1024,1024,1024,0,0,0,0,98,4.859,62.96,36.08924,P-GPS,,11.0
234,23400,2026-01-13 12:19:33,0.223694,5,7.816,0.223694,0.0,0.0,356.5,6.2,-3.0,1024,1024,1024,1024,0,0,0,0,98,4.859,62.96,36.08924,P-GPS,,11.0
235,23500,2026-01-13 12:19:33,0.0,5,7.816,0.0,0.0,0.0,356.8,5.7,-3.0,1024,1024,1024,1024,0,0,0,0,98,4.859,62.96,36.08924,P-GPS,,11.0
236,23600,2026-01-13 12:19:33,0.0,5,7.816,0.0,0.0,0.0,356.9,4.7,-3.5,1024,1024,1024,1024,0,0,0,0,98,4.859,62.96,36.08924,P-GPS,,11.0
237,23700,2026-01-13 12:19:33,0.0,5,7.816,0.0,0.0,0.0,356.9,4.3,-3.9,1024,1024,1024,1024,0,0,0,0,98,4.859,62.96,36.08924,P-GPS,,11.0
238,23800,2026-01-13 12:19:34,0.0,5,7.816,0.0,0.0,0.0,357.0,4.4,-3.6,1024,1024,1024,1024,0,0,0,0,98,4.859,62.96,36.08924,P-GPS,,11.0
239,23900,2026-01-13 12:19:34,0.0,5,7.804,0.0,0.0,0.0,357.1,4.5,-4.0,1024,1024,1024,1024,0,0,0,0,97,4.999,63.14,36.08924,P-GPS,,11.0
240,24000,2026-01-13 12:19:34,0.0,5,7.804,0.0,0.0,0.0,357.1,4.3,-4.2,1024,1024,1024,1024,0,0,0,0,97,4.999,63.14,36.08924,P-GPS,,11.0
241,24100,2026-01-13 12:19:34,0.0,5,7.804,0.0,0.0,0.0,357.1,4.1,-4.3,1024,1024,1024,1024,0,0,0,0,97,4.999,63.14,36.08924,P-GPS,,11.0
242,24200,2026-01-13 12:19:34,0.0,5,7.804,0.0,0.0,0.0,357.2,3.7,-3.9,1024,1024,1024,1024,0,0,0,0,97,4.999,63.14,36.08924,P-GPS,,11.0
243,24300,2026-01-13 12:19:34,0.0,5,7.804,0.0,0.0,0.0,357.1,3.8,-4.2,1024,1024,1024,1024,0,0,0,0,97,4.999,63.14,36.08924,P-GPS,,11.0
244,24400,2026-01-13 12:19:34,0.0,5,7.804,0.0,0.0,0.0,357.0,3.1,-5.0,1024,1024,1024,1024,0,0,0,0,97,4.999,63.14,36.08924,P-GPS,,11.0
245,24500,2026-01-13 12:19:34,0.0,5,7.804,0.0,0.0,0.0,357.0,3.3,-5.4,1024,1024,1024,1024,0,0,0,0,97,4.999,63.14,36.08924,P-GPS,,11.0
246,24600,2026-01-13 12:19:34,0.0,5,7.804,0.0,0.0,0.0,357.0,3.3,-5.8,1024,1024,1024,1024,0,0,0,0,97,4.999,63.14,36.417324,P-GPS,,11.1
247,24700,2026-01-13 12:19:34,0.0,5,7.804,0.0,0.0,0.0,357.2,2.9,-6.1,1024,1024,1024,1024,0,0,0,0,97,4.999,63.14,36.417324,P-GPS,,11.1
248,24800,2026-01-13 12:19:34,0.223694,5,7.804,-0.223694,0.0,0.0,357.4,2.3,-6.2,1024,1024,1024,1024,0,0,0,0,97,4.999,63.14,36.417324,P-GPS,,11.1
249,24900,2026-01-13 12:19:35,0.223694,5,7.804,-0.223694,0.0,0.0,357.5,2.0,-6.4,1024,1024,1024,1024,0,0,0,0,97,4.999,63.14,36.417324,P-GPS,,11.1
250,25000,2026-01-13 12:19:35,0.223694,5,7.819,-0.223694,0.0,0.0,357.6,1.7,-6.3,1024,1024,1024,1024,0,0,0,0,97,4.647,63.14,36.417324,P-GPS,,11.1
251,25100,2026-01-13 12:19:35,0.223694,5,7.819,-0.223694,0.0,0.0,357.7,1.1,-6.4,1024,1024,1024,1024,0,0,0,0,97,4.647,63.14,36.417324,P-GPS,,11.1
252,25200,2026-01-13 12:19:35,0.223694,5,7.819,-0.223694,0.0,0.0,357.7,1.4,-6.6,1024,1024,1024,1024,0,0,0,0,97,4.647,63.14,36.745408,P-GPS,,11.2
253,25300,2026-01-13 12:19:35,0.223694,5,7.819,-0.223694,0.0,0.0,357.7,1.1,-6.6,1024,1024,1024,1024,0,0,0,0,97,4.647,63.14,36.745408,P-GPS,,11.2
254,25400,2026-01-13 12:19:35,0.223694,5,7.819,-0.223694,0.0,0.0,357.9,0.9,-6.3,1024,1024,1024,1024,0,0,0,0,97,4.647,63.14,36.745408,P-GPS,,11.2
255,25500,2026-01-13 12:19:35,0.223694,5,7.819,-0.223694,0.0,0.0,358.0,0.7,-6.3,1024,1024,1024,1024,0,0,0,0,97,4.647,63.14,36.745408,P-GPS,,11.2
256,25600,2026-01-13 12:19:35,0.223694,5,7.819,-0.223694,0.0,0.0,358.3,-1.0,-6.7,1024,1024,1024,1024,0,0,0,0,97,4.647,63.14,36.745408,P-GPS,,11.2
257,25700,2026-01-13 12:19:35,0.223694,5,7.819,-0.223694,0.0,0.0,358.3,-1.1,-6.5,1024,1024,1024,1024,0,0,0,0,97,4.647,63.14,36.745408,P-GPS,,11.2
258,25800,2026-01-13 12:19:36,0.0,5,7.819,0.0,0.0,0.0,358.4,-0.8,-6.2,1024,1024,1024,1024,0,0,0,0,97,4.647,63.14,36.745408,P-GPS,,11.2
259,25900,2026-01-13 12:19:36,0.0,5,7.819,0.0,0.0,0.0,358.4,0.0,-5.8,1024,1024,1024,1024,0,0,0,0,97,4.647,63.14,36.745408,P-GPS,,11.2
260,26000,2026-01-13 12:19:36,0.0,5,7.819,0.0,0.0,0.0,358.6,0.1,-5.3,1024,1024,1024,1024,0,0,0,0,97,4.647,63.14,36.417324,P-GPS,,11.1
261,26100,2026-01-13 12:19:36,0.223694,5,7.813,0.223694,0.0,0.0,358.7,1.3,-4.8,1024,1024,1024,1024,0,0,0,0,97,4.678,63.14,36.417324,P-GPS,,11.1
262,26200,2026-01-13 12:19:36,0.223694,5,7.813,0.223694,0.0,0.0,358.5,3.2,-4.6,1024,1024,1024,1024,0,0,0,0,97,4.678,63.14,36.417324,P-GPS,,11.1
263,26300,2026-01-13 12:19:36,0.223694,5,7.813,0.223694,0.0,0.0,358.6,4.5,-4.2,1024,1024,1024,1024,0,0,0,0,97,4.678,63.14,36.417324,P-GPS,,11.1
264,26400,2026-01-13 12:19:36,0.223694,5,7.813,0.223694,0.0,0.0,358.6,5.3,-3.8,1024,1024,1024,1024,0,0,0,0,97,4.678,63.14,36.08924,P-GPS,,11.0
265,26500,2026-01-13 12:19:36,0.223694,5,7.813,0.223694,0.0,0.0,358.5,5.9,-4.0,1024,1024,1024,1024,0,0,0,0,97,4.678,63.14,36.08924,P-GPS,,11.0
266,26600,2026-01-13 12:19:36,0.0,5,7.813,0.0,0.0,0.0,358.7,4.8,-3.9,1024,1024,1024,1024,0,0,0,0,97,4.678,63.14,36.08924,P-GPS,,11.0
267,26700,2026-01-13 12:19:36,0.0,5,7.813,0.0,0.0,0.0,358.8,4.9,-3.8,1024,1024,1024,1024,0,0,0,0,97,4.678,63.14,36.08924,P-GPS,,11.0
268,26800,2026-01-13 12:19:37,0.0,5,7.813,0.0,0.0,0.0,359.0,3.7,-3.8,1024,1024,1024,1024,0,0,0,0,97,4.678,63.14,36.08924,P-GPS,,11.0
269,26900,2026-01-13 12:19:37,0.0,5,7.813,0.0,0.0,0.0,359.2,3.3,-3.8,1024,1024,1024,1024,0,0,0,0,97,4.678,63.14,35.761156,P-GPS,,10.9
270,27000,2026-01-13 12:19:37,0.0,5,7.813,0.0,0.0,0.0,359.2,3.4,-4.0,1024,1024,1024,1024,0,0,0,0,97,4.678,63.14,35.761156,P-GPS,,10.9
271,27100,2026-01-13 12:19:37,0.0,5,7.813,0.0,0.0,0.0,359.0,5.1,-4.2,1024,1024,1024,1024,0,0,0,0,97,4.678,63.14,35.761156,P-GPS,,10.9
272,27200,2026-01-13 12:19:37,0.0,5,7.796,0.0,0.0,0.0,358.7,5.0,-3.7,1024,1024,1024,1024,0,0,0,0,97,4.765,63.32,35.761156,P-GPS,,10.9
273,27300,2026-01-13 12:19:37,0.0,5,7.796,0.0,0.0,0.0,358.7,5.1,-3.9,1024,1024,1024,1024,0,0,0,0,97,4.765,63.32,35.761156,P-GPS,,10.9
274,27400,2026-01-13 12:19:37,0.0,5,7.796,0.0,0.0,0.0,358.9,3.8,-4.2,1024,1024,1024,1024,0,0,0,0,97,4.765,63.32,35.761156,P-GPS,,10.9
275,27500,2026-01-13 12:19:37,0.0,5,7.796,0.0,0.0,0.0,359.0,2.8,-4.7,1024,1024,1024,1024,0,0,0,0,97,4.765,63.32,35.761156,P-GPS,,10.9
276,27600,2026-01-13 12:19:37,0.0,5,7.796,0.0,0.0,0.0,359.3,2.5,-4.7,1024,1024,1024,1024,0,0,0,0,97,4.765,63.32,35.433072,P-GPS,,10.8
277,27700,2026-01-13 12:19:37,0.0,5,7.796,0.0,0.0,0.0,359.4,2.5,-4.8,1024,1024,1024,1024,0,0,0,0,97,4.765,63.32,35.433072,P-GPS,,10.8
278,27800,2026-01-13 12:19:37,0.0,5,7.796,0.0,0.0,0.0,359.4,2.5,-5.2,1024,1024,1024,1024,0,0,0,0,97,4.765,63.32,35.433072,P-GPS,,10.8
279,27900,2026-01-13 12:19:38,0.0,5,7.796,0.0,0.0,0.0,359.4,3.0,-4.6,1024,1024,1024,1024,0,0,0,0,97,4.765,63.32,35.433072,P-GPS,,10.8
280,28000,2026-01-13 12:19:38,0.0,5,7.796,0.0,0.0,0.0,359.3,2.7,-4.9,1024,1024,1024,1024,0,0,0,0,97,4.765,63.32,35.433072,P-GPS,,10.8
281,28100,2026-01-13 12:19:38,0.0,5,7.796,0.0,0.0,0.0,359.4,1.8,-5.1,1024,1024,1024,1024,0,0,0,0,97,4.765,63.32,35.433072,P-GPS,,10.8
282,28200,2026-01-13 12:19:38,0.0,5,7.796,0.0,0.0,0.0,359.5,2.0,-5.0,1024,1024,1024,1024,0,0,0,0,97,4.765,63.32,35.433072,P-GPS,,10.8
283,28300,2026-01-13 12:19:38,0.0,5,7.801,0.0,0.0,0.0,359.7,1.7,-5.1,1024,1024,1024,1024,0,0,0,0,97,4.81,63.32,35.433072,P-GPS,,10.8
284,28400,2026-01-13 12:19:38,0.0,5,7.801,0.0,0.0,0.0,359.6,2.4,-5.3,1024,1024,1024,1024,0,0,0,0,97,4.81,63.32,35.433072,P-GPS,,10.8
285,28500,2026-01-13 12:19:38,0.0,5,7.801,0.0,0.0,0.0,359.5,2.1,-5.7,1024,1024,1024,1024,0,0,0,0,97,4.81,63.32,35.433072,P-GPS,,10.8
286,28600,2026-01-13 12:19:38,0.0,5,7.801,0.0,0.0,0.0,359.6,1.3,-5.6,1024,1024,1024,1024,0,0,0,0,97,4.81,63.32,35.433072,P-GPS,,10.8
287,28700,2026-01-13 12:19:38,0.0,5,7.801,0.0,0.0,0.0,359.6,1.0,-5.4,1024,1024,1024,1024,0,0,0,0,97,4.81,63.32,35.761156,P-GPS,,10.9
288,28800,2026-01-13 12:19:39,0.0,5,7.801,0.0,0.0,0.0,359.5,1.2,-5.4,1024,1024,1024,1024,0,0,0,0,97,4.81,63.32,35.761156,P-GPS,,10.9
289,28900,2026-01-13 12:19:39,0.0,5,7.801,0.0,0.0,0.0,359.6,1.0,-5.4,1024,1024,1024,1024,0,0,0,0,97,4.81,63.32,35.761156,P-GPS,,10.9
290,29000,2026-01-13 12:19:39,0.0,5,7.801,0.0,0.0,0.0,359.7,1.0,-5.6,1024,1024,1024,1024,0,0,0,0,97,4.81,63.32,35.761156,P-GPS,,10.9
291,29100,2026-01-13 12:19:39,0.0,5,7.801,0.0,0.0,0.0,359.7,0.9,-5.6,1024,1024,1024,1024,0,0,0,0,97,4.81,63.32,35.761156,P-GPS,,10.9
292,29200,2026-01-13 12:19:39,0.0,5,7.801,0.0,0.0,0.0,359.9,0.6,-5.5,1024,1024,1024,1024,0,0,0,0,97,4.81,63.32,35.761156,P-GPS,,10.9
293,29300,2026-01-13 12:19:39,0.0,5,7.801,0.0,0.0,0.0,359.9,0.4,-5.9,1024,1024,1024,1024,0,0,0,0,97,4.81,63.32,35.761156,P-GPS,,10.9
294,29400,2026-01-13 12:19:39,0.0,5,7.803,0.0,0.0,0.0,359.9,1.1,-5.8,1024,1024,1024,1024,0,0,0,0,97,4.694,63.32,35.761156,P-GPS,,10.9
295,29500,2026-01-13 12:19:39,0.0,5,7.803,0.0,0.0,0.0,359.9,1.5,-5.4,1024,1024,1024,1024,0,0,0,0,97,4.694,63.32,35.761156,P-GPS,,10.9
296,29600,2026-01-13 12:19:39,0.0,5,7.803,0.0,0.0,0.0,359.9,1.5,-5.1,1024,1024,1024,1024,0,0,0,0,97,4.694,63.32,35.761156,P-GPS,,10.9
297,29700,2026-01-13 12:19:40,0.0,5,7.803,0.0,0.0,0.0,0.1,1.3,-4.9,1024,1024,1024,1024,0,0,0,0,97,4.694,63.32,35.761156,P-GPS,,10.9
298,29800,2026-01-13 12:19:40,0.0,5,7.803,0.0,0.0,0.0,0.2,1.4,-4.7,1024,1024,1024,1024,0,0,0,0,97,4.694,63.32,35.761156,P-GPS,,10.9
299,29900,2026-01-13 12:19:40,0.0,5,7.803,0.0,0.0,0.0,0.1,2.0,-4.6,1024,1024,1024,1024,0,0,0,0,97,4.694,63.32,35.761156,P-GPS,,10.9
300,30000,2026-01-13 12:19:40,0.0,5,7.803,0.0,0.0,0.0,0.1,2.5,-4.4,1024,1024,1024,1024,0,0,0,0,97,4.694,63.32,35.761156,P-GPS,,10.9
301,30100,2026-01-13 12:19:40,0.223694,5,7.803,0.223694,0.0,0.0,0.1,2.9,-4.2,1024,1024,1024,1024,0,0,0,0,97,4.694,63.32,35.761156,P-GPS,,10.9
302,30200,2026-01-13 12:19:40,0.0,5,7.803,0.0,0.0,0.0,0.1,3.1,-4.1,1024,1024,1024,1024,0,0,0,0,97,4.694,63.32,35.761156,P-GPS,,10.9
303,30300,2026-01-13 12:19:40,0.0,5,7.803,0.0,0.0,0.0,0.0,3.3,-4.2,1024,1024,1024,1024,0,0,0,0,97,4.694,63.32,35.433072,P-GPS,,10.8
304,30400,2026-01-13 12:19:40,0.0,5,7.803,0.0,0.0,0.0,0.1,3.2,-4.3,1024,1024,1024,1024,0,0,0,0,97,4.694,63.32,35.433072,P-GPS,,10.8
305,30500,2026-01-13 12:19:40,0.0,5,7.802,0.0,0.0,0.0,0.1,3.5,-3.8,1024,1024,1024,1024,0,0,0,0,97,4.791,63.32,35.433072,P-GPS,,10.8
306,30600,2026-01-13 12:19:40,0.0,5,7.802,0.0,0.0,0.0,0.1,3.3,-3.8,1024,1024,1024,1024,0,0,0,0,97,4.791,63.32,35.433072,P-GPS,,10.8
307,30700,2026-01-13 12:19:40,0.0,5,7.802,0.0,0.0,0.0,0.3,2.8,-4.0,1024,1024,1024,1024,0,0,0,0,97,4.791,63.32,35.433072,P-GPS,,10.8
308,30800,2026-01-13 12:19:40,0.0,5,7.802,0.0,0.0,0.0,0.4,3.2,-3.6,1024,1024,1024,1024,0,0,0,0,97,4.791,63.32,35.104988,P-GPS,,10.7
309,30900,2026-01-13 12:19:41,0.0,5,7.802,0.0,0.0,0.0,0.4,3.7,-3.2,1024,1024,1024,1024,0,0,0,0,97,4.791,63.32,35.104988,P-GPS,,10.7
310,31000,2026-01-13 12:19:41,0.0,5,7.802,0.0,0.0,0.0,0.4,4.1,-3.3,1024,1024,1024,1024,0,0,0,0,97,4.791,63.32,35.104988,P-GPS,,10.7
311,31100,2026-01-13 12:19:41,0.0,5,7.802,0.0,0.0,0.0,0.4,4.2,-2.9,1024,1024,1024,1024,0,0,0,0,97,4.791,63.32,35.104988,P-GPS,,10.7
312,31200,2026-01-13 12:19:41,0.223694,5,7.802,0.0,-0.223694,0.0,0.3,4.4,-2.1,1024,1024,1024,1024,0,0,0,0,97,4.791,63.32,35.104988,P-GPS,,10.7
313,31300,2026-01-13 12:19:41,0.0,5,7.802,0.0,0.0,0.0,0.4,3.8,-1.6,1024,1024,1024,1024,0,0,0,0,97,4.791,63.32,35.104988,P-GPS,,10.7
314,31400,2026-01-13 12:19:41,0.0,5,7.802,0.0,0.0,0.0,0.4,3.4,-1.6,1024,1024,1024,1024,0,0,0,0,97,4.791,63.32,35.104988,P-GPS,,10.7
315,31500,2026-01-13 12:19:41,0.0,5,7.802,0.0,0.0,0.0,0.3,3.5,-1.8,1024,1024,1024,1024,0,0,0,0,97,4.791,63.32,35.104988,P-GPS,,10.7
316,31600,2026-01-13 12:19:41,0.0,5,7.802,0.0,0.0,0.0,0.3,3.8,-1.7,1024,1024,1024,1024,0,0,0,0,97,4.791,63.32,35.104988,P-GPS,,10.7
317,31700,2026-01-13 12:19:41,0.0,5,7.802,0.0,0.0,0.0,0.2,3.7,-2.3,1024,1024,1024,1024,0,0,0,0,97,4.791,63.32,35.104988,P-GPS,,10.7
318,31800,2026-01-13 12:19:42,0.0,5,7.802,0.0,0.0,0.0,0.1,3.7,-2.5,1024,1024,1024,1024,0,0,0,0,97,4.791,63.32,35.104988,P-GPS,,10.7
319,31900,2026-01-13 12:19:42,0.0,5,7.802,0.0,0.0,0.0,0.0,3.0,-2.5,1024,1024,1024,1024,0,0,0,0,97,4.791,63.32,35.104988,P-GPS,,10.7
320,32000,2026-01-13 12:19:42,0.0,5,7.802,0.0,0.0,0.0,0.1,2.4,-2.9,1024,1024,1024,1024,0,0,0,0,97,4.791,63.32,35.104988,P-GPS,,10.7
321,32100,2026-01-13 12:19:42,0.0,5,7.802,0.0,0.0,0.0,0.1,2.3,-3.0,1024,1024,1024,1024,0,0,0,0,97,4.791,63.32,35.104988,P-GPS,,10.7
322,32200,2026-01-13 12:19:42,0.0,5,7.802,0.0,0.0,0.0,0.2,2.6,-3.5,1024,1024,1024,1024,0,0,0,0,97,4.791,63.32,35.104988,P-GPS,,10.7
323,32300,2026-01-13 12:19:42,0.0,5,7.802,0.0,0.0,0.0,0.0,2.8,-3.6,1024,1024,1024,1024,0,0,0,0,97,4.791,63.32,35.433072,P-GPS,,10.8
324,32400,2026-01-13 12:19:42,0.0,5,7.802,0.0,0.0,0.0,0.1,2.8,-3.8,1024,1024,1024,1024,0,0,0,0,97,4.791,63.32,35.433072,P-GPS,,10.8
325,32500,2026-01-13 12:19:42,0.0,5,7.802,0.0,0.0,0.0,0.1,3.1,-4.2,1024,1024,1024,1024,0,0,0,0,97,4.791,63.32,35.433072,P-GPS,,10.8
326,32600,2026-01-13 12:19:42,0.0,5,7.802,0.0,0.0,0.0,0.3,3.1,-4.6,1024,1024,1024,1024,0,0,0,0,97,4.791,63.32,35.433072,P-GPS,,10.8
327,32700,2026-01-13 12:19:42,0.0,5,7.805,0.0,0.0,0.0,0.4,3.3,-4.5,1024,1024,1024,1024,0,0,0,0,97,4.768,63.5,35.433072,P-GPS,,10.8
328,32800,2026-01-13 12:19:42,0.0,5,7.805,0.0,0.0,0.0,0.3,3.4,-4.3,1024,1024,1024,1024,0,0,0,0,97,4.768,63.5,35.433072,P-GPS,,10.8
329,32900,2026-01-13 12:19:43,0.0,5,7.805,0.0,0.0,0.0,0.2,3.5,-3.8,1024,1024,1024,1024,0,0,0,0,97,4.768,63.5,35.433072,P-GPS,,10.8
330,33000,2026-01-13 12:19:43,0.0,5,7.805,0.0,0.0,0.0,0.1,3.6,-3.8,1024,1024,1024,1024,0,0,0,0,97,4.768,63.5,35.433072,P-GPS,,10.8
331,33100,2026-01-13 12:19:43,0.0,5,7.805,0.0,0.0,0.0,0.0,3.2,-3.8,1024,1024,1024,1024,0,0,0,0,97,4.768,63.5,35.433072,P-GPS,,10.8
332,33200,2026-01-13 12:19:43,0.0,5,7.805,0.0,0.0,0.0,0.0,3.1,-3.6,1024,1024,1024,1024,0,0,0,0,97,4.768,63.5,35.761156,P-GPS,,10.9
333,33300,2026-01-13 12:19:43,0.0,5,7.805,0.0,0.0,0.0,0.1,2.8,-3.6,1024,1024,1024,1024,0,0,0,0,97,4.768,63.5,35.761156,P-GPS,,10.9
334,33400,2026-01-13 12:19:43,0.0,5,7.805,0.0,0.0,0.0,0.2,2.5,-3.9,1024,1024,1024,1024,0,0,0,0,97,4.768,63.5,35.761156,P-GPS,,10.9
335,33500,2026-01-13 12:19:43,0.0,5,7.805,0.0,0.0,0.0,0.1,3.2,-4.0,1024,1024,1024,1024,0,0,0,0,97,4.768,63.5,35.761156,P-GPS,,10.9
336,33600,2026-01-13 12:19:43,0.0,5,7.805,0.0,0.0,0.0,0.2,3.0,-3.4,1024,1024,1024,1024,0,0,0,0,97,4.768,63.5,35.761156,P-GPS,,10.9
337,33700,2026-01-13 12:19:43,0.0,5,7.805,0.0,0.0,0.0,0.4,2.4,-3.5,1024,1024,1024,1024,0,0,0,0,97,4.768,63.5,35.761156,P-GPS,,10.9
