index,time(millisecond),timestamp,speed(mph),gpslevel,voltage(v),xSpeed(mph),ySpeed(mph),zSpeed(mph),compass_heading(degrees),pitch(degrees),roll(degrees),rc_elevator,rc_aileron,rc_throttle,rc_rudder,rc_elevator(percent),rc_aileron(percent),rc_throttle(percent),rc_rudder(percent),battery_percent,current(A),battery_temperature(f),ascent(feet),flycState,message,height_above_takeoff(meters)
411,366600,2026-01-13 17:39:12,0.0,5,7.413,0.0,0.0,0.0,21.8,12.5,-9.3,1024,1024,1024,1024,0,0,0,0,72,7.151,73.22,95.472444,P-GPS,,29.1
412,366700,2026-01-13 17:39:12,0.0,5,7.413,0.0,0.0,0.0,22.1,11.6,-8.8,1024,1024,1024,1024,0,0,0,0,72,7.151,73.22,95.472444,P-GPS,,29.1
413,366800,2026-01-13 17:39:12,0.0,5,7.481,0.0,0.0,0.0,22.3,9.9,-7.7,1024,1024,1024,1024,0,0,0,0,72,5.173,73.4,95.14436,P-GPS,,29.0
414,366900,2026-01-13 17:39:12,0.223694,5,7.481,0.0,-0.223694,-0.223694,22.2,10.2,-7.1,1024,1024,1024,1024,0,0,0,0,72,5.173,73.4,95.14436,P-GPS,,29.0
415,367000,2026-01-13 17:39:12,0.223694,5,7.481,0.0,-0.223694,-0.223694,22.1,10.1,-7.0,1024,1024,1024,1024,0,0,0,0,72,5.173,73.4,95.14436,P-GPS,,29.0
416,367100,2026-01-13 17:39:13,0.223694,5,7.481,0.0,-0.223694,-0.223694,22.1,10.0,-6.6,1024,1024,1024,1024,0,0,0,0,72,5.173,73.4,94.816276,P-GPS,,28.9
417,367200,2026-01-13 17:39:13,0.223694,5,7.481,0.0,-0.223694,-0.223694,22.1,9.3,-6.4,1024,1024,1024,1024,0,0,0,0,72,5.173,73.4,94.816276,P-GPS,,28.9
418,367300,2026-01-13 17:39:13,0.223694,5,7.481,0.0,-0.223694,-0.223694,22.0,9.1,-6.3,1024,1024,1024,1024,0,0,0,0,72,5.173,73.4,94.816276,P-GPS,,28.9
419,367400,2026-01-13 17:39:13,0.223694,5,7.481,0.0,-0.223694,-0.223694,22.0,9.2,-6.3,1024,1024,1024,1024,0,0,0,0,72,5.173,73.4,95.14436,P-GPS,,29.0
420,367500,2026-01-13 17:39:13,0.223694,5,7.481,0.0,-0.223694,0.0,22.1,8.6,-6.6,1024,1024,1024,1024,0,0,0,0,72,5.173,73.4,95.14436,P-GPS,,29.0
421,367600,2026-01-13 17:39:13,0.223694,5,7.481,0.0,-0.223694,0.0,22.6,6.3,-6.6,1024,1024,1024,1024,0,0,0,0,72,5.173,73.4,95.14436,P-GPS,,29.0
422,367700,2026-01-13 17:39:13,0.223694,5,7.481,0.0,-0.223694,-0.223694,22.2,9.6,-6.0,1024,1024,1024,1024,0,0,0,0,72,5.173,73.4,95.14436,P-GPS,,29.0
423,367800,2026-01-13 17:39:13,0.0,5,7.481,0.0,0.0,0.0,22.4,7.5,-5.4,1024,1024,1024,1024,0,0,0,0,72,5.173,73.4,95.14436,P-GPS,,29.0
424,367900,2026-01-13 17:39:13,0.0,5,7.522,0.0,0.0,-0.223694,22.4,7.3,-6.3,1024,1024,1024,1024,0,0,0,0,72,4.872,73.4,95.14436,P-GPS,,29.0
425,368000,2026-01-13 17:39:14,0.0,5,7.522,0.0,0.0,-0.223694,22.2,9.8,-6.9,1024,1024,1024,1024,0,0,0,0,72,4.872,73.4,95.14436,P-GPS,,29.0
426,368100,2026-01-13 17:39:14,0.0,5,7.522,0.0,0.0,0.0,22.0,10.5,-7.1,1024,1024,1024,1024,0,0,0,0,72,4.872,73.4,95.14436,P-GPS,,29.0
427,368200,2026-01-13 17:39:14,0.0,5,7.522,0.0,0.0,0.0,22.1,10.6,-7.6,1024,1024,1024,1024,0,0,0,0,72,4.872,73.4,95.14436,P-GPS,,29.0
428,368300,2026-01-13 17:39:14,0.0,5,7.522,0.0,0.0,0.0,22.1,9.9,-7.8,1024,1024,1024,1024,0,0,0,0,72,4.872,73.4,95.472444,P-GPS,,29.1
429,368400,2026-01-13 17:39:14,0.223694,5,7.522,0.0,0.223694,0.0,22.2,9.4,-8.7,1024,1024,1024,1024,0,0,0,0,72,4.872,73.4,95.472444,P-GPS,,29.1
430,368500,2026-01-13 17:39:14,0.223694,5,7.522,0.0,0.223694,-0.223694,22.0,10.5,-9.1,1024,1024,1024,1024,0,0,0,0,72,4.872,73.4,95.472444,P-GPS,,29.1
431,368600,2026-01-13 17:39:14,0.223694,5,7.522,0.0,0.223694,0.0,22.0,10.5,-9.8,1024,1024,1024,1024,0,0,0,0,72,4.872,73.4,95.800528,P-GPS,,29.2
432,368700,2026-01-13 17:39:14,0.223694,5,7.522,0.0,0.223694,0.0,21.9,10.9,-10.3,1024,1024,1024,1024,0,0,0,0,72,4.872,73.4,95.800528,P-GPS,,29.2
433,368800,2026-01-13 17:39:14,0.223694,5,7.522,0.0,0.223694,0.0,22.1,10.2,-9.9,1024,1024,1024,1024,0,0,0,0,72,4.872,73.4,96.128612,P-GPS,,29.3
434,368900,2026-01-13 17:39:14,0.223694,5,7.522,0.0,0.223694,0.0,21.9,10.2,-10.3,1024,1024,1024,1024,0,0,0,0,72,4.872,73.4,96.128612,P-GPS,,29.3
435,369000,2026-01-13 17:39:14,0.223694,5,7.517,0.0,0.223694,0.0,21.8,10.7,-10.6,1024,1024,1024,1024,0,0,0,0,72,4.651,73.58,96.128612,P-GPS,,29.3
436,369100,2026-01-13 17:39:15,0.223694,5,7.517,0.0,0.223694,0.0,21.9,10.5,-10.9,1024,1024,1024,1024,0,0,0,0,72,4.651,73.58,96.456696,P-GPS,,29.4
437,369200,2026-01-13 17:39:15,0.223694,5,7.517,0.0,0.223694,0.0,21.9,10.4,-10.8,1024,1024,1024,1024,0,0,0,0,72,4.651,73.58,96.456696,P-GPS,,29.4
438,369300,2026-01-13 17:39:15,0.223694,5,7.517,0.0,0.223694,0.0,21.8,11.2,-11.2,1024,1024,1024,1024,0,0,0,0,72,4.651,73.58,96.456696,P-GPS,,29.4
439,369400,2026-01-13 17:39:15,0.223694,5,7.517,0.0,0.223694,0.0,21.8,11.8,-11.4,1024,1024,1024,1024,0,0,0,0,72,4.651,73.58,96.456696,P-GPS,,29.4
440,369500,2026-01-13 17:39:15,0.223694,5,7.517,0.0,0.223694,0.223694,21.7,12.7,-11.0,1024,1024,1024,1024,0,0,0,0,72,4.651,73.58,96.456696,P-GPS,,29.4
441,369600,2026-01-13 17:39:15,0.223694,5,7.517,0.0,0.223694,0.223694,21.6,12.5,-11.1,1024,1024,1024,1024,0,0,0,0,72,4.651,73.58,96.456696,P-GPS,,29.4
442,369700,2026-01-13 17:39:15,0.223694,5,7.517,0.0,0.223694,0.223694,21.6,12.6,-11.4,1024,1024,1024,1024,0,0,0,0,72,4.651,73.58,96.78478,P-GPS,,29.5
443,369800,2026-01-13 17:39:15,0.223694,5,7.517,0.0,0.223694,0.447388,21.4,12.9,-12.4,1024,1024,1024,1024,0,0,0,0,72,4.651,73.58,96.78478,P-GPS,,29.5
444,369900,2026-01-13 17:39:15,0.223694,5,7.517,0.0,0.223694,0.223694,21.8,11.8,-11.2,1024,1024,1024,1024,0,0,0,0,72,4.651,73.58,96.78478,P-GPS,,29.5
445,370000,2026-01-13 17:39:16,0.0,5,7.517,0.0,0.0,0.0,21.8,10.8,-11.9,1024,1024,1024,1024,0,0,0,0,72,4.651,73.58,97.112864,P-GPS,,29.6
446,370100,2026-01-13 17:39:16,0.0,5,7.447,0.0,0.0,-0.223694,21.8,10.7,-12.0,1024,1024,1024,1024,0,0,0,0,72,5.627,73.58,97.112864,P-GPS,,29.6
447,370200,2026-01-13 17:39:16,0.0,5,7.447,0.0,0.0,0.0,21.7,11.0,-12.0,1024,1024,1024,1024,0,0,0,0,72,5.627,73.58,97.112864,P-GPS,,29.6
448,370300,2026-01-13 17:39:16,0.0,5,7.447,0.0,0.0,0.0,21.5,11.3,-12.4,1024,1024,1024,1024,0,0,0,0,72,5.627,73.58,97.112864,P-GPS,,29.6
449,370400,2026-01-13 17:39:16,0.0,5,7.447,0.0,0.0,0.0,21.6,12.5,-12.4,1024,1024,1024,1024,0,0,0,0,72,5.627,73.58,97.112864,P-GPS,,29.6
450,370500,2026-01-13 17:39:16,0.223694,5,7.447,0.223694,0.0,0.223694,21.5,13.4,-11.2,1024,1024,1024,1024,0,0,0,0,72,5.627,73.58,96.78478,P-GPS,,29.5
451,370600,2026-01-13 17:39:16,0.223694,5,7.447,0.223694,0.0,0.223694,21.4,13.7,-10.6,1024,1024,1024,1024,0,0,0,0,72,5.627,73.58,96.78478,P-GPS,,29.5
452,370700,2026-01-13 17:39:16,0.0,5,7.447,0.0,0.0,0.223694,21.6,12.8,-10.2,1024,1024,1024,1024,0,0,0,0,72,5.627,73.58,96.78478,P-GPS,,29.5
453,370800,2026-01-13 17:39:16,0.0,5,7.447,0.0,0.0,0.0,21.9,11.4,-9.5,1024,1024,1024,1024,0,0,0,0,72,5.627,73.58,96.78478,P-GPS,,29.5
454,370900,2026-01-13 17:39:16,0.0,5,7.447,0.0,0.0,-0.223694,22.1,10.2,-8.8,1024,1024,1024,1024,0,0,0,0,72,5.627,73.58,96.456696,P-GPS,,29.4
455,371000,2026-01-13 17:39:17,0.0,5,7.447,0.0,0.0,0.0,21.9,10.4,-9.2,1024,1024,1024,1024,0,0,0,0,72,5.627,73.58,96.456696,P-GPS,,29.4
456,371100,2026-01-13 17:39:17,0.0,5,7.447,0.0,0.0,0.0,21.7,11.9,-9.9,1024,1024,1024,1024,0,0,0,0,72,5.627,73.58,96.456696,P-GPS,,29.4
457,371200,2026-01-13 17:39:17,0.0,5,7.489,0.0,0.0,0.447388,21.8,11.4,-9.9,1024,1024,1024,1024,0,0,0,0,72,5.825,73.58,96.128612,P-GPS,,29.3
458,371300,2026-01-13 17:39:17,0.0,5,7.489,0.0,0.0,0.223694,22.0,11.1,-9.0,1024,1024,1024,1024,0,0,0,0,72,5.825,73.58,96.128612,P-GPS,,29.3
459,371400,2026-01-13 17:39:17,0.0,5,7.489,0.0,0.0,0.0,22.0,10.4,-8.2,1024,1024,1024,1024,0,0,0,0,72,5.825,73.58,96.128612,P-GPS,,29.3
460,371500,2026-01-13 17:39:17,0.0,5,7.489,0.0,0.0,0.0,21.8,10.7,-9.4,1024,1024,1024,1024,0,0,0,0,72,5.825,73.58,95.800528,P-GPS,,29.2
461,371600,2026-01-13 17:39:17,0.0,5,7.489,0.0,0.0,0.0,21.7,11.4,-8.8,1024,1024,1024,1024,0,0,0,0,72,5.825,73.58,95.800528,P-GPS,,29.2
462,371700,2026-01-13 17:39:17,0.0,5,7.489,0.0,0.0,0.0,22.2,9.4,-8.1,1024,1024,1024,1024,0,0,0,0,72,5.825,73.58,95.800528,P-GPS,,29.2
463,371800,2026-01-13 17:39:17,0.0,5,7.489,0.0,0.0,-0.447388,22.0,9.8,-8.4,1024,1024,1024,1024,0,0,0,0,72,5.825,73.58,95.800528,P-GPS,,29.2
464,371900,2026-01-13 17:39:17,0.0,5,7.489,0.0,0.0,-0.223694,21.7,11.0,-9.5,1024,1024,1024,1024,0,0,0,0,72,5.825,73.58,95.800528,P-GPS,,29.2
465,372000,2026-01-13 17:39:17,0.0,5,7.489,0.0,0.0,0.0,21.8,10.8,-10.0,1024,1024,1024,1024,0,0,0,0,72,5.825,73.58,95.800528,P-GPS,,29.2
466,372100,2026-01-13 17:39:18,0.0,5,7.489,0.0,0.0,-0.223694,21.8,10.9,-10.6,1024,1024,1024,1024,0,0,0,0,72,5.825,73.58,95.800528,P-GPS,,29.2
467,372200,2026-01-13 17:39:18,0.0,5,7.489,0.0,0.0,0.0,22.0,10.2,-10.9,1024,1024,1024,1024,0,0,0,0,72,5.825,73.58,95.800528,P-GPS,,29.2
468,372300,2026-01-13 17:39:18,0.0,5,7.516,0.0,0.0,0.0,22.0,10.0,-10.5,1024,1024,1024,1024,0,0,0,0,72,5.49,73.58,95.800528,P-GPS,,29.2
469,372400,2026-01-13 17:39:18,0.0,5,7.516,0.0,0.0,0.0,21.9,10.0,-10.2,1024,1024,1024,1024,0,0,0,0,72,5.49,73.58,95.800528,P-GPS,,29.2
470,372500,2026-01-13 17:39:18,0.0,5,7.516,0.0,0.0,0.0,22.0,9.6,-9.4,1024,1024,1024,1024,0,0,0,0,72,5.49,73.58,95.800528,P-GPS,,29.2
471,372600,2026-01-13 17:39:18,0.0,5,7.516,0.0,0.0,-0.223694,22.1,8.7,-8.8,1024,1024,1024,1024,0,0,0,0,72,5.49,73.58,95.472444,P-GPS,,29.1
472,372700,2026-01-13 17:39:18,0.0,5,7.516,0.0,0.0,-0.223694,22.0,8.8,-9.3,1024,1024,1024,1024,0,0,0,0,72,5.49,73.58,95.472444,P-GPS,,29.1
473,372800,2026-01-13 17:39:18,0.0,5,7.516,0.0,0.0,-0.223694,21.9,9.4,-9.5,1024,1024,1024,1024,0,0,0,0,72,5.49,73.58,95.472444,P-GPS,,29.1
474,372900,2026-01-13 17:39:18,0.0,5,7.516,0.0,0.0,0.0,22.0,9.5,-8.7,1024,1024,1024,1024,0,0,0,0,72,5.49,73.58,95.14436,P-GPS,,29.0
475,373000,2026-01-13 17:39:19,0.0,5,7.516,0.0,0.0,0.0,22.0,9.3,-8.4,1024,1024,1024,1024,0,0,0,0,72,5.49,73.58,94.816276,P-GPS,,28.9
476,373100,2026-01-13 17:39:19,0.0,5,7.516,0.0,0.0,0.0,22.0,9.7,-8.6,1024,1024,1024,1024,0,0,0,0,72,5.49,73.58,94.816276,P-GPS,,28.9
477,373200,2026-01-13 17:39:19,0.0,5,7.516,0.0,0.0,0.0,22.0,9.0,-7.9,1024,1024,1024,1024,0,0,0,0,72,5.49,73.58,94.488192,P-GPS,,28.8
478,373300,2026-01-13 17:39:19,0.0,5,7.516,0.0,0.0,0.0,22.2,8.1,-7.4,1024,1024,1024,1024,0,0,0,0,72,5.49,73.58,94.488192,P-GPS,,28.8
479,373400,2026-01-13 17:39:19,0.0,5,7.572,0.0,0.0,0.0,22.0,8.9,-7.0,1024,1024,1024,1024,0,0,0,0,72,4.237,73.58,94.160108,P-GPS,,28.7
480,373500,2026-01-13 17:39:19,0.223694,5,7.572,0.0,-0.223694,0.0,22.1,7.8,-6.8,1024,1024,1024,1024,0,0,0,0,72,4.237,73.58,93.832024,P-GPS,,28.6
481,373600,2026-01-13 17:39:19,0.223694,5,7.572,0.0,-0.223694,0.0,22.1,8.0,-6.2,1024,1024,1024,1024,0,0,0,0,72,4.237,73.58,93.832024,P-GPS,,28.6
482,373700,2026-01-13 17:39:19,0.223694,5,7.572,0.0,0.0,-0.223694,22.2,7.5,-6.3,1024,1024,1024,1024,0,0,0,0,72,4.237,73.58,93.832024,P-GPS,,28.6
483,373800,2026-01-13 17:39:19,0.0,5,7.572,0.0,0.0,0.0,22.1,7.5,-6.4,1024,1024,1024,1024,0,0,0,0,72,4.237,73.58,93.832024,P-GPS,,28.6
484,373900,2026-01-13 17:39:19,0.0,5,7.572,0.0,0.0,0.0,22.1,6.6,-5.9,1024,1024,1024,1024,0,0,0,0,72,4.237,73.58,93.50394,P-GPS,,28.5
485,374000,2026-01-13 17:39:19,0.0,5,7.572,0.0,0.0,-0.223694,22.1,6.2,-5.7,1024,1024,1024,1024,0,0,0,0,72,4.237,73.58,93.50394,P-GPS,,28.5
486,374100,2026-01-13 17:39:20,0.0,5,7.572,0.0,0.0,-0.223694,21.9,6.1,-5.3,1024,1024,1024,1024,0,0,0,0,72,4.237,73.58,93.50394,P-GPS,,28.5
487,374200,2026-01-13 17:39:20,0.0,5,7.572,0.0,0.0,-0.223694,21.9,5.8,-5.2,1024,1024,1024,1024,0,0,0,0,72,4.237,73.58,93.50394,P-GPS,Strong wind warning Strong wind warning. Aircraft unable to return to home automatically. Lower altitude immediately and return to home manually (Code: 30149). SD card speed low. Normal use may be affected. Replace SD card (Code: 10028). Gimbal stuck. Make sure gimbal c,28.5
488,374300,2026-01-13 17:39:20,0.0,5,7.572,0.0,0.0,-0.223694,21.9,5.3,-5.4,1024,1024,1024,1024,0,0,0,0,72,4.237,73.58,93.50394,P-GPS,,28.5
489,374400,2026-01-13 17:39:20,0.0,5,7.572,0.0,0.0,-0.223694,21.9,5.8,-5.0,1024,1024,1024,1024,0,0,0,0,72,4.237,73.58,93.175856,P-GPS,,28.4
490,374500,2026-01-13 17:39:20,0.0,5,7.581,0.0,0.0,-0.223694,22.0,5.2,-5.6,1024,1024,1024,1024,0,0,0,0,72,3.737,73.76,93.175856,P-GPS,,28.4
491,374600,2026-01-13 17:39:20,0.0,5,7.581,0.0,0.0,0.0,22.1,5.2,-5.1,1024,1024,1024,1024,0,0,0,0,72,3.737,73.76,93.175856,P-GPS,,28.4
492,374700,2026-01-13 17:39:20,0.0,5,7.581,0.0,0.0,0.0,22.3,5.9,-5.4,1024,1024,1024,1024,0,0,0,0,72,3.737,73.76,93.175856,P-GPS,,28.4
493,374800,2026-01-13 17:39:20,0.0,5,7.581,0.0,0.0,0.0,22.4,5.6,-4.2,1024,1024,1024,1024,0,0,0,0,72,3.737,73.76,93.175856,P-GPS,,28.4
494,374900,2026-01-13 17:39:20,0.0,5,7.581,0.0,0.0,-0.223694,22.3,5.5,-4.3,1024,1024,1024,1024,0,0,0,0,72,3.737,73.76,93.175856,P-GPS,,28.4
495,375000,2026-01-13 17:39:21,0.0,5,7.581,0.0,0.0,0.0,22.3,6.0,-4.5,1024,1024,1024,1024,0,0,0,0,72,3.737,73.76,93.175856,P-GPS,,28.4
496,375100,2026-01-13 17:39:21,0.0,5,7.581,0.0,0.0,-0.223694,22.3,6.6,-4.6,1024,1024,1024,1024,0,0,0,0,72,3.737,73.76,93.50394,P-GPS,,28.5
497,375200,2026-01-13 17:39:21,0.0,5,7.581,0.0,0.0,-0.223694,22.4,6.3,-5.6,1024,1024,1024,1024,0,0,0,0,72,3.737,73.76,93.50394,P-GPS,SD card speed low SD card speed low. Normal use may be affected. Replace SD card (Code: 10028). Gimbal stuck. Make sure gimbal cover is removed and manually check whether gimbal can rotate freely (Code: 40002),28.5
498,375300,2026-01-13 17:39:21,0.223694,5,7.581,0.0,0.223694,-0.223694,22.3,6.7,-5.9,1024,1024,1024,1024,0,0,0,0,72,3.737,73.76,93.832024,P-GPS,,28.6
499,375400,2026-01-13 17:39:21,0.223694,5,7.581,0.0,0.223694,-0.223694,22.3,6.4,-7.2,1024,1024,1024,1024,0,0,0,0,72,3.737,73.76,94.160108,P-GPS,,28.7
500,375500,2026-01-13 17:39:21,0.223694,5,7.581,0.0,0.223694,-0.223694,22.4,5.9,-7.0,1024,1024,1024,1024,0,0,0,0,72,3.737,73.76,94.160108,P-GPS,,28.7
501,375600,2026-01-13 17:39:21,0.0,5,7.581,0.0,0.0,-0.223694,22.4,6.6,-6.7,1024,1024,1024,1024,0,0,0,0,72,3.737,73.76,94.160108,P-GPS,,28.7
502,375700,2026-01-13 17:39:21,0.223694,5,7.581,0.223694,0.0,-0.223694,22.4,7.1,-6.6,1024,1024,1024,1024,0,0,0,0,72,3.737,73.76,94.488192,P-GPS,,28.8
503,375800,2026-01-13 17:39:21,0.223694,5,7.581,0.223694,0.0,0.0,22.5,7.7,-6.1,1024,1024,1024,1024,0,0,0,0,72,3.737,73.76,94.488192,P-GPS,,28.8
504,375900,2026-01-13 17:39:21,0.223694,5,7.581,0.223694,0.0,0.0,22.6,7.5,-5.9,1024,1024,1024,1024,0,0,0,0,72,3.737,73.76,94.816276,P-GPS,,28.9
505,376000,2026-01-13 17:39:22,0.223694,5,7.581,0.223694,0.0,0.0,22.6,7.3,-6.0,1024,1024,1024,1024,0,0,0,0,72,3.737,73.76,94.816276,P-GPS,,28.9
506,376100,2026-01-13 17:39:22,0.223694,5,7.581,0.223694,0.0,0.0,22.6,7.4,-5.7,1024,1024,1024,1024,0,0,0,0,72,3.737,73.76,95.14436,P-GPS,,29.0
507,376200,2026-01-13 17:39:22,0.0,5,7.581,0.0,0.0,0.0,22.4,7.6,-5.8,1024,1024,1024,1024,0,0,0,0,72,3.737,73.76,95.14436,P-GPS,,29.0
508,376300,2026-01-13 17:39:22,0.0,5,7.581,0.0,0.0,0.0,22.4,7.7,-5.8,1024,1024,1024,1024,0,0,0,0,72,3.737,73.76,95.14436,P-GPS,,29.0
509,376400,2026-01-13 17:39:22,0.0,5,7.581,0.0,0.0,0.0,22.4,6.8,-5.6,1024,1024,1024,1024,0,0,0,0,72,3.737,73.76,95.472444,P-GPS,,29.1
510,376500,2026-01-13 17:39:22,0.0,5,7.581,0.0,0.0,-0.223694,22.4,6.6,-5.8,1024,1024,1024,1024,0,0,0,0,72,3.737,73.76,95.472444,P-GPS,,29.1
511,376600,2026-01-13 17:39:22,0.0,5,7.581,0.0,0.0,0.0,22.2,7.6,-6.0,1024,1024,1024,1024,0,0,0,0,72,3.737,73.76,95.472444,P-GPS,,29.1
512,376700,2026-01-13 17:39:22,0.0,5,7.586,0.0,0.0,0.0,22.2,7.8,-6.2,1024,1024,1024,1024,0,0,0,0,72,3.85,73.76,95.472444,P-GPS,,29.1
513,376800,2026-01-13 17:39:22,0.0,5,7.586,0.0,0.0,0.0,22.3,6.1,-6.0,1024,1024,1024,1024,0,0,0,0,72,3.85,73.76,95.800528,P-GPS,,29.2
514,376900,2026-01-13 17:39:22,0.0,5,7.586,0.0,0.0,0.0,22.5,4.8,-5.8,1024,1024,1024,1024,0,0,0,0,72,3.85,73.76,95.800528,P-GPS,,29.2
515,377000,2026-01-13 17:39:22,0.0,5,7.586,0.0,0.0,0.0,22.5,4.7,-5.8,1024,1024,1024,1024,0,0,0,0,72,3.85,73.76,95.800528,P-GPS,,29.2
516,377100,2026-01-13 17:39:23,0.0,5,7.586,0.0,0.0,0.0,22.5,5.0,-6.4,1024,1024,1024,1024,0,0,0,0,72,3.85,73.76,95.800528,P-GPS,,29.2
517,377200,2026-01-13 17:39:23,0.0,5,7.586,0.0,0.0,0.0,22.5,5.0,-6.1,1024,1024,1024,1024,0,0,0,0,72,3.85,73.76,95.800528,P-GPS,,29.2
518,377300,2026-01-13 17:39:23,0.0,5,7.586,0.0,0.0,0.0,22.5,4.8,-6.4,1024,1024,1024,1024,0,0,0,0,72,3.85,73.76,95.800528,P-GPS,,29.2
519,377400,2026-01-13 17:39:23,0.0,5,7.586,0.0,0.0,0.0,22.5,4.7,-7.6,1024,1024,1024,1024,0,0,0,0,72,3.85,73.76,95.800528,P-GPS,,29.2
520,377500,2026-01-13 17:39:23,0.0,5,7.586,0.0,0.0,0.223694,22.7,4.2,-7.2,1024,1024,1024,1024,0,0,0,0,72,3.85,73.76,95.800528,P-GPS,,29.2
521,377600,2026-01-13 17:39:23,0.0,5,7.586,0.0,0.0,0.0,22.7,2.8,-6.5,1024,1024,1024,1024,0,0,0,0,72,3.85,73.76,96.128612,P-GPS,,29.3
522,377700,2026-01-13 17:39:23,0.0,5,7.586,0.0,0.0,0.0,22.7,4.1,-6.4,1024,1024,1024,1024,0,0,0,0,72,3.85,73.76,96.128612,P-GPS,,29.3
523,377800,2026-01-13 17:39:23,0.0,5,7.586,0.0,0.0,0.0,23.0,1.6,-6.5,1024,1024,1024,1024,0,0,0,0,72,3.85,73.76,96.456696,P-GPS,,29.4
524,377900,2026-01-13 17:39:23,0.0,5,7.586,0.0,0.0,-0.223694,22.7,4.1,-7.9,1024,1024,1024,1024,0,0,0,0,72,3.85,73.76,96.78478,P-GPS,,29.5
525,378000,2026-01-13 17:39:24,0.223694,5,7.586,0.0,0.223694,-0.223694,22.7,4.9,-8.8,1024,1024,1024,1024,0,0,0,0,72,3.85,73.76,96.78478,P-GPS,,29.5
526,378100,2026-01-13 17:39:24,0.223694,5,7.586,0.0,0.223694,-0.223694,22.6,5.8,-10.0,1024,1024,1024,1024,0,0,0,0,72,3.85,73.76,97.112864,P-GPS,,29.6
527,378200,2026-01-13 17:39:24,0.447388,5,7.586,0.0,0.447388,0.0,22.6,6.2,-11.2,1024,1024,1024,1024,0,0,0,0,72,3.85,73.76,97.440948,P-GPS,,29.7
528,378300,2026-01-13 17:39:24,0.447388,5,7.586,0.0,0.447388,0.0,22.7,5.0,-12.3,1024,1024,1024,1024,0,0,0,0,72,3.85,73.76,97.769032,P-GPS,,29.8
529,378400,2026-01-13 17:39:24,0.447388,5,7.586,0.0,0.447388,0.0,22.6,6.0,-12.1,1024,1024,1024,1024,0,0,0,0,72,3.85,73.76,98.097116,P-GPS,,29.9
530,378500,2026-01-13 17:39:24,0.447388,5,7.586,0.0,0.447388,0.0,22.3,6.9,-12.5,1024,1024,1024,1024,0,0,0,0,72,3.85,73.76,98.097116,P-GPS,,29.9
531,378600,2026-01-13 17:39:24,0.3131716,5,7.542,0.223694,0.223694,0.0,22.5,6.9,-12.2,1024,1024,1024,1024,0,0,0,0,72,3.868,73.76,98.4252,P-GPS,,30.0
532,378700,2026-01-13 17:39:24,0.3131716,5,7.542,0.223694,0.223694,0.0,22.2,8.0,-11.4,1024,1024,1024,1024,0,0,0,0,72,3.868,73.76,98.4252,P-GPS,,30.0
533,378800,2026-01-13 17:39:24,0.3131716,5,7.542,0.223694,0.223694,0.0,22.2,8.8,-11.4,1024,1024,1024,1024,0,0,0,0,72,3.868,73.76,98.4252,P-GPS,,30.0
534,378900,2026-01-13 17:39:24,0.3131716,5,7.542,0.223694,0.223694,0.223694,22.3,8.1,-9.5,1024,1024,1024,1024,0,0,0,0,72,3.868,73.76,98.4252,P-GPS,,30.0
535,379000,2026-01-13 17:39:24,0.223694,5,7.542,0.223694,0.0,0.223694,22.2,8.7,-10.4,1024,1024,1024,1024,0,0,0,0,72,3.868,73.76,98.4252,P-GPS,,30.0
536,379100,2026-01-13 17:39:25,0.0,5,7.542,0.0,0.0,0.447388,21.9,9.5,-10.6,1024,1024,1024,1024,0,0,0,0,72,3.868,73.76,98.4252,P-GPS,,30.0
537,379200,2026-01-13 17:39:25,0.0,5,7.542,0.0,0.0,0.671082,21.9,9.1,-10.8,1024,1024,1024,1024,0,0,0,0,72,3.868,73.76,98.4252,P-GPS,,30.0
538,379300,2026-01-13 17:39:25,0.0,5,7.542,0.0,0.0,0.671082,22.0,8.2,-10.9,1024,1024,1024,1024,0,0,0,0,72,3.868,73.76,98.4252,P-GPS,,30.0
539,379400,2026-01-13 17:39:25,0.0,5,7.542,0.0,0.0,0.447388,22.0,7.2,-10.5,1024,1024,1024,1024,0,0,0,0,72,3.868,73.76,98.4252,P-GPS,,30.0
540,379500,2026-01-13 17:39:25,0.0,5,7.542,0.0,0.0,0.0,22.4,5.3,-10.5,1024,1024,1024,1024,0,0,0,0,72,3.868,73.76,98.753284,P-GPS,,30.1
541,379600,2026-01-13 17:39:25,0.0,5,7.595,0.0,0.0,0.0,22.6,4.4,-11.0,1024,1024,1024,1024,0,0,0,0,72,3.589,73.76,98.753284,P-GPS,,30.1
542,379700,2026-01-13 17:39:25,0.0,5,7.595,0.0,0.0,-0.223694,22.5,5.0,-11.6,1024,1024,1024,1024,0,0,0,0,72,3.589,73.76,98.753284,P-GPS,,30.1
543,379800,2026-01-13 17:39:25,0.0,5,7.595,0.0,0.0,-0.223694,22.0,7.1,-11.6,1024,1024,1024,1024,0,0,0,0,72,3.589,73.76,99.081368,P-GPS,,30.2
544,379900,2026-01-13 17:39:25,0.0,5,7.595,0.0,0.0,0.0,21.8,8.3,-12.5,1024,1024,1024,1024,0,0,0,0,72,3.589,73.76,99.081368,P-GPS,,30.2
545,380000,2026-01-13 17:39:25,0.0,5,7.595,0.0,0.0,0.223694,21.9,8.1,-12.1,1024,1024,1024,1024,0,0,0,0,72,3.589,73.76,99.081368,P-GPS,,30.2
546,380100,2026-01-13 17:39:26,0.0,5,7.595,0.0,0.0,0.223694,22.0,7.5,-11.7,1024,1024,1024,1024,0,0,0,0,72,3.589,73.76,99.081368,P-GPS,,30.2
547,380200,2026-01-13 17:39:26,0.0,5,7.595,0.0,0.0,0.223694,22.0,7.6,-11.4,1024,1024,1024,1024,0,0,0,0,72,3.589,73.76,98.753284,P-GPS,,30.1
548,380300,2026-01-13 17:39:26,0.0,5,7.595,0.0,0.0,0.447388,22.2,7.1,-11.4,1024,1024,1024,1024,0,0,0,0,72,3.589,73.76,98.753284,P-GPS,,30.1
549,380400,2026-01-13 17:39:26,0.0,5,7.595,0.0,0.0,0.223694,22.0,7.1,-10.8,1024,1024,1024,1024,0,0,0,0,72,3.589,73.76,98.753284,P-GPS,,30.1
550,380500,2026-01-13 17:39:26,0.0,5,7.595,0.0,0.0,0.0,22.3,6.0,-10.8,1024,1024,1024,1024,0,0,0,0,72,3.589,73.76,98.753284,P-GPS,,30.1
551,380600,2026-01-13 17:39:26,0.0,5,7.559,0.0,0.0,0.0,22.4,6.0,-10.5,1024,1024,1024,1024,0,0,0,0,72,4.963,73.76,98.753284,P-GPS,,30.1
552,380700,2026-01-13 17:39:26,0.223694,5,7.559,0.223694,0.0,0.0,22.4,6.7,-10.2,1024,1024,1024,1024,0,0,0,0,72,4.963,73.76,98.753284,P-GPS,,30.1
553,380800,2026-01-13 17:39:26,0.223694,5,7.559,0.223694,0.0,0.0,22.3,7.9,-10.0,1024,1024,1024,1024,0,0,0,0,72,4.963,73.76,98.753284,P-GPS,,30.1
554,380900,2026-01-13 17:39:26,0.223694,5,7.559,0.223694,0.0,0.0,22.1,8.8,-10.2,1024,1024,1024,1024,0,0,0,0,72,4.963,73.76,99.081368,P-GPS,,30.2
555,381000,2026-01-13 17:39:27,0.223694,5,7.559,0.223694,0.0,0.0,22.2,8.1,-9.6,1024,1024,1024,1024,0,0,0,0,72,4.963,73.76,99.081368,P-GPS,,30.2
556,381100,2026-01-13 17:39:27,0.0,5,7.559,0.0,0.0,0.0,22.3,7.4,-9.7,1024,1024,1024,1024,0,0,0,0,72,4.963,73.76,99.081368,P-GPS,,30.2
557,381200,2026-01-13 17:39:27,0.0,5,7.559,0.0,0.0,0.0,22.0,8.2,-10.6,1024,1024,1024,1024,0,0,0,0,72,4.963,73.76,99.081368,P-GPS,,30.2
558,381300,2026-01-13 17:39:27,0.0,5,7.559,0.0,0.0,0.0,22.0,8.8,-11.0,1024,1024,1024,1024,0,0,0,0,72,4.963,73.76,99.081368,P-GPS,,30.2
559,381400,2026-01-13 17:39:27,0.0,5,7.559,0.0,0.0,0.0,22.4,8.0,-10.8,1024,1024,1024,1024,0,0,0,0,72,4.963,73.76,99.081368,P-GPS,,30.2
560,381500,2026-01-13 17:39:27,0.0,5,7.559,0.0,0.0,0.0,22.4,7.3,-10.2,1024,1024,1024,1024,0,0,0,0,72,4.963,73.76,99.081368,P-GPS,,30.2
561,381600,2026-01-13 17:39:27,0.223694,5,7.512,0.223694,0.0,-0.223694,22.3,7.7,-10.9,1024,1024,1024,1024,0,0,0,0,71,5.475,73.76,99.081368,P-GPS,,30.2
562,381700,2026-01-13 17:39:27,0.223694,5,7.512,0.223694,0.0,-0.223694,22.1,9.2,-10.9,1024,1024,1024,1024,0,0,0,0,71,5.475,73.76,98.753284,P-GPS,,30.1
563,381800,2026-01-13 17:39:27,0.223694,5,7.512,0.223694,0.0,0.0,21.9,10.3,-10.3,1024,1024,1024,1024,0,0,0,0,71,5.475,73.76,98.753284,P-GPS,,30.1
564,381900,2026-01-13 17:39:27,0.223694,5,7.512,0.223694,0.0,0.0,22.0,9.4,-10.3,1024,1024,1024,1024,0,0,0,0,71,5.475,73.76,98.4252,P-GPS,,30.0
565,382000,2026-01-13 17:39:27,0.223694,5,7.512,0.0,0.0,0.0,21.9,9.9,-10.0,1024,1024,1024,1024,0,0,0,0,71,5.475,73.76,98.4252,P-GPS,,30.0
566,382100,2026-01-13 17:39:28,0.0,5,7.512,0.0,0.0,0.223694,22.0,8.9,-9.7,1024,1024,1024,1024,0,0,0,0,71,5.475,73.76,98.4252,P-GPS,,30.0
567,382200,2026-01-13 17:39:28,0.0,5,7.512,0.0,0.0,0.0,22.3,7.5,-10.0,1024,1024,1024,1024,0,0,0,0,71,5.475,73.76,98.097116,P-GPS,,29.9
568,382300,2026-01-13 17:39:28,0.0,5,7.512,0.0,0.0,0.0,22.2,7.4,-10.0,1024,1024,1024,1024,0,0,0,0,71,5.475,73.76,98.097116,P-GPS,,29.9
569,382400,2026-01-13 17:39:28,0.0,5,7.512,0.0,0.0,0.0,22.1,7.8,-9.9,1024,1024,1024,1024,0,0,0,0,71,5.475,73.76,97.769032,P-GPS,,29.8
570,382500,2026-01-13 17:39:28,0.0,5,7.512,0.0,0.0,0.0,22.2,7.3,-9.7,1024,1024,1024,1024,0,0,0,0,71,5.475,73.76,97.769032,P-GPS,,29.8
571,382600,2026-01-13 17:39:28,0.0,5,7.563,0.0,0.0,0.0,22.1,7.4,-9.2,1024,1024,1024,1024,0,0,0,0,71,4.159,73.76,97.440948,P-GPS,,29.7
572,382700,2026-01-13 17:39:28,0.0,5,7.563,0.0,0.0,0.0,22.2,6.9,-9.0,1024,1024,1024,1024,0,0,0,0,71,4.159,73.76,97.440948,P-GPS,,29.7
573,382800,2026-01-13 17:39:28,0.0,5,7.563,0.0,0.0,0.0,22.1,8.0,-8.3,1024,1024,1024,1024,0,0,0,0,71,4.159,73.76,97.112864,P-GPS,,29.6
574,382900,2026-01-13 17:39:28,0.0,5,7.563,0.0,0.0,0.0,22.2,7.1,-8.0,1024,1024,1024,1024,0,0,0,0,71,4.159,73.76,97.112864,P-GPS,,29.6
575,383000,2026-01-13 17:39:29,0.0,5,7.563,0.0,0.0,0.0,22.1,7.2,-7.7,1024,1024,1024,1024,0,0,0,0,71,4.159,73.76,96.78478,P-GPS,,29.5
576,383100,2026-01-13 17:39:29,0.0,5,7.563,0.0,0.0,0.0,22.1,7.0,-7.5,1024,1024,1024,1024,0,0,0,0,71,4.159,73.76,96.456696,P-GPS,,29.4
577,383200,2026-01-13 17:39:29,0.0,5,7.563,0.0,0.0,0.0,22.1,7.0,-7.8,1024,1024,1024,1024,0,0,0,0,71,4.159,73.76,96.456696,P-GPS,,29.4
578,383300,2026-01-13 17:39:29,0.0,5,7.563,0.0,0.0,0.0,22.2,6.8,-6.9,1024,1024,1024,1024,0,0,0,0,71,4.159,73.76,96.456696,P-GPS,,29.4
579,383400,2026-01-13 17:39:29,0.0,5,7.563,0.0,0.0,0.0,22.1,7.9,-6.9,1024,1024,1024,1024,0,0,0,0,71,4.159,73.76,96.128612,P-GPS,,29.3
580,383500,2026-01-13 17:39:29,0.0,5,7.563,0.0,0.0,0.0,22.1,8.0,-6.8,1024,1024,1024,1024,0,0,0,0,71,4.159,73.76,96.128612,P-GPS,,29.3
581,383600,2026-01-13 17:39:29,0.0,5,7.576,0.0,0.0,0.0,22.2,7.4,-6.4,1024,1024,1024,1024,0,0,0,0,71,3.644,73.94,96.128612,P-GPS,,29.3
582,383700,2026-01-13 17:39:29,0.0,5,7.576,0.0,0.0,0.0,22.2,7.5,-6.0,1024,1024,1024,1024,0,0,0,0,71,3.644,73.94,96.128612,P-GPS,,29.3
583,383800,2026-01-13 17:39:29,0.0,5,7.576,0.0,0.0,0.0,22.2,7.2,-4.8,1024,1024,1024,1024,0,0,0,0,71,3.644,73.94,96.128612,P-GPS,,29.3
584,383900,2026-01-13 17:39:29,0.0,5,7.576,0.0,0.0,-0.223694,22.4,6.4,-5.7,1024,1024,1024,1024,0,0,0,0,71,3.644,73.94,96.128612,P-GPS,,29.3
585,384000,2026-01-13 17:39:30,0.0,5,7.576,0.0,0.0,-0.223694,22.3,7.0,-6.1,1024,1024,1024,1024,0,0,0,0,71,3.644,73.94,96.128612,P-GPS,,29.3
586,384100,2026-01-13 17:39:30,0.0,5,7.576,0.0,0.0,-0.223694,22.2,7.5,-6.4,1024,1024,1024,1024,0,0,0,0,71,3.644,73.94,96.128612,P-GPS,,29.3
587,384200,2026-01-13 17:39:30,0.0,5,7.576,0.0,0.0,-0.223694,22.3,6.9,-7.4,1024,1024,1024,1024,0,0,0,0,71,3.644,73.94,96.128612,P-GPS,,29.3
588,384300,2026-01-13 17:39:30,0.0,5,7.576,0.0,0.0,-0.223694,22.3,6.9,-8.0,1024,1024,1024,1024,0,0,0,0,71,3.644,73.94,96.128612,P-GPS,,29.3
589,384400,2026-01-13 17:39:30,0.0,5,7.576,0.0,0.0,0.0,22.3,6.5,-8.0,1024,1024,1024,1024,0,0,0,0,71,3.644,73.94,96.128612,P-GPS,,29.3
590,384500,2026-01-13 17:39:30,0.0,5,7.576,0.0,0.0,0.0,22.4,6.6,-8.2,1024,1024,1024,1024,0,0,0,0,71,3.644,73.94,96.128612,P-GPS,,29.3
591,384600,2026-01-13 17:39:30,0.0,5,7.569,0.0,0.0,0.0,22.4,6.5,-8.0,1024,1024,1024,1024,0,0,0,0,71,3.808,73.94,96.128612,P-GPS,,29.3
592,384700,2026-01-13 17:39:30,0.0,5,7.569,0.0,0.0,0.0,22.4,6.7,-7.9,1024,1024,1024,1024,0,0,0,0,71,3.808,73.94,96.128612,P-GPS,,29.3
593,384800,2026-01-13 17:39:30,0.0,5,7.569,0.0,0.0,0.0,22.4,6.9,-8.0,1024,1024,1024,1024,0,0,0,0,71,3.808,73.94,96.128612,P-GPS,,29.3
594,384900,2026-01-13 17:39:30,0.0,5,7.569,0.0,0.0,0.0,22.4,7.2,-8.3,1024,1024,1024,1024,0,0,0,0,71,3.808,73.94,96.128612,P-GPS,,29.3
595,385000,2026-01-13 17:39:31,0.0,5,7.569,0.0,0.0,0.0,22.3,7.3,-8.7,1024,1024,1024,1024,0,0,0,0,71,3.808,73.94,96.128612,P-GPS,,29.3
596,385100,2026-01-13 17:39:31,0.0,5,7.569,0.0,0.0,0.0,22.2,8.1,-9.0,1024,1024,1024,1024,0,0,0,0,71,3.808,73.94,96.456696,P-GPS,,29.4
597,385200,2026-01-13 17:39:31,0.0,5,7.569,0.0,0.0,0.0,22.4,7.6,-8.9,1024,1024,1024,1024,0,0,0,0,71,3.808,73.94,96.456696,P-GPS,,29.4
598,385300,2026-01-13 17:39:31,0.0,5,7.569,0.0,0.0,0.0,22.5,7.3,-8.7,1024,1024,1024,1024,0,0,0,0,71,3.808,73.94,96.78478,P-GPS,,29.5
599,385400,2026-01-13 17:39:31,0.0,5,7.569,0.0,0.0,0.0,22.5,7.4,-8.3,1024,1024,1024,1024,0,0,0,0,71,3.808,73.94,96.78478,P-GPS,,29.5
600,385500,2026-01-13 17:39:31,0.0,5,7.53,0.0,0.0,0.0,22.4,7.6,-8.5,1024,1024,1024,1024,0,0,0,0,71,4.254,73.94,97.112864,P-GPS,,29.6
601,385600,2026-01-13 17:39:31,0.0,5,7.53,0.0,0.0,-0.223694,22.3,7.8,-8.3,1024,1024,1024,1024,0,0,0,0,71,4.254,73.94,97.112864,P-GPS,,29.6
602,385700,2026-01-13 17:39:31,0.0,5,7.53,0.0,0.0,-0.223694,22.3,8.1,-8.5,1024,1024,1024,1024,0,0,0,0,71,4.254,73.94,97.440948,P-GPS,,29.7
603,385800,2026-01-13 17:39:31,0.0,5,7.53,0.0,0.0,0.0,22.2,8.6,-8.5,1024,1024,1024,1024,0,0,0,0,71,4.254,73.94,97.440948,P-GPS,,29.7
604,385900,2026-01-13 17:39:31,0.0,5,7.53,0.0,0.0,0.0,22.3,8.1,-8.7,1024,1024,1024,1024,0,0,0,0,71,4.254,73.94,97.440948,P-GPS,,29.7
605,386000,2026-01-13 17:39:32,0.0,5,7.53,0.0,0.0,0.0,22.4,8.2,-8.9,1024,1024,1024,1024,0,0,0,0,71,4.254,73.94,97.440948,P-GPS,,29.7
606,386100,2026-01-13 17:39:32,0.0,5,7.53,0.0,0.0,0.0,22.3,8.1,-8.7,1024,1024,1024,1024,0,0,0,0,71,4.254,73.94,97.769032,P-GPS,,29.8
607,386200,2026-01-13 17:39:32,0.0,5,7.53,0.0,0.0,0.0,22.5,7.0,-8.6,1024,1024,1024,1024,0,0,0,0,71,4.254,73.94,97.769032,P-GPS,,29.8
608,386300,2026-01-13 17:39:32,0.0,5,7.53,0.0,0.0,0.0,22.3,8.3,-9.0,1024,1024,1024,1024,0,0,0,0,71,4.254,73.94,97.769032,P-GPS,,29.8
609,386400,2026-01-13 17:39:32,0.0,5,7.53,0.0,0.0,0.0,22.1,9.0,-8.9,1024,1024,1024,1024,0,0,0,0,71,4.254,73.94,97.769032,P-GPS,,29.8
610,386500,2026-01-13 17:39:32,0.0,5,7.53,0.0,0.0,0.0,22.1,10.0,-8.7,1024,1024,1024,1024,0,0,0,0,71,4.254,73.94,97.769032,P-GPS,,29.8
611,386600,2026-01-13 17:39:32,0.0,5,7.53,0.0,0.0,0.0,22.4,9.2,-8.5,1024,1024,1024,1024,0,0,0,0,71,4.254,73.94,97.769032,P-GPS,,29.8
612,386700,2026-01-13 17:39:32,0.0,5,7.53,0.0,0.0,0.0,22.3,9.0,-8.6,1024,1024,1024,1024,0,0,0,0,71,4.254,73.94,97.769032,P-GPS,,29.8
613,386800,2026-01-13 17:39:32,0.0,5,7.53,0.0,0.0,0.0,22.2,9.9,-8.8,1024,1024,1024,1024,0,0,0,0,71,4.254,73.94,98.097116,P-GPS,,29.9
614,386900,2026-01-13 17:39:32,0.0,5,7.53,0.0,0.0,0.223694,22.2,10.0,-9.4,1024,1024,1024,1024,0,0,0,0,71,4.254,73.94,98.097116,P-GPS,,29.9
615,387000,2026-01-13 17:39:33,0.0,5,7.53,0.0,0.0,0.223694,22.2,10.5,-9.0,1024,1024,1024,1024,0,0,0,0,71,4.254,73.94,98.097116,P-GPS,,29.9
616,387100,2026-01-13 17:39:33,0.0,5,7.53,0.0,0.0,0.0,22.3,9.9,-9.5,1024,1024,1024,1024,0,0,0,0,71,4.254,73.94,98.097116,P-GPS,,29.9
617,387200,2026-01-13 17:39:33,0.0,5,7.53,0.0,0.0,0.223694,22.3,10.0,-9.3,1024,1024,1024,1024,0,0,0,0,71,4.254,73.94,98.097116,P-GPS,,29.9
618,387300,2026-01-13 17:39:33,0.0,5,7.53,0.0,0.0,0.223694,22.2,9.8,-8.8,1024,1024,1024,1024,0,0,0,0,71,4.254,73.94,98.097116,P-GPS,,29.9
619,387400,2026-01-13 17:39:33,0.0,5,7.53,0.0,0.0,0.0,22.0,10.0,-8.6,1024,1024,1024,1024,0,0,0,0,71,4.254,73.94,98.097116,P-GPS,,29.9
620,387500,2026-01-13 17:39:33,0.0,5,7.53,0.0,0.0,0.0,22.2,8.6,-8.6,1024,1024,1024,1024,0,0,0,0,71,4.254,73.94,98.097116,P-GPS,,29.9
621,387600,2026-01-13 17:39:33,0.0,5,7.53,0.0,0.0,0.0,22.3,7.6,-8.3,1024,1024,1024,1024,0,0,0,0,71,4.254,73.94,98.097116,P-GPS,,29.9
622,387700,2026-01-13 17:39:33,0.0,5,7.498,0.0,0.0,0.0,22.2,8.2,-8.5,1024,1024,1024,1024,0,0,0,0,71,5.041,73.94,98.097116,P-GPS,,29.9
623,387800,2026-01-13 17:39:33,0.0,5,7.498,0.0,0.0,0.0,22.3,8.1,-8.4,1024,1024,1024,1024,0,0,0,0,71,5.041,73.94,98.097116,P-GPS,,29.9
624,387900,2026-01-13 17:39:33,0.0,5,7.498,0.0,0.0,0.0,22.4,8.5,-8.3,1024,1024,1024,1024,0,0,0,0,71,5.041,73.94,98.097116,P-GPS,,29.9
625,388000,2026-01-13 17:39:34,0.0,5,7.498,0.0,0.0,0.223694,22.4,9.1,-7.9,1024,1024,1024,1024,0,0,0,0,71,5.041,73.94,98.097116,P-GPS,,29.9
626,388100,2026-01-13 17:39:34,0.0,5,7.498,0.0,0.0,0.0,22.3,9.8,-7.9,1024,1024,1024,1024,0,0,0,0,71,5.041,73.94,98.097116,P-GPS,,29.9
627,388200,2026-01-13 17:39:34,0.0,5,7.498,0.0,0.0,0.0,22.3,9.6,-7.8,1024,1024,1024,1024,0,0,0,0,71,5.041,73.94,98.097116,P-GPS,,29.9
628,388300,2026-01-13 17:39:34,0.0,5,7.498,0.0,0.0,0.0,22.3,9.5,-8.3,1024,1024,1024,1024,0,0,0,0,71,5.041,73.94,98.097116,P-GPS,,29.9
629,388400,2026-01-13 17:39:34,0.0,5,7.498,0.0,0.0,0.0,22.3,9.2,-8.8,1024,1024,1024,1024,0,0,0,0,71,5.041,73.94,98.097116,P-GPS,,29.9
630,388500,2026-01-13 17:39:34,0.0,5,7.498,0.0,0.0,0.0,22.3,9.4,-9.0,1024,1024,1024,1024,0,0,0,0,71,5.041,73.94,98.097116,P-GPS,,29.9
631,388600,2026-01-13 17:39:34,0.0,5,7.498,0.0,0.0,0.0,22.2,9.6,-9.0,1024,1024,1024,1024,0,0,0,0,71,5.041,73.94,98.097116,P-GPS,,29.9
632,388700,2026-01-13 17:39:34,0.0,5,7.498,0.0,0.0,0.0,22.1,10.2,-9.5,1024,1024,1024,1024,0,0,0,0,71,5.041,73.94,98.097116,P-GPS,,29.9
633,388800,2026-01-13 17:39:34,0.0,5,7.498,0.0,0.0,0.0,22.2,10.1,-9.1,1024,1024,1024,1024,0,0,0,0,71,5.041,73.94,98.097116,P-GPS,,29.9
634,388900,2026-01-13 17:39:34,0.0,5,7.498,0.0,0.0,0.0,22.2,9.9,-9.0,1024,1024,1024,1024,0,0,0,0,71,5.041,73.94,98.097116,P-GPS,,29.9
635,389000,2026-01-13 17:39:35,0.0,5,7.498,0.0,0.0,0.0,22.1,9.8,-9.0,1024,1024,1024,1024,0,0,0,0,71,5.041,73.94,98.097116,P-GPS,,29.9
636,389100,2026-01-13 17:39:35,0.0,5,7.498,0.0,0.0,0.0,22.2,9.7,-9.3,1024,1024,1024,1024,0,0,0,0,71,5.041,73.94,98.097116,P-GPS,,29.9
637,389200,2026-01-13 17:39:35,0.0,5,7.498,0.0,0.0,0.0,22.1,9.8,-8.7,1024,1024,1024,1024,0,0,0,0,71,5.041,73.94,98.097116,P-GPS,,29.9
638,389300,2026-01-13 17:39:35,0.0,5,7.498,0.0,0.0,0.0,22.2,9.4,-8.9,1024,1024,1024,1024,0,0,0,0,71,5.041,73.94,98.097116,P-GPS,,29.9
639,389400,2026-01-13 17:39:35,0.0,5,7.498,0.0,0.0,0.0,22.2,9.3,-9.2,1024,1024,1024,1024,0,0,0,0,71,5.041,73.94,98.097116,P-GPS,,29.9
640,389500,2026-01-13 17:39:35,0.0,5,7.498,0.0,0.0,0.0,22.2,9.6,-9.0,1024,1024,1024,1024,0,0,0,0,71,5.041,73.94,98.097116,P-GPS,,29.9
641,389600,2026-01-13 17:39:35,0.0,5,7.521,0.0,0.0,0.0,22.3,9.2,-9.0,1024,1024,1024,1024,0,0,0,0,71,5.055,73.94,98.097116,P-GPS,,29.9
642,389700,2026-01-13 17:39:35,0.0,5,7.521,0.0,0.0,0.0,22.2,9.7,-9.1,1024,1024,1024,1024,0,0,0,0,71,5.055,73.94,98.097116,P-GPS,,29.9
643,389800,2026-01-13 17:39:35,0.0,5,7.521,0.0,0.0,0.0,22.2,9.3,-8.9,1024,1024,1024,1024,0,0,0,0,71,5.055,73.94,98.097116,P-GPS,,29.9
644,389900,2026-01-13 17:39:35,0.0,5,7.521,0.0,0.0,0.0,22.1,9.8,-8.8,1024,1024,1024,1024,0,0,0,0,71,5.055,73.94,98.097116,P-GPS,,29.9
645,390000,2026-01-13 17:39:36,0.0,5,7.521,0.0,0.0,0.0,22.2,9.3,-8.6,1024,1024,1024,1024,0,0,0,0,71,5.055,73.94,97.769032,P-GPS,,29.8
646,390100,2026-01-13 17:39:36,0.0,5,7.521,0.0,0.0,0.0,22.2,9.1,-8.5,1024,1024,1024,1024,0,0,0,0,71,5.055,73.94,97.769032,P-GPS,,29.8
647,390200,2026-01-13 17:39:36,0.0,5,7.521,0.0,0.0,0.0,22.2,9.0,-8.2,1024,1024,1024,1024,0,0,0,0,71,5.055,73.94,97.769032,P-GPS,,29.8
648,390300,2026-01-13 17:39:36,0.0,5,7.521,0.0,0.0,0.0,22.1,9.4,-8.2,1024,1024,1024,1024,0,0,0,0,71,5.055,73.94,97.769032,P-GPS,,29.8
649,390400,2026-01-13 17:39:36,0.0,5,7.521,0.0,0.0,0.0,22.1,9.6,-8.0,1024,1024,1024,1024,0,0,0,0,71,5.055,73.94,97.769032,P-GPS,,29.8
650,390500,2026-01-13 17:39:36,0.0,5,7.521,0.0,0.0,0.0,22.2,9.5,-7.8,1024,1024,1024,1024,0,0,0,0,71,5.055,73.94,97.769032,P-GPS,,29.8
651,390600,2026-01-13 17:39:36,0.0,5,7.51,0.0,0.0,0.0,22.2,9.2,-7.7,1024,1024,1024,1024,0,0,0,0,71,5.139,73.94,97.769032,P-GPS,,29.8
652,390700,2026-01-13 17:39:36,0.0,5,7.51,0.0,0.0,0.0,22.2,8.2,-8.0,1024,1024,1024,1024,0,0,0,0,71,5.139,73.94,97.769032,P-GPS,,29.8
653,390800,2026-01-13 17:39:36,0.0,5,7.51,0.0,0.0,-0.223694,22.1,9.3,-8.4,1024,1024,1024,1024,0,0,0,0,71,5.139,73.94,97.769032,P-GPS,,29.8
654,390900,2026-01-13 17:39:36,0.0,5,7.51,0.0,0.0,0.0,22.0,9.2,-8.4,1024,1024,1024,1024,0,0,0,0,71,5.139,73.94,97.769032,P-GPS,,29.8
655,391000,2026-01-13 17:39:36,0.0,5,7.51,0.0,0.0,0.0,22.0,9.1,-8.4,1024,1024,1024,1024,0,0,0,0,71,5.139,73.94,97.769032,P-GPS,,29.8
