index,time(millisecond),timestamp,speed(mph),gpslevel,voltage(v),xSpeed(mph),ySpeed(mph),zSpeed(mph),compass_heading(degrees),pitch(degrees),roll(degrees),rc_elevator,rc_aileron,rc_throttle,rc_rudder,rc_elevator(percent),rc_aileron(percent),rc_throttle(percent),rc_rudder(percent),battery_percent,current(A),battery_temperature(f),ascent(feet),flycState,message,height_above_takeoff(meters)
480,48000,2026-01-11 15:30:43,0.223694,5,7.803,-0.223694,0.0,0.0,32.7,6.9,-8.9,1024,1024,1024,1024,0,0,0,0,94,4.575,60.44,98.097116,P-GPS,,29.9
481,48100,2026-01-11 15:30:44,0.223694,5,7.803,-0.223694,0.0,0.0,32.7,6.9,-8.9,1024,1024,1024,1024,0,0,0,0,94,4.575,60.44,98.097116,P-GPS,,29.9
482,48200,2026-01-11 15:30:44,0.223694,5,7.803,-0.223694,0.0,0.0,32.7,6.6,-9.5,1024,1024,1024,1024,0,0,0,0,94,4.575,60.44,98.097116,P-GPS,,29.9
483,48300,2026-01-11 15:30:44,0.223694,5,7.803,-0.223694,0.0,0.0,32.7,6.3,-9.9,1024,1024,1024,1024,0,0,0,0,94,4.575,60.44,98.4252,P-GPS,,30.0
484,48400,2026-01-11 15:30:44,0.223694,5,7.803,-0.223694,0.0,0.0,32.7,6.3,-10.3,1024,1024,1024,1024,0,0,0,0,94,4.575,60.44,98.4252,P-GPS,,30.0
485,48500,2026-01-11 15:30:44,0.223694,5,7.803,-0.223694,0.0,0.0,32.7,6.2,-10.4,1024,1024,1024,1024,0,0,0,0,94,4.575,60.44,98.4252,P-GPS,,30.0
486,48600,2026-01-11 15:30:44,0.223694,5,7.702,-0.223694,0.0,0.0,32.8,6.0,-10.3,1024,1024,1024,1024,0,0,0,0,94,4.882,60.44,98.4252,P-GPS,,30.0
487,48700,2026-01-11 15:30:44,0.223694,5,7.702,-0.223694,0.0,0.0,32.7,6.4,-10.3,1024,1024,1024,1024,0,0,0,0,94,4.882,60.44,98.4252,P-GPS,,30.0
488,48800,2026-01-11 15:30:44,0.223694,5,7.702,0.0,0.0,0.0,32.7,6.8,-10.5,1024,1024,1024,1024,0,0,0,0,94,4.882,60.44,98.4252,P-GPS,,30.0
489,48900,2026-01-11 15:30:44,0.0,5,7.702,0.0,0.0,0.0,32.7,6.8,-10.3,1024,1024,1024,1024,0,0,0,0,94,4.882,60.44,98.4252,P-GPS,,30.0
490,49000,2026-01-11 15:30:44,0.0,5,7.702,0.0,0.0,0.0,32.6,7.0,-10.4,1024,1024,1024,1024,0,0,0,0,94,4.882,60.44,98.097116,P-GPS,,29.9
491,49100,2026-01-11 15:30:45,0.0,5,7.702,0.0,0.0,0.0,32.7,6.7,-10.1,1024,1024,1024,1024,0,0,0,0,94,4.882,60.44,98.097116,P-GPS,,29.9
492,49200,2026-01-11 15:30:45,0.0,5,7.702,0.0,0.0,0.0,32.7,6.9,-9.9,1024,1024,1024,1024,0,0,0,0,94,4.882,60.44,98.097116,P-GPS,,29.9
493,49300,2026-01-11 15:30:45,0.0,5,7.702,0.0,0.0,0.0,32.7,6.7,-9.5,1024,1024,1024,1024,0,0,0,0,94,4.882,60.44,98.097116,P-GPS,,29.9
494,49400,2026-01-11 15:30:45,0.0,5,7.702,0.0,0.0,0.0,32.7,6.5,-10.0,1024,1024,1024,1024,0,0,0,0,94,4.882,60.44,98.097116,P-GPS,,29.9
495,49500,2026-01-11 15:30:45,0.0,5,7.702,0.0,0.0,0.0,32.6,7.4,-10.0,1024,1024,1024,1024,0,0,0,0,94,4.882,60.44,98.097116,P-GPS,,29.9
496,49600,2026-01-11 15:30:45,0.0,5,7.702,0.0,0.0,0.0,32.6,7.3,-9.8,1024,1024,1024,1024,0,0,0,0,94,4.882,60.44,98.097116,P-GPS,,29.9
497,49700,2026-01-11 15:30:45,0.0,5,7.725,0.0,0.0,0.0,32.6,7.4,-9.8,1024,1024,1024,1024,0,0,0,0,94,4.903,60.44,98.097116,P-GPS,,29.9
498,49800,2026-01-11 15:30:45,0.0,5,7.725,0.0,0.0,0.0,32.7,7.0,-9.7,1024,1024,1024,1024,0,0,0,0,94,4.903,60.44,98.097116,P-GPS,,29.9
499,49900,2026-01-11 15:30:45,0.0,5,7.725,0.0,0.0,0.0,32.7,7.0,-9.6,1024,1024,1024,1024,0,0,0,0,94,4.903,60.44,98.097116,P-GPS,,29.9
500,50000,2026-01-11 15:30:45,0.0,5,7.725,0.0,0.0,0.0,32.7,7.1,-9.7,1024,1024,1024,1024,0,0,0,0,94,4.903,60.44,98.097116,P-GPS,,29.9
501,50100,2026-01-11 15:30:46,0.0,5,7.725,0.0,0.0,0.0,32.6,7.3,-9.7,1024,1024,1024,1024,0,0,0,0,94,4.903,60.44,98.097116,P-GPS,,29.9
502,50200,2026-01-11 15:30:46,0.0,5,7.725,0.0,0.0,0.0,32.7,7.1,-9.5,1024,1024,1024,1024,0,0,0,0,94,4.903,60.44,98.097116,P-GPS,,29.9
503,50300,2026-01-11 15:30:46,0.0,5,7.725,0.0,0.0,0.0,32.6,7.5,-9.5,1024,1024,1024,1024,0,0,0,0,94,4.903,60.44,98.097116,P-GPS,,29.9
504,50400,2026-01-11 15:30:46,0.0,5,7.725,0.0,0.0,0.0,32.7,7.8,-9.2,1024,1024,1024,1024,0,0,0,0,94,4.903,60.44,98.097116,P-GPS,,29.9
505,50500,2026-01-11 15:30:46,0.0,5,7.725,0.0,0.0,0.0,32.7,8.0,-8.7,1024,1024,1024,1024,0,0,0,0,94,4.903,60.44,98.097116,P-GPS,,29.9
506,50600,2026-01-11 15:30:46,0.0,5,7.725,0.0,0.0,0.0,32.7,8.1,-8.4,1024,1024,1024,1024,0,0,0,0,94,4.903,60.44,98.097116,P-GPS,,29.9
507,50700,2026-01-11 15:30:46,0.0,5,7.725,0.0,0.0,0.0,32.7,7.9,-8.2,1024,1024,1024,1024,0,0,0,0,94,4.903,60.44,98.097116,P-GPS,,29.9
508,50800,2026-01-11 15:30:46,0.0,5,7.739,0.0,0.0,0.0,32.7,7.7,-8.0,1024,1024,1024,1024,0,0,0,0,94,4.673,60.44,98.097116,P-GPS,,29.9
509,50900,2026-01-11 15:30:46,0.0,5,7.739,0.0,0.0,0.0,32.7,7.6,-8.0,1024,1024,1024,1024,0,0,0,0,94,4.673,60.44,98.097116,P-GPS,,29.9
510,51000,2026-01-11 15:30:46,0.0,5,7.739,0.0,0.0,0.0,32.6,8.0,-8.2,1024,1024,1024,1024,0,0,0,0,94,4.673,60.44,98.097116,P-GPS,,29.9
511,51100,2026-01-11 15:30:47,0.0,5,7.739,0.0,0.0,0.0,32.7,8.1,-7.7,1024,1024,1024,1024,0,0,0,0,94,4.673,60.44,98.097116,P-GPS,,29.9
512,51200,2026-01-11 15:30:47,0.0,5,7.739,0.0,0.0,0.0,32.7,7.9,-7.5,1024,1024,1024,1024,0,0,0,0,94,4.673,60.44,98.097116,P-GPS,,29.9
513,51300,2026-01-11 15:30:47,0.0,5,7.739,0.0,0.0,0.0,32.7,7.9,-7.5,1024,1024,1024,1024,0,0,0,0,94,4.673,60.44,97.769032,P-GPS,,29.8
514,51400,2026-01-11 15:30:47,0.0,5,7.739,0.0,0.0,0.0,32.7,7.9,-7.2,1024,1024,1024,1024,0,0,0,0,94,4.673,60.44,97.769032,P-GPS,,29.8
515,51500,2026-01-11 15:30:47,0.0,5,7.739,0.0,0.0,0.0,32.7,7.8,-7.2,1024,1024,1024,1024,0,0,0,0,94,4.673,60.44,97.769032,P-GPS,,29.8
516,51600,2026-01-11 15:30:47,0.0,5,7.739,0.0,0.0,0.0,32.8,7.6,-7.6,1024,1024,1024,1024,0,0,0,0,94,4.673,60.44,97.769032,P-GPS,,29.8
517,51700,2026-01-11 15:30:47,0.0,5,7.739,0.0,0.0,0.0,32.8,7.3,-8.1,1024,1024,1024,1024,0,0,0,0,94,4.673,60.44,97.769032,P-GPS,,29.8
518,51800,2026-01-11 15:30:47,0.0,5,7.739,0.0,0.0,0.0,32.8,7.0,-8.3,1024,1024,1024,1024,0,0,0,0,94,4.673,60.44,97.769032,P-GPS,,29.8
519,51900,2026-01-11 15:30:47,0.0,5,7.739,0.0,0.0,0.0,32.8,6.8,-8.3,1024,1024,1024,1024,0,0,0,0,94,4.673,60.44,97.769032,P-GPS,,29.8
520,52000,2026-01-11 15:30:47,0.223694,5,7.764,-0.223694,0.0,0.0,32.8,6.5,-8.1,1024,1024,1024,1024,0,0,0,0,94,4.492,60.44,97.769032,P-GPS,,29.8
521,52100,2026-01-11 15:30:47,0.223694,5,7.764,-0.223694,0.0,0.0,32.8,6.2,-8.5,1024,1024,1024,1024,0,0,0,0,94,4.492,60.44,97.769032,P-GPS,,29.8
522,52200,2026-01-11 15:30:48,0.223694,5,7.764,-0.223694,0.0,0.0,32.8,5.9,-8.8,1024,1024,1024,1024,0,0,0,0,94,4.492,60.44,97.769032,P-GPS,,29.8
523,52300,2026-01-11 15:30:48,0.223694,5,7.764,-0.223694,0.0,0.0,32.8,6.0,-9.1,1024,1024,1024,1024,0,0,0,0,94,4.492,60.44,97.769032,P-GPS,,29.8
524,52400,2026-01-11 15:30:48,0.0,5,7.764,0.0,0.0,0.0,32.8,6.3,-9.2,1024,1024,1024,1024,0,0,0,0,94,4.492,60.44,97.769032,P-GPS,,29.8
525,52500,2026-01-11 15:30:48,0.0,5,7.764,0.0,0.0,0.0,32.8,6.3,-9.2,1024,1024,1024,1024,0,0,0,0,94,4.492,60.44,97.769032,P-GPS,,29.8
526,52600,2026-01-11 15:30:48,0.0,5,7.764,0.0,0.0,0.0,32.8,6.4,-9.1,1024,1024,1024,1024,0,0,0,0,94,4.492,60.44,97.769032,P-GPS,,29.8
527,52700,2026-01-11 15:30:48,0.0,5,7.764,0.0,0.0,0.0,32.9,6.2,-9.0,1024,1024,1024,1024,0,0,0,0,94,4.492,60.44,97.769032,P-GPS,SD card speed low SD card speed low. Normal use may be affected. Replace SD card (Code: 10028). Gimbal stuck. Make sure gimbal cover is removed and manually check whether gimbal can rotate freely (Code: 40002),29.8
528,52800,2026-01-11 15:30:48,0.0,5,7.764,0.0,0.0,0.0,32.8,6.4,-8.8,1024,1024,1024,1024,0,0,0,0,94,4.492,60.44,97.769032,P-GPS,,29.8
529,52900,2026-01-11 15:30:48,0.0,5,7.764,0.0,0.0,0.0,32.7,6.9,-8.6,1024,1024,1024,1024,0,0,0,0,94,4.492,60.44,97.769032,P-GPS,,29.8
530,53000,2026-01-11 15:30:48,0.0,5,7.764,0.0,0.0,0.0,32.7,6.8,-8.5,1024,1024,1024,1024,0,0,0,0,94,4.492,60.44,97.769032,P-GPS,,29.8
531,53100,2026-01-11 15:30:49,0.0,5,7.732,0.0,0.0,0.0,32.8,6.5,-8.6,1024,1024,1024,1024,0,0,0,0,94,4.696,60.62,97.769032,P-GPS,,29.8
532,53200,2026-01-11 15:30:49,0.0,5,7.732,0.0,0.0,0.0,32.9,6.5,-8.1,1024,1024,1024,1024,0,0,0,0,94,4.696,60.62,97.769032,P-GPS,,29.8
533,53300,2026-01-11 15:30:49,0.0,5,7.732,0.0,0.0,0.0,32.8,6.6,-7.9,1024,1024,1024,1024,0,0,0,0,94,4.696,60.62,97.769032,P-GPS,,29.8
534,53400,2026-01-11 15:30:49,0.0,5,7.732,0.0,0.0,0.0,32.8,6.7,-8.1,1024,1024,1024,1024,0,0,0,0,94,4.696,60.62,97.769032,P-GPS,,29.8
535,53500,2026-01-11 15:30:49,0.0,5,7.732,0.0,0.0,0.0,32.8,7.0,-8.2,1024,1024,1024,1024,0,0,0,0,94,4.696,60.62,97.769032,P-GPS,,29.8
536,53600,2026-01-11 15:30:49,0.0,5,7.732,0.0,0.0,0.0,32.8,7.4,-7.8,1024,1024,1024,1024,0,0,0,0,94,4.696,60.62,97.769032,P-GPS,,29.8
537,53700,2026-01-11 15:30:49,0.0,5,7.732,0.0,0.0,0.0,32.7,7.6,-8.2,1024,1024,1024,1024,0,0,0,0,94,4.696,60.62,97.769032,P-GPS,,29.8
538,53800,2026-01-11 15:30:49,0.223694,5,7.732,-0.223694,0.0,0.0,32.5,7.2,-8.4,1024,1024,1024,1024,0,0,0,0,94,4.696,60.62,97.769032,P-GPS,,29.8
539,53900,2026-01-11 15:30:49,0.223694,5,7.732,-0.223694,0.0,0.0,32.4,6.7,-9.3,1024,1024,1024,1024,0,0,0,0,94,4.696,60.62,98.097116,P-GPS,,29.9
540,54000,2026-01-11 15:30:49,0.447388,5,7.732,-0.447388,0.0,0.0,32.6,5.4,-10.6,1024,1024,1024,1024,0,0,0,0,94,4.696,60.62,98.097116,P-GPS,,29.9
541,54100,2026-01-11 15:30:50,0.447388,5,7.732,-0.447388,0.0,0.0,32.6,4.5,-10.5,1024,1024,1024,1024,0,0,0,0,94,4.696,60.62,97.769032,P-GPS,,29.8
542,54200,2026-01-11 15:30:50,0.447388,5,7.743,-0.447388,0.0,0.0,32.5,4.4,-10.5,1024,1024,1024,1024,0,0,0,0,94,4.592,60.62,97.769032,P-GPS,,29.8
543,54300,2026-01-11 15:30:50,0.447388,5,7.743,-0.447388,0.0,0.0,32.7,3.2,-10.1,1024,1024,1024,1024,0,0,0,0,94,4.592,60.62,97.769032,P-GPS,,29.8
544,54400,2026-01-11 15:30:50,0.447388,5,7.743,-0.223694,0.0,0.0,32.9,2.3,-9.7,1024,1024,1024,1024,0,0,0,0,94,4.592,60.62,97.440948,P-GPS,,29.7
545,54500,2026-01-11 15:30:50,0.223694,5,7.743,0.0,-0.223694,0.0,33.1,2.3,-8.1,1024,1024,1024,1024,0,0,0,0,94,4.592,60.62,97.440948,P-GPS,,29.7
546,54600,2026-01-11 15:30:50,0.223694,5,7.743,0.0,-0.223694,0.0,33.1,2.9,-7.2,1024,1024,1024,1024,0,0,0,0,94,4.592,60.62,97.112864,P-GPS,,29.6
547,54700,2026-01-11 15:30:50,0.0,5,7.743,0.0,0.0,0.0,33.1,3.5,-6.9,1024,1024,1024,1024,0,0,0,0,94,4.592,60.62,97.112864,P-GPS,,29.6
548,54800,2026-01-11 15:30:50,0.0,5,7.743,0.0,0.0,0.0,33.1,3.8,-6.5,1024,1024,1024,1024,0,0,0,0,94,4.592,60.62,96.78478,P-GPS,,29.5
549,54900,2026-01-11 15:30:50,0.0,5,7.743,0.0,0.0,0.0,33.0,3.9,-6.1,1024,1024,1024,1024,0,0,0,0,94,4.592,60.62,96.78478,P-GPS,,29.5
550,55000,2026-01-11 15:30:50,0.0,5,7.743,0.0,0.0,0.0,32.8,5.2,-5.3,1024,1024,1024,1024,0,0,0,0,94,4.592,60.62,96.78478,P-GPS,,29.5
551,55100,2026-01-11 15:30:51,0.0,5,7.743,0.0,0.0,0.0,32.7,5.7,-5.6,1024,1024,1024,1024,0,0,0,0,94,4.592,60.62,96.78478,P-GPS,,29.5
552,55200,2026-01-11 15:30:51,0.0,5,7.743,0.0,0.0,0.0,32.9,3.6,-5.9,1024,1024,1024,1024,0,0,0,0,94,4.592,60.62,96.78478,P-GPS,,29.5
553,55300,2026-01-11 15:30:51,0.0,5,7.726,0.0,0.0,0.0,33.2,1.2,-5.5,1024,1024,1024,1024,0,0,0,0,94,4.855,60.62,96.78478,P-GPS,,29.5
554,55400,2026-01-11 15:30:51,0.0,5,7.726,0.0,0.0,-0.223694,33.2,1.8,-5.9,1024,1024,1024,1024,0,0,0,0,94,4.855,60.62,96.78478,P-GPS,,29.5
555,55500,2026-01-11 15:30:51,0.0,5,7.726,0.0,0.0,-0.223694,33.1,2.4,-5.5,1024,1024,1024,1024,0,0,0,0,94,4.855,60.62,96.78478,P-GPS,,29.5
556,55600,2026-01-11 15:30:51,0.0,5,7.726,0.0,0.0,0.0,32.9,4.2,-5.0,1024,1024,1024,1024,0,0,0,0,94,4.855,60.62,96.78478,P-GPS,,29.5
557,55700,2026-01-11 15:30:51,0.0,5,7.726,0.0,0.0,0.0,32.9,4.6,-4.6,1024,1024,1024,1024,0,0,0,0,94,4.855,60.62,96.78478,P-GPS,,29.5
558,55800,2026-01-11 15:30:51,0.0,5,7.726,0.0,0.0,0.0,32.9,4.4,-2.9,1024,1024,1024,1024,0,0,0,0,94,4.855,60.62,96.78478,P-GPS,,29.5
559,55900,2026-01-11 15:30:51,0.0,5,7.726,0.0,0.0,-0.223694,32.9,4.3,-3.4,1024,1024,1024,1024,0,0,0,0,94,4.855,60.62,96.78478,P-GPS,,29.5
560,56000,2026-01-11 15:30:51,0.0,5,7.726,0.0,0.0,0.0,32.8,5.5,-3.8,1024,1024,1024,1024,0,0,0,0,94,4.855,60.62,97.112864,P-GPS,,29.6
561,56100,2026-01-11 15:30:52,0.0,5,7.726,0.0,0.0,0.0,32.8,4.8,-6.1,1024,1024,1024,1024,0,0,0,0,94,4.855,60.62,97.112864,P-GPS,,29.6
562,56200,2026-01-11 15:30:52,0.0,5,7.726,0.0,0.0,0.0,33.0,4.3,-7.0,1024,1024,1024,1024,0,0,0,0,94,4.855,60.62,97.112864,P-GPS,,29.6
563,56300,2026-01-11 15:30:52,0.0,5,7.726,0.0,0.0,0.0,33.0,4.2,-7.1,1024,1024,1024,1024,0,0,0,0,94,4.855,60.62,97.440948,P-GPS,,29.7
564,56400,2026-01-11 15:30:52,0.0,5,7.726,0.0,0.0,0.0,33.0,4.2,-6.7,1024,1024,1024,1024,0,0,0,0,94,4.855,60.62,97.440948,P-GPS,,29.7
565,56500,2026-01-11 15:30:52,0.0,5,7.726,0.0,0.0,0.0,33.1,4.2,-6.4,1024,1024,1024,1024,0,0,0,0,94,4.855,60.62,97.769032,P-GPS,,29.8
566,56600,2026-01-11 15:30:52,0.0,5,7.726,0.0,0.0,0.0,33.1,3.6,-6.6,1024,1024,1024,1024,0,0,0,0,94,4.855,60.62,97.769032,P-GPS,,29.8
567,56700,2026-01-11 15:30:52,0.0,5,7.726,0.0,0.0,0.0,33.1,3.8,-6.4,1024,1024,1024,1024,0,0,0,0,94,4.855,60.62,97.769032,P-GPS,,29.8
568,56800,2026-01-11 15:30:52,0.0,5,7.726,0.0,0.0,0.0,33.1,3.5,-6.1,1024,1024,1024,1024,0,0,0,0,94,4.855,60.62,98.097116,P-GPS,,29.9
569,56900,2026-01-11 15:30:52,0.0,5,7.726,0.0,0.0,0.0,33.2,3.0,-6.0,1024,1024,1024,1024,0,0,0,0,94,4.855,60.62,98.097116,P-GPS,,29.9
570,57000,2026-01-11 15:30:52,0.0,5,7.726,0.0,0.0,0.0,33.1,3.4,-5.3,1024,1024,1024,1024,0,0,0,0,94,4.855,60.62,98.097116,P-GPS,,29.9
571,57100,2026-01-11 15:30:53,0.0,5,7.726,0.0,0.0,0.0,33.1,3.5,-5.2,1024,1024,1024,1024,0,0,0,0,94,4.855,60.62,98.097116,P-GPS,,29.9
572,57200,2026-01-11 15:30:53,0.0,5,7.726,0.0,0.0,0.0,33.1,3.8,-4.9,1024,1024,1024,1024,0,0,0,0,94,4.855,60.62,98.097116,P-GPS,,29.9
573,57300,2026-01-11 15:30:53,0.0,5,7.726,0.0,0.0,0.0,33.1,3.4,-5.1,1024,1024,1024,1024,0,0,0,0,94,4.855,60.62,98.4252,P-GPS,,30.0
574,57400,2026-01-11 15:30:53,0.0,5,7.726,0.0,0.0,0.0,33.1,3.6,-5.1,1024,1024,1024,1024,0,0,0,0,94,4.855,60.62,98.4252,P-GPS,,30.0
575,57500,2026-01-11 15:30:53,0.0,5,7.762,0.0,0.0,0.0,33.1,4.0,-5.6,1024,1024,1024,1024,0,0,0,0,93,4.331,60.62,98.4252,P-GPS,,30.0
576,57600,2026-01-11 15:30:53,0.0,5,7.762,0.0,0.0,0.0,33.1,4.2,-5.4,1024,1024,1024,1024,0,0,0,0,93,4.331,60.62,98.4252,P-GPS,,30.0
577,57700,2026-01-11 15:30:53,0.0,5,7.762,0.0,0.0,0.0,33.1,4.4,-5.2,1024,1024,1024,1024,0,0,0,0,93,4.331,60.62,98.753284,P-GPS,,30.1
578,57800,2026-01-11 15:30:53,0.0,5,7.762,0.0,0.0,0.0,33.1,5.0,-5.3,1024,1024,1024,1024,0,0,0,0,93,4.331,60.62,98.753284,P-GPS,,30.1
579,57900,2026-01-11 15:30:53,0.0,5,7.762,0.0,0.0,0.0,33.1,5.4,-5.1,1024,1024,1024,1024,0,0,0,0,93,4.331,60.62,98.753284,P-GPS,,30.1
580,58000,2026-01-11 15:30:53,0.0,5,7.762,0.0,0.0,0.0,33.1,5.9,-5.1,1024,1024,1024,1024,0,0,0,0,93,4.331,60.62,98.753284,P-GPS,,30.1
581,58100,2026-01-11 15:30:54,0.0,5,7.762,0.0,0.0,0.0,33.1,5.7,-5.2,1024,1024,1024,1024,0,0,0,0,93,4.331,60.62,99.081368,P-GPS,,30.2
582,58200,2026-01-11 15:30:54,0.0,5,7.762,0.0,0.0,0.0,33.1,5.2,-5.4,1024,1024,1024,1024,0,0,0,0,93,4.331,60.62,99.081368,P-GPS,,30.2
583,58300,2026-01-11 15:30:54,0.0,5,7.762,0.0,0.0,0.0,33.1,4.9,-5.8,1024,1024,1024,1024,0,0,0,0,93,4.331,60.62,99.081368,P-GPS,,30.2
584,58400,2026-01-11 15:30:54,0.0,5,7.762,0.0,0.0,0.0,33.0,5.4,-6.0,1024,1024,1024,1024,0,0,0,0,93,4.331,60.62,99.409452,P-GPS,,30.3
585,58500,2026-01-11 15:30:54,0.0,5,7.762,0.0,0.0,0.0,33.1,4.8,-6.6,1024,1024,1024,1024,0,0,0,0,93,4.331,60.62,99.409452,P-GPS,,30.3
586,58600,2026-01-11 15:30:54,0.0,5,7.776,0.0,0.0,0.0,33.2,4.7,-6.4,1024,1024,1024,1024,0,0,0,0,93,4.421,60.8,99.409452,P-GPS,,30.3
587,58700,2026-01-11 15:30:54,0.0,5,7.776,0.0,0.0,0.0,33.1,5.2,-6.6,1024,1024,1024,1024,0,0,0,0,93,4.421,60.8,99.409452,P-GPS,,30.3
588,58800,2026-01-11 15:30:54,0.0,5,7.776,0.0,0.0,0.223694,33.1,5.2,-6.6,1024,1024,1024,1024,0,0,0,0,93,4.421,60.8,99.409452,P-GPS,,30.3
589,58900,2026-01-11 15:30:54,0.0,5,7.776,0.0,0.0,0.0,33.0,5.2,-6.6,1024,1024,1024,1024,0,0,0,0,93,4.421,60.8,99.409452,P-GPS,,30.3
590,59000,2026-01-11 15:30:54,0.0,5,7.776,0.0,0.0,0.223694,33.0,5.1,-6.7,1024,1024,1024,1024,0,0,0,0,93,4.421,60.8,99.737536,P-GPS,,30.4
591,59100,2026-01-11 15:30:55,0.0,5,7.776,0.0,0.0,0.223694,33.1,4.9,-6.6,1024,1024,1024,1024,0,0,0,0,93,4.421,60.8,99.737536,P-GPS,,30.4
592,59200,2026-01-11 15:30:55,0.0,5,7.776,0.0,0.0,0.223694,33.0,5.0,-6.8,1024,1024,1024,1024,0,0,0,0,93,4.421,60.8,99.737536,P-GPS,,30.4
593,59300,2026-01-11 15:30:55,0.0,5,7.776,0.0,0.0,0.223694,33.0,5.3,-6.6,1024,1024,1024,1024,0,0,0,0,93,4.421,60.8,99.737536,P-GPS,,30.4
594,59400,2026-01-11 15:30:55,0.0,5,7.776,0.0,0.0,0.223694,33.1,4.8,-6.4,1024,1024,1024,1024,0,0,0,0,93,4.421,60.8,99.737536,P-GPS,,30.4
595,59500,2026-01-11 15:30:55,0.0,5,7.776,0.0,0.0,0.0,33.0,5.5,-6.1,1024,1024,1024,1024,0,0,0,0,93,4.421,60.8,99.737536,P-GPS,,30.4
596,59600,2026-01-11 15:30:55,0.0,5,7.776,0.0,0.0,0.223694,33.1,5.5,-5.5,1024,1024,1024,1024,0,0,0,0,93,4.421,60.8,99.737536,P-GPS,,30.4
597,59700,2026-01-11 15:30:55,0.0,5,7.769,0.0,0.0,0.0,33.0,6.4,-5.5,1024,1024,1024,1024,0,0,0,0,93,4.266,60.8,99.737536,P-GPS,,30.4
598,59800,2026-01-11 15:30:55,0.0,5,7.769,0.0,0.0,0.223694,33.0,6.7,-5.5,1024,1024,1024,1024,0,0,0,0,93,4.266,60.8,99.737536,P-GPS,,30.4
599,59900,2026-01-11 15:30:55,0.0,5,7.769,0.0,0.0,0.223694,33.1,6.6,-5.4,1024,1024,1024,1024,0,0,0,0,93,4.266,60.8,99.737536,P-GPS,,30.4
600,60000,2026-01-11 15:30:55,0.0,5,7.769,0.0,0.0,0.223694,33.0,7.2,-5.9,1024,1024,1024,1024,0,0,0,0,93,4.266,60.8,99.737536,P-GPS,,30.4
601,60100,2026-01-11 15:30:56,0.0,5,7.769,0.0,0.0,0.223694,33.1,7.0,-6.6,1024,1024,1024,1024,0,0,0,0,93,4.266,60.8,99.737536,P-GPS,,30.4
602,60200,2026-01-11 15:30:56,0.0,5,7.769,0.0,0.0,0.223694,33.1,6.9,-7.0,1024,1024,1024,1024,0,0,0,0,93,4.266,60.8,99.737536,P-GPS,,30.4
603,60300,2026-01-11 15:30:56,0.0,5,7.769,0.0,0.0,0.223694,33.0,6.6,-7.4,1024,1024,1024,1024,0,0,0,0,93,4.266,60.8,99.737536,P-GPS,,30.4
604,60400,2026-01-11 15:30:56,0.223694,5,7.769,0.0,0.223694,0.0,33.0,7.0,-7.6,1024,1024,1024,1024,0,0,0,0,93,4.266,60.8,99.737536,P-GPS,,30.4
605,60500,2026-01-11 15:30:56,0.223694,5,7.769,0.0,0.223694,0.0,32.9,8.0,-7.9,1024,1024,1024,1024,0,0,0,0,93,4.266,60.8,100.06562,P-GPS,,30.5
606,60600,2026-01-11 15:30:56,0.223694,5,7.769,0.0,0.223694,0.223694,32.9,8.2,-7.8,1024,1024,1024,1024,0,0,0,0,93,4.266,60.8,100.06562,P-GPS,,30.5
607,60700,2026-01-11 15:30:56,0.223694,5,7.769,0.0,0.223694,0.223694,33.0,8.2,-7.8,1024,1024,1024,1024,0,0,0,0,93,4.266,60.8,100.06562,P-GPS,,30.5
608,60800,2026-01-11 15:30:56,0.223694,5,7.735,0.0,0.223694,0.223694,32.9,8.2,-7.9,1024,1024,1024,1024,0,0,0,0,93,4.729,60.8,100.06562,P-GPS,,30.5
609,60900,2026-01-11 15:30:56,0.223694,5,7.735,0.0,0.223694,0.0,32.8,8.1,-9.3,1024,1024,1024,1024,0,0,0,0,93,4.729,60.8,100.393704,P-GPS,,30.6
610,61000,2026-01-11 15:30:56,0.223694,5,7.735,0.0,0.223694,0.223694,32.7,8.8,-10.3,1024,1024,1024,1024,0,0,0,0,93,4.729,60.8,100.393704,P-GPS,,30.6
611,61100,2026-01-11 15:30:57,0.223694,5,7.735,0.0,0.223694,0.223694,32.8,8.7,-9.7,1024,1024,1024,1024,0,0,0,0,93,4.729,60.8,100.393704,P-GPS,,30.6
612,61200,2026-01-11 15:30:57,0.223694,5,7.735,0.0,0.223694,0.223694,32.8,8.6,-9.2,1024,1024,1024,1024,0,0,0,0,93,4.729,60.8,100.393704,P-GPS,,30.6
613,61300,2026-01-11 15:30:57,0.223694,5,7.735,0.0,0.223694,0.223694,32.8,8.0,-9.6,1024,1024,1024,1024,0,0,0,0,93,4.729,60.8,100.393704,P-GPS,,30.6
614,61400,2026-01-11 15:30:57,0.223694,5,7.735,0.0,0.223694,0.0,32.6,8.9,-10.0,1024,1024,1024,1024,0,0,0,0,93,4.729,60.8,100.393704,P-GPS,,30.6
615,61500,2026-01-11 15:30:57,0.223694,5,7.735,0.0,0.223694,0.223694,32.5,9.1,-10.6,1024,1024,1024,1024,0,0,0,0,93,4.729,60.8,100.393704,P-GPS,,30.6
616,61600,2026-01-11 15:30:57,0.0,5,7.735,0.0,0.0,0.447388,32.7,8.5,-10.5,1024,1024,1024,1024,0,0,0,0,93,4.729,60.8,100.393704,P-GPS,,30.6
617,61700,2026-01-11 15:30:57,0.0,5,7.735,0.0,0.0,0.223694,32.8,7.9,-10.1,1024,1024,1024,1024,0,0,0,0,93,4.729,60.8,100.393704,P-GPS,,30.6
618,61800,2026-01-11 15:30:57,0.0,5,7.735,0.0,0.0,0.223694,32.8,7.2,-10.0,1024,1024,1024,1024,0,0,0,0,93,4.729,60.8,100.06562,P-GPS,,30.5
619,61900,2026-01-11 15:30:57,0.0,5,7.703,0.0,0.0,0.223694,33.0,6.3,-9.7,1024,1024,1024,1024,0,0,0,0,93,4.946,60.8,100.06562,P-GPS,,30.5
620,62000,2026-01-11 15:30:57,0.0,5,7.703,0.0,0.0,0.0,32.8,6.9,-9.6,1024,1024,1024,1024,0,0,0,0,93,4.946,60.8,100.06562,P-GPS,,30.5
621,62100,2026-01-11 15:30:58,0.0,5,7.703,0.0,0.0,0.223694,32.8,6.8,-9.8,1024,1024,1024,1024,0,0,0,0,93,4.946,60.8,99.737536,P-GPS,,30.4
622,62200,2026-01-11 15:30:58,0.0,5,7.703,0.0,0.0,0.223694,32.9,6.7,-9.1,1024,1024,1024,1024,0,0,0,0,93,4.946,60.8,99.737536,P-GPS,,30.4
623,62300,2026-01-11 15:30:58,0.0,5,7.703,0.0,0.0,0.223694,32.9,6.6,-9.0,1024,1024,1024,1024,0,0,0,0,93,4.946,60.8,99.409452,P-GPS,,30.3
624,62400,2026-01-11 15:30:58,0.0,5,7.703,0.0,0.0,0.0,32.8,6.3,-8.8,1024,1024,1024,1024,0,0,0,0,93,4.946,60.8,99.409452,P-GPS,,30.3
625,62500,2026-01-11 15:30:58,0.0,5,7.703,0.0,0.0,0.0,32.8,6.5,-8.8,1024,1024,1024,1024,0,0,0,0,93,4.946,60.8,99.081368,P-GPS,,30.2
626,62600,2026-01-11 15:30:58,0.0,5,7.703,0.0,0.0,0.0,32.9,6.1,-8.5,1024,1024,1024,1024,0,0,0,0,93,4.946,60.8,99.081368,P-GPS,,30.2
627,62700,2026-01-11 15:30:58,0.0,5,7.703,0.0,0.0,0.0,32.9,6.0,-8.0,1024,1024,1024,1024,0,0,0,0,93,4.946,60.8,99.081368,P-GPS,,30.2
628,62800,2026-01-11 15:30:58,0.0,5,7.703,0.0,0.0,0.0,32.9,6.0,-7.8,1024,1024,1024,1024,0,0,0,0,93,4.946,60.8,98.753284,P-GPS,,30.1
629,62900,2026-01-11 15:30:58,0.0,5,7.703,0.0,0.0,0.0,33.0,5.7,-7.4,1024,1024,1024,1024,0,0,0,0,93,4.946,60.8,98.753284,P-GPS,,30.1
630,63000,2026-01-11 15:30:58,0.0,5,7.746,0.0,0.0,0.0,33.1,5.2,-7.5,1024,1024,1024,1024,0,0,0,0,93,4.719,60.8,98.753284,P-GPS,,30.1
631,63100,2026-01-11 15:30:58,0.0,5,7.746,0.0,0.0,0.0,32.8,6.6,-8.0,1024,1024,1024,1024,0,0,0,0,93,4.719,60.8,98.753284,P-GPS,,30.1
632,63200,2026-01-11 15:30:59,0.0,5,7.746,0.0,0.0,0.0,32.9,6.3,-7.9,1024,1024,1024,1024,0,0,0,0,93,4.719,60.8,98.4252,P-GPS,,30.0
633,63300,2026-01-11 15:30:59,0.0,5,7.746,0.0,0.0,0.0,32.9,7.2,-8.0,1024,1024,1024,1024,0,0,0,0,93,4.719,60.8,98.4252,P-GPS,,30.0
634,63400,2026-01-11 15:30:59,0.0,5,7.746,0.0,0.0,0.0,32.9,7.1,-7.9,1024,1024,1024,1024,0,0,0,0,93,4.719,60.8,98.4252,P-GPS,,30.0
635,63500,2026-01-11 15:30:59,0.0,5,7.746,0.0,0.0,0.0,32.9,7.3,-8.0,1024,1024,1024,1024,0,0,0,0,93,4.719,60.8,98.4252,P-GPS,,30.0
636,63600,2026-01-11 15:30:59,0.0,5,7.746,0.0,0.0,0.0,33.0,6.8,-8.2,1024,1024,1024,1024,0,0,0,0,93,4.719,60.8,98.4252,P-GPS,,30.0
637,63700,2026-01-11 15:30:59,0.0,5,7.746,0.0,0.0,0.0,32.9,7.4,-7.9,1024,1024,1024,1024,0,0,0,0,93,4.719,60.8,98.097116,P-GPS,,29.9
638,63800,2026-01-11 15:30:59,0.0,5,7.746,0.0,0.0,0.0,32.8,7.5,-7.6,1024,1024,1024,1024,0,0,0,0,93,4.719,60.8,98.097116,P-GPS,,29.9
639,63900,2026-01-11 15:30:59,0.0,5,7.746,0.0,0.0,0.0,32.9,7.1,-7.8,1024,1024,1024,1024,0,0,0,0,93,4.719,60.8,98.097116,P-GPS,,29.9
640,64000,2026-01-11 15:30:59,0.0,5,7.746,0.0,0.0,0.0,32.7,7.5,-7.9,1024,1024,1024,1024,0,0,0,0,93,4.719,60.8,98.097116,P-GPS,,29.9
641,64100,2026-01-11 15:31:00,0.0,5,7.733,0.0,0.0,0.0,32.9,6.9,-6.9,1024,1024,1024,1024,0,0,0,0,93,4.85,60.8,97.769032,P-GPS,,29.8
642,64200,2026-01-11 15:31:00,0.0,5,7.733,0.0,0.0,0.0,32.9,5.6,-7.7,1024,1024,1024,1024,0,0,0,0,93,4.85,60.8,97.769032,P-GPS,,29.8
643,64300,2026-01-11 15:31:00,0.0,5,7.733,0.0,0.0,0.0,32.7,6.4,-8.5,1024,1024,1024,1024,0,0,0,0,93,4.85,60.8,97.769032,P-GPS,,29.8
644,64400,2026-01-11 15:31:00,0.0,5,7.733,0.0,0.0,0.0,32.8,6.2,-8.5,1024,1024,1024,1024,0,0,0,0,93,4.85,60.8,97.769032,P-GPS,,29.8
645,64500,2026-01-11 15:31:00,0.0,5,7.733,0.0,0.0,0.0,33.0,5.5,-8.5,1024,1024,1024,1024,0,0,0,0,93,4.85,60.8,97.769032,P-GPS,,29.8
646,64600,2026-01-11 15:31:00,0.0,5,7.733,0.0,0.0,0.0,33.0,5.7,-8.8,1024,1024,1024,1024,0,0,0,0,93,4.85,60.8,97.769032,P-GPS,,29.8
647,64700,2026-01-11 15:31:00,0.0,5,7.733,0.0,0.0,0.0,32.9,6.2,-8.8,1024,1024,1024,1024,0,0,0,0,93,4.85,60.8,97.769032,P-GPS,,29.8
648,64800,2026-01-11 15:31:00,0.0,5,7.733,0.0,0.0,0.0,32.9,6.3,-8.1,1024,1024,1024,1024,0,0,0,0,93,4.85,60.8,97.769032,P-GPS,,29.8
649,64900,2026-01-11 15:31:00,0.0,5,7.733,0.0,0.0,0.0,32.9,6.1,-8.0,1024,1024,1024,1024,0,0,0,0,93,4.85,60.8,97.769032,P-GPS,,29.8
650,65000,2026-01-11 15:31:01,0.0,5,7.733,0.0,0.0,0.0,32.8,6.3,-8.1,1024,1024,1024,1024,0,0,0,0,93,4.85,60.8,97.769032,P-GPS,,29.8
651,65100,2026-01-11 15:31:01,0.0,5,7.733,0.0,0.0,0.0,32.7,7.6,-7.9,1024,1024,1024,1024,0,0,0,0,93,4.85,60.8,97.440948,P-GPS,,29.7
652,65200,2026-01-11 15:31:01,0.0,5,7.736,0.0,0.0,0.0,32.9,7.5,-7.8,1024,1024,1024,1024,0,0,0,0,93,4.962,60.98,97.769032,P-GPS,,29.8
653,65300,2026-01-11 15:31:01,0.0,5,7.736,0.0,0.0,0.0,32.8,7.5,-8.0,1024,1024,1024,1024,0,0,0,0,93,4.962,60.98,97.769032,P-GPS,,29.8
654,65400,2026-01-11 15:31:01,0.0,5,7.736,0.0,0.0,0.0,32.8,8.4,-8.8,1024,1024,1024,1024,0,0,0,0,93,4.962,60.98,97.769032,P-GPS,,29.8
655,65500,2026-01-11 15:31:01,0.0,5,7.736,0.0,0.0,0.0,32.6,8.7,-8.1,1024,1024,1024,1024,0,0,0,0,93,4.962,60.98,97.769032,P-GPS,,29.8
656,65600,2026-01-11 15:31:01,0.0,5,7.736,0.0,0.0,0.0,32.7,8.5,-7.7,1024,1024,1024,1024,0,0,0,0,93,4.962,60.98,97.440948,P-GPS,,29.7
657,65700,2026-01-11 15:31:01,0.0,5,7.736,0.0,0.0,0.0,32.7,8.1,-7.6,1024,1024,1024,1024,0,0,0,0,93,4.962,60.98,97.440948,P-GPS,,29.7
658,65800,2026-01-11 15:31:01,0.0,5,7.736,0.0,0.0,0.0,32.8,7.9,-7.9,1024,1024,1024,1024,0,0,0,0,93,4.962,60.98,97.440948,P-GPS,,29.7
659,65900,2026-01-11 15:31:01,0.0,5,7.736,0.0,0.0,0.0,32.9,8.0,-7.5,1024,1024,1024,1024,0,0,0,0,93,4.962,60.98,97.440948,P-GPS,,29.7
660,66000,2026-01-11 15:31:01,0.0,5,7.736,0.0,0.0,0.0,32.8,8.5,-7.3,1024,1024,1024,1024,0,0,0,0,93,4.962,60.98,97.440948,P-GPS,,29.7
661,66100,2026-01-11 15:31:02,0.0,5,7.736,0.0,0.0,0.0,32.7,8.6,-6.8,1024,1024,1024,1024,0,0,0,0,93,4.962,60.98,97.440948,P-GPS,,29.7
662,66200,2026-01-11 15:31:02,0.0,5,7.736,0.0,0.0,0.0,32.8,7.5,-6.7,1024,1024,1024,1024,0,0,0,0,93,4.962,60.98,97.112864,P-GPS,,29.6
663,66300,2026-01-11 15:31:02,0.0,5,7.736,0.0,0.0,0.0,32.9,6.7,-6.3,1024,1024,1024,1024,0,0,0,0,93,4.962,60.98,97.112864,P-GPS,,29.6
664,66400,2026-01-11 15:31:02,0.0,5,7.736,0.0,0.0,0.0,32.9,7.1,-6.5,1024,1024,1024,1024,0,0,0,0,93,4.962,60.98,97.112864,P-GPS,,29.6
665,66500,2026-01-11 15:31:02,0.0,5,7.736,0.0,0.0,0.0,32.9,7.5,-6.2,1024,1024,1024,1024,0,0,0,0,93,4.962,60.98,97.112864,P-GPS,,29.6
666,66600,2026-01-11 15:31:02,0.0,5,7.736,0.0,0.0,0.0,33.0,7.5,-6.1,1024,1024,1024,1024,0,0,0,0,93,4.962,60.98,97.112864,P-GPS,,29.6
667,66700,2026-01-11 15:31:02,0.0,5,7.736,0.0,0.0,0.0,33.0,7.4,-6.0,1024,1024,1024,1024,0,0,0,0,93,4.962,60.98,97.112864,P-GPS,,29.6
668,66800,2026-01-11 15:31:02,0.0,5,7.736,0.0,0.0,0.0,33.0,7.1,-6.1,1024,1024,1024,1024,0,0,0,0,93,4.962,60.98,97.112864,P-GPS,,29.6
669,66900,2026-01-11 15:31:02,0.0,5,7.736,0.0,0.0,0.0,33.0,6.6,-6.1,1024,1024,1024,1024,0,0,0,0,93,4.962,60.98,97.112864,P-GPS,,29.6
670,67000,2026-01-11 15:31:02,0.0,5,7.736,0.0,0.0,0.0,33.0,6.7,-6.7,1024,1024,1024,1024,0,0,0,0,93,4.962,60.98,97.112864,P-GPS,,29.6
671,67100,2026-01-11 15:31:03,0.0,5,7.736,0.0,0.0,0.0,33.1,6.9,-7.0,1024,1024,1024,1024,0,0,0,0,93,4.962,60.98,97.112864,P-GPS,,29.6
672,67200,2026-01-11 15:31:03,0.0,5,7.736,0.0,0.0,0.0,33.1,7.4,-6.6,1024,1024,1024,1024,0,0,0,0,93,4.962,60.98,97.112864,P-GPS,,29.6
673,67300,2026-01-11 15:31:03,0.0,5,7.736,0.0,0.0,0.0,33.0,7.4,-6.6,1024,1024,1024,1024,0,0,0,0,93,4.962,60.98,97.112864,P-GPS,,29.6
674,67400,2026-01-11 15:31:03,0.0,5,7.734,0.0,0.0,0.0,32.9,7.4,-6.8,1024,1024,1024,1024,0,0,0,0,93,4.786,60.98,97.112864,P-GPS,,29.6
675,67500,2026-01-11 15:31:03,0.0,5,7.734,0.0,0.0,0.0,32.8,7.4,-7.1,1024,1024,1024,1024,0,0,0,0,93,4.786,60.98,97.112864,P-GPS,,29.6
676,67600,2026-01-11 15:31:03,0.0,5,7.734,0.0,0.0,0.0,32.8,7.7,-6.6,1024,1024,1024,1024,0,0,0,0,93,4.786,60.98,97.112864,P-GPS,,29.6
677,67700,2026-01-11 15:31:03,0.0,5,7.734,0.0,0.0,0.0,32.9,6.7,-6.0,1024,1024,1024,1024,0,0,0,0,93,4.786,60.98,97.112864,P-GPS,,29.6
678,67800,2026-01-11 15:31:03,0.0,5,7.734,0.0,0.0,0.0,32.9,5.9,-5.7,1024,1024,1024,1024,0,0,0,0,93,4.786,60.98,97.112864,P-GPS,,29.6
679,67900,2026-01-11 15:31:03,0.0,5,7.734,0.0,0.0,0.0,32.9,6.5,-5.6,1024,1024,1024,1024,0,0,0,0,93,4.786,60.98,97.112864,P-GPS,,29.6
680,68000,2026-01-11 15:31:03,0.0,5,7.734,0.0,0.0,0.0,32.9,7.2,-5.3,1024,1024,1024,1024,0,0,0,0,93,4.786,60.98,97.112864,P-GPS,,29.6
681,68100,2026-01-11 15:31:03,0.0,5,7.734,0.0,0.0,0.0,33.0,7.6,-4.9,1024,1024,1024,1024,0,0,0,0,93,4.786,60.98,97.112864,P-GPS,,29.6
682,68200,2026-01-11 15:31:04,0.0,5,7.734,0.0,0.0,0.0,33.0,7.1,-4.9,1024,1024,1024,1024,0,0,0,0,93,4.786,60.98,97.112864,P-GPS,,29.6
683,68300,2026-01-11 15:31:04,0.0,5,7.734,0.0,0.0,0.0,32.9,7.0,-5.0,1024,1024,1024,1024,0,0,0,0,93,4.786,60.98,97.112864,P-GPS,,29.6
684,68400,2026-01-11 15:31:04,0.0,5,7.734,0.0,0.0,0.0,32.8,7.4,-5.5,1024,1024,1024,1024,0,0,0,0,93,4.786,60.98,97.112864,P-GPS,,29.6
685,68500,2026-01-11 15:31:04,0.0,5,7.734,0.0,0.0,0.0,32.8,7.7,-4.9,1024,1024,1024,1024,0,0,0,0,93,4.786,60.98,97.112864,P-GPS,,29.6
686,68600,2026-01-11 15:31:04,0.0,5,7.795,0.0,0.0,0.0,32.8,6.0,-4.9,1024,1024,1024,1024,0,0,0,0,93,4.151,60.98,97.112864,P-GPS,,29.6
687,68700,2026-01-11 15:31:04,0.0,5,7.795,0.0,0.0,0.0,32.8,5.2,-5.1,1024,1024,1024,1024,0,0,0,0,93,4.151,60.98,97.112864,P-GPS,,29.6
688,68800,2026-01-11 15:31:04,0.0,5,7.795,0.0,0.0,0.0,32.8,5.3,-6.1,1024,1024,1024,1024,0,0,0,0,93,4.151,60.98,97.112864,P-GPS,,29.6
689,68900,2026-01-11 15:31:04,0.0,5,7.795,0.0,0.0,0.0,32.8,5.0,-6.1,1024,1024,1024,1024,0,0,0,0,93,4.151,60.98,97.112864,P-GPS,,29.6
690,69000,2026-01-11 15:31:04,0.0,5,7.795,0.0,0.0,0.0,32.8,4.8,-6.1,1024,1024,1024,1024,0,0,0,0,93,4.151,60.98,97.112864,P-GPS,,29.6
691,69100,2026-01-11 15:31:05,0.0,5,7.795,0.0,0.0,0.0,32.8,4.8,-6.6,1024,1024,1024,1024,0,0,0,0,93,4.151,60.98,97.112864,P-GPS,,29.6
692,69200,2026-01-11 15:31:05,0.223694,5,7.795,-0.223694,0.0,0.0,32.9,3.8,-6.6,1024,1024,1024,1024,0,0,0,0,93,4.151,60.98,97.112864,P-GPS,,29.6
693,69300,2026-01-11 15:31:05,0.223694,5,7.795,-0.223694,0.0,0.0,33.1,3.8,-7.1,1024,1024,1024,1024,0,0,0,0,93,4.151,60.98,97.112864,P-GPS,,29.6
694,69400,2026-01-11 15:31:05,0.0,5,7.795,0.0,0.0,0.0,33.0,3.7,-7.9,1024,1024,1024,1024,0,0,0,0,93,4.151,60.98,97.112864,P-GPS,,29.6
695,69500,2026-01-11 15:31:05,0.0,5,7.795,0.0,0.0,0.0,32.9,4.4,-7.8,1024,1024,1024,1024,0,0,0,0,93,4.151,60.98,97.112864,P-GPS,,29.6
696,69600,2026-01-11 15:31:05,0.0,5,7.795,0.0,0.0,0.0,32.8,4.5,-7.6,1024,1024,1024,1024,0,0,0,0,93,4.151,60.98,97.112864,P-GPS,,29.6
697,69700,2026-01-11 15:31:05,0.0,5,7.817,0.0,0.0,0.0,32.7,4.5,-7.8,1024,1024,1024,1024,0,0,0,0,93,3.647,60.98,97.112864,P-GPS,,29.6
698,69800,2026-01-11 15:31:05,0.0,5,7.817,0.0,0.0,0.0,32.6,5.2,-7.2,1024,1024,1024,1024,0,0,0,0,93,3.647,60.98,97.112864,P-GPS,,29.6
699,69900,2026-01-11 15:31:05,0.0,5,7.817,0.0,0.0,0.0,32.6,5.7,-6.4,1024,1024,1024,1024,0,0,0,0,93,3.647,60.98,97.112864,P-GPS,,29.6
700,70000,2026-01-11 15:31:05,0.0,5,7.817,0.0,0.0,0.0,32.8,5.0,-5.5,1024,1024,1024,1024,0,0,0,0,93,3.647,60.98,97.112864,P-GPS,,29.6
701,70100,2026-01-11 15:31:05,0.0,5,7.817,0.0,0.0,0.0,32.6,5.3,-5.6,1024,1024,1024,1024,0,0,0,0,93,3.647,60.98,96.78478,P-GPS,,29.5
702,70200,2026-01-11 15:31:06,0.0,5,7.817,0.0,0.0,0.0,32.7,5.5,-4.7,1024,1024,1024,1024,0,0,0,0,93,3.647,60.98,96.78478,P-GPS,,29.5
703,70300,2026-01-11 15:31:06,0.0,5,7.817,0.0,0.0,0.0,32.7,5.6,-4.5,1024,1024,1024,1024,0,0,0,0,93,3.647,60.98,96.78478,P-GPS,,29.5
704,70400,2026-01-11 15:31:06,0.0,5,7.817,0.0,0.0,0.0,32.9,5.5,-4.3,1024,1024,1024,1024,0,0,0,0,93,3.647,60.98,96.78478,P-GPS,,29.5
705,70500,2026-01-11 15:31:06,0.0,5,7.817,0.0,0.0,0.0,33.0,5.8,-4.2,1024,1024,1024,1024,0,0,0,0,93,3.647,60.98,96.78478,P-GPS,,29.5
706,70600,2026-01-11 15:31:06,0.0,5,7.817,0.0,0.0,0.0,33.2,6.7,-3.3,1024,1024,1024,1024,0,0,0,0,93,3.647,60.98,96.78478,P-GPS,,29.5
707,70700,2026-01-11 15:31:06,0.0,5,7.817,0.0,0.0,0.0,33.3,6.1,-4.2,1024,1024,1024,1024,0,0,0,0,93,3.647,60.98,97.112864,P-GPS,,29.6
708,70800,2026-01-11 15:31:06,0.0,5,7.8,0.0,0.0,0.0,33.1,6.7,-4.6,1024,1024,1024,1024,0,0,0,0,93,3.906,60.98,97.112864,P-GPS,,29.6
709,70900,2026-01-11 15:31:06,0.0,5,7.8,0.0,0.0,0.0,33.3,5.6,-5.2,1024,1024,1024,1024,0,0,0,0,93,3.906,60.98,97.440948,P-GPS,,29.7
710,71000,2026-01-11 15:31:06,0.0,5,7.8,0.0,0.0,0.0,33.3,6.3,-6.1,1024,1024,1024,1024,0,0,0,0,93,3.906,60.98,97.440948,P-GPS,,29.7
711,71100,2026-01-11 15:31:07,0.0,5,7.8,0.0,0.0,0.0,33.3,6.4,-5.8,1024,1024,1024,1024,0,0,0,0,93,3.906,60.98,97.769032,P-GPS,,29.8
712,71200,2026-01-11 15:31:07,0.0,5,7.8,0.0,0.0,0.0,33.3,5.3,-6.2,1024,1024,1024,1024,0,0,0,0,93,3.906,60.98,97.769032,P-GPS,,29.8
713,71300,2026-01-11 15:31:07,0.0,5,7.8,0.0,0.0,0.0,33.2,5.7,-6.4,1024,1024,1024,1024,0,0,0,0,93,3.906,60.98,97.769032,P-GPS,,29.8
714,71400,2026-01-11 15:31:07,0.0,5,7.8,0.0,0.0,0.0,33.1,6.1,-6.5,1024,1024,1024,1024,0,0,0,0,93,3.906,60.98,98.097116,P-GPS,,29.9
715,71500,2026-01-11 15:31:07,0.0,5,7.8,0.0,0.0,0.0,33.1,6.8,-5.7,1024,1024,1024,1024,0,0,0,0,93,3.906,60.98,98.097116,P-GPS,,29.9
716,71600,2026-01-11 15:31:07,0.0,5,7.8,0.0,0.0,0.0,33.1,6.8,-6.3,1024,1024,1024,1024,0,0,0,0,93,3.906,60.98,98.4252,P-GPS,,30.0
717,71700,2026-01-11 15:31:07,0.0,5,7.8,0.0,0.0,0.0,33.1,5.9,-6.8,1024,1024,1024,1024,0,0,0,0,93,3.906,60.98,98.4252,P-GPS,,30.0
718,71800,2026-01-11 15:31:07,0.0,5,7.8,0.0,0.0,0.0,33.0,7.1,-6.5,1024,1024,1024,1024,0,0,0,0,93,3.906,60.98,98.4252,P-GPS,,30.0
719,71900,2026-01-11 15:31:07,0.0,5,7.777,0.0,0.0,0.0,33.1,6.5,-6.6,1024,1024,1024,1024,0,0,0,0,93,4.226,60.98,98.4252,P-GPS,,30.0
720,72000,2026-01-11 15:31:07,0.0,5,7.777,0.0,0.0,0.0,33.1,6.4,-6.2,1024,1024,1024,1024,0,0,0,0,93,4.226,60.98,98.4252,P-GPS,,30.0
721,72100,2026-01-11 15:31:08,0.0,5,7.777,0.0,0.0,0.0,33.2,5.6,-6.6,1024,1024,1024,1024,0,0,0,0,93,4.226,60.98,98.753284,P-GPS,,30.1
722,72200,2026-01-11 15:31:08,0.0,5,7.777,0.0,0.0,0.0,33.0,6.1,-6.9,1024,1024,1024,1024,0,0,0,0,93,4.226,60.98,98.753284,P-GPS,,30.1
723,72300,2026-01-11 15:31:08,0.0,5,7.777,0.0,0.0,0.0,33.1,6.4,-6.4,1024,1024,1024,1024,0,0,0,0,93,4.226,60.98,98.753284,P-GPS,,30.1
724,72400,2026-01-11 15:31:08,0.0,5,7.777,0.0,0.0,0.0,33.1,5.1,-6.5,1024,1024,1024,1024,0,0,0,0,93,4.226,60.98,98.753284,P-GPS,,30.1
725,72500,2026-01-11 15:31:08,0.0,5,7.777,0.0,0.0,0.0,33.0,5.4,-6.4,1024,1024,1024,1024,0,0,0,0,93,4.226,60.98,98.753284,P-GPS,,30.1
726,72600,2026-01-11 15:31:08,0.0,5,7.777,0.0,0.0,0.0,32.8,6.4,-6.9,1024,1024,1024,1024,0,0,0,0,93,4.226,60.98,98.753284,P-GPS,,30.1
727,72700,2026-01-11 15:31:08,0.0,5,7.777,0.0,0.0,0.0,32.9,6.6,-6.1,1024,1024,1024,1024,0,0,0,0,93,4.226,60.98,98.753284,P-GPS,,30.1
728,72800,2026-01-11 15:31:08,0.0,5,7.777,0.0,0.0,0.0,33.0,7.0,-5.3,1024,1024,1024,1024,0,0,0,0,93,4.226,60.98,98.753284,P-GPS,,30.1
729,72900,2026-01-11 15:31:08,0.0,5,7.777,0.0,0.0,0.0,33.0,6.6,-4.9,1024,1024,1024,1024,0,0,0,0,93,4.226,60.98,98.753284,P-GPS,,30.1
730,73000,2026-01-11 15:31:08,0.0,5,7.797,0.0,0.0,0.0,32.9,6.9,-5.2,1024,1024,1024,1024,0,0,0,0,92,3.946,60.98,98.753284,P-GPS,,30.1
731,73100,2026-01-11 15:31:09,0.0,5,7.797,0.0,0.0,0.0,33.0,6.9,-4.6,1024,1024,1024,1024,0,0,0,0,92,3.946,60.98,98.753284,P-GPS,,30.1
732,73200,2026-01-11 15:31:09,0.0,5,7.797,0.0,0.0,0.0,33.1,7.0,-4.5,1024,1024,1024,1024,0,0,0,0,92,3.946,60.98,98.753284,P-GPS,,30.1
733,73300,2026-01-11 15:31:09,0.0,5,7.797,0.0,0.0,0.0,33.0,6.2,-4.3,1024,1024,1024,1024,0,0,0,0,92,3.946,60.98,98.753284,P-GPS,,30.1
734,73400,2026-01-11 15:31:09,0.0,5,7.797,0.0,0.0,0.0,32.8,5.9,-5.0,1024,1024,1024,1024,0,0,0,0,92,3.946,60.98,98.4252,P-GPS,,30.0
735,73500,2026-01-11 15:31:09,0.0,5,7.797,0.0,0.0,0.0,32.8,6.0,-5.1,1024,1024,1024,1024,0,0,0,0,92,3.946,60.98,98.4252,P-GPS,,30.0
736,73600,2026-01-11 15:31:09,0.0,5,7.797,0.0,0.0,0.0,32.8,5.8,-5.0,1024,1024,1024,1024,0,0,0,0,92,3.946,60.98,98.4252,P-GPS,,30.0
737,73700,2026-01-11 15:31:09,0.0,5,7.797,0.0,0.0,0.0,32.6,5.9,-4.2,1024,1024,1024,1024,0,0,0,0,92,3.946,60.98,98.4252,P-GPS,,30.0
738,73800,2026-01-11 15:31:09,0.0,5,7.797,0.0,0.0,0.0,32.8,5.3,-5.0,1024,1024,1024,1024,0,0,0,0,92,3.946,60.98,98.4252,P-GPS,,30.0
739,73900,2026-01-11 15:31:09,0.0,5,7.797,0.0,0.0,0.0,32.8,5.4,-4.6,1024,1024,1024,1024,0,0,0,0,92,3.946,60.98,98.4252,P-GPS,,30.0
740,74000,2026-01-11 15:31:09,0.0,5,7.797,0.0,0.0,0.0,32.8,5.2,-4.1,1024,1024,1024,1024,0,0,0,0,92,3.946,60.98,98.097116,P-GPS,,29.9
741,74100,2026-01-11 15:31:10,0.0,5,7.797,0.0,0.0,0.0,32.9,4.9,-4.5,1024,1024,1024,1024,0,0,0,0,92,3.946,60.98,98.097116,P-GPS,,29.9
742,74200,2026-01-11 15:31:10,0.0,5,7.819,0.0,0.0,0.0,32.9,4.8,-4.0,1024,1024,1024,1024,0,0,0,0,92,3.807,60.98,98.097116,P-GPS,,29.9
743,74300,2026-01-11 15:31:10,0.0,5,7.819,0.0,0.0,0.0,32.9,4.4,-4.1,1024,1024,1024,1024,0,0,0,0,92,3.807,60.98,98.097116,P-GPS,,29.9
744,74400,2026-01-11 15:31:10,0.0,5,7.819,0.0,0.0,0.0,33.1,4.6,-4.0,1024,1024,1024,1024,0,0,0,0,92,3.807,60.98,98.097116,P-GPS,,29.9
745,74500,2026-01-11 15:31:10,0.0,5,7.819,0.0,0.0,0.0,33.2,3.5,-4.2,1024,1024,1024,1024,0,0,0,0,92,3.807,60.98,98.097116,P-GPS,,29.9
746,74600,2026-01-11 15:31:10,0.0,5,7.819,0.0,0.0,0.0,33.2,3.1,-4.8,1024,1024,1024,1024,0,0,0,0,92,3.807,60.98,98.097116,P-GPS,,29.9
747,74700,2026-01-11 15:31:10,0.0,5,7.819,0.0,0.0,0.0,33.0,4.4,-5.2,1024,1024,1024,1024,0,0,0,0,92,3.807,60.98,98.097116,P-GPS,,29.9
748,74800,2026-01-11 15:31:10,0.0,5,7.819,0.0,0.0,0.0,33.1,3.8,-5.6,1024,1024,1024,1024,0,0,0,0,92,3.807,60.98,98.097116,P-GPS,,29.9
749,74900,2026-01-11 15:31:10,0.0,5,7.819,0.0,0.0,0.0,33.2,3.9,-6.5,1024,1024,1024,1024,0,0,0,0,92,3.807,60.98,98.4252,P-GPS,,30.0
750,75000,2026-01-11 15:31:10,0.0,5,7.819,0.0,0.0,0.0,33.2,3.9,-7.0,1024,1024,1024,1024,0,0,0,0,92,3.807,60.98,98.4252,P-GPS,,30.0
751,75100,2026-01-11 15:31:11,0.223694,5,7.819,0.0,0.223694,0.0,33.1,4.3,-7.6,1024,1024,1024,1024,0,0,0,0,92,3.807,60.98,98.4252,P-GPS,,30.0
