time(millisecond),timestamp,speed(mph),gpslevel,voltage(v),xSpeed(mph),ySpeed(mph),zSpeed(mph),compass_heading(degrees),pitch(degrees),roll(degrees),rc_elevator,rc_aileron,rc_throttle,rc_rudder,rc_elevator(percent),rc_aileron(percent),rc_throttle(percent),rc_rudder(percent),battery_percent,current(A),battery_temperature(f),ascent(feet),flycState,message,height_above_takeoff(meters)
231500,2026-01-11 15:33:51,0.0,5,7.53,0.0,0.0,-4.250186,23.2,6.7,-11.1,1024,1024,1684,1024,0,0,100,0,83,6.56,63.68,157.808404,P-GPS,,48.1
231600,2026-01-11 15:33:51,0.0,5,7.53,0.0,0.0,-4.250186,23.2,6.9,-10.8,1024,1024,1684,1024,0,0,100,0,83,6.56,63.68,158.136488,P-GPS,,48.2
231700,2026-01-11 15:33:51,0.0,5,7.53,0.0,0.0,-4.026492,23.2,6.9,-10.8,1024,1024,1684,1024,0,0,100,0,83,6.56,63.68,158.792656,P-GPS,,48.4
231800,2026-01-11 15:33:51,0.0,5,7.53,0.0,0.0,-4.026492,23.1,6.7,-10.9,1024,1024,1024,1024,0,0,0,0,83,6.56,63.68,159.448824,P-GPS,,48.6
231900,2026-01-11 15:33:51,0.0,5,7.531,0.0,0.0,-4.026492,23.3,5.9,-11.3,1024,1024,1024,1024,0,0,0,0,83,6.934,63.68,160.104992,P-GPS,,48.8
232000,2026-01-11 15:33:51,0.0,5,7.531,0.0,0.0,-3.802798,23.2,5.2,-11.8,1024,1024,1024,1024,0,0,0,0,83,6.934,63.68,160.76116,P-GPS,,49.0
232100,2026-01-11 15:33:51,0.223694,5,7.531,-0.223694,0.0,-3.35541,23.1,5.1,-12.5,1024,1024,1024,1024,0,0,0,0,82,6.934,63.68,161.089244,P-GPS,,49.1
232200,2026-01-11 15:33:51,0.223694,5,7.531,-0.223694,0.0,-2.684328,23.0,5.5,-13.3,1024,1024,1024,1024,0,0,0,0,82,6.934,63.68,161.417328,P-GPS,,49.2
232300,2026-01-11 15:33:51,0.0,5,7.531,0.0,0.0,-1.789552,22.9,5.5,-13.5,1024,1024,1024,1024,0,0,0,0,82,6.934,63.68,161.745412,P-GPS,,49.3
232400,2026-01-11 15:33:51,0.0,5,7.531,0.0,0.0,-1.11847,23.0,5.5,-13.4,1024,1024,1024,1024,0,0,0,0,82,6.934,63.68,161.745412,P-GPS,,49.3
232500,2026-01-11 15:33:51,0.0,5,7.531,0.0,0.0,-0.447388,23.1,4.9,-13.4,1024,1024,1024,1024,0,0,0,0,82,6.934,63.68,162.073496,P-GPS,,49.4
232600,2026-01-11 15:33:52,0.0,5,7.531,0.0,0.0,-0.223694,23.3,4.8,-12.8,1024,1024,1024,1024,0,0,0,0,82,6.934,63.68,162.073496,P-GPS,,49.4
232700,2026-01-11 15:33:52,0.0,5,7.531,0.0,0.0,0.0,23.4,4.8,-12.1,1024,1024,1024,1024,0,0,0,0,82,6.934,63.68,162.073496,P-GPS,,49.4
232800,2026-01-11 15:33:52,0.0,5,7.531,0.0,0.0,0.0,23.3,5.2,-11.9,1024,1024,1024,1024,0,0,0,0,82,6.934,63.68,162.073496,P-GPS,,49.4
232900,2026-01-11 15:33:52,0.0,5,7.531,0.0,0.0,0.0,23.4,5.5,-11.7,1024,1024,1024,1024,0,0,0,0,82,6.934,63.68,162.073496,P-GPS,,49.4
233000,2026-01-11 15:33:52,0.0,5,7.629,0.0,0.0,0.0,23.4,5.5,-11.8,1024,1024,1024,1024,0,0,0,0,82,4.205,63.68,162.073496,P-GPS,,49.4
233100,2026-01-11 15:33:52,0.0,5,7.629,0.0,0.0,0.0,23.4,5.5,-11.6,1024,1024,1024,1024,0,0,0,0,82,4.205,63.68,162.073496,P-GPS,,49.4
233200,2026-01-11 15:33:52,0.0,5,7.629,0.0,0.0,0.0,23.4,5.5,-11.3,1024,1024,1024,1024,0,0,0,0,82,4.205,63.68,162.073496,P-GPS,,49.4
233300,2026-01-11 15:33:52,0.0,5,7.629,0.0,0.0,0.0,23.4,5.2,-10.7,1024,1024,1024,1024,0,0,0,0,82,4.205,63.68,162.073496,P-GPS,,49.4
233400,2026-01-11 15:33:52,0.0,5,7.629,0.0,0.0,0.0,23.4,5.0,-10.8,1024,1024,1024,1024,0,0,0,0,82,4.205,63.68,162.073496,P-GPS,,49.4
233500,2026-01-11 15:33:52,0.0,5,7.629,0.0,0.0,0.0,23.3,5.2,-11.0,1024,1024,1024,1024,0,0,0,0,82,4.205,63.68,162.40158,P-GPS,,49.5
233600,2026-01-11 15:33:53,0.0,5,7.629,0.0,0.0,0.0,23.2,5.6,-11.1,1024,1024,1024,1024,0,0,0,0,82,4.205,63.68,162.40158,P-GPS,,49.5
233700,2026-01-11 15:33:53,0.0,5,7.629,0.0,0.0,0.0,23.3,5.7,-10.8,1024,1024,1024,1024,0,0,0,0,82,4.205,63.68,162.40158,P-GPS,,49.5
233800,2026-01-11 15:33:53,0.0,5,7.629,0.0,0.0,0.0,23.4,5.3,-10.6,1024,1024,1024,1024,0,0,0,0,82,4.205,63.68,162.40158,P-GPS,,49.5
233900,2026-01-11 15:33:53,0.0,5,7.629,0.0,0.0,0.0,23.4,4.9,-10.4,1024,1024,1024,1024,0,0,0,0,82,4.205,63.68,162.40158,P-GPS,,49.5
234000,2026-01-11 15:33:53,0.0,5,7.629,0.0,0.0,0.0,23.5,5.1,-9.6,1024,1024,1024,1024,0,0,0,0,82,4.205,63.68,162.40158,P-GPS,,49.5
234100,2026-01-11 15:33:53,0.0,5,7.612,0.0,0.0,0.0,23.4,5.4,-9.6,1024,1024,1024,1024,0,0,0,0,82,4.827,63.86,162.40158,P-GPS,,49.5
234200,2026-01-11 15:33:53,0.0,5,7.612,0.0,0.0,0.0,23.3,5.4,-9.0,1024,1024,1024,1024,0,0,0,0,82,4.827,63.86,162.40158,P-GPS,Strong wind warning Strong wind warning. Aircraft unable to return to home automatically. Lower altitude immediately and return to home manually (Code: 30149). SD card speed low. Normal use may be affected. Replace SD card (Code: 10028). Gimbal stuck. Make sure gimbal c,49.5
234300,2026-01-11 15:33:53,0.0,5,7.612,0.0,0.0,0.0,23.2,4.7,-9.9,1024,1024,1024,1024,0,0,0,0,82,4.827,63.86,162.40158,P-GPS,,49.5
234400,2026-01-11 15:33:53,0.0,5,7.612,0.0,0.0,0.0,23.3,3.7,-9.9,1024,1024,1024,1024,0,0,0,0,82,4.827,63.86,162.40158,P-GPS,,49.5
234500,2026-01-11 15:33:53,0.0,5,7.612,0.0,0.0,0.0,23.3,3.0,-10.4,1024,1024,1024,1024,0,0,0,0,82,4.827,63.86,162.40158,P-GPS,,49.5
234600,2026-01-11 15:33:54,0.0,5,7.612,0.0,0.0,0.0,23.3,3.4,-11.1,1024,1024,1024,1024,0,0,0,0,82,4.827,63.86,162.40158,P-GPS,,49.5
234700,2026-01-11 15:33:54,0.0,5,7.612,0.0,0.0,0.0,23.3,3.7,-11.1,1024,1024,1024,1024,0,0,0,0,82,4.827,63.86,162.40158,P-GPS,,49.5
234800,2026-01-11 15:33:54,0.0,5,7.612,0.0,0.0,0.0,23.4,3.9,-11.4,1024,1024,1024,1024,0,0,0,0,82,4.827,63.86,162.40158,P-GPS,,49.5
234900,2026-01-11 15:33:54,0.0,5,7.612,0.0,0.0,0.223694,23.4,3.6,-11.6,1024,1024,1024,1024,0,0,0,0,82,4.827,63.86,162.40158,P-GPS,,49.5
235000,2026-01-11 15:33:54,0.0,5,7.612,0.0,0.0,0.223694,23.5,3.2,-11.3,1024,1024,1024,1024,0,0,0,0,82,4.827,63.86,162.073496,P-GPS,,49.4
235100,2026-01-11 15:33:54,0.0,5,7.612,0.0,0.0,0.223694,23.4,3.7,-11.0,1024,1024,1024,1024,0,0,0,0,82,4.827,63.86,162.073496,P-GPS,,49.4
235200,2026-01-11 15:33:54,0.0,5,7.632,0.0,0.0,0.0,23.4,4.2,-10.9,1024,1024,1024,1024,0,0,0,0,82,4.408,63.86,162.073496,P-GPS,,49.4
235300,2026-01-11 15:33:54,0.0,5,7.632,0.0,0.0,0.0,23.3,4.0,-10.9,1024,1024,1024,1024,0,0,0,0,82,4.408,63.86,162.073496,P-GPS,,49.4
235400,2026-01-11 15:33:54,0.0,5,7.632,0.0,0.0,0.0,23.4,3.9,-11.0,1024,1024,1024,1024,0,0,0,0,82,4.408,63.86,162.073496,P-GPS,,49.4
235500,2026-01-11 15:33:55,0.0,5,7.632,0.0,0.0,0.0,23.4,4.0,-11.2,1024,1024,1024,1024,0,0,0,0,82,4.408,63.86,162.073496,P-GPS,,49.4
235600,2026-01-11 15:33:55,0.0,5,7.632,0.0,0.0,0.0,23.4,4.1,-11.1,1024,1024,1024,1024,0,0,0,0,82,4.408,63.86,162.073496,P-GPS,,49.4
235700,2026-01-11 15:33:55,0.0,5,7.632,0.0,0.0,0.0,23.4,4.0,-11.3,1024,1024,1024,1024,0,0,0,0,82,4.408,63.86,162.073496,P-GPS,,49.4
235800,2026-01-11 15:33:55,0.0,5,7.632,0.0,0.0,0.0,23.5,4.2,-10.8,1024,1024,1024,1024,0,0,0,0,82,4.408,63.86,162.073496,P-GPS,,49.4
235900,2026-01-11 15:33:55,0.0,5,7.632,0.0,0.0,0.0,23.5,4.5,-10.9,1024,1024,1024,1024,0,0,0,0,82,4.408,63.86,162.073496,P-GPS,,49.4
236000,2026-01-11 15:33:55,0.0,5,7.632,0.0,0.0,0.0,23.4,5.0,-10.8,1024,1024,1024,1024,0,0,0,0,82,4.408,63.86,162.073496,P-GPS,,49.4
236100,2026-01-11 15:33:55,0.0,5,7.632,0.0,0.0,0.0,23.4,5.3,-10.7,1024,1024,1024,1024,0,0,0,0,82,4.408,63.86,162.073496,P-GPS,,49.4
236200,2026-01-11 15:33:55,0.0,5,7.632,0.0,0.0,0.0,23.4,5.3,-10.8,1024,1024,1024,1024,0,0,0,0,82,4.408,63.86,162.073496,P-GPS,,49.4
236300,2026-01-11 15:33:55,0.0,5,7.63,0.0,0.0,0.0,23.5,5.4,-11.0,1024,1024,1024,1024,0,0,0,0,82,4.56,63.86,162.073496,P-GPS,,49.4
236400,2026-01-11 15:33:55,0.0,5,7.63,0.0,0.0,0.0,23.4,5.6,-11.1,1024,1024,1024,1024,0,0,0,0,82,4.56,63.86,162.073496,P-GPS,,49.4
236500,2026-01-11 15:33:55,0.0,5,7.63,0.0,0.0,0.0,23.4,5.7,-11.2,1024,1024,1024,1024,0,0,0,0,82,4.56,63.86,162.073496,P-GPS,,49.4
236600,2026-01-11 15:33:56,0.0,5,7.63,0.0,0.0,0.0,23.4,5.7,-11.1,1024,1024,1024,1024,0,0,0,0,82,4.56,63.86,162.073496,P-GPS,,49.4
236700,2026-01-11 15:33:56,0.0,5,7.63,0.0,0.0,0.0,23.4,5.7,-10.9,1024,1024,1024,1024,0,0,0,0,82,4.56,63.86,162.073496,P-GPS,,49.4
236800,2026-01-11 15:33:56,0.0,5,7.63,0.0,0.0,0.0,23.4,5.7,-10.8,1024,1024,1024,1024,0,0,0,0,82,4.56,63.86,162.073496,P-GPS,,49.4
236900,2026-01-11 15:33:56,0.0,5,7.63,0.0,0.0,0.0,23.4,5.7,-11.1,1024,1024,1024,1024,0,0,0,0,82,4.56,63.86,162.073496,P-GPS,,49.4
237000,2026-01-11 15:33:56,0.0,5,7.63,0.0,0.0,0.0,23.3,5.6,-10.9,1024,1024,1024,1024,0,0,0,0,82,4.56,63.86,162.073496,P-GPS,,49.4
237100,2026-01-11 15:33:56,0.0,5,7.63,0.0,0.0,0.0,23.3,5.5,-11.0,1024,1024,1024,1024,0,0,0,0,82,4.56,63.86,162.073496,P-GPS,,49.4
237200,2026-01-11 15:33:56,0.0,5,7.63,0.0,0.0,0.0,23.3,5.6,-11.1,1024,1024,1024,1024,0,0,0,0,82,4.56,63.86,162.073496,P-GPS,,49.4
237300,2026-01-11 15:33:56,0.0,5,7.63,0.0,0.0,0.0,23.3,5.5,-11.0,1024,1024,1024,1024,0,0,0,0,82,4.56,63.86,162.073496,P-GPS,,49.4
237400,2026-01-11 15:33:56,0.0,5,7.615,0.0,0.0,0.0,23.3,5.5,-11.3,1024,1024,1024,1024,0,0,0,0,82,4.681,63.86,162.073496,P-GPS,,49.4
237500,2026-01-11 15:33:56,0.0,5,7.615,0.0,0.0,0.0,23.4,5.5,-11.4,1024,1024,1024,1024,0,0,0,0,82,4.681,63.86,162.073496,P-GPS,,49.4
237600,2026-01-11 15:33:57,0.0,5,7.615,0.0,0.0,0.0,23.4,5.4,-11.4,1024,1024,1024,1024,0,0,0,0,82,4.681,63.86,162.073496,P-GPS,,49.4
237700,2026-01-11 15:33:57,0.0,5,7.615,0.0,0.0,0.0,23.4,5.6,-11.5,1024,1024,1024,1024,0,0,0,0,82,4.681,63.86,162.073496,P-GPS,,49.4
237800,2026-01-11 15:33:57,0.0,5,7.615,0.0,0.0,0.0,23.3,5.6,-11.3,1024,1024,1024,1024,0,0,0,0,82,4.681,63.86,162.073496,P-GPS,,49.4
237900,2026-01-11 15:33:57,0.0,5,7.615,0.0,0.0,0.0,23.4,5.5,-11.3,1024,1024,1024,1024,0,0,0,0,82,4.681,63.86,162.073496,P-GPS,,49.4
238000,2026-01-11 15:33:57,0.0,5,7.615,0.0,0.0,0.0,23.4,5.4,-11.3,1024,1024,1024,1024,0,0,0,0,82,4.681,63.86,162.073496,P-GPS,,49.4
238100,2026-01-11 15:33:57,0.0,5,7.615,0.0,0.0,0.0,23.3,5.5,-11.3,1024,1024,1024,1024,0,0,0,0,82,4.681,63.86,162.073496,P-GPS,,49.4
238200,2026-01-11 15:33:57,0.0,5,7.615,0.0,0.0,0.0,23.4,5.3,-11.6,1024,1024,1024,1024,0,0,0,0,82,4.681,63.86,162.073496,P-GPS,,49.4
238300,2026-01-11 15:33:57,0.0,5,7.615,0.0,0.0,0.0,23.3,5.3,-11.7,1024,1024,1024,1024,0,0,0,0,82,4.681,63.86,162.073496,P-GPS,,49.4
238400,2026-01-11 15:33:57,0.0,5,7.615,0.0,0.0,0.0,23.3,5.8,-11.2,1024,1024,1024,1024,0,0,0,0,82,4.681,63.86,162.073496,P-GPS,,49.4
238500,2026-01-11 15:33:57,0.0,5,7.637,0.0,0.0,0.0,23.3,5.5,-10.9,1024,1024,1024,1024,0,0,0,0,82,4.725,63.86,162.073496,P-GPS,,49.4
238600,2026-01-11 15:33:58,0.0,5,7.637,0.0,0.0,0.0,23.3,5.0,-10.8,1024,1024,1024,1024,0,0,0,0,82,4.725,63.86,162.073496,P-GPS,,49.4
238700,2026-01-11 15:33:58,0.0,5,7.637,0.0,0.0,0.0,23.4,4.8,-11.2,1024,1024,1024,1024,0,0,0,0,82,4.725,63.86,162.073496,P-GPS,,49.4
238800,2026-01-11 15:33:58,0.0,5,7.637,0.0,0.0,0.0,23.2,5.2,-11.4,1024,1024,1024,1024,0,0,0,0,82,4.725,63.86,162.073496,P-GPS,,49.4
238900,2026-01-11 15:33:58,0.0,5,7.637,0.0,0.0,0.0,23.3,5.0,-10.8,1024,1024,1024,1024,0,0,0,0,82,4.725,63.86,162.073496,P-GPS,,49.4
239000,2026-01-11 15:33:58,0.0,5,7.637,0.0,0.0,0.0,23.4,5.1,-10.5,1024,1024,1024,1024,0,0,0,0,82,4.725,63.86,161.745412,P-GPS,,49.3
239100,2026-01-11 15:33:58,0.0,5,7.637,0.0,0.0,0.0,23.4,4.9,-10.5,1024,1024,1024,1024,0,0,0,0,82,4.725,63.86,161.745412,P-GPS,,49.3
239200,2026-01-11 15:33:58,0.0,5,7.637,0.0,0.0,0.0,23.4,4.8,-10.7,1024,1024,1024,1024,0,0,0,0,82,4.725,63.86,161.745412,P-GPS,,49.3
239300,2026-01-11 15:33:58,0.0,5,7.637,0.0,0.0,0.0,23.4,4.8,-10.8,1024,1024,1024,1024,0,0,0,0,82,4.725,63.86,161.745412,P-GPS,,49.3
239400,2026-01-11 15:33:58,0.0,5,7.637,0.0,0.0,0.0,23.4,4.9,-10.6,1024,1024,1024,1024,0,0,0,0,82,4.725,63.86,161.745412,P-GPS,,49.3
239500,2026-01-11 15:33:58,0.0,5,7.637,0.0,0.0,0.0,23.4,5.0,-10.7,1024,1024,1024,1024,0,0,0,0,82,4.725,63.86,161.745412,P-GPS,,49.3
239600,2026-01-11 15:33:59,0.0,5,7.623,0.0,0.0,0.0,23.4,5.3,-10.7,1024,1024,1024,1024,0,0,0,0,82,4.611,64.04,161.745412,P-GPS,,49.3
239700,2026-01-11 15:33:59,0.0,5,7.623,0.0,0.0,0.0,23.4,5.6,-10.7,1024,1024,1024,1024,0,0,0,0,82,4.611,64.04,161.745412,P-GPS,,49.3
239800,2026-01-11 15:33:59,0.0,5,7.623,0.0,0.0,0.0,23.4,5.6,-10.6,1024,1024,1024,1024,0,0,0,0,82,4.611,64.04,161.745412,P-GPS,,49.3
239900,2026-01-11 15:33:59,0.0,5,7.623,0.0,0.0,0.0,23.4,5.4,-10.7,1024,1024,1024,1024,0,0,0,0,82,4.611,64.04,161.745412,P-GPS,,49.3
240000,2026-01-11 15:33:59,0.0,5,7.623,0.0,0.0,0.0,23.4,5.4,-10.7,1024,1024,1024,1024,0,0,0,0,82,4.611,64.04,161.745412,P-GPS,,49.3
240100,2026-01-11 15:33:59,0.0,5,7.623,0.0,0.0,0.0,23.4,5.4,-10.8,1024,1024,1024,1024,0,0,0,0,82,4.611,64.04,161.745412,P-GPS,,49.3
240200,2026-01-11 15:33:59,0.0,5,7.623,0.0,0.0,0.0,23.3,5.6,-11.1,1024,1024,1024,1024,0,0,0,0,82,4.611,64.04,161.745412,P-GPS,,49.3
240300,2026-01-11 15:33:59,0.0,5,7.623,0.0,0.0,0.0,23.3,6.0,-10.9,1024,1024,1024,1024,0,0,0,0,82,4.611,64.04,161.745412,P-GPS,,49.3
240400,2026-01-11 15:33:59,0.0,5,7.623,0.0,0.0,0.0,23.3,5.9,-11.0,1024,1024,1024,1024,0,0,0,0,82,4.611,64.04,161.745412,P-GPS,,49.3
240500,2026-01-11 15:33:59,0.0,5,7.623,0.0,0.0,0.0,23.4,5.8,-10.7,1024,1024,1024,1024,0,0,0,0,82,4.611,64.04,161.745412,P-GPS,,49.3
240600,2026-01-11 15:34:00,0.0,5,7.623,0.0,0.0,0.0,23.4,5.7,-10.7,1024,1024,1024,1024,0,0,0,0,82,4.611,64.04,161.745412,P-GPS,,49.3
240700,2026-01-11 15:34:00,0.0,5,7.606,0.0,0.0,0.0,23.5,5.5,-10.7,1024,1024,1024,1024,0,0,0,0,82,4.911,64.04,161.745412,P-GPS,,49.3
240800,2026-01-11 15:34:00,0.0,5,7.606,0.0,0.0,0.0,23.4,5.6,-10.6,1024,1024,1024,1024,0,0,0,0,82,4.911,64.04,161.745412,P-GPS,,49.3
240900,2026-01-11 15:34:00,0.0,5,7.606,0.0,0.0,0.0,23.4,5.4,-10.6,1024,1024,1024,1024,0,0,0,0,82,4.911,64.04,161.745412,P-GPS,,49.3
241000,2026-01-11 15:34:00,0.0,5,7.606,0.0,0.0,0.0,23.4,5.4,-10.7,1024,1024,1024,1024,0,0,0,0,82,4.911,64.04,161.745412,P-GPS,,49.3
241100,2026-01-11 15:34:00,0.0,5,7.606,0.0,0.0,0.0,23.3,5.7,-10.7,1024,1024,1024,1024,0,0,0,0,82,4.911,64.04,161.745412,P-GPS,,49.3
241200,2026-01-11 15:34:00,0.0,5,7.606,0.0,0.0,0.0,23.4,5.6,-10.6,1024,1024,1024,1024,0,0,0,0,82,4.911,64.04,161.745412,P-GPS,,49.3
241300,2026-01-11 15:34:00,0.0,5,7.606,0.0,0.0,0.0,23.3,5.6,-10.7,1024,1024,1024,1024,0,0,0,0,82,4.911,64.04,161.745412,P-GPS,,49.3
241400,2026-01-11 15:34:00,0.0,5,7.606,0.0,0.0,0.0,23.3,5.8,-10.6,1024,1024,1024,1024,0,0,0,0,82,4.911,64.04,161.745412,P-GPS,,49.3
241500,2026-01-11 15:34:01,0.0,5,7.606,0.0,0.0,0.0,23.4,5.7,-10.5,1024,1024,1024,1024,0,0,0,0,82,4.911,64.04,161.745412,P-GPS,,49.3
241600,2026-01-11 15:34:01,0.0,5,7.606,0.0,0.0,0.0,23.3,5.7,-10.7,1024,1024,1024,1024,0,0,0,0,82,4.911,64.04,161.745412,P-GPS,,49.3
241700,2026-01-11 15:34:01,0.0,5,7.606,0.0,0.0,0.0,23.4,5.4,-10.5,1024,1024,1024,1024,0,0,0,0,82,4.911,64.04,161.417328,P-GPS,,49.2
241800,2026-01-11 15:34:01,0.0,5,7.606,0.0,0.0,0.0,23.4,5.3,-10.4,1024,1024,1024,1024,0,0,0,0,82,4.911,64.04,161.417328,P-GPS,,49.2
241900,2026-01-11 15:34:01,0.0,5,7.606,0.0,0.0,0.0,23.3,5.4,-10.3,1024,1024,1024,1024,0,0,0,0,82,4.911,64.04,161.417328,P-GPS,,49.2
242000,2026-01-11 15:34:01,0.0,5,7.606,0.0,0.0,0.0,23.4,5.3,-10.2,1024,1024,1024,1024,0,0,0,0,82,4.911,64.04,161.417328,P-GPS,,49.2
242100,2026-01-11 15:34:01,0.0,5,7.606,0.0,0.0,0.0,23.5,5.4,-10.1,1024,1024,1024,1024,0,0,0,0,82,4.911,64.04,161.417328,P-GPS,,49.2
242200,2026-01-11 15:34:01,0.0,5,7.606,0.0,0.0,0.0,23.4,5.6,-10.1,1024,1024,1024,1024,0,0,0,0,82,4.911,64.04,161.417328,P-GPS,,49.2
242300,2026-01-11 15:34:01,0.0,5,7.606,0.0,0.0,0.0,23.4,5.6,-9.9,1024,1024,1024,1024,0,0,0,0,82,4.911,64.04,161.417328,P-GPS,,49.2
242400,2026-01-11 15:34:01,0.0,5,7.606,0.0,0.0,0.0,23.4,5.5,-9.9,1024,1024,1024,1024,0,0,0,0,82,4.911,64.04,161.417328,P-GPS,,49.2
242500,2026-01-11 15:34:02,0.0,5,7.606,0.0,0.0,0.0,23.4,5.5,-9.7,1024,1024,1024,1024,0,0,0,0,82,4.911,64.04,161.417328,P-GPS,,49.2
242600,2026-01-11 15:34:02,0.0,5,7.606,0.0,0.0,0.0,23.5,5.4,-9.5,1024,1024,1024,1024,0,0,0,0,82,4.911,64.04,161.417328,P-GPS,,49.2
242700,2026-01-11 15:34:02,0.0,5,7.606,0.0,0.0,0.0,23.4,5.5,-9.4,1024,1024,1024,1024,0,0,0,0,82,4.911,64.04,161.089244,P-GPS,,49.1
242800,2026-01-11 15:34:02,0.0,5,7.606,0.0,0.0,0.0,23.4,5.5,-9.4,1024,1024,1024,1024,0,0,0,0,82,4.911,64.04,161.089244,P-GPS,,49.1
242900,2026-01-11 15:34:02,0.0,5,7.606,0.0,0.0,0.0,23.4,5.5,-9.4,1024,1024,1024,1024,0,0,0,0,82,4.911,64.04,161.089244,P-GPS,,49.1
243000,2026-01-11 15:34:02,0.0,5,7.597,0.0,0.0,0.0,23.4,5.4,-9.4,1024,1024,1024,1024,0,0,0,0,82,5.128,64.04,161.089244,P-GPS,,49.1
243100,2026-01-11 15:34:02,0.0,5,7.597,0.0,0.0,0.0,23.4,5.4,-9.5,1024,1024,1024,1024,0,0,0,0,82,5.128,64.04,161.417328,P-GPS,,49.2
243200,2026-01-11 15:34:02,0.0,5,7.597,0.0,0.0,0.0,23.4,5.5,-9.7,1024,1024,1024,1024,0,0,0,0,82,5.128,64.04,161.089244,P-GPS,,49.1
243300,2026-01-11 15:34:02,0.0,5,7.597,0.0,0.0,0.0,23.4,5.5,-9.8,1024,1024,1024,1024,0,0,0,0,82,5.128,64.04,161.089244,P-GPS,,49.1
243400,2026-01-11 15:34:02,0.0,5,7.597,0.0,0.0,0.0,23.4,5.6,-9.7,1024,1024,1024,1024,0,0,0,0,82,5.128,64.04,161.089244,P-GPS,,49.1
243500,2026-01-11 15:34:02,0.0,5,7.597,0.0,0.0,0.0,23.5,5.5,-9.7,1024,1024,1024,1024,0,0,0,0,82,5.128,64.04,161.089244,P-GPS,,49.1
243600,2026-01-11 15:34:03,0.0,5,7.597,0.0,0.0,0.0,23.4,5.5,-9.8,1024,1024,1024,1024,0,0,0,0,82,5.128,64.04,161.089244,P-GPS,,49.1
243700,2026-01-11 15:34:03,0.0,5,7.597,0.0,0.0,0.0,23.3,5.8,-9.6,1024,1024,1024,1024,0,0,0,0,82,5.128,64.04,161.089244,P-GPS,,49.1
243800,2026-01-11 15:34:03,0.0,5,7.597,0.0,0.0,0.0,23.3,5.8,-9.6,1024,1024,1024,1024,0,0,0,0,82,5.128,64.04,161.089244,P-GPS,,49.1
243900,2026-01-11 15:34:03,0.0,5,7.597,0.0,0.0,0.0,23.3,6.2,-9.3,1024,1024,1024,1024,0,0,0,0,82,5.128,64.04,161.089244,P-GPS,,49.1
244000,2026-01-11 15:34:03,0.0,5,7.597,0.0,0.0,0.0,23.4,5.7,-9.4,1024,1024,1024,1024,0,0,0,0,82,5.128,64.04,161.089244,P-GPS,,49.1
244100,2026-01-11 15:34:03,0.0,5,7.6,0.0,0.0,0.0,23.4,5.6,-9.6,1024,1024,1024,1024,0,0,0,0,82,5.131,64.04,161.417328,P-GPS,,49.2
244200,2026-01-11 15:34:03,0.0,5,7.6,0.0,0.0,0.0,23.3,5.7,-9.6,1024,1024,1024,1024,0,0,0,0,82,5.131,64.04,161.417328,P-GPS,,49.2
244300,2026-01-11 15:34:03,0.0,5,7.6,0.0,0.0,0.0,23.4,5.7,-9.6,1024,1024,1024,1024,0,0,0,0,82,5.131,64.04,161.417328,P-GPS,,49.2
244400,2026-01-11 15:34:03,0.0,5,7.6,0.0,0.0,0.0,23.4,5.5,-9.3,1024,1024,1024,1024,0,0,0,0,82,5.131,64.04,161.417328,P-GPS,,49.2
244500,2026-01-11 15:34:04,0.0,5,7.6,0.0,0.0,0.0,23.4,5.4,-9.4,1024,1024,1024,1024,0,0,0,0,82,5.131,64.04,161.417328,P-GPS,,49.2
244600,2026-01-11 15:34:04,0.0,5,7.6,0.0,0.0,0.0,23.5,5.2,-9.5,1024,1024,1024,1024,0,0,0,0,82,5.131,64.04,161.417328,P-GPS,,49.2
244700,2026-01-11 15:34:04,0.0,5,7.6,0.0,0.0,0.0,23.4,5.3,-9.5,1024,1024,1024,1024,0,0,0,0,82,5.131,64.04,161.417328,P-GPS,,49.2
244800,2026-01-11 15:34:04,0.0,5,7.6,0.0,0.0,0.0,23.4,5.5,-9.3,1024,1024,1024,1024,0,0,0,0,82,5.131,64.04,161.417328,P-GPS,,49.2
244900,2026-01-11 15:34:04,0.0,5,7.6,0.0,0.0,0.0,23.4,5.4,-9.3,1024,1024,1024,1024,0,0,0,0,82,5.131,64.04,161.417328,P-GPS,,49.2
245000,2026-01-11 15:34:04,0.0,5,7.6,0.0,0.0,0.0,23.3,5.4,-9.3,1024,1024,1024,1024,0,0,0,0,82,5.131,64.04,161.417328,P-GPS,,49.2
245100,2026-01-11 15:34:04,0.0,5,7.6,0.0,0.0,0.0,23.4,5.3,-9.0,1024,1024,1024,1024,0,0,0,0,82,5.131,64.04,161.417328,P-GPS,,49.2
245200,2026-01-11 15:34:04,0.0,5,7.605,0.0,0.0,0.0,23.4,5.0,-8.9,1024,1024,1024,1024,0,0,0,0,82,5.039,64.04,161.417328,P-GPS,,49.2
245300,2026-01-11 15:34:04,0.0,5,7.605,0.0,0.0,0.0,23.4,4.7,-9.2,1024,1024,1024,1024,0,0,0,0,82,5.039,64.04,161.417328,P-GPS,,49.2
245400,2026-01-11 15:34:04,0.0,5,7.605,0.0,0.0,0.0,23.3,5.1,-9.6,1024,1024,1024,1024,0,0,0,0,82,5.039,64.04,161.417328,P-GPS,,49.2
245500,2026-01-11 15:34:04,0.0,5,7.605,0.0,0.0,0.0,23.4,4.9,-9.6,1024,1024,1024,1024,0,0,0,0,82,5.039,64.04,161.417328,P-GPS,,49.2
245600,2026-01-11 15:34:05,0.0,5,7.605,0.0,0.0,0.0,23.4,4.8,-9.8,1024,1024,1024,1024,0,0,0,0,82,5.039,64.04,161.417328,P-GPS,,49.2
245700,2026-01-11 15:34:05,0.0,5,7.605,0.0,0.0,0.0,23.4,4.6,-10.0,1024,1024,1024,1024,0,0,0,0,82,5.039,64.04,161.417328,P-GPS,,49.2
245800,2026-01-11 15:34:05,0.0,5,7.605,0.0,0.0,0.0,23.4,4.5,-9.9,1024,1024,1024,1024,0,0,0,0,82,5.039,64.04,161.417328,P-GPS,,49.2
245900,2026-01-11 15:34:05,0.0,5,7.605,0.0,0.0,0.0,23.5,4.1,-10.0,1024,1024,1024,1024,0,0,0,0,82,5.039,64.04,161.417328,P-GPS,,49.2
246000,2026-01-11 15:34:05,0.0,5,7.605,0.0,0.0,0.0,23.4,4.2,-10.2,1024,1024,1024,1024,0,0,0,0,82,5.039,64.04,161.417328,P-GPS,,49.2
246100,2026-01-11 15:34:05,0.0,5,7.605,0.0,0.0,0.0,23.4,4.4,-10.5,1024,1024,1024,1024,0,0,0,0,82,5.039,64.04,161.417328,P-GPS,,49.2
246200,2026-01-11 15:34:05,0.0,5,7.605,0.0,0.0,0.0,23.4,4.0,-10.6,1024,1024,1024,1024,0,0,0,0,82,5.039,64.04,161.417328,P-GPS,,49.2
246300,2026-01-11 15:34:05,0.0,5,7.6,0.0,0.0,0.0,23.3,4.1,-10.7,1024,1024,1024,1024,0,0,0,0,82,5.102,64.04,161.745412,P-GPS,,49.3
246400,2026-01-11 15:34:05,0.0,5,7.6,0.0,0.0,0.0,23.4,3.9,-10.6,1024,1024,1024,1024,0,0,0,0,82,5.102,64.04,161.745412,P-GPS,,49.3
246500,2026-01-11 15:34:06,0.0,5,7.6,0.0,0.0,0.0,23.4,4.0,-10.4,1024,1024,1024,1024,0,0,0,0,82,5.102,64.04,161.745412,P-GPS,,49.3
246600,2026-01-11 15:34:06,0.0,5,7.6,0.0,0.0,0.0,23.5,4.0,-10.1,1024,1024,1024,1024,0,0,0,0,82,5.102,64.04,161.745412,P-GPS,,49.3
246700,2026-01-11 15:34:06,0.0,5,7.6,0.0,0.0,0.0,23.5,4.3,-9.9,1024,1024,1024,1024,0,0,0,0,82,5.102,64.04,161.745412,P-GPS,,49.3
246800,2026-01-11 15:34:06,0.0,5,7.6,0.0,0.0,0.0,23.5,4.5,-9.7,1024,1024,1024,1024,0,0,0,0,82,5.102,64.04,161.745412,P-GPS,,49.3
246900,2026-01-11 15:34:06,0.0,5,7.6,0.0,0.0,0.0,23.4,5.0,-9.7,1024,1024,1024,1024,0,0,0,0,82,5.102,64.04,161.417328,P-GPS,,49.2
247000,2026-01-11 15:34:06,0.0,5,7.6,0.0,0.0,0.0,23.4,5.0,-9.6,1024,1024,1024,1024,0,0,0,0,82,5.102,64.04,161.417328,P-GPS,,49.2
247100,2026-01-11 15:34:06,0.0,5,7.6,0.0,0.0,0.0,23.4,5.1,-9.5,1024,1024,1024,1024,0,0,0,0,82,5.102,64.04,161.745412,P-GPS,,49.3
247200,2026-01-11 15:34:06,0.0,5,7.6,0.0,0.0,0.0,23.4,5.3,-9.5,1024,1024,1024,1024,0,0,0,0,82,5.102,64.04,161.745412,P-GPS,SD card speed low SD card speed low. Normal use may be affected. Replace SD card (Code: 10028). Gimbal stuck. Make sure gimbal cover is removed and manually check whether gimbal can rotate freely (Code: 40002),49.3
247300,2026-01-11 15:34:06,0.0,5,7.6,0.0,0.0,0.0,23.3,5.4,-9.4,1024,1024,1024,1024,0,0,0,0,82,5.102,64.04,161.745412,P-GPS,,49.3
247400,2026-01-11 15:34:06,0.0,5,7.628,0.0,0.0,0.0,23.3,5.1,-9.3,1024,1024,1024,1024,0,0,0,0,82,4.594,64.22,161.745412,P-GPS,,49.3
247500,2026-01-11 15:34:06,0.0,5,7.628,0.0,0.0,0.0,23.4,4.8,-9.6,1024,1024,1024,1024,0,0,0,0,82,4.594,64.22,161.745412,P-GPS,,49.3
247600,2026-01-11 15:34:07,0.0,5,7.628,0.0,0.0,0.0,23.4,4.6,-9.7,1024,1024,1024,1024,0,0,0,0,82,4.594,64.22,161.745412,P-GPS,,49.3
247700,2026-01-11 15:34:07,0.0,5,7.628,0.0,0.0,0.0,23.4,4.9,-9.5,1024,1024,1024,1024,0,0,0,0,82,4.594,64.22,161.417328,P-GPS,,49.2
247800,2026-01-11 15:34:07,0.0,5,7.628,0.0,0.0,0.0,23.4,4.7,-9.4,1024,1024,1024,1024,0,0,0,0,82,4.594,64.22,161.745412,P-GPS,,49.3
247900,2026-01-11 15:34:07,0.0,5,7.628,0.0,0.0,0.0,23.4,4.5,-9.7,1024,1024,1024,1024,0,0,0,0,82,4.594,64.22,161.745412,P-GPS,,49.3
248000,2026-01-11 15:34:07,0.0,5,7.628,0.0,0.0,0.0,23.4,4.3,-9.9,1024,1024,1024,1024,0,0,0,0,82,4.594,64.22,161.745412,P-GPS,,49.3
248100,2026-01-11 15:34:07,0.0,5,7.628,0.0,0.0,0.0,23.4,4.4,-10.2,1024,1024,1024,1024,0,0,0,0,82,4.594,64.22,161.745412,P-GPS,,49.3
248200,2026-01-11 15:34:07,0.0,5,7.628,0.0,0.0,0.0,23.4,4.3,-10.4,1024,1024,1024,1024,0,0,0,0,82,4.594,64.22,161.745412,P-GPS,,49.3
248300,2026-01-11 15:34:07,0.0,5,7.628,0.0,0.0,0.0,23.4,4.2,-10.3,1024,1024,1024,1024,0,0,0,0,82,4.594,64.22,161.745412,P-GPS,,49.3
248400,2026-01-11 15:34:07,0.0,5,7.628,0.0,0.0,0.0,23.3,4.1,-10.6,1024,1024,1024,1024,0,0,0,0,82,4.594,64.22,161.745412,P-GPS,,49.3
248500,2026-01-11 15:34:08,0.0,5,7.6,0.0,0.0,0.0,23.4,4.0,-10.7,1024,1024,1024,1024,0,0,0,0,81,4.835,64.22,161.745412,P-GPS,,49.3
248600,2026-01-11 15:34:08,0.0,5,7.6,0.0,0.0,0.0,23.5,4.0,-10.8,1024,1024,1024,1024,0,0,0,0,81,4.835,64.22,161.745412,P-GPS,,49.3
248700,2026-01-11 15:34:08,0.0,5,7.6,0.0,0.0,0.0,23.4,4.1,-10.8,1024,1024,1024,1024,0,0,0,0,81,4.835,64.22,161.745412,P-GPS,,49.3
248800,2026-01-11 15:34:08,0.0,5,7.6,0.0,0.0,0.0,23.4,4.0,-10.9,1024,1024,1024,1024,0,0,0,0,81,4.835,64.22,161.745412,P-GPS,,49.3
248900,2026-01-11 15:34:08,0.0,5,7.6,0.0,0.0,0.0,23.4,4.1,-10.7,1024,1024,1024,1024,0,0,0,0,81,4.835,64.22,161.745412,P-GPS,,49.3
249000,2026-01-11 15:34:08,0.0,5,7.6,0.0,0.0,0.0,23.4,4.0,-10.4,1024,1024,1024,1024,0,0,0,0,81,4.835,64.22,161.745412,P-GPS,,49.3
249100,2026-01-11 15:34:08,0.0,5,7.6,0.0,0.0,0.0,23.4,4.0,-10.4,1024,1024,1024,1024,0,0,0,0,81,4.835,64.22,161.745412,P-GPS,,49.3
249200,2026-01-11 15:34:08,0.0,5,7.6,0.0,0.0,0.0,23.4,3.8,-10.5,1024,1024,1024,1024,0,0,0,0,81,4.835,64.22,161.745412,P-GPS,,49.3
249300,2026-01-11 15:34:08,0.0,5,7.6,0.0,0.0,0.0,23.4,3.8,-10.5,1024,1024,1024,1024,0,0,0,0,81,4.835,64.22,161.745412,P-GPS,,49.3
249400,2026-01-11 15:34:08,0.0,5,7.6,0.0,0.0,0.0,23.4,4.0,-10.5,1024,1024,1024,1024,0,0,0,0,81,4.835,64.22,161.745412,P-GPS,,49.3
249500,2026-01-11 15:34:08,0.0,5,7.6,0.0,0.0,0.0,23.5,4.1,-10.3,1024,1024,1024,1024,0,0,0,0,81,4.835,64.22,161.745412,P-GPS,,49.3
249600,2026-01-11 15:34:09,0.0,5,7.604,0.0,0.0,0.0,23.5,4.1,-10.0,1024,1024,1024,1024,0,0,0,0,81,4.956,64.22,161.745412,P-GPS,,49.3
249700,2026-01-11 15:34:09,0.0,5,7.604,0.0,0.0,0.0,23.5,4.0,-10.0,1024,1024,1024,1024,0,0,0,0,81,4.956,64.22,161.745412,P-GPS,,49.3
249800,2026-01-11 15:34:09,0.0,5,7.604,0.0,0.0,0.0,23.5,4.0,-9.8,1024,1024,1024,1024,0,0,0,0,81,4.956,64.22,161.745412,P-GPS,,49.3
249900,2026-01-11 15:34:09,0.0,5,7.604,0.0,0.0,0.0,23.5,4.2,-9.8,1024,1024,1024,1024,0,0,0,0,81,4.956,64.22,161.745412,P-GPS,,49.3
250000,2026-01-11 15:34:09,0.0,5,7.604,0.0,0.0,0.0,23.5,4.4,-9.7,1024,1024,1024,1024,0,0,0,0,81,4.956,64.22,161.745412,P-GPS,,49.3
250100,2026-01-11 15:34:09,0.0,5,7.604,0.0,0.0,0.0,23.5,4.3,-9.8,1024,1024,1024,1024,0,0,0,0,81,4.956,64.22,161.745412,P-GPS,,49.3
250200,2026-01-11 15:34:09,0.0,5,7.604,0.0,0.0,0.0,23.5,4.2,-10.0,1024,1024,1024,1024,0,0,0,0,81,4.956,64.22,161.745412,P-GPS,,49.3
250300,2026-01-11 15:34:09,0.0,5,7.604,0.0,0.0,0.0,23.4,4.3,-9.8,1024,1024,1024,1024,0,0,0,0,81,4.956,64.22,161.745412,P-GPS,,49.3
250400,2026-01-11 15:34:09,0.0,5,7.604,0.0,0.0,0.0,23.4,4.2,-9.7,1024,1024,1024,1024,0,0,0,0,81,4.956,64.22,161.745412,P-GPS,,49.3
250500,2026-01-11 15:34:09,0.0,5,7.604,0.0,0.0,0.0,23.4,4.1,-9.7,1024,1024,1024,1024,0,0,0,0,81,4.956,64.22,161.745412,P-GPS,,49.3
250600,2026-01-11 15:34:10,0.0,5,7.604,0.0,0.0,0.0,23.4,3.9,-9.8,1024,1024,1024,1024,0,0,0,0,81,4.956,64.22,161.745412,P-GPS,,49.3
250700,2026-01-11 15:34:10,0.0,5,7.61,0.0,0.0,0.0,23.5,3.9,-9.9,1024,1024,1024,1024,0,0,0,0,81,4.804,64.22,161.745412,P-GPS,,49.3
250800,2026-01-11 15:34:10,0.0,5,7.61,0.0,0.0,0.0,23.4,3.9,-10.1,1024,1024,1024,1024,0,0,0,0,81,4.804,64.22,161.745412,P-GPS,,49.3
250900,2026-01-11 15:34:10,0.0,5,7.61,0.0,0.0,0.0,23.4,3.8,-10.0,1024,1024,1024,1024,0,0,0,0,81,4.804,64.22,161.745412,P-GPS,,49.3
251000,2026-01-11 15:34:10,0.0,5,7.61,0.0,0.0,0.0,23.4,3.9,-10.1,1024,1024,1024,1024,0,0,0,0,81,4.804,64.22,161.745412,P-GPS,,49.3
251100,2026-01-11 15:34:10,0.0,5,7.61,0.0,0.0,0.0,23.4,3.8,-9.8,1024,1024,1024,1024,0,0,0,0,81,4.804,64.22,161.745412,P-GPS,,49.3
251200,2026-01-11 15:34:10,0.0,5,7.61,0.0,0.0,0.0,23.4,4.0,-9.7,1024,1024,1024,1024,0,0,0,0,81,4.804,64.22,161.745412,P-GPS,,49.3
251300,2026-01-11 15:34:10,0.0,5,7.61,0.0,0.0,0.0,23.4,4.1,-9.5,1024,1024,1024,1024,0,0,0,0,81,4.804,64.22,161.745412,P-GPS,,49.3
251400,2026-01-11 15:34:10,0.0,5,7.61,0.0,0.0,0.0,23.5,3.9,-9.4,1024,1024,1024,1024,0,0,0,0,81,4.804,64.22,161.745412,P-GPS,,49.3
251500,2026-01-11 15:34:10,0.0,5,7.61,0.0,0.0,0.0,23.5,3.9,-9.5,1024,1024,1024,1024,0,0,0,0,81,4.804,64.22,161.745412,P-GPS,,49.3
251600,2026-01-11 15:34:11,0.0,5,7.61,0.0,0.0,0.0,23.5,4.1,-9.4,1024,1024,1024,1024,0,0,0,0,81,4.804,64.22,161.745412,P-GPS,,49.3
251700,2026-01-11 15:34:11,0.0,5,7.61,0.0,0.0,0.0,23.5,4.2,-9.3,1024,1024,1024,1024,0,0,0,0,81,4.804,64.22,161.745412,P-GPS,,49.3
251800,2026-01-11 15:34:11,0.0,5,7.626,0.0,0.0,0.0,23.4,4.6,-9.1,1024,1024,1024,1024,0,0,0,0,81,4.6,64.22,161.745412,P-GPS,,49.3
251900,2026-01-11 15:34:11,0.0,5,7.626,0.0,0.0,0.0,23.4,4.5,-9.2,1024,1024,1024,1024,0,0,0,0,81,4.6,64.22,161.745412,P-GPS,,49.3
252000,2026-01-11 15:34:11,0.0,5,7.626,0.0,0.0,0.0,23.6,3.6,-9.4,1024,1024,1024,1024,0,0,0,0,81,4.6,64.22,161.745412,P-GPS,,49.3
252100,2026-01-11 15:34:11,0.0,5,7.626,0.0,0.0,0.0,23.6,4.2,-9.3,1024,1024,1024,1024,0,0,0,0,81,4.6,64.22,161.745412,P-GPS,,49.3
252200,2026-01-11 15:34:11,0.0,5,7.626,0.0,0.0,0.0,23.7,4.4,-9.3,1024,1024,1024,1024,0,0,0,0,81,4.6,64.22,161.745412,P-GPS,,49.3
252300,2026-01-11 15:34:11,0.0,5,7.626,0.0,0.0,0.0,23.6,4.9,-8.8,1024,1024,1024,1024,0,0,0,0,81,4.6,64.22,161.745412,P-GPS,,49.3
252400,2026-01-11 15:34:11,0.0,5,7.626,0.0,0.0,0.0,23.6,5.0,-8.7,1024,1024,1024,1024,0,0,0,0,81,4.6,64.22,161.745412,P-GPS,,49.3
252500,2026-01-11 15:34:11,0.0,5,7.626,0.0,0.0,0.0,23.5,5.3,-8.3,1024,1024,1024,1024,0,0,0,0,81,4.6,64.22,161.745412,P-GPS,,49.3
252600,2026-01-11 15:34:12,0.0,5,7.626,0.0,0.0,0.0,23.5,5.0,-8.3,1024,1024,1024,1024,0,0,0,0,81,4.6,64.22,161.745412,P-GPS,,49.3
252700,2026-01-11 15:34:12,0.0,5,7.626,0.0,0.0,0.0,23.5,4.9,-8.2,1024,1024,1024,1024,0,0,0,0,81,4.6,64.22,161.745412,P-GPS,,49.3
252800,2026-01-11 15:34:12,0.0,5,7.626,0.0,0.0,0.0,23.6,4.4,-8.3,1024,1024,1024,1024,0,0,0,0,81,4.6,64.22,161.745412,P-GPS,,49.3
252900,2026-01-11 15:34:12,0.0,5,7.626,0.0,0.0,0.0,23.6,4.4,-8.0,1024,1024,1024,1024,0,0,0,0,81,4.6,64.22,161.745412,P-GPS,,49.3
253000,2026-01-11 15:34:12,0.0,5,7.626,0.0,0.0,0.0,23.5,4.4,-8.1,1024,1024,1024,1024,0,0,0,0,81,4.6,64.22,161.745412,P-GPS,,49.3
253100,2026-01-11 15:34:12,0.0,5,7.626,0.0,0.0,0.0,23.5,4.5,-8.5,1024,1024,1024,1024,0,0,0,0,81,4.6,64.22,161.745412,P-GPS,,49.3
253200,2026-01-11 15:34:12,0.0,5,7.626,0.0,0.0,0.0,23.5,4.5,-8.7,1024,1024,1024,1024,0,0,0,0,81,4.6,64.22,161.745412,P-GPS,,49.3
253300,2026-01-11 15:34:12,0.0,5,7.626,0.0,0.0,0.0,23.6,4.3,-8.6,1024,1024,1024,1024,0,0,0,0,81,4.6,64.22,161.745412,P-GPS,,49.3
253400,2026-01-11 15:34:12,0.0,5,7.626,0.0,0.0,0.0,23.6,4.3,-8.3,1024,1024,1024,1024,0,0,0,0,81,4.6,64.22,161.745412,P-GPS,,49.3
253500,2026-01-11 15:34:12,0.0,5,7.626,0.0,0.0,0.0,23.7,4.4,-8.3,1024,1024,1024,1024,0,0,0,0,81,4.6,64.22,161.745412,P-GPS,,49.3
253600,2026-01-11 15:34:13,0.0,5,7.626,0.0,0.0,0.0,23.7,4.5,-7.9,1024,1024,1024,1024,0,0,0,0,81,4.6,64.22,161.745412,P-GPS,,49.3
253700,2026-01-11 15:34:13,0.0,5,7.626,0.0,0.0,0.0,23.6,4.8,-7.9,1024,1024,1024,1024,0,0,0,0,81,4.6,64.22,161.745412,P-GPS,,49.3
253800,2026-01-11 15:34:13,0.0,5,7.626,0.0,0.0,0.0,23.7,4.5,-7.8,1024,1024,1024,1024,0,0,0,0,81,4.6,64.22,161.745412,P-GPS,,49.3
253900,2026-01-11 15:34:13,0.0,5,7.63,0.0,0.0,0.0,23.6,4.7,-7.9,1024,1024,1024,1024,0,0,0,0,81,4.445,64.22,161.745412,P-GPS,,49.3
254000,2026-01-11 15:34:13,0.0,5,7.63,0.0,0.0,0.0,23.6,4.8,-7.6,1024,1024,1024,1024,0,0,0,0,81,4.445,64.22,161.417328,P-GPS,,49.2
254100,2026-01-11 15:34:13,0.0,5,7.63,0.0,0.0,0.0,23.5,5.1,-7.4,1024,1024,1024,1024,0,0,0,0,81,4.445,64.22,161.417328,P-GPS,,49.2
254200,2026-01-11 15:34:13,0.0,5,7.63,0.0,0.0,0.0,23.6,5.2,-7.1,1024,1024,1024,1024,0,0,0,0,81,4.445,64.22,161.417328,P-GPS,,49.2
254300,2026-01-11 15:34:13,0.0,5,7.63,0.0,0.0,0.0,23.6,5.0,-6.9,1024,1024,1024,1024,0,0,0,0,81,4.445,64.22,161.417328,P-GPS,,49.2
254400,2026-01-11 15:34:13,0.0,5,7.63,0.0,0.0,0.0,23.6,5.1,-6.9,1024,1024,1024,1024,0,0,0,0,81,4.445,64.22,161.417328,P-GPS,,49.2
254500,2026-01-11 15:34:13,0.0,5,7.63,0.0,0.0,0.0,23.7,5.0,-7.0,1024,1024,1024,1024,0,0,0,0,81,4.445,64.22,161.417328,P-GPS,,49.2
254600,2026-01-11 15:34:14,0.0,5,7.63,0.0,0.0,0.0,23.6,4.9,-6.9,1024,1024,1024,1024,0,0,0,0,81,4.445,64.22,161.417328,P-GPS,,49.2
254700,2026-01-11 15:34:14,0.0,5,7.63,0.0,0.0,0.0,23.6,5.1,-6.8,1024,1024,1024,1024,0,0,0,0,81,4.445,64.22,161.417328,P-GPS,,49.2
254800,2026-01-11 15:34:14,0.0,5,7.63,0.0,0.0,0.0,23.5,6.1,-6.9,1024,1024,1024,1024,0,0,0,0,81,4.445,64.22,161.417328,P-GPS,,49.2
254900,2026-01-11 15:34:14,0.0,5,7.63,0.0,0.0,0.0,23.4,6.1,-6.7,1024,1024,1024,1024,0,0,0,0,81,4.445,64.22,161.417328,P-GPS,,49.2
255000,2026-01-11 15:34:14,0.0,5,7.63,0.0,0.0,0.0,23.6,5.0,-6.7,1024,1024,1024,1024,0,0,0,0,81,4.445,64.22,161.417328,P-GPS,,49.2
255100,2026-01-11 15:34:14,0.0,5,7.63,0.0,0.0,0.0,23.6,4.5,-6.4,1024,1024,1024,1024,0,0,0,0,81,4.445,64.22,161.417328,P-GPS,,49.2
255200,2026-01-11 15:34:14,0.0,5,7.63,0.0,0.0,0.0,23.6,4.6,-6.2,1024,1024,1024,1024,0,0,0,0,81,4.445,64.22,161.417328,P-GPS,,49.2
255300,2026-01-11 15:34:14,0.0,5,7.63,0.0,0.0,0.0,23.7,5.1,-6.2,1024,1024,1024,1024,0,0,0,0,81,4.445,64.22,161.417328,P-GPS,,49.2
255400,2026-01-11 15:34:14,0.0,5,7.63,0.0,0.0,0.0,23.7,5.3,-6.0,1024,1024,1024,1024,0,0,0,0,81,4.445,64.22,161.745412,P-GPS,,49.3
255500,2026-01-11 15:34:14,0.0,5,7.63,0.0,0.0,0.0,23.7,4.9,-6.1,1024,1024,1024,1024,0,0,0,0,81,4.445,64.22,161.745412,P-GPS,,49.3
255600,2026-01-11 15:34:15,0.0,5,7.63,0.0,0.0,0.0,23.7,4.9,-6.0,1024,1024,1024,1024,0,0,0,0,81,4.445,64.22,161.745412,P-GPS,,49.3
255700,2026-01-11 15:34:15,0.0,5,7.63,0.0,0.0,0.0,23.7,4.6,-6.1,1024,1024,1024,1024,0,0,0,0,81,4.445,64.22,161.745412,P-GPS,,49.3
255800,2026-01-11 15:34:15,0.0,5,7.626,0.0,0.0,0.0,23.6,4.9,-6.3,1024,1024,1024,1024,0,0,0,0,81,4.684,64.22,161.745412,P-GPS,,49.3
255900,2026-01-11 15:34:15,0.0,5,7.626,0.0,0.0,0.0,23.7,4.9,-6.2,1024,1024,1024,1024,0,0,0,0,81,4.684,64.22,161.745412,P-GPS,,49.3
256000,2026-01-11 15:34:15,0.0,5,7.626,0.0,0.0,0.0,23.6,5.3,-6.4,1024,1024,1024,1024,0,0,0,0,81,4.684,64.22,161.745412,P-GPS,,49.3
256100,2026-01-11 15:34:15,0.0,5,7.626,0.0,0.0,0.0,23.6,5.6,-6.2,1024,1024,1024,1024,0,0,0,0,81,4.684,64.22,162.073496,P-GPS,,49.4
256200,2026-01-11 15:34:15,0.0,5,7.626,0.0,0.0,0.0,23.6,5.4,-6.3,1024,1024,1024,1024,0,0,0,0,81,4.684,64.22,162.073496,P-GPS,,49.4
256300,2026-01-11 15:34:15,0.0,5,7.626,0.0,0.0,0.0,23.5,6.1,-6.0,1024,1024,1024,1024,0,0,0,0,81,4.684,64.22,162.073496,P-GPS,,49.4
256400,2026-01-11 15:34:15,0.0,5,7.626,0.0,0.0,0.0,23.5,6.6,-5.9,1024,1024,1024,1024,0,0,0,0,81,4.684,64.22,162.073496,P-GPS,,49.4
256500,2026-01-11 15:34:16,0.0,5,7.626,0.0,0.0,0.0,23.5,6.4,-5.9,1024,1024,1024,1024,0,0,0,0,81,4.684,64.22,162.073496,P-GPS,,49.4
256600,2026-01-11 15:34:16,0.0,5,7.626,0.0,0.0,0.0,23.5,6.4,-5.9,1024,1024,1024,1024,0,0,0,0,81,4.684,64.22,162.073496,P-GPS,,49.4
256700,2026-01-11 15:34:16,0.0,5,7.626,0.0,0.0,0.0,23.5,6.1,-6.0,1024,1024,1024,1024,0,0,0,0,81,4.684,64.22,162.073496,P-GPS,,49.4
256800,2026-01-11 15:34:16,0.0,5,7.608,0.0,0.0,0.0,23.6,5.9,-6.2,1024,1024,1024,1024,0,0,0,0,81,5.131,64.22,162.073496,P-GPS,,49.4
256900,2026-01-11 15:34:16,0.0,5,7.608,0.0,0.0,0.0,23.6,5.8,-6.4,1024,1024,1024,1024,0,0,0,0,81,5.131,64.22,162.40158,P-GPS,,49.5
257000,2026-01-11 15:34:16,0.0,5,7.608,0.0,0.0,0.0,23.5,5.8,-6.4,1024,1024,1024,1024,0,0,0,0,81,5.131,64.22,162.40158,P-GPS,,49.5
257100,2026-01-11 15:34:16,0.0,5,7.608,0.0,0.0,0.0,23.5,5.9,-6.5,1024,1024,1024,1024,0,0,0,0,81,5.131,64.22,162.40158,P-GPS,,49.5
257200,2026-01-11 15:34:16,0.0,5,7.608,0.0,0.0,0.0,23.5,6.0,-6.4,1024,1024,1024,1024,0,0,0,0,81,5.131,64.22,162.40158,P-GPS,,49.5
257300,2026-01-11 15:34:16,0.0,5,7.608,0.0,0.0,0.0,23.5,6.0,-6.3,1024,1024,1024,1024,0,0,0,0,81,5.131,64.22,162.40158,P-GPS,,49.5
257400,2026-01-11 15:34:16,0.0,5,7.608,0.0,0.0,0.0,23.5,5.8,-6.4,1024,1024,1024,1024,0,0,0,0,81,5.131,64.22,162.40158,P-GPS,,49.5
257500,2026-01-11 15:34:16,0.0,5,7.608,0.0,0.0,0.0,23.5,5.9,-6.4,1024,1024,1024,1024,0,0,0,0,81,5.131,64.22,162.40158,P-GPS,,49.5
257600,2026-01-11 15:34:17,0.0,5,7.608,0.0,0.0,0.0,23.4,6.1,-6.5,1024,1024,1024,1024,0,0,0,0,81,5.131,64.22,162.40158,P-GPS,,49.5
257700,2026-01-11 15:34:17,0.0,5,7.608,0.0,0.0,0.0,23.5,6.3,-6.6,1024,1024,1024,1024,0,0,0,0,81,5.131,64.22,162.40158,P-GPS,,49.5
257800,2026-01-11 15:34:17,0.0,5,7.596,0.0,0.0,0.0,23.5,6.2,-6.3,1024,1024,1024,1024,0,0,0,0,81,4.939,64.22,162.40158,P-GPS,,49.5
257900,2026-01-11 15:34:17,0.0,5,7.596,0.0,0.0,0.0,23.5,5.9,-6.6,1024,1024,1024,1024,0,0,0,0,81,4.939,64.22,162.729664,P-GPS,,49.6
258000,2026-01-11 15:34:17,0.0,5,7.596,0.0,0.0,0.0,23.5,5.7,-6.5,1024,1024,1024,1024,0,0,0,0,81,4.939,64.22,162.729664,P-GPS,,49.6
258100,2026-01-11 15:34:17,0.0,5,7.596,0.0,0.0,0.0,23.5,5.9,-6.5,1024,1024,1024,1024,0,0,0,0,81,4.939,64.22,162.729664,P-GPS,,49.6
258200,2026-01-11 15:34:17,0.0,5,7.596,0.0,0.0,0.0,23.5,5.7,-6.4,1024,1024,1024,1024,0,0,0,0,81,4.939,64.22,162.729664,P-GPS,,49.6
258300,2026-01-11 15:34:17,0.0,5,7.596,0.0,0.0,0.0,23.5,5.9,-6.3,1024,1024,1024,1024,0,0,0,0,81,4.939,64.22,162.729664,P-GPS,,49.6
258400,2026-01-11 15:34:17,0.0,5,7.596,0.0,0.0,0.0,23.5,5.9,-6.2,1024,1024,1024,1024,0,0,0,0,81,4.939,64.22,162.729664,P-GPS,,49.6
258500,2026-01-11 15:34:18,0.0,5,7.596,0.0,0.0,0.0,23.6,5.4,-6.4,1024,1024,1024,1024,0,0,0,0,81,4.939,64.22,162.729664,P-GPS,,49.6
258600,2026-01-11 15:34:18,0.0,5,7.596,0.0,0.0,0.0,23.5,5.2,-6.8,1024,1024,1024,1024,0,0,0,0,81,4.939,64.22,162.729664,P-GPS,,49.6
258700,2026-01-11 15:34:18,0.0,5,7.596,0.0,0.0,0.0,23.5,5.4,-6.8,1024,1024,1024,1024,0,0,0,0,81,4.939,64.22,162.729664,P-GPS,,49.6
258800,2026-01-11 15:34:18,0.0,5,7.612,0.0,0.0,0.0,23.5,5.4,-6.8,1024,1024,1024,1024,0,0,0,0,81,4.788,64.22,162.729664,P-GPS,,49.6
258900,2026-01-11 15:34:18,0.0,5,7.612,0.0,0.0,0.0,23.5,5.4,-7.0,1024,1024,1024,1024,0,0,0,0,81,4.788,64.22,162.729664,P-GPS,,49.6
259000,2026-01-11 15:34:18,0.0,5,7.612,0.0,0.0,0.0,23.5,5.3,-6.7,1024,1024,1024,1024,0,0,0,0,81,4.788,64.22,162.729664,P-GPS,,49.6
259100,2026-01-11 15:34:18,0.0,5,7.612,0.0,0.0,0.0,23.6,4.9,-6.5,1024,1024,1024,1024,0,0,0,0,81,4.788,64.22,162.729664,P-GPS,,49.6
259200,2026-01-11 15:34:18,0.0,5,7.612,0.0,0.0,0.0,23.5,5.4,-6.4,1024,1024,1024,1024,0,0,0,0,81,4.788,64.22,162.729664,P-GPS,,49.6
259300,2026-01-11 15:34:18,0.0,5,7.612,0.0,0.0,0.0,23.4,6.1,-6.1,1024,1024,1024,1024,0,0,0,0,81,4.788,64.22,162.729664,P-GPS,,49.6
259400,2026-01-11 15:34:18,0.0,5,7.612,0.0,0.0,0.0,23.6,5.4,-6.4,1024,1024,1024,1024,0,0,0,0,81,4.788,64.22,162.729664,P-GPS,,49.6
259500,2026-01-11 15:34:18,0.0,5,7.612,0.0,0.0,0.0,23.6,5.1,-6.5,1024,1024,1024,1024,0,0,0,0,81,4.788,64.22,162.729664,P-GPS,,49.6
259600,2026-01-11 15:34:19,0.0,5,7.612,0.0,0.0,0.0,23.6,4.6,-6.6,1024,1024,1024,1024,0,0,0,0,81,4.788,64.22,162.729664,P-GPS,,49.6
259700,2026-01-11 15:34:19,0.0,5,7.612,0.0,0.0,0.0,23.5,4.8,-6.7,1024,1024,1024,1024,0,0,0,0,81,4.788,64.22,162.729664,P-GPS,,49.6
259800,2026-01-11 15:34:19,0.0,5,7.622,0.0,0.0,0.0,23.6,4.6,-6.4,1024,1024,1024,1024,0,0,0,0,81,4.515,64.4,162.40158,P-GPS,,49.5
259900,2026-01-11 15:34:19,0.0,5,7.622,0.0,0.0,0.0,23.6,4.6,-6.3,1024,1024,1024,1024,0,0,0,0,81,4.515,64.4,162.40158,P-GPS,,49.5
260000,2026-01-11 15:34:19,0.0,5,7.622,0.0,0.0,0.0,23.7,4.6,-6.3,1024,1024,1024,1024,0,0,0,0,81,4.515,64.4,162.40158,P-GPS,,49.5
260100,2026-01-11 15:34:19,0.0,5,7.622,0.0,0.0,0.0,23.7,4.3,-6.3,1024,1024,512,1024,0,0,-78,0,81,4.515,64.4,162.40158,P-GPS,,49.5
260200,2026-01-11 15:34:19,0.0,5,7.622,0.0,0.0,0.0,23.6,4.6,-6.1,1024,1024,512,1024,0,0,-78,0,81,4.515,64.4,162.40158,P-GPS,,49.5
260300,2026-01-11 15:34:19,0.0,5,7.622,0.0,0.0,0.0,23.5,4.9,-6.0,1024,1024,364,1024,0,0,-100,0,81,4.515,64.4,162.40158,P-GPS,,49.5
260400,2026-01-11 15:34:19,0.0,5,7.622,0.0,0.0,0.223694,23.5,5.4,-6.1,1024,1024,364,1024,0,0,-100,0,81,4.515,64.4,162.40158,P-GPS,,49.5
260500,2026-01-11 15:34:20,0.0,5,7.622,0.0,0.0,0.894776,23.5,5.5,-6.1,1024,1024,364,1024,0,0,-100,0,81,4.515,64.4,162.40158,P-GPS,,49.5
260600,2026-01-11 15:34:20,0.0,5,7.622,0.0,0.0,1.565858,23.4,5.6,-6.1,1024,1024,364,1024,0,0,-100,0,81,4.515,64.4,162.073496,P-GPS,,49.4
260700,2026-01-11 15:34:20,0.0,5,7.622,0.0,0.0,2.460634,23.5,5.3,-5.9,1024,1024,364,1024,0,0,-100,0,81,4.515,64.4,161.745412,P-GPS,,49.3
260800,2026-01-11 15:34:20,0.0,5,7.607,0.0,0.0,3.131716,23.5,4.8,-5.5,1024,1024,364,1024,0,0,-100,0,81,4.466,64.4,161.089244,P-GPS,,49.1
260900,2026-01-11 15:34:20,0.0,5,7.607,0.0,0.0,3.35541,23.5,4.2,-5.0,1024,1024,364,1024,0,0,-100,0,81,4.466,64.4,160.76116,P-GPS,,49.0
261000,2026-01-11 15:34:20,0.0,5,7.607,0.0,0.0,3.579104,23.4,4.1,-4.5,1024,1024,364,1024,0,0,-100,0,81,4.466,64.4,160.104992,P-GPS,,48.8
261100,2026-01-11 15:34:20,0.0,5,7.607,0.0,0.0,3.802798,23.3,4.0,-5.5,1024,1024,364,1024,0,0,-100,0,81,4.466,64.4,159.448824,P-GPS,,48.6
261200,2026-01-11 15:34:20,0.0,5,7.607,0.0,0.0,3.802798,23.3,4.0,-6.3,1024,1024,364,1024,0,0,-100,0,81,4.466,64.4,158.792656,P-GPS,,48.4
261300,2026-01-11 15:34:20,0.223694,5,7.607,-0.223694,0.0,4.026492,23.6,3.3,-7.2,1024,1024,364,1024,0,0,-100,0,81,4.466,64.4,158.136488,P-GPS,,48.2
261400,2026-01-11 15:34:20,0.223694,5,7.607,-0.223694,0.0,4.026492,23.7,2.8,-7.7,1024,1024,364,1024,0,0,-100,0,81,4.466,64.4,157.808404,P-GPS,,48.1
