index,time(millisecond),timestamp,speed(mph),gpslevel,voltage(v),xSpeed(mph),ySpeed(mph),zSpeed(mph),compass_heading(degrees),pitch(degrees),roll(degrees),rc_elevator,rc_aileron,rc_throttle,rc_rudder,rc_elevator(percent),rc_aileron(percent),rc_throttle(percent),rc_rudder(percent),battery_percent,current(A),battery_temperature(f),ascent(feet),flycState,message,height_above_takeoff(meters)
86,419700,2026-01-11 17:24:59,0.0,5,7.528,0.0,0.0,0.0,38.0,8.4,-1.2,1024,1024,1024,1024,0,0,0,0,71,5.057,62.78,36.08924,P-GPS,,11.0
87,419800,2026-01-11 17:24:59,0.0,5,7.528,0.0,0.0,0.0,37.8,8.0,-1.6,1024,1024,1024,1024,0,0,0,0,71,5.057,62.78,35.761156,P-GPS,,10.9
88,419900,2026-01-11 17:25:00,0.0,5,7.528,0.0,0.0,0.0,37.7,8.0,0.1,1024,1024,1024,1024,0,0,0,0,71,5.057,62.78,35.761156,P-GPS,,10.9
89,420000,2026-01-11 17:25:00,0.0,5,7.528,0.0,0.0,0.0,38.0,7.8,1.5,1024,1024,1024,1024,0,0,0,0,71,5.057,62.78,35.761156,P-GPS,,10.9
90,420100,2026-01-11 17:25:00,0.0,5,7.528,0.0,0.0,0.0,38.2,8.2,2.0,1024,1024,1024,1024,0,0,0,0,71,5.057,62.78,35.761156,P-GPS,,10.9
91,420200,2026-01-11 17:25:00,0.0,5,7.528,0.0,0.0,0.0,38.3,8.3,1.6,1024,1024,1024,1024,0,0,0,0,71,5.057,62.78,35.761156,P-GPS,,10.9
92,420300,2026-01-11 17:25:00,0.0,5,7.528,0.0,0.0,0.0,38.3,8.4,0.6,1024,1024,1024,1024,0,0,0,0,71,5.057,62.78,35.761156,P-GPS,,10.9
93,420400,2026-01-11 17:25:00,0.0,5,7.528,0.0,0.0,0.0,38.3,8.0,0.0,1024,1024,1024,1024,0,0,0,0,71,5.057,62.78,35.761156,P-GPS,,10.9
94,420500,2026-01-11 17:25:00,0.223694,5,7.488,-0.223694,0.0,0.0,38.3,8.0,-1.1,1024,1024,1024,1024,0,0,0,0,71,4.424,62.78,35.761156,P-GPS,,10.9
95,420600,2026-01-11 17:25:00,0.223694,5,7.488,-0.223694,0.0,0.0,38.2,7.7,-1.8,1024,1024,1024,1024,0,0,0,0,71,4.424,62.78,35.761156,P-GPS,,10.9
96,420700,2026-01-11 17:25:00,0.223694,5,7.488,-0.223694,0.0,0.0,38.1,6.9,-2.3,1024,1024,1024,1024,0,0,0,0,71,4.424,62.78,36.08924,P-GPS,,11.0
97,420800,2026-01-11 17:25:01,0.447388,5,7.488,-0.447388,0.0,0.0,38.0,6.2,-3.2,1024,1024,1024,1024,0,0,0,0,71,4.424,62.78,36.08924,P-GPS,,11.0
98,420900,2026-01-11 17:25:01,0.223694,5,7.488,-0.223694,0.0,0.0,38.0,5.4,-3.6,1024,1024,1024,1024,0,0,0,0,71,4.424,62.78,36.08924,P-GPS,,11.0
99,421000,2026-01-11 17:25:01,0.223694,5,7.488,-0.223694,0.0,0.0,37.9,5.4,-3.6,1024,1024,1024,1024,0,0,0,0,71,4.424,62.78,36.417324,P-GPS,,11.1
100,421100,2026-01-11 17:25:01,0.223694,5,7.488,-0.223694,0.0,0.0,38.0,5.0,-3.9,1024,1024,1024,1024,0,0,0,0,71,4.424,62.78,36.417324,P-GPS,,11.1
101,421200,2026-01-11 17:25:01,0.223694,5,7.488,-0.223694,0.0,0.0,38.0,5.0,-4.3,1024,1024,1024,1024,0,0,0,0,71,4.424,62.78,36.417324,P-GPS,,11.1
102,421300,2026-01-11 17:25:01,0.223694,5,7.488,-0.223694,0.0,0.0,37.9,5.1,-4.4,1024,1024,1024,1024,0,0,0,0,71,4.424,62.78,36.417324,P-GPS,,11.1
103,421400,2026-01-11 17:25:01,0.223694,5,7.488,-0.223694,0.0,0.0,37.9,5.5,-4.2,1024,1024,1024,1024,0,0,0,0,71,4.424,62.78,36.417324,P-GPS,,11.1
104,421500,2026-01-11 17:25:01,0.0,5,7.488,0.0,0.0,0.0,37.9,5.9,-4.0,1024,1024,1024,1024,0,0,0,0,71,4.424,62.78,36.745408,P-GPS,,11.2
105,421600,2026-01-11 17:25:01,0.0,5,7.489,0.0,0.0,0.0,38.0,6.1,-3.9,1024,1024,1024,1024,0,0,0,0,71,4.557,62.78,36.745408,P-GPS,,11.2
106,421700,2026-01-11 17:25:01,0.0,5,7.489,0.0,0.0,0.0,37.9,5.7,-3.8,1024,1024,1024,1024,0,0,0,0,71,4.557,62.78,36.745408,P-GPS,,11.2
107,421800,2026-01-11 17:25:02,0.0,5,7.489,0.0,0.0,0.0,38.0,6.0,-4.2,1024,1024,1024,1024,0,0,0,0,71,4.557,62.78,36.745408,P-GPS,,11.2
108,421900,2026-01-11 17:25:02,0.0,5,7.489,0.0,0.0,0.0,38.1,5.9,-3.7,1024,1024,1024,1024,0,0,0,0,71,4.557,62.78,36.745408,P-GPS,,11.2
109,422000,2026-01-11 17:25:02,0.0,5,7.489,0.0,0.0,0.0,38.2,5.2,-3.9,1024,1024,1024,1024,0,0,0,0,71,4.557,62.78,36.745408,P-GPS,,11.2
110,422100,2026-01-11 17:25:02,0.0,5,7.489,0.0,0.0,0.0,38.1,5.3,-3.6,1024,1024,1024,1024,0,0,0,0,71,4.557,62.78,36.745408,P-GPS,,11.2
111,422200,2026-01-11 17:25:02,0.223694,5,7.489,0.0,-0.223694,0.0,38.0,4.7,-3.7,1024,1024,1024,1024,0,0,0,0,71,4.557,62.78,36.745408,P-GPS,,11.2
112,422300,2026-01-11 17:25:02,0.223694,5,7.489,0.0,-0.223694,0.223694,37.9,4.1,-3.0,1024,1024,1024,1024,0,0,0,0,71,4.557,62.78,36.417324,P-GPS,,11.1
113,422400,2026-01-11 17:25:02,0.223694,5,7.489,0.0,-0.223694,0.0,38.1,2.7,-2.4,1024,1024,1024,1024,0,0,0,0,71,4.557,62.78,36.417324,P-GPS,,11.1
114,422500,2026-01-11 17:25:02,0.223694,5,7.489,0.0,-0.223694,0.0,37.9,3.0,-1.9,1024,1024,1024,1024,0,0,0,0,71,4.557,62.78,36.417324,P-GPS,,11.1
115,422600,2026-01-11 17:25:02,0.0,5,7.489,0.0,0.0,0.0,37.9,3.6,-2.4,1024,1024,1024,1024,0,0,0,0,71,4.557,62.78,36.417324,P-GPS,,11.1
116,422700,2026-01-11 17:25:02,0.0,5,7.431,0.0,0.0,0.0,38.0,2.5,-3.0,1024,1024,1024,1024,0,0,0,0,71,5.329,62.78,36.417324,P-GPS,,11.1
117,422800,2026-01-11 17:25:03,0.0,5,7.431,0.0,0.0,0.0,37.9,3.4,-3.1,1024,1024,1024,1024,0,0,0,0,71,5.329,62.78,36.417324,P-GPS,,11.1
118,422900,2026-01-11 17:25:03,0.0,5,7.431,0.0,0.0,0.0,37.9,4.7,-2.9,1024,1024,1024,1024,0,0,0,0,71,5.329,62.78,36.417324,P-GPS,,11.1
119,423000,2026-01-11 17:25:03,0.0,5,7.431,0.0,0.0,0.0,37.9,5.5,-3.6,1024,1024,1024,1024,0,0,0,0,71,5.329,62.78,36.417324,P-GPS,,11.1
120,423100,2026-01-11 17:25:03,0.0,5,7.431,0.0,0.0,0.0,37.9,5.4,-3.3,1024,1024,1024,1024,0,0,0,0,71,5.329,62.78,36.417324,P-GPS,,11.1
121,423200,2026-01-11 17:25:03,0.0,5,7.431,0.0,0.0,0.0,38.0,5.3,-3.1,1024,1024,1024,1024,0,0,0,0,71,5.329,62.78,36.417324,P-GPS,,11.1
122,423300,2026-01-11 17:25:03,0.0,5,7.431,0.0,0.0,0.0,37.9,6.4,-3.0,1024,1024,1024,1024,0,0,0,0,71,5.329,62.78,36.417324,P-GPS,,11.1
123,423400,2026-01-11 17:25:03,0.0,5,7.431,0.0,0.0,0.0,37.8,6.6,-3.2,1024,1024,1024,1024,0,0,0,0,71,5.329,62.78,36.417324,P-GPS,,11.1
124,423500,2026-01-11 17:25:03,0.0,5,7.431,0.0,0.0,0.0,37.7,7.3,-3.0,1024,1024,1024,1024,0,0,0,0,71,5.329,62.78,36.417324,P-GPS,,11.1
125,423600,2026-01-11 17:25:03,0.0,5,7.431,0.0,0.0,0.0,37.8,7.7,-2.7,1024,1024,1024,1024,0,0,0,0,71,5.329,62.78,36.417324,P-GPS,,11.1
126,423700,2026-01-11 17:25:04,0.0,5,7.431,0.0,0.0,0.0,37.8,7.4,-2.7,1024,1024,1024,1024,0,0,0,0,71,5.329,62.78,36.417324,P-GPS,,11.1
127,423800,2026-01-11 17:25:04,0.0,5,7.431,0.0,0.0,0.0,37.8,7.6,-3.1,1024,1024,1024,1024,0,0,0,0,71,5.329,62.78,36.745408,P-GPS,,11.2
128,423900,2026-01-11 17:25:04,0.0,5,7.431,0.0,0.0,0.0,37.7,7.7,-3.6,1024,1024,1024,1024,0,0,0,0,71,5.329,62.78,36.745408,P-GPS,,11.2
129,424000,2026-01-11 17:25:04,0.0,5,7.431,0.0,0.0,0.0,37.6,7.9,-3.5,1024,1024,1024,1024,0,0,0,0,71,5.329,62.78,36.745408,P-GPS,,11.2
130,424100,2026-01-11 17:25:04,0.0,5,7.431,0.0,0.0,0.0,37.6,7.7,-3.9,1024,1024,1024,1024,0,0,0,0,71,5.329,62.78,36.745408,P-GPS,,11.2
131,424200,2026-01-11 17:25:04,0.0,5,7.431,0.0,0.0,0.0,37.6,7.1,-3.9,1024,1024,1024,1024,0,0,0,0,71,5.329,62.78,36.745408,P-GPS,,11.2
132,424300,2026-01-11 17:25:04,0.0,5,7.431,0.0,0.0,0.0,37.6,7.0,-4.1,1024,1024,1024,1024,0,0,0,0,71,5.329,62.78,36.745408,P-GPS,,11.2
133,424400,2026-01-11 17:25:04,0.0,5,7.431,0.0,0.0,0.0,37.7,6.8,-4.1,1024,1024,1024,1024,0,0,0,0,71,5.329,62.78,36.745408,P-GPS,,11.2
134,424500,2026-01-11 17:25:04,0.0,5,7.431,0.0,0.0,0.0,37.7,7.0,-4.0,1024,1024,1024,1024,0,0,0,0,71,5.329,62.78,36.745408,P-GPS,,11.2
135,424600,2026-01-11 17:25:04,0.0,5,7.431,0.0,0.0,0.0,37.8,7.3,-4.2,1024,1024,1024,1024,0,0,0,0,71,5.329,62.78,36.417324,P-GPS,,11.1
136,424700,2026-01-11 17:25:04,0.0,5,7.431,0.0,0.0,0.223694,37.8,7.1,-4.2,1024,1024,1024,1024,0,0,0,0,71,5.329,62.78,36.417324,P-GPS,,11.1
137,424800,2026-01-11 17:25:05,0.0,5,7.431,0.0,0.0,0.0,37.7,7.2,-4.1,1024,1024,1024,1024,0,0,0,0,71,5.329,62.78,36.417324,P-GPS,,11.1
138,424900,2026-01-11 17:25:05,0.0,5,7.477,0.0,0.0,0.223694,37.9,6.4,-4.0,1024,1024,1024,1024,0,0,0,0,71,4.644,62.78,36.417324,P-GPS,,11.1
139,425000,2026-01-11 17:25:05,0.0,5,7.477,0.0,0.0,0.0,37.9,6.2,-3.8,1024,1024,1024,1024,0,0,0,0,71,4.644,62.78,36.417324,P-GPS,,11.1
140,425100,2026-01-11 17:25:05,0.0,5,7.477,0.0,0.0,0.0,37.8,6.6,-3.9,1024,1024,1024,1024,0,0,0,0,71,4.644,62.78,36.417324,P-GPS,,11.1
141,425200,2026-01-11 17:25:05,0.0,5,7.477,0.0,0.0,0.0,37.7,6.9,-3.8,1024,1024,1024,1024,0,0,0,0,71,4.644,62.78,36.08924,P-GPS,,11.0
142,425300,2026-01-11 17:25:05,0.0,5,7.477,0.0,0.0,0.0,37.8,6.8,-3.9,1024,1024,1024,1024,0,0,0,0,71,4.644,62.78,36.08924,P-GPS,,11.0
143,425400,2026-01-11 17:25:05,0.0,5,7.477,0.0,0.0,0.0,37.8,6.6,-4.1,1024,1024,1024,1024,0,0,0,0,71,4.644,62.78,36.08924,P-GPS,,11.0
144,425500,2026-01-11 17:25:05,0.0,5,7.477,0.0,0.0,0.0,37.9,5.3,-3.5,1024,1024,1024,1024,0,0,0,0,71,4.644,62.78,36.08924,P-GPS,,11.0
145,425600,2026-01-11 17:25:05,0.0,5,7.477,0.0,0.0,0.0,38.0,4.8,-3.5,1024,1024,1024,1024,0,0,0,0,71,4.644,62.78,36.08924,P-GPS,,11.0
146,425700,2026-01-11 17:25:05,0.0,5,7.477,0.0,0.0,0.0,37.8,6.0,-3.8,1024,1024,1024,1024,0,0,0,0,71,4.644,62.78,35.761156,P-GPS,,10.9
147,425800,2026-01-11 17:25:06,0.0,5,7.477,0.0,0.0,0.0,37.7,7.2,-3.7,1024,1024,1024,1024,0,0,0,0,71,4.644,62.78,35.761156,P-GPS,,10.9
148,425900,2026-01-11 17:25:06,0.0,5,7.477,0.0,0.0,0.0,37.8,7.2,-3.6,1024,1024,1024,1024,0,0,0,0,71,4.644,62.78,35.761156,P-GPS,,10.9
149,426000,2026-01-11 17:25:06,0.0,5,7.478,0.0,0.0,0.0,37.7,7.4,-3.3,1024,1024,1024,1024,0,0,0,0,71,4.818,62.78,35.761156,P-GPS,,10.9
150,426100,2026-01-11 17:25:06,0.0,5,7.478,0.0,0.0,0.0,37.7,7.9,-2.8,1024,1024,1024,1024,0,0,0,0,71,4.818,62.78,35.761156,P-GPS,,10.9
151,426200,2026-01-11 17:25:06,0.0,5,7.478,0.0,0.0,0.0,37.6,8.4,-2.8,1024,1024,1024,1024,0,0,0,0,71,4.818,62.78,35.433072,P-GPS,,10.8
152,426300,2026-01-11 17:25:06,0.0,5,7.478,0.0,0.0,0.0,37.7,7.9,-2.6,1024,1024,1024,1024,0,0,0,0,71,4.818,62.78,35.433072,P-GPS,,10.8
153,426400,2026-01-11 17:25:06,0.0,5,7.478,0.0,0.0,0.0,37.7,7.8,-2.9,1024,1024,1024,1024,0,0,0,0,71,4.818,62.78,35.433072,P-GPS,,10.8
154,426500,2026-01-11 17:25:06,0.0,5,7.478,0.0,0.0,0.0,37.7,7.6,-2.5,1024,1024,1024,1024,0,0,0,0,71,4.818,62.78,35.433072,P-GPS,,10.8
155,426600,2026-01-11 17:25:06,0.0,5,7.478,0.0,0.0,0.0,37.7,7.0,-2.9,1024,1024,1024,1024,0,0,0,0,71,4.818,62.78,35.433072,P-GPS,,10.8
156,426700,2026-01-11 17:25:06,0.0,5,7.478,0.0,0.0,0.0,37.7,6.7,-2.2,1024,1024,1024,1024,0,0,0,0,71,4.818,62.78,35.433072,P-GPS,,10.8
157,426800,2026-01-11 17:25:07,0.223694,5,7.478,0.0,-0.223694,0.0,37.7,6.3,-2.4,1024,1024,1024,1024,0,0,0,0,71,4.818,62.78,35.433072,P-GPS,,10.8
158,426900,2026-01-11 17:25:07,0.0,5,7.478,0.0,0.0,0.0,37.9,6.1,-2.4,1024,1024,1024,1024,0,0,0,0,71,4.818,62.78,35.433072,P-GPS,,10.8
159,427000,2026-01-11 17:25:07,0.0,5,7.478,0.0,0.0,0.0,37.8,6.2,-2.0,1024,1024,1024,1024,0,0,0,0,71,4.818,62.78,35.433072,P-GPS,,10.8
160,427100,2026-01-11 17:25:07,0.0,5,7.455,0.0,0.0,0.0,37.7,6.2,-1.9,1024,1024,1024,1024,0,0,0,0,71,5.122,62.78,35.433072,P-GPS,,10.8
161,427200,2026-01-11 17:25:07,0.0,5,7.455,0.0,0.0,0.0,37.7,6.6,-1.9,1024,1024,1024,1024,0,0,0,0,71,5.122,62.78,35.433072,P-GPS,,10.8
162,427300,2026-01-11 17:25:07,0.0,5,7.455,0.0,0.0,0.0,37.7,6.9,-2.3,1024,1024,1024,1024,0,0,0,0,71,5.122,62.78,35.433072,P-GPS,,10.8
163,427400,2026-01-11 17:25:07,0.0,5,7.455,0.0,0.0,0.0,37.7,6.9,-2.8,1024,1024,1024,1024,0,0,0,0,71,5.122,62.78,35.433072,P-GPS,,10.8
164,427500,2026-01-11 17:25:07,0.0,5,7.455,0.0,0.0,0.0,37.7,7.2,-2.7,1024,1024,1024,1024,0,0,0,0,71,5.122,62.78,35.104988,P-GPS,,10.7
165,427600,2026-01-11 17:25:07,0.0,5,7.455,0.0,0.0,0.0,37.7,7.4,-2.4,1024,1024,1024,1024,0,0,0,0,71,5.122,62.78,35.104988,P-GPS,,10.7
166,427700,2026-01-11 17:25:07,0.0,5,7.455,0.0,0.0,0.0,37.6,8.0,-2.5,1024,1024,1024,1024,0,0,0,0,71,5.122,62.78,35.104988,P-GPS,,10.7
167,427800,2026-01-11 17:25:08,0.0,5,7.455,0.0,0.0,0.0,37.7,7.6,-2.1,1024,1024,1024,1024,0,0,0,0,71,5.122,62.78,35.104988,P-GPS,,10.7
168,427900,2026-01-11 17:25:08,0.0,5,7.455,0.0,0.0,0.0,37.8,7.4,-2.1,1024,1024,1024,1024,0,0,0,0,71,5.122,62.78,35.433072,P-GPS,,10.8
169,428000,2026-01-11 17:25:08,0.0,5,7.455,0.0,0.0,0.0,37.7,7.5,-2.2,1024,1024,1024,1024,0,0,0,0,71,5.122,62.78,35.433072,P-GPS,,10.8
170,428100,2026-01-11 17:25:08,0.0,5,7.455,0.0,0.0,0.0,37.8,7.7,-2.3,1024,1024,1024,1024,0,0,0,0,71,5.122,62.78,35.433072,P-GPS,,10.8
171,428200,2026-01-11 17:25:08,0.0,5,7.452,0.0,0.0,0.0,37.8,7.4,-2.4,1024,1024,1024,1024,0,0,0,0,71,5.122,62.78,35.433072,P-GPS,,10.8
172,428300,2026-01-11 17:25:08,0.0,5,7.452,0.0,0.0,0.0,37.8,7.0,-2.4,1024,1024,1024,1024,0,0,0,0,71,5.122,62.78,35.433072,P-GPS,,10.8
173,428400,2026-01-11 17:25:08,0.0,5,7.452,0.0,0.0,0.0,37.7,7.1,-2.5,1024,1024,1024,1024,0,0,0,0,71,5.122,62.78,35.104988,P-GPS,,10.7
174,428500,2026-01-11 17:25:08,0.0,5,7.452,0.0,0.0,0.0,37.7,7.2,-2.0,1024,1024,1024,1024,0,0,0,0,71,5.122,62.78,35.104988,P-GPS,,10.7
175,428600,2026-01-11 17:25:08,0.0,5,7.452,0.0,0.0,0.0,37.8,6.1,-2.2,1024,1024,1024,1024,0,0,0,0,71,5.122,62.78,35.104988,P-GPS,,10.7
176,428700,2026-01-11 17:25:08,0.0,5,7.452,0.0,0.0,0.0,37.8,6.8,-2.0,1024,1024,1024,1024,0,0,0,0,71,5.122,62.78,35.104988,P-GPS,,10.7
177,428800,2026-01-11 17:25:09,0.0,5,7.452,0.0,0.0,0.0,37.7,6.2,-2.0,1024,1024,1024,1024,0,0,0,0,71,5.122,62.78,35.104988,P-GPS,,10.7
178,428900,2026-01-11 17:25:09,0.0,5,7.452,0.0,0.0,0.0,37.8,6.1,-1.8,1024,1024,1024,1024,0,0,0,0,71,5.122,62.78,35.104988,P-GPS,,10.7
179,429000,2026-01-11 17:25:09,0.0,5,7.452,0.0,0.0,0.0,37.8,5.8,-2.0,1024,1024,1024,1024,0,0,0,0,71,5.122,62.78,35.104988,P-GPS,,10.7
180,429100,2026-01-11 17:25:09,0.0,5,7.452,0.0,0.0,0.0,37.8,5.4,-2.3,1024,1024,1024,1024,0,0,0,0,71,5.122,62.78,35.104988,P-GPS,,10.7
181,429200,2026-01-11 17:25:09,0.0,5,7.452,0.0,0.0,0.0,37.9,5.3,-2.8,1024,1024,1024,1024,0,0,0,0,71,5.122,62.78,35.433072,P-GPS,,10.8
182,429300,2026-01-11 17:25:09,0.0,5,7.454,0.0,0.0,0.0,37.9,5.3,-3.1,1024,1024,1024,1024,0,0,0,0,71,4.881,62.96,35.433072,P-GPS,,10.8
183,429400,2026-01-11 17:25:09,0.0,5,7.454,0.0,0.0,0.0,37.9,5.3,-3.2,1024,1024,1024,1024,0,0,0,0,71,4.881,62.96,35.433072,P-GPS,,10.8
184,429500,2026-01-11 17:25:09,0.0,5,7.454,0.0,0.0,0.0,37.8,5.6,-3.3,1024,1024,1024,1024,0,0,0,0,71,4.881,62.96,35.433072,P-GPS,,10.8
185,429600,2026-01-11 17:25:09,0.0,5,7.454,0.0,0.0,0.0,37.8,5.7,-3.4,1024,1024,1024,1024,0,0,0,0,71,4.881,62.96,35.433072,P-GPS,,10.8
186,429700,2026-01-11 17:25:09,0.0,5,7.454,0.0,0.0,0.0,37.8,5.2,-3.1,1024,1024,1024,1024,0,0,0,0,71,4.881,62.96,35.433072,P-GPS,,10.8
187,429800,2026-01-11 17:25:10,0.0,5,7.454,0.0,0.0,0.0,37.7,6.0,-3.1,1024,1024,1024,1024,0,0,0,0,71,4.881,62.96,35.433072,P-GPS,,10.8
188,429900,2026-01-11 17:25:10,0.0,5,7.454,0.0,0.0,0.0,37.8,5.9,-2.9,1024,1024,1024,1024,0,0,0,0,71,4.881,62.96,35.433072,P-GPS,,10.8
189,430000,2026-01-11 17:25:10,0.0,5,7.454,0.0,0.0,0.0,37.9,5.4,-2.7,1024,1024,1024,1024,0,0,0,0,71,4.881,62.96,35.433072,P-GPS,,10.8
190,430100,2026-01-11 17:25:10,0.0,5,7.454,0.0,0.0,0.0,37.9,5.3,-2.9,1024,1024,1024,1024,0,0,0,0,71,4.881,62.96,35.433072,P-GPS,,10.8
191,430200,2026-01-11 17:25:10,0.0,5,7.454,0.0,0.0,0.0,37.8,5.8,-2.9,1024,1024,1024,1024,0,0,0,0,71,4.881,62.96,35.433072,P-GPS,,10.8
192,430300,2026-01-11 17:25:10,0.0,5,7.454,0.0,0.0,0.0,37.8,6.1,-3.1,1024,1024,1024,1024,0,0,0,0,71,4.881,62.96,35.433072,P-GPS,,10.8
193,430400,2026-01-11 17:25:10,0.0,5,7.464,0.0,0.0,0.0,37.8,5.9,-3.4,1024,1024,1024,1024,0,0,0,0,71,4.834,62.96,35.433072,P-GPS,,10.8
194,430500,2026-01-11 17:25:10,0.0,5,7.464,0.0,0.0,0.0,37.8,5.5,-2.8,1024,1024,1024,1024,0,0,0,0,71,4.834,62.96,35.433072,P-GPS,,10.8
195,430600,2026-01-11 17:25:10,0.0,5,7.464,0.0,0.0,0.0,37.7,5.9,-3.2,1024,1024,1024,1024,0,0,0,0,71,4.834,62.96,35.433072,P-GPS,,10.8
196,430700,2026-01-11 17:25:10,0.0,5,7.464,0.0,0.0,0.0,37.8,5.9,-3.4,1024,1024,1024,1024,0,0,0,0,71,4.834,62.96,35.433072,P-GPS,,10.8
197,430800,2026-01-11 17:25:11,0.0,5,7.464,0.0,0.0,0.0,37.9,5.6,-3.4,1024,1024,1024,1024,0,0,0,0,71,4.834,62.96,35.433072,P-GPS,,10.8
198,430900,2026-01-11 17:25:11,0.0,5,7.464,0.0,0.0,0.0,37.8,5.7,-3.3,1024,1024,1024,1024,0,0,0,0,71,4.834,62.96,35.433072,P-GPS,,10.8
199,431000,2026-01-11 17:25:11,0.0,5,7.464,0.0,0.0,0.0,37.8,6.2,-3.3,1024,1024,1024,1024,0,0,0,0,71,4.834,62.96,35.433072,P-GPS,,10.8
200,431100,2026-01-11 17:25:11,0.0,5,7.464,0.0,0.0,0.0,37.8,5.9,-3.5,1024,1024,1024,1024,0,0,0,0,71,4.834,62.96,35.433072,P-GPS,,10.8
201,431200,2026-01-11 17:25:11,0.0,5,7.464,0.0,0.0,0.0,37.8,6.0,-3.2,1024,1024,1024,1024,0,0,0,0,71,4.834,62.96,35.433072,P-GPS,,10.8
202,431300,2026-01-11 17:25:11,0.0,5,7.464,0.0,0.0,0.0,37.7,6.1,-2.8,1024,1024,1024,1024,0,0,0,0,71,4.834,62.96,35.433072,P-GPS,,10.8
203,431400,2026-01-11 17:25:11,0.0,5,7.464,0.0,0.0,0.0,37.7,6.2,-3.1,1024,1024,1024,1024,0,0,0,0,71,4.834,62.96,35.433072,P-GPS,,10.8
204,431500,2026-01-11 17:25:11,0.0,5,7.449,0.0,0.0,0.0,37.7,6.7,-3.1,1024,1024,1024,1024,0,0,0,0,71,4.939,62.96,35.433072,P-GPS,,10.8
205,431600,2026-01-11 17:25:11,0.0,5,7.449,0.0,0.0,0.0,37.7,6.6,-2.9,1024,1024,1024,1024,0,0,0,0,71,4.939,62.96,35.433072,P-GPS,,10.8
206,431700,2026-01-11 17:25:11,0.0,5,7.449,0.0,0.0,0.0,37.7,6.5,-2.5,1024,1024,1024,1024,0,0,0,0,71,4.939,62.96,35.104988,P-GPS,,10.7
207,431800,2026-01-11 17:25:12,0.0,5,7.449,0.0,0.0,0.0,37.9,6.3,-2.2,1024,1024,1024,1024,0,0,0,0,71,4.939,62.96,35.104988,P-GPS,,10.7
208,431900,2026-01-11 17:25:12,0.0,5,7.449,0.0,0.0,0.0,37.8,6.4,-1.9,1024,1024,1024,1024,0,0,0,0,71,4.939,62.96,35.104988,P-GPS,,10.7
209,432000,2026-01-11 17:25:12,0.0,5,7.449,0.0,0.0,0.0,37.8,6.0,-2.0,1024,1024,1024,1024,0,0,0,0,71,4.939,62.96,35.104988,P-GPS,,10.7
210,432100,2026-01-11 17:25:12,0.0,5,7.449,0.0,0.0,0.0,37.8,6.6,-2.1,1024,1024,1024,1024,0,0,0,0,71,4.939,62.96,35.104988,P-GPS,,10.7
211,432200,2026-01-11 17:25:12,0.0,5,7.449,0.0,0.0,0.0,37.9,6.7,-2.4,1024,1024,1024,1024,0,0,0,0,71,4.939,62.96,35.104988,P-GPS,,10.7
212,432300,2026-01-11 17:25:12,0.0,5,7.449,0.0,0.0,0.0,37.9,5.5,-2.5,1024,1024,1024,1024,0,0,0,0,71,4.939,62.96,35.104988,P-GPS,,10.7
213,432400,2026-01-11 17:25:12,0.0,5,7.449,0.0,0.0,0.0,37.9,5.4,-2.8,1024,1024,1024,1024,0,0,0,0,71,4.939,62.96,35.104988,P-GPS,,10.7
214,432500,2026-01-11 17:25:12,0.0,5,7.449,0.0,0.0,0.0,37.8,5.0,-2.8,1024,1024,1024,1024,0,0,0,0,71,4.939,62.96,35.104988,P-GPS,,10.7
215,432600,2026-01-11 17:25:12,0.223694,5,7.443,-0.223694,0.0,0.0,37.8,4.3,-2.4,1024,1024,1024,1024,0,0,0,0,70,5.212,62.96,34.776904,P-GPS,,10.6
216,432700,2026-01-11 17:25:12,0.223694,5,7.443,-0.223694,0.0,0.0,37.9,3.1,-2.5,1024,1024,1024,1024,0,0,0,0,70,5.212,62.96,34.776904,P-GPS,,10.6
217,432800,2026-01-11 17:25:13,0.0,5,7.443,0.0,0.0,0.0,37.9,2.5,-2.6,1024,1024,1024,1024,0,0,0,0,70,5.212,62.96,34.776904,P-GPS,,10.6
218,432900,2026-01-11 17:25:13,0.0,5,7.443,0.0,0.0,0.0,37.8,2.2,-2.8,1024,1024,1024,1024,0,0,0,0,70,5.212,62.96,34.776904,P-GPS,,10.6
219,433000,2026-01-11 17:25:13,0.0,5,7.443,0.0,0.0,0.0,37.9,2.6,-2.6,1024,1024,1024,1024,0,0,0,0,70,5.212,62.96,34.776904,P-GPS,,10.6
220,433100,2026-01-11 17:25:13,0.0,5,7.443,0.0,0.0,0.0,37.7,3.0,-2.2,1024,1024,1024,1024,0,0,0,0,70,5.212,62.96,34.776904,P-GPS,,10.6
221,433200,2026-01-11 17:25:13,0.0,5,7.443,0.0,0.0,0.0,37.7,3.5,-1.4,1024,1024,1024,1024,0,0,0,0,70,5.212,62.96,34.776904,P-GPS,,10.6
222,433300,2026-01-11 17:25:13,0.0,5,7.443,0.0,0.0,0.0,37.8,4.1,-0.7,1024,1024,1024,1024,0,0,0,0,70,5.212,62.96,34.776904,P-GPS,,10.6
223,433400,2026-01-11 17:25:13,0.0,5,7.443,0.0,0.0,0.0,38.0,4.5,-0.7,1024,1024,1024,1024,0,0,0,0,70,5.212,62.96,34.776904,P-GPS,,10.6
224,433500,2026-01-11 17:25:13,0.0,5,7.443,0.0,0.0,0.0,37.9,4.7,-1.8,1024,1024,1024,1024,0,0,0,0,70,5.212,62.96,34.776904,P-GPS,,10.6
225,433600,2026-01-11 17:25:13,0.0,5,7.443,0.0,0.0,0.0,38.0,5.3,-2.0,1024,1024,1024,1024,0,0,0,0,70,5.212,62.96,34.776904,P-GPS,,10.6
226,433700,2026-01-11 17:25:13,0.0,5,7.464,0.0,0.0,0.0,37.9,5.4,-1.7,1024,1024,1024,1024,0,0,0,0,70,4.589,62.96,34.776904,P-GPS,,10.6
227,433800,2026-01-11 17:25:13,0.0,5,7.464,0.0,0.0,0.0,37.9,6.6,-2.1,1024,1024,1024,1024,0,0,0,0,70,4.589,62.96,35.104988,P-GPS,,10.7
228,433900,2026-01-11 17:25:14,0.0,5,7.464,0.0,0.0,0.0,37.9,6.4,-1.9,1024,1024,1024,1024,0,0,0,0,70,4.589,62.96,35.104988,P-GPS,,10.7
229,434000,2026-01-11 17:25:14,0.0,5,7.464,0.0,0.0,0.0,37.8,6.0,-2.1,1024,1024,1024,1024,0,0,0,0,70,4.589,62.96,35.104988,P-GPS,,10.7
230,434100,2026-01-11 17:25:14,0.0,5,7.464,0.0,0.0,0.0,37.8,5.2,-1.4,1024,1024,1024,1024,0,0,0,0,70,4.589,62.96,35.104988,P-GPS,,10.7
231,434200,2026-01-11 17:25:14,0.0,5,7.464,0.0,0.0,0.0,37.9,4.6,-1.1,1024,1024,1024,1024,0,0,0,0,70,4.589,62.96,35.104988,P-GPS,,10.7
232,434300,2026-01-11 17:25:14,0.0,5,7.464,0.0,0.0,0.0,38.0,4.3,-1.3,1024,1024,1024,1024,0,0,0,0,70,4.589,62.96,35.104988,P-GPS,,10.7
233,434400,2026-01-11 17:25:14,0.0,5,7.464,0.0,0.0,0.0,37.9,4.5,-1.9,1024,1024,1024,1024,0,0,0,0,70,4.589,62.96,35.104988,P-GPS,,10.7
234,434500,2026-01-11 17:25:14,0.0,5,7.464,0.0,0.0,0.0,37.9,4.7,-2.5,1024,1024,1024,1024,0,0,0,0,70,4.589,62.96,35.104988,P-GPS,,10.7
235,434600,2026-01-11 17:25:14,0.0,5,7.464,0.0,0.0,0.0,37.9,4.6,-3.0,1024,1024,1024,1024,0,0,0,0,70,4.589,62.96,35.433072,P-GPS,,10.8
236,434700,2026-01-11 17:25:14,0.0,5,7.464,0.0,0.0,0.0,37.9,5.0,-3.2,1024,1024,1024,1024,0,0,0,0,70,4.589,62.96,35.433072,P-GPS,,10.8
237,434800,2026-01-11 17:25:15,0.0,5,7.464,0.0,0.0,0.0,37.8,4.8,-3.1,1024,1024,1024,1024,0,0,0,0,70,4.589,62.96,35.433072,P-GPS,,10.8
238,434900,2026-01-11 17:25:15,0.0,5,7.464,0.0,0.0,0.0,37.9,4.9,-3.0,1024,1024,1024,1024,0,0,0,0,70,4.589,62.96,35.433072,P-GPS,,10.8
239,435000,2026-01-11 17:25:15,0.0,5,7.464,0.0,0.0,0.0,37.9,4.5,-3.1,1024,1024,1024,1024,0,0,0,0,70,4.589,62.96,35.433072,P-GPS,,10.8
240,435100,2026-01-11 17:25:15,0.0,5,7.464,0.0,0.0,0.0,37.9,3.8,-2.9,1024,1024,1024,1024,0,0,0,0,70,4.589,62.96,35.433072,P-GPS,,10.8
241,435200,2026-01-11 17:25:15,0.0,5,7.464,0.0,0.0,0.0,37.9,3.7,-2.6,1024,1024,1024,1024,0,0,0,0,70,4.589,62.96,35.433072,P-GPS,,10.8
242,435300,2026-01-11 17:25:15,0.0,5,7.464,0.0,0.0,0.0,38.0,2.6,-4.7,1024,1024,1024,1024,0,0,0,0,70,4.589,62.96,35.104988,P-GPS,,10.7
243,435400,2026-01-11 17:25:15,0.0,5,7.464,0.0,0.0,0.0,37.6,5.1,-3.1,1024,1024,1024,1024,0,0,0,0,70,4.589,62.96,35.104988,P-GPS,,10.7
244,435500,2026-01-11 17:25:15,0.223694,5,7.464,0.223694,0.0,0.0,37.6,7.1,-0.8,1024,1024,1024,1024,0,0,0,0,70,4.589,62.96,34.776904,P-GPS,,10.6
245,435600,2026-01-11 17:25:15,0.223694,5,7.464,0.223694,0.0,0.0,37.5,7.6,0.4,1024,1024,1024,1024,0,0,0,0,70,4.589,62.96,34.776904,P-GPS,,10.6
246,435700,2026-01-11 17:25:15,0.0,5,7.464,0.0,0.0,0.0,37.9,7.2,1.3,1024,1024,1024,1024,0,0,0,0,70,4.589,62.96,34.776904,P-GPS,,10.6
247,435800,2026-01-11 17:25:15,0.0,5,7.464,0.0,0.0,0.0,37.9,6.4,0.8,1024,1024,1024,1024,0,0,0,0,70,4.589,62.96,34.776904,P-GPS,,10.6
248,435900,2026-01-11 17:25:16,0.0,5,7.466,0.0,0.0,0.0,38.0,5.5,-0.5,1024,1024,1024,1024,0,0,0,0,70,4.311,62.96,34.776904,P-GPS,,10.6
249,436000,2026-01-11 17:25:16,0.0,5,7.466,0.0,0.0,0.0,38.1,4.7,-0.9,1024,1024,1024,1024,0,0,0,0,70,4.311,62.96,34.776904,P-GPS,,10.6
250,436100,2026-01-11 17:25:16,0.0,5,7.466,0.0,0.0,0.0,38.0,5.0,-2.2,1024,1024,1024,1024,0,0,0,0,70,4.311,62.96,34.776904,P-GPS,,10.6
251,436200,2026-01-11 17:25:16,0.0,5,7.466,0.0,0.0,0.0,38.0,4.2,-1.6,1024,1024,1024,1024,0,0,0,0,70,4.311,62.96,34.776904,P-GPS,,10.6
252,436300,2026-01-11 17:25:16,0.0,5,7.466,0.0,0.0,0.0,38.4,3.7,-0.6,1024,1024,1024,1024,0,0,0,0,70,4.311,62.96,34.776904,P-GPS,,10.6
253,436400,2026-01-11 17:25:16,0.0,5,7.466,0.0,0.0,0.0,38.5,4.2,-0.7,1024,1024,1024,1024,0,0,0,0,70,4.311,62.96,34.776904,P-GPS,,10.6
254,436500,2026-01-11 17:25:16,0.0,5,7.466,0.0,0.0,0.0,38.5,4.8,-1.4,1024,1024,1024,1024,0,0,0,0,70,4.311,62.96,35.104988,P-GPS,,10.7
255,436600,2026-01-11 17:25:16,0.0,5,7.466,0.0,0.0,0.0,38.5,5.5,-1.1,1024,1024,1024,1024,0,0,0,0,70,4.311,62.96,35.104988,P-GPS,,10.7
256,436700,2026-01-11 17:25:16,0.0,5,7.466,0.0,0.0,0.0,38.4,5.9,-0.7,1024,1024,1024,1024,0,0,0,0,70,4.311,62.96,35.104988,P-GPS,,10.7
257,436800,2026-01-11 17:25:17,0.0,5,7.466,0.0,0.0,0.0,38.4,5.6,-0.6,1024,1024,1024,1024,0,0,0,0,70,4.311,62.96,35.104988,P-GPS,,10.7
258,436900,2026-01-11 17:25:17,0.0,5,7.466,0.0,0.0,0.0,38.5,4.6,-0.8,1024,1024,1024,1024,0,0,0,0,70,4.311,62.96,35.104988,P-GPS,,10.7
259,437000,2026-01-11 17:25:17,0.0,5,7.473,0.0,0.0,0.0,38.4,3.6,-0.5,1024,1024,1024,1024,0,0,0,0,70,4.417,62.96,35.104988,P-GPS,,10.7
260,437100,2026-01-11 17:25:17,0.0,5,7.473,0.0,0.0,0.0,38.1,3.4,-1.1,1024,1024,1024,1024,0,0,0,0,70,4.417,62.96,35.104988,P-GPS,,10.7
261,437200,2026-01-11 17:25:17,0.0,5,7.473,0.0,0.0,0.0,38.0,3.7,-0.7,1024,1024,1024,1024,0,0,0,0,70,4.417,62.96,35.104988,P-GPS,,10.7
262,437300,2026-01-11 17:25:17,0.0,5,7.473,0.0,0.0,0.0,38.2,3.9,0.6,1024,1024,1024,1024,0,0,0,0,70,4.417,62.96,35.104988,P-GPS,,10.7
263,437400,2026-01-11 17:25:17,0.0,5,7.473,0.0,0.0,0.0,38.0,3.7,0.0,1024,1024,1024,1024,0,0,0,0,70,4.417,62.96,34.776904,P-GPS,,10.6
264,437500,2026-01-11 17:25:17,0.0,5,7.473,0.0,0.0,0.0,38.1,4.9,0.8,1024,1024,1024,1024,0,0,0,0,70,4.417,62.96,34.776904,P-GPS,,10.6
265,437600,2026-01-11 17:25:17,0.0,5,7.473,0.0,0.0,0.0,38.7,7.4,2.3,1024,1024,1024,1024,0,0,0,0,70,4.417,62.96,34.776904,P-GPS,,10.6
266,437700,2026-01-11 17:25:17,0.0,5,7.473,0.0,0.0,0.223694,38.6,8.6,1.0,1024,1024,1024,1024,0,0,0,0,70,4.417,62.96,35.104988,P-GPS,,10.7
267,437800,2026-01-11 17:25:18,0.0,5,7.473,0.0,0.0,0.223694,38.2,8.0,-0.7,1024,1024,1024,1024,0,0,0,0,70,4.417,62.96,35.104988,P-GPS,,10.7
268,437900,2026-01-11 17:25:18,0.0,5,7.473,0.0,0.0,0.223694,38.0,7.5,-0.8,1024,1024,1024,1024,0,0,0,0,70,4.417,62.96,35.104988,P-GPS,,10.7
269,438000,2026-01-11 17:25:18,0.0,5,7.473,0.0,0.0,0.0,37.8,6.5,-0.8,1024,1024,1024,1024,0,0,0,0,70,4.417,62.96,35.104988,P-GPS,,10.7
270,438100,2026-01-11 17:25:18,0.0,5,7.428,0.0,0.0,0.0,37.9,5.7,-0.6,1024,1024,1024,1024,0,0,0,0,70,4.779,62.96,35.433072,P-GPS,,10.8
271,438200,2026-01-11 17:25:18,0.0,5,7.428,0.0,0.0,0.0,37.9,4.1,0.0,1024,1024,1024,1024,0,0,0,0,70,4.779,62.96,35.433072,P-GPS,,10.8
272,438300,2026-01-11 17:25:18,0.0,5,7.428,0.0,0.0,-0.223694,38.0,4.3,0.7,1024,1024,1024,1024,0,0,0,0,70,4.779,62.96,35.433072,P-GPS,,10.8
273,438400,2026-01-11 17:25:18,0.0,5,7.428,0.0,0.0,-0.223694,38.0,5.0,0.4,1024,1024,1024,1024,0,0,0,0,70,4.779,62.96,35.433072,P-GPS,,10.8
274,438500,2026-01-11 17:25:18,0.0,5,7.428,0.0,0.0,0.0,38.0,5.3,0.2,1024,1024,1024,1024,0,0,0,0,70,4.779,62.96,35.433072,P-GPS,,10.8
275,438600,2026-01-11 17:25:18,0.0,5,7.428,0.0,0.0,0.0,37.9,5.6,0.3,1024,1024,1024,1024,0,0,0,0,70,4.779,62.96,35.433072,P-GPS,,10.8
276,438700,2026-01-11 17:25:18,0.0,5,7.428,0.0,0.0,0.0,38.0,5.4,0.7,1024,1024,1024,1024,0,0,0,0,70,4.779,62.96,35.433072,P-GPS,,10.8
277,438800,2026-01-11 17:25:19,0.0,5,7.428,0.0,0.0,0.0,38.0,5.8,0.3,1024,1024,1024,1024,0,0,0,0,70,4.779,62.96,35.433072,P-GPS,,10.8
278,438900,2026-01-11 17:25:19,0.0,5,7.428,0.0,0.0,0.0,38.1,5.7,-0.1,1024,1024,1024,1024,0,0,0,0,70,4.779,62.96,35.761156,P-GPS,,10.9
279,439000,2026-01-11 17:25:19,0.0,5,7.428,0.0,0.0,0.0,38.1,5.6,-1.1,1024,1024,1024,1024,0,0,0,0,70,4.779,62.96,35.761156,P-GPS,,10.9
280,439100,2026-01-11 17:25:19,0.0,5,7.428,0.0,0.0,0.0,38.1,5.6,-1.9,1024,1024,1024,1024,0,0,0,0,70,4.779,62.96,35.761156,P-GPS,,10.9
281,439200,2026-01-11 17:25:19,0.0,5,7.463,0.0,0.0,0.0,38.1,5.7,-2.0,1024,1024,1024,1024,0,0,0,0,70,4.481,62.78,35.761156,P-GPS,,10.9
282,439300,2026-01-11 17:25:19,0.0,5,7.463,0.0,0.0,0.0,38.0,5.9,-1.9,1024,1024,1024,1024,0,0,0,0,70,4.481,62.78,35.761156,P-GPS,,10.9
283,439400,2026-01-11 17:25:19,0.0,5,7.463,0.0,0.0,0.0,38.0,6.2,-2.1,1024,1024,1024,1024,0,0,0,0,70,4.481,62.78,35.761156,P-GPS,,10.9
284,439500,2026-01-11 17:25:19,0.0,5,7.463,0.0,0.0,0.0,38.1,5.8,-1.7,1024,1024,1024,1024,0,0,0,0,70,4.481,62.78,35.761156,P-GPS,,10.9
285,439600,2026-01-11 17:25:19,0.0,5,7.463,0.0,0.0,0.0,38.1,5.5,-1.8,1024,1024,1024,1024,0,0,0,0,70,4.481,62.78,36.08924,P-GPS,,11.0
286,439700,2026-01-11 17:25:19,0.0,5,7.463,0.0,0.0,0.0,38.1,5.4,-1.9,1024,1024,1024,1024,0,0,0,0,70,4.481,62.78,36.08924,P-GPS,,11.0
287,439800,2026-01-11 17:25:20,0.0,5,7.463,0.0,0.0,0.0,38.1,4.9,-2.1,1024,1024,1024,1024,0,0,0,0,70,4.481,62.78,36.08924,P-GPS,,11.0
288,439900,2026-01-11 17:25:20,0.0,5,7.463,0.0,0.0,0.0,38.0,5.3,-2.5,1024,1024,1024,1024,0,0,0,0,70,4.481,62.78,36.08924,P-GPS,,11.0
289,440000,2026-01-11 17:25:20,0.0,5,7.463,0.0,0.0,0.0,38.0,5.5,-2.7,1024,1024,1024,1024,0,0,0,0,70,4.481,62.78,36.08924,P-GPS,,11.0
290,440100,2026-01-11 17:25:20,0.0,5,7.463,0.0,0.0,0.0,38.0,5.4,-2.6,1024,1024,1024,1024,0,0,0,0,70,4.481,62.78,36.417324,P-GPS,,11.1
291,440200,2026-01-11 17:25:20,0.0,5,7.463,0.0,0.0,0.0,38.1,4.9,-2.6,1024,1024,1024,1024,0,0,0,0,70,4.481,62.78,36.417324,P-GPS,,11.1
292,440300,2026-01-11 17:25:20,0.0,5,7.466,0.0,0.0,0.0,38.0,5.3,-2.8,1024,1024,1024,1024,0,0,0,0,70,4.679,62.78,36.417324,P-GPS,,11.1
293,440400,2026-01-11 17:25:20,0.0,5,7.466,0.0,0.0,0.0,38.0,5.3,-3.3,1024,1024,1024,1024,0,0,0,0,70,4.679,62.78,36.745408,P-GPS,,11.2
294,440500,2026-01-11 17:25:20,0.0,5,7.466,0.0,0.0,0.0,37.9,5.2,-3.5,1024,1024,1024,1024,0,0,0,0,70,4.679,62.78,36.745408,P-GPS,,11.2
295,440600,2026-01-11 17:25:20,0.0,5,7.466,0.0,0.0,0.0,37.9,5.2,-4.0,1024,1024,1024,1024,0,0,0,0,70,4.679,62.78,36.745408,P-GPS,,11.2
296,440700,2026-01-11 17:25:20,0.0,5,7.466,0.0,0.0,0.0,37.9,4.7,-4.0,1024,1024,1024,1024,0,0,0,0,70,4.679,62.78,36.745408,P-GPS,,11.2
297,440800,2026-01-11 17:25:21,0.0,5,7.466,0.0,0.0,0.0,38.0,4.5,-3.9,1024,1024,1024,1024,0,0,0,0,70,4.679,62.78,36.745408,P-GPS,,11.2
298,440900,2026-01-11 17:25:21,0.0,5,7.466,0.0,0.0,0.0,37.9,5.6,-3.8,1024,1024,1024,1024,0,0,0,0,70,4.679,62.78,36.745408,P-GPS,,11.2
299,441000,2026-01-11 17:25:21,0.0,5,7.466,0.0,0.0,0.223694,37.9,5.5,-3.5,1024,1024,1024,1024,0,0,0,0,70,4.679,62.78,36.745408,P-GPS,,11.2
300,441100,2026-01-11 17:25:21,0.0,5,7.466,0.0,0.0,0.223694,38.0,5.1,-3.5,1024,1024,1024,1024,0,0,0,0,70,4.679,62.78,36.745408,P-GPS,,11.2
301,441200,2026-01-11 17:25:21,0.0,5,7.466,0.0,0.0,0.0,37.9,5.3,-2.9,1024,1024,1024,1024,0,0,0,0,70,4.679,62.78,36.745408,P-GPS,,11.2
302,441300,2026-01-11 17:25:21,0.0,5,7.466,0.0,0.0,0.0,37.8,5.3,-2.7,1024,1024,1024,1024,0,0,0,0,70,4.679,62.78,37.073492,P-GPS,,11.3
303,441400,2026-01-11 17:25:21,0.0,5,7.451,0.0,0.0,0.223694,37.8,5.8,-2.6,1024,1024,1024,1024,0,0,0,0,70,4.828,62.96,37.073492,P-GPS,,11.3
304,441500,2026-01-11 17:25:21,0.0,5,7.451,0.0,0.0,0.0,37.8,5.7,-2.6,1024,1024,1024,1024,0,0,0,0,70,4.828,62.96,37.073492,P-GPS,,11.3
305,441600,2026-01-11 17:25:21,0.0,5,7.451,0.0,0.0,0.0,37.9,5.7,-2.8,1024,1024,1024,1024,0,0,0,0,70,4.828,62.96,37.073492,P-GPS,,11.3
306,441700,2026-01-11 17:25:21,0.0,5,7.451,0.0,0.0,0.0,37.8,5.0,-2.8,1024,1024,1024,1024,0,0,0,0,70,4.828,62.96,37.073492,P-GPS,,11.3
307,441800,2026-01-11 17:25:22,0.0,5,7.451,0.0,0.0,0.0,37.8,5.0,-3.4,1024,1024,1024,1024,0,0,0,0,70,4.828,62.96,37.073492,P-GPS,,11.3
308,441900,2026-01-11 17:25:22,0.0,5,7.451,0.0,0.0,0.0,37.8,5.5,-3.3,1024,1024,1024,1024,0,0,0,0,70,4.828,62.96,37.073492,P-GPS,,11.3
309,442000,2026-01-11 17:25:22,0.0,5,7.451,0.0,0.0,0.223694,37.9,5.9,-2.8,1024,1024,1024,1024,0,0,0,0,70,4.828,62.96,37.073492,P-GPS,,11.3
310,442100,2026-01-11 17:25:22,0.0,5,7.451,0.0,0.0,0.223694,38.0,5.9,-2.5,1024,1024,1024,1024,0,0,0,0,70,4.828,62.96,36.745408,P-GPS,,11.2
311,442200,2026-01-11 17:25:22,0.0,5,7.451,0.0,0.0,0.223694,38.0,5.6,-2.0,1024,1024,1024,1024,0,0,0,0,70,4.828,62.96,36.745408,P-GPS,,11.2
312,442300,2026-01-11 17:25:22,0.0,5,7.451,0.0,0.0,0.223694,37.8,5.5,-1.9,1024,1024,1024,1024,0,0,0,0,70,4.828,62.96,36.745408,P-GPS,,11.2
313,442400,2026-01-11 17:25:22,0.0,5,7.451,0.0,0.0,0.0,37.8,4.8,-1.9,1024,1024,1024,1024,0,0,0,0,70,4.828,62.96,36.417324,P-GPS,,11.1
314,442500,2026-01-11 17:25:22,0.0,5,7.433,0.0,0.0,0.0,37.8,4.5,-1.9,1024,1024,1024,1024,0,0,0,0,70,4.857,62.78,36.417324,P-GPS,,11.1
315,442600,2026-01-11 17:25:22,0.0,5,7.433,0.0,0.0,0.0,37.9,4.3,-1.9,1024,1024,1024,1024,0,0,0,0,70,4.857,62.78,36.417324,P-GPS,,11.1
316,442700,2026-01-11 17:25:22,0.0,5,7.433,0.0,0.0,0.0,37.8,4.4,-1.9,1024,1024,1024,1024,0,0,0,0,70,4.857,62.78,36.417324,P-GPS,,11.1
317,442800,2026-01-11 17:25:23,0.0,5,7.433,0.0,0.0,0.0,37.8,4.5,-2.2,1024,1024,1024,1024,0,0,0,0,70,4.857,62.78,36.417324,P-GPS,,11.1
318,442900,2026-01-11 17:25:23,0.0,5,7.433,0.0,0.0,0.0,37.9,4.4,-2.6,1024,1024,1024,1024,0,0,0,0,70,4.857,62.78,36.417324,P-GPS,,11.1
319,443000,2026-01-11 17:25:23,0.0,5,7.433,0.0,0.0,0.0,37.9,4.4,-2.6,1024,1024,1024,1024,0,0,0,0,70,4.857,62.78,36.417324,P-GPS,,11.1
320,443100,2026-01-11 17:25:23,0.0,5,7.433,0.0,0.0,0.0,37.8,4.2,-2.4,1024,1024,1024,1024,0,0,0,0,70,4.857,62.78,36.08924,P-GPS,,11.0
321,443200,2026-01-11 17:25:23,0.0,5,7.433,0.0,0.0,0.0,37.9,4.4,-2.5,1024,1024,1024,1024,0,0,0,0,70,4.857,62.78,36.08924,P-GPS,,11.0
322,443300,2026-01-11 17:25:23,0.0,5,7.433,0.0,0.0,0.0,37.9,4.1,-2.8,1024,1024,1024,1024,0,0,0,0,70,4.857,62.78,36.08924,P-GPS,,11.0
