index,time(millisecond),timestamp,speed(mph),gpslevel,voltage(v),xSpeed(mph),ySpeed(mph),zSpeed(mph),compass_heading(degrees),pitch(degrees),roll(degrees),rc_elevator,rc_aileron,rc_throttle,rc_rudder,rc_elevator(percent),rc_aileron(percent),rc_throttle(percent),rc_rudder(percent),battery_percent,current(A),battery_temperature(f),ascent(feet),flycState,message,height_above_takeoff(meters)
429,470800,2026-01-12 12:14:09,0.0,5,7.542,0.0,0.0,0.0,8.6,9.2,-4.0,1024,1024,1024,1024,0,0,0,0,69,4.522,73.22,95.800528,P-GPS,,29.2
430,470900,2026-01-12 12:14:09,0.223694,5,7.542,-0.223694,0.0,0.0,8.6,8.6,-4.6,1024,1024,1024,1024,0,0,0,0,69,4.522,73.22,95.800528,P-GPS,,29.2
431,471000,2026-01-12 12:14:09,0.3131716,5,7.542,-0.223694,0.223694,0.0,8.6,8.4,-4.9,1024,1024,1024,1024,0,0,0,0,69,4.522,73.22,96.128612,P-GPS,,29.3
432,471100,2026-01-12 12:14:09,0.3131716,5,7.542,-0.223694,0.223694,0.0,8.6,7.8,-5.2,1024,1024,1024,1024,0,0,0,0,69,4.522,73.22,96.128612,P-GPS,,29.3
433,471200,2026-01-12 12:14:09,0.223694,5,7.542,-0.223694,0.0,0.0,8.6,8.0,-5.9,1024,1024,1024,1024,0,0,0,0,69,4.522,73.22,96.128612,P-GPS,,29.3
434,471300,2026-01-12 12:14:09,0.223694,5,7.542,-0.223694,0.0,0.0,8.6,7.5,-5.8,1024,1024,1024,1024,0,0,0,0,69,4.522,73.22,96.128612,P-GPS,,29.3
435,471400,2026-01-12 12:14:09,0.223694,5,7.542,-0.223694,0.0,0.0,8.5,7.7,-5.7,1024,1024,1024,1024,0,0,0,0,69,4.522,73.22,96.128612,P-GPS,,29.3
436,471500,2026-01-12 12:14:10,0.223694,5,7.542,-0.223694,0.0,0.0,8.5,7.5,-5.6,1024,1024,1024,1024,0,0,0,0,69,4.522,73.22,95.800528,P-GPS,,29.2
437,471600,2026-01-12 12:14:10,0.223694,5,7.542,-0.223694,0.0,0.0,8.6,7.4,-5.5,1024,1024,1024,1024,0,0,0,0,69,4.522,73.22,95.800528,P-GPS,,29.2
438,471700,2026-01-12 12:14:10,0.0,5,7.542,0.0,0.0,0.0,8.6,7.3,-5.7,1024,1024,1024,1024,0,0,0,0,69,4.522,73.22,95.800528,P-GPS,,29.2
439,471800,2026-01-12 12:14:10,0.223694,5,7.542,-0.223694,0.0,0.0,8.8,6.7,-5.3,1024,1024,1024,1024,0,0,0,0,69,4.522,73.22,95.800528,P-GPS,,29.2
440,471900,2026-01-12 12:14:10,0.0,5,7.542,0.0,0.0,0.0,8.7,7.0,-5.2,1024,1024,1024,1024,0,0,0,0,69,4.522,73.22,95.800528,P-GPS,,29.2
441,472000,2026-01-12 12:14:10,0.223694,5,7.542,-0.223694,0.0,0.0,8.8,7.0,-5.0,1024,1024,1024,1024,0,0,0,0,69,4.522,73.22,95.472444,P-GPS,,29.1
442,472100,2026-01-12 12:14:10,0.0,5,7.542,0.0,0.0,0.0,8.8,6.8,-4.5,1024,1024,1024,1024,0,0,0,0,69,4.522,73.22,95.472444,P-GPS,,29.1
443,472200,2026-01-12 12:14:10,0.0,5,7.508,0.0,0.0,0.0,8.7,7.0,-4.6,1024,1024,1024,1024,0,0,0,0,69,4.212,73.22,95.472444,P-GPS,,29.1
444,472300,2026-01-12 12:14:10,0.0,5,7.508,0.0,0.0,0.0,8.7,8.0,-4.4,1024,1024,1024,1024,0,0,0,0,69,4.212,73.22,95.472444,P-GPS,,29.1
445,472400,2026-01-12 12:14:11,0.0,5,7.508,0.0,0.0,0.0,8.8,7.7,-4.0,1024,1024,1024,1024,0,0,0,0,69,4.212,73.22,95.472444,P-GPS,,29.1
446,472500,2026-01-12 12:14:11,0.0,5,7.508,0.0,0.0,0.0,8.8,7.3,-4.0,1024,1024,1024,1024,0,0,0,0,69,4.212,73.22,95.472444,P-GPS,,29.1
447,472600,2026-01-12 12:14:11,0.0,5,7.508,0.0,0.0,0.0,8.7,8.1,-4.8,1024,1024,1024,1024,0,0,0,0,69,4.212,73.22,95.472444,P-GPS,,29.1
448,472700,2026-01-12 12:14:11,0.223694,5,7.508,0.223694,0.0,0.0,8.4,9.5,-5.1,1024,1024,1024,1024,0,0,0,0,69,4.212,73.22,95.800528,P-GPS,,29.2
449,472800,2026-01-12 12:14:11,0.223694,5,7.508,0.223694,0.0,0.0,8.2,10.0,-5.1,1024,1024,1024,1024,0,0,0,0,69,4.212,73.22,95.800528,P-GPS,,29.2
450,472900,2026-01-12 12:14:11,0.223694,5,7.508,0.223694,0.0,0.0,8.4,9.3,-3.6,1024,1024,1024,1024,0,0,0,0,69,4.212,73.22,95.800528,P-GPS,,29.2
451,473000,2026-01-12 12:14:11,0.223694,5,7.508,0.223694,0.0,0.0,8.5,9.4,-3.0,1024,1024,1024,1024,0,0,0,0,69,4.212,73.22,95.800528,P-GPS,,29.2
452,473100,2026-01-12 12:14:11,0.223694,5,7.508,0.223694,0.0,0.0,8.5,9.7,-2.5,1024,1024,1024,1024,0,0,0,0,69,4.212,73.22,95.800528,P-GPS,,29.2
453,473200,2026-01-12 12:14:11,0.0,5,7.49,0.0,0.0,0.0,8.5,8.9,-2.7,1024,1024,1024,1024,0,0,0,0,69,4.412,73.4,96.128612,P-GPS,,29.3
454,473300,2026-01-12 12:14:11,0.0,5,7.49,0.0,0.0,0.0,8.5,8.1,-3.3,1024,1024,1024,1024,0,0,0,0,69,4.412,73.4,96.128612,P-GPS,,29.3
455,473400,2026-01-12 12:14:11,0.0,5,7.49,0.0,0.0,0.0,8.6,7.4,-3.5,1024,1024,1024,1024,0,0,0,0,69,4.412,73.4,96.128612,P-GPS,,29.3
456,473500,2026-01-12 12:14:12,0.0,5,7.49,0.0,0.0,0.0,8.6,6.9,-3.8,1024,1024,1024,1024,0,0,0,0,69,4.412,73.4,96.128612,P-GPS,,29.3
457,473600,2026-01-12 12:14:12,0.0,5,7.49,0.0,0.0,0.0,8.6,7.3,-4.2,1024,1024,1024,1024,0,0,0,0,69,4.412,73.4,95.800528,P-GPS,,29.2
458,473700,2026-01-12 12:14:12,0.0,5,7.49,0.0,0.0,0.0,8.6,7.2,-4.6,1024,1024,1024,1024,0,0,0,0,69,4.412,73.4,95.800528,P-GPS,,29.2
459,473800,2026-01-12 12:14:12,0.0,5,7.49,0.0,0.0,0.0,8.6,6.3,-4.0,1024,1024,1024,1024,0,0,0,0,69,4.412,73.4,95.800528,P-GPS,,29.2
460,473900,2026-01-12 12:14:12,0.0,5,7.49,0.0,0.0,0.0,8.7,6.1,-4.1,1024,1024,1024,1024,0,0,0,0,69,4.412,73.4,95.800528,P-GPS,,29.2
461,474000,2026-01-12 12:14:12,0.0,5,7.49,0.0,0.0,0.0,8.6,7.1,-4.4,1024,1024,1024,1024,0,0,0,0,69,4.412,73.4,95.800528,P-GPS,,29.2
462,474100,2026-01-12 12:14:12,0.0,5,7.49,0.0,0.0,0.223694,8.5,7.8,-4.8,1024,1024,1024,1024,0,0,0,0,69,4.412,73.4,95.800528,P-GPS,,29.2
463,474200,2026-01-12 12:14:12,0.0,5,7.51,0.0,0.0,0.223694,8.7,7.8,-4.9,1024,1024,1024,1024,0,0,0,0,69,4.615,73.4,95.800528,P-GPS,,29.2
464,474300,2026-01-12 12:14:12,0.0,5,7.51,0.0,0.0,0.223694,8.8,8.1,-4.3,1024,1024,1024,1024,0,0,0,0,69,4.615,73.4,95.800528,P-GPS,,29.2
465,474400,2026-01-12 12:14:13,0.0,5,7.51,0.0,0.0,0.223694,8.7,8.1,-3.9,1024,1024,1024,1024,0,0,0,0,69,4.615,73.4,95.800528,P-GPS,,29.2
466,474500,2026-01-12 12:14:13,0.0,5,7.51,0.0,0.0,0.0,8.7,7.3,-3.9,1024,1024,1024,1024,0,0,0,0,69,4.615,73.4,96.128612,P-GPS,,29.3
467,474600,2026-01-12 12:14:13,0.0,5,7.51,0.0,0.0,0.0,8.7,6.9,-3.9,1024,1024,1024,1024,0,0,0,0,69,4.615,73.4,96.128612,P-GPS,,29.3
468,474700,2026-01-12 12:14:13,0.223694,5,7.51,0.223694,0.0,-0.223694,8.7,8.0,-3.9,1024,1024,1024,1024,0,0,0,0,69,4.615,73.4,96.128612,P-GPS,,29.3
469,474800,2026-01-12 12:14:13,0.223694,5,7.51,0.223694,0.0,0.0,8.3,9.6,-4.4,1024,1024,1024,1024,0,0,0,0,69,4.615,73.4,96.128612,P-GPS,,29.3
470,474900,2026-01-12 12:14:13,0.223694,5,7.51,0.223694,0.0,0.0,8.4,10.1,-4.2,1024,1024,1024,1024,0,0,0,0,69,4.615,73.4,96.128612,P-GPS,,29.3
471,475000,2026-01-12 12:14:13,0.223694,5,7.51,0.223694,0.0,0.0,8.5,10.5,-4.3,1024,1024,1024,1024,0,0,0,0,69,4.615,73.4,95.800528,P-GPS,,29.2
472,475100,2026-01-12 12:14:13,0.223694,5,7.51,0.223694,0.0,0.0,8.8,9.7,-3.1,1024,1024,1024,1024,0,0,0,0,69,4.615,73.4,95.800528,P-GPS,,29.2
473,475200,2026-01-12 12:14:13,0.0,5,7.472,0.0,0.0,0.0,8.8,9.7,-3.5,1024,1024,1024,1024,0,0,0,0,69,4.555,73.22,95.800528,P-GPS,,29.2
474,475300,2026-01-12 12:14:13,0.0,5,7.472,0.0,0.0,0.223694,8.7,9.7,-4.0,1024,1024,1024,1024,0,0,0,0,69,4.555,73.22,95.472444,P-GPS,,29.1
475,475400,2026-01-12 12:14:13,0.0,5,7.472,0.0,0.0,0.223694,8.6,10.1,-3.9,1024,1024,1024,1024,0,0,0,0,69,4.555,73.22,95.472444,P-GPS,,29.1
476,475500,2026-01-12 12:14:14,0.0,5,7.472,0.0,0.0,0.223694,8.7,9.8,-3.0,1024,1024,1024,1024,0,0,0,0,69,4.555,73.22,95.472444,P-GPS,,29.1
477,475600,2026-01-12 12:14:14,0.0,5,7.472,0.0,0.0,0.0,8.7,10.1,-3.0,1024,1024,1024,1024,0,0,0,0,69,4.555,73.22,95.472444,P-GPS,,29.1
478,475700,2026-01-12 12:14:14,0.0,5,7.472,0.0,0.0,0.0,8.7,9.8,-2.8,1024,1024,1024,1024,0,0,0,0,69,4.555,73.22,95.472444,P-GPS,,29.1
479,475800,2026-01-12 12:14:14,0.0,5,7.472,0.0,0.0,0.0,8.7,9.8,-2.4,1024,1024,1024,1024,0,0,0,0,69,4.555,73.22,95.472444,P-GPS,,29.1
480,475900,2026-01-12 12:14:14,0.0,5,7.472,0.0,0.0,0.0,8.9,9.5,-2.0,1024,1024,1024,1024,0,0,0,0,69,4.555,73.22,95.472444,P-GPS,,29.1
481,476000,2026-01-12 12:14:14,0.0,5,7.472,0.0,0.0,0.0,8.7,10.1,-2.7,1024,1024,1024,1024,0,0,0,0,69,4.555,73.22,95.14436,P-GPS,,29.0
482,476100,2026-01-12 12:14:14,0.0,5,7.472,0.0,0.0,0.0,8.6,11.1,-3.4,1024,1024,1024,1024,0,0,0,0,69,4.555,73.22,95.14436,P-GPS,,29.0
483,476200,2026-01-12 12:14:14,0.0,5,7.488,0.0,0.0,0.0,8.5,11.5,-3.8,1024,1024,1024,1024,0,0,0,0,69,4.384,73.22,95.14436,P-GPS,,29.0
484,476300,2026-01-12 12:14:14,0.0,5,7.488,0.0,0.0,0.0,8.5,11.6,-3.4,1024,1024,1024,1024,0,0,0,0,69,4.384,73.22,95.14436,P-GPS,,29.0
485,476400,2026-01-12 12:14:15,0.0,5,7.488,0.0,0.0,0.0,8.5,12.1,-2.7,1024,1024,1024,1024,0,0,0,0,69,4.384,73.22,95.14436,P-GPS,,29.0
486,476500,2026-01-12 12:14:15,0.0,5,7.488,0.0,0.0,0.0,8.6,11.9,-2.8,1024,1024,1024,1024,0,0,0,0,69,4.384,73.22,95.14436,P-GPS,,29.0
487,476600,2026-01-12 12:14:15,0.0,5,7.488,0.0,0.0,0.0,8.5,11.6,-2.6,1024,1024,1024,1024,0,0,0,0,69,4.384,73.22,95.14436,P-GPS,,29.0
488,476700,2026-01-12 12:14:15,0.0,5,7.488,0.0,0.0,0.0,8.5,11.3,-2.9,1024,1024,1024,1024,0,0,0,0,69,4.384,73.22,95.14436,P-GPS,,29.0
489,476800,2026-01-12 12:14:15,0.0,5,7.488,0.0,0.0,0.0,8.6,11.0,-3.2,1024,1024,1024,1024,0,0,0,0,69,4.384,73.22,95.14436,P-GPS,,29.0
490,476900,2026-01-12 12:14:15,0.0,5,7.488,0.0,0.0,0.0,8.6,10.8,-3.3,1024,1024,1024,1024,0,0,0,0,69,4.384,73.22,95.14436,P-GPS,,29.0
491,477000,2026-01-12 12:14:15,0.0,5,7.488,0.0,0.0,0.0,8.6,11.0,-2.8,1024,1024,1024,1024,0,0,0,0,69,4.384,73.22,95.14436,P-GPS,,29.0
492,477100,2026-01-12 12:14:15,0.0,5,7.488,0.0,0.0,0.0,8.6,11.2,-2.9,1024,1024,1024,1024,0,0,0,0,69,4.384,73.22,95.14436,P-GPS,,29.0
493,477200,2026-01-12 12:14:15,0.0,5,7.481,0.0,0.0,0.0,8.6,11.3,-3.0,1024,1024,1024,1024,0,0,0,0,69,4.497,73.22,95.14436,P-GPS,,29.0
494,477300,2026-01-12 12:14:15,0.0,5,7.481,0.0,0.0,0.0,8.6,11.0,-3.0,1024,1024,1024,1024,0,0,0,0,69,4.497,73.22,95.14436,P-GPS,,29.0
495,477400,2026-01-12 12:14:15,0.0,5,7.481,0.0,0.0,0.0,8.7,10.4,-2.5,1024,1024,1024,1024,0,0,0,0,69,4.497,73.22,95.14436,P-GPS,,29.0
496,477500,2026-01-12 12:14:16,0.0,5,7.481,0.0,0.0,0.0,8.8,10.6,-2.5,1024,1024,1024,1024,0,0,0,0,69,4.497,73.22,95.14436,P-GPS,,29.0
497,477600,2026-01-12 12:14:16,0.0,5,7.481,0.0,0.0,0.0,8.8,10.6,-3.1,1024,1024,1024,1024,0,0,0,0,69,4.497,73.22,95.14436,P-GPS,,29.0
498,477700,2026-01-12 12:14:16,0.0,5,7.481,0.0,0.0,0.0,8.7,11.0,-3.4,1024,1024,1024,1024,0,0,0,0,69,4.497,73.22,94.816276,P-GPS,,28.9
499,477800,2026-01-12 12:14:16,0.0,5,7.481,0.0,0.0,0.0,8.7,10.8,-3.5,1024,1024,1024,1024,0,0,0,0,69,4.497,73.22,94.816276,P-GPS,,28.9
500,477900,2026-01-12 12:14:16,0.0,5,7.481,0.0,0.0,0.0,8.7,10.6,-3.3,1024,1024,1024,1024,0,0,0,0,69,4.497,73.22,94.816276,P-GPS,,28.9
501,478000,2026-01-12 12:14:16,0.0,5,7.481,0.0,0.0,0.0,8.7,10.3,-3.2,1024,1024,1024,1024,0,0,0,0,69,4.497,73.22,94.816276,P-GPS,,28.9
502,478100,2026-01-12 12:14:16,0.0,5,7.481,0.0,0.0,0.0,8.7,9.9,-3.0,1024,1024,1024,1024,0,0,0,0,69,4.497,73.22,94.816276,P-GPS,,28.9
503,478200,2026-01-12 12:14:16,0.0,5,7.508,0.0,0.0,0.0,8.7,9.5,-2.8,1024,1024,1024,1024,0,0,0,0,69,4.39,73.22,94.488192,P-GPS,,28.8
504,478300,2026-01-12 12:14:16,0.0,5,7.508,0.0,0.0,0.0,8.8,9.1,-2.8,1024,1024,1024,1024,0,0,0,0,69,4.39,73.22,94.488192,P-GPS,,28.8
505,478400,2026-01-12 12:14:16,0.0,5,7.508,0.0,0.0,0.0,8.7,9.0,-3.2,1024,1024,1024,1024,0,0,0,0,69,4.39,73.22,94.816276,P-GPS,,28.9
506,478500,2026-01-12 12:14:17,0.0,5,7.508,0.0,0.0,0.0,8.6,8.9,-3.4,1024,1024,1024,1024,0,0,0,0,69,4.39,73.22,94.816276,P-GPS,,28.9
507,478600,2026-01-12 12:14:17,0.0,5,7.508,0.0,0.0,0.0,8.6,8.9,-3.8,1024,1024,1024,1024,0,0,0,0,69,4.39,73.22,94.816276,P-GPS,,28.9
508,478700,2026-01-12 12:14:17,0.0,5,7.508,0.0,0.0,0.0,8.6,8.9,-3.9,1024,1024,1024,1024,0,0,0,0,69,4.39,73.22,94.816276,P-GPS,,28.9
509,478800,2026-01-12 12:14:17,0.0,5,7.508,0.0,0.0,0.0,8.7,8.2,-3.3,1024,1024,1024,1024,0,0,0,0,69,4.39,73.22,94.816276,P-GPS,,28.9
510,478900,2026-01-12 12:14:17,0.0,5,7.508,0.0,0.0,0.0,8.7,7.5,-3.6,1024,1024,1024,1024,0,0,0,0,69,4.39,73.22,95.14436,P-GPS,,29.0
511,479000,2026-01-12 12:14:17,0.223694,5,7.508,-0.223694,0.0,0.0,8.7,7.3,-3.9,1024,1024,1024,1024,0,0,0,0,69,4.39,73.22,95.14436,P-GPS,,29.0
512,479100,2026-01-12 12:14:17,0.0,5,7.484,0.0,0.0,0.0,8.6,7.3,-3.7,1024,1024,1024,1024,0,0,0,0,69,4.566,73.22,95.14436,P-GPS,,29.0
513,479200,2026-01-12 12:14:17,0.0,5,7.484,0.0,0.0,0.0,8.6,7.4,-4.0,1024,1024,1024,1024,0,0,0,0,69,4.566,73.22,95.14436,P-GPS,,29.0
514,479300,2026-01-12 12:14:17,0.0,5,7.484,0.0,0.0,0.0,8.5,7.9,-4.6,1024,1024,1024,1024,0,0,0,0,69,4.566,73.22,95.14436,P-GPS,,29.0
515,479400,2026-01-12 12:14:17,0.0,5,7.484,0.0,0.0,0.0,8.5,7.7,-4.5,1024,1024,1024,1024,0,0,0,0,69,4.566,73.22,95.472444,P-GPS,,29.1
516,479500,2026-01-12 12:14:18,0.0,5,7.484,0.0,0.0,0.223694,8.5,7.6,-4.0,1024,1024,1024,1024,0,0,0,0,69,4.566,73.22,95.472444,P-GPS,,29.1
517,479600,2026-01-12 12:14:18,0.0,5,7.484,0.0,0.0,0.0,8.6,7.5,-3.4,1024,1024,1024,1024,0,0,0,0,69,4.566,73.22,95.472444,P-GPS,,29.1
518,479700,2026-01-12 12:14:18,0.0,5,7.484,0.0,0.0,0.0,8.6,7.4,-3.1,1024,1024,1024,1024,0,0,0,0,69,4.566,73.22,95.472444,P-GPS,,29.1
519,479800,2026-01-12 12:14:18,0.0,5,7.484,0.0,0.0,0.0,8.7,7.0,-3.3,1024,1024,1024,1024,0,0,0,0,69,4.566,73.22,95.800528,P-GPS,,29.2
520,479900,2026-01-12 12:14:18,0.0,5,7.484,0.0,0.0,0.0,8.6,6.8,-3.2,1024,1024,1024,1024,0,0,0,0,69,4.566,73.22,95.800528,P-GPS,,29.2
521,480000,2026-01-12 12:14:18,0.0,5,7.484,0.0,0.0,0.0,8.6,7.1,-3.2,1024,1024,1024,1024,0,0,0,0,69,4.566,73.22,95.800528,P-GPS,,29.2
522,480100,2026-01-12 12:14:18,0.0,5,7.484,0.0,0.0,0.0,8.7,7.0,-2.8,1024,1024,1024,1024,0,0,0,0,69,4.566,73.22,95.800528,P-GPS,,29.2
523,480200,2026-01-12 12:14:18,0.0,5,7.484,0.0,0.0,0.0,8.6,7.6,-3.2,1024,1024,1024,1024,0,0,0,0,69,4.566,73.22,95.800528,P-GPS,,29.2
524,480300,2026-01-12 12:14:18,0.0,5,7.484,0.0,0.0,0.0,8.5,7.8,-3.2,1024,1024,1024,1024,0,0,0,0,69,4.566,73.22,96.128612,P-GPS,,29.3
525,480400,2026-01-12 12:14:18,0.0,5,7.484,0.0,0.0,0.0,8.5,7.3,-3.1,1024,1024,1024,1024,0,0,0,0,69,4.566,73.22,96.128612,P-GPS,,29.3
526,480500,2026-01-12 12:14:19,0.0,5,7.484,0.0,0.0,0.0,8.6,7.2,-3.5,1024,1024,1024,1024,0,0,0,0,69,4.566,73.22,96.128612,P-GPS,,29.3
527,480600,2026-01-12 12:14:19,0.0,5,7.484,0.0,0.0,0.223694,8.6,7.1,-3.5,1024,1024,1024,1024,0,0,0,0,69,4.566,73.22,96.128612,P-GPS,,29.3
528,480700,2026-01-12 12:14:19,0.0,5,7.484,0.0,0.0,0.223694,8.5,6.9,-3.7,1024,1024,1024,1024,0,0,0,0,69,4.566,73.22,96.128612,P-GPS,,29.3
529,480800,2026-01-12 12:14:19,0.0,5,7.484,0.0,0.0,0.223694,8.5,6.5,-3.6,1024,1024,1024,1024,0,0,0,0,69,4.566,73.22,96.128612,P-GPS,,29.3
530,480900,2026-01-12 12:14:19,0.0,5,7.484,0.0,0.0,0.223694,8.6,6.3,-3.2,1024,1024,1024,1024,0,0,0,0,69,4.566,73.22,96.128612,P-GPS,,29.3
531,481000,2026-01-12 12:14:19,0.223694,5,7.484,0.0,-0.223694,0.223694,8.8,6.0,-2.0,1024,1024,1024,1024,0,0,0,0,69,4.566,73.22,96.128612,P-GPS,,29.3
532,481100,2026-01-12 12:14:19,0.0,5,7.484,0.0,0.0,0.0,8.7,6.0,-1.3,1024,1024,1024,1024,0,0,0,0,69,4.566,73.22,96.456696,P-GPS,,29.4
533,481200,2026-01-12 12:14:19,0.0,5,7.484,0.0,0.0,0.0,8.7,5.8,-1.1,1024,1024,1024,1024,0,0,0,0,69,4.566,73.22,96.456696,P-GPS,,29.4
534,481300,2026-01-12 12:14:19,0.0,5,7.468,0.0,0.0,0.0,8.8,5.9,-1.3,1024,1024,1024,1024,0,0,0,0,69,4.862,73.4,96.456696,P-GPS,,29.4
535,481400,2026-01-12 12:14:20,0.0,5,7.468,0.0,0.0,0.0,8.9,5.9,-1.9,1024,1024,1024,1024,0,0,0,0,69,4.862,73.4,96.456696,P-GPS,,29.4
536,481500,2026-01-12 12:14:20,0.0,5,7.468,0.0,0.0,0.0,8.8,6.1,-2.3,1024,1024,1024,1024,0,0,0,0,69,4.862,73.4,96.456696,P-GPS,,29.4
537,481600,2026-01-12 12:14:20,0.0,5,7.468,0.0,0.0,0.0,8.9,5.2,-2.5,1024,1024,1024,1024,0,0,0,0,69,4.862,73.4,96.456696,P-GPS,,29.4
538,481700,2026-01-12 12:14:20,0.0,5,7.468,0.0,0.0,0.0,8.9,4.8,-2.2,1024,1024,1024,1024,0,0,0,0,69,4.862,73.4,96.78478,P-GPS,,29.5
539,481800,2026-01-12 12:14:20,0.0,5,7.468,0.0,0.0,0.0,8.9,4.3,-2.7,1024,1024,1024,1024,0,0,0,0,69,4.862,73.4,96.78478,P-GPS,,29.5
540,481900,2026-01-12 12:14:20,0.0,5,7.468,0.0,0.0,0.0,8.8,4.2,-3.0,1024,1024,1024,1024,0,0,0,0,69,4.862,73.4,96.78478,P-GPS,,29.5
541,482000,2026-01-12 12:14:20,0.0,5,7.468,0.0,0.0,0.0,8.6,5.2,-3.2,1024,1024,1024,1024,0,0,0,0,69,4.862,73.4,96.78478,P-GPS,,29.5
542,482100,2026-01-12 12:14:20,0.0,5,7.468,0.0,0.0,0.0,8.6,5.7,-3.5,1024,1024,1024,1024,0,0,0,0,69,4.862,73.4,96.78478,P-GPS,,29.5
543,482200,2026-01-12 12:14:20,0.0,5,7.468,0.0,0.0,0.0,8.6,6.0,-3.5,1024,1024,1024,1024,0,0,0,0,69,4.862,73.4,96.78478,P-GPS,,29.5
544,482300,2026-01-12 12:14:20,0.0,5,7.468,0.0,0.0,0.0,8.5,6.9,-4.0,1024,1024,1024,1024,0,0,0,0,69,4.862,73.4,96.78478,P-GPS,,29.5
545,482400,2026-01-12 12:14:20,0.0,5,7.468,0.0,0.0,0.0,8.5,7.0,-4.0,1024,1024,1024,1024,0,0,0,0,69,4.862,73.4,96.78478,P-GPS,,29.5
546,482500,2026-01-12 12:14:21,0.0,5,7.468,0.0,0.0,0.0,8.6,6.8,-4.0,1024,1024,1024,1024,0,0,0,0,69,4.862,73.4,96.78478,P-GPS,,29.5
547,482600,2026-01-12 12:14:21,0.0,5,7.468,0.0,0.0,0.0,8.6,6.3,-3.7,1024,1024,1024,1024,0,0,0,0,69,4.862,73.4,96.78478,P-GPS,,29.5
548,482700,2026-01-12 12:14:21,0.0,5,7.468,0.0,0.0,0.0,8.4,6.6,-4.3,1024,1024,1024,1024,0,0,0,0,69,4.862,73.4,96.78478,P-GPS,,29.5
549,482800,2026-01-12 12:14:21,0.0,5,7.468,0.0,0.0,0.0,8.6,6.6,-4.3,1024,1024,1024,1024,0,0,0,0,69,4.862,73.4,96.78478,P-GPS,,29.5
550,482900,2026-01-12 12:14:21,0.0,5,7.468,0.0,0.0,0.0,8.5,6.9,-4.2,1024,1024,1024,1024,0,0,0,0,69,4.862,73.4,96.78478,P-GPS,,29.5
551,483000,2026-01-12 12:14:21,0.0,5,7.468,0.0,0.0,0.0,8.6,6.7,-4.2,1024,1024,1024,1024,0,0,0,0,69,4.862,73.4,96.78478,P-GPS,,29.5
552,483100,2026-01-12 12:14:21,0.0,5,7.468,0.0,0.0,0.223694,8.6,6.9,-4.3,1024,1024,1024,1024,0,0,0,0,69,4.862,73.4,96.78478,P-GPS,,29.5
553,483200,2026-01-12 12:14:21,0.0,5,7.508,0.0,0.0,0.223694,8.8,6.9,-3.6,1024,1024,1024,1024,0,0,0,0,69,4.55,73.22,96.78478,P-GPS,,29.5
554,483300,2026-01-12 12:14:21,0.0,5,7.508,0.0,0.0,0.0,8.7,7.0,-3.3,1024,1024,1024,1024,0,0,0,0,69,4.55,73.22,96.456696,P-GPS,,29.4
555,483400,2026-01-12 12:14:22,0.0,5,7.508,0.0,0.0,0.0,8.8,7.0,-3.1,1024,1024,1024,1024,0,0,0,0,69,4.55,73.22,96.456696,P-GPS,,29.4
556,483500,2026-01-12 12:14:22,0.0,5,7.508,0.0,0.0,0.0,8.8,7.1,-3.1,1024,1024,1024,1024,0,0,0,0,69,4.55,73.22,96.456696,P-GPS,,29.4
557,483600,2026-01-12 12:14:22,0.0,5,7.508,0.0,0.0,0.0,8.7,7.1,-3.4,1024,1024,1024,1024,0,0,0,0,69,4.55,73.22,96.456696,P-GPS,,29.4
558,483700,2026-01-12 12:14:22,0.0,5,7.508,0.0,0.0,0.0,8.8,7.0,-3.6,1024,1024,1024,1024,0,0,0,0,69,4.55,73.22,96.456696,P-GPS,,29.4
559,483800,2026-01-12 12:14:22,0.0,5,7.508,0.0,0.0,0.0,8.7,6.7,-3.4,1024,1024,1024,1024,0,0,0,0,69,4.55,73.22,96.456696,P-GPS,,29.4
560,483900,2026-01-12 12:14:22,0.0,5,7.508,0.0,0.0,0.0,8.7,6.7,-3.2,1024,1024,1024,1024,0,0,0,0,69,4.55,73.22,96.456696,P-GPS,,29.4
561,484000,2026-01-12 12:14:22,0.0,5,7.508,0.0,0.0,0.0,8.6,6.8,-3.2,1024,1024,1024,1024,0,0,0,0,69,4.55,73.22,96.456696,P-GPS,,29.4
562,484100,2026-01-12 12:14:22,0.0,5,7.508,0.0,0.0,0.0,8.6,7.0,-3.4,1024,1024,1024,1024,0,0,0,0,69,4.55,73.22,96.456696,P-GPS,,29.4
563,484200,2026-01-12 12:14:22,0.0,5,7.503,0.0,0.0,0.0,8.6,7.1,-3.5,1024,1024,1024,1024,0,0,0,0,69,4.333,73.22,96.456696,P-GPS,,29.4
564,484300,2026-01-12 12:14:22,0.0,5,7.503,0.0,0.0,0.0,8.6,6.5,-2.9,1024,1024,1024,1024,0,0,0,0,69,4.333,73.22,96.456696,P-GPS,,29.4
565,484400,2026-01-12 12:14:22,0.0,5,7.503,0.0,0.0,0.0,8.7,6.1,-3.1,1024,1024,1024,1024,0,0,0,0,69,4.333,73.22,96.456696,P-GPS,,29.4
566,484500,2026-01-12 12:14:23,0.0,5,7.503,0.0,0.0,0.0,8.6,5.8,-3.3,1024,1024,1024,1024,0,0,0,0,69,4.333,73.22,96.456696,P-GPS,,29.4
567,484600,2026-01-12 12:14:23,0.0,5,7.503,0.0,0.0,0.0,8.6,5.7,-3.5,1024,1024,1024,1024,0,0,0,0,69,4.333,73.22,96.456696,P-GPS,,29.4
568,484700,2026-01-12 12:14:23,0.0,5,7.503,0.0,0.0,0.0,8.5,5.7,-3.7,1024,1024,1024,1024,0,0,0,0,69,4.333,73.22,96.456696,P-GPS,,29.4
569,484800,2026-01-12 12:14:23,0.0,5,7.503,0.0,0.0,0.0,8.6,5.3,-3.7,1024,1024,1024,1024,0,0,0,0,69,4.333,73.22,96.456696,P-GPS,,29.4
570,484900,2026-01-12 12:14:23,0.0,5,7.503,0.0,0.0,0.0,8.5,5.5,-3.8,1024,1024,1024,1024,0,0,0,0,69,4.333,73.22,96.456696,P-GPS,,29.4
571,485000,2026-01-12 12:14:23,0.0,5,7.503,0.0,0.0,0.0,8.5,5.2,-3.9,1024,1024,1024,1024,0,0,0,0,69,4.333,73.22,96.456696,P-GPS,,29.4
572,485100,2026-01-12 12:14:23,0.0,5,7.503,0.0,0.0,0.0,8.7,5.5,-4.1,1024,1024,1024,1024,0,0,0,0,69,4.333,73.22,96.456696,P-GPS,,29.4
573,485200,2026-01-12 12:14:23,0.0,5,7.501,0.0,0.0,0.0,8.7,6.1,-4.0,1024,1024,1024,1024,0,0,0,0,69,4.359,73.22,96.456696,P-GPS,,29.4
574,485300,2026-01-12 12:14:23,0.0,5,7.501,0.0,0.0,0.0,8.8,6.3,-3.9,1024,1024,1024,1024,0,0,0,0,69,4.359,73.22,96.456696,P-GPS,,29.4
575,485400,2026-01-12 12:14:24,0.0,5,7.501,0.0,0.0,0.0,8.8,6.1,-3.8,1024,1024,1024,1024,0,0,0,0,69,4.359,73.22,96.456696,P-GPS,,29.4
576,485500,2026-01-12 12:14:24,0.0,5,7.501,0.0,0.0,0.0,8.8,6.1,-3.2,1024,1024,1024,1024,0,0,0,0,69,4.359,73.22,96.456696,P-GPS,,29.4
577,485600,2026-01-12 12:14:24,0.0,5,7.501,0.0,0.0,0.0,8.8,6.1,-3.3,1024,1024,1024,1024,0,0,0,0,69,4.359,73.22,96.128612,P-GPS,,29.3
578,485700,2026-01-12 12:14:24,0.0,5,7.501,0.0,0.0,0.0,8.7,6.5,-3.4,1024,1024,1024,1024,0,0,0,0,69,4.359,73.22,96.128612,P-GPS,,29.3
579,485800,2026-01-12 12:14:24,0.0,5,7.501,0.0,0.0,0.0,8.7,6.9,-3.4,1024,1024,1024,1024,0,0,0,0,69,4.359,73.22,96.128612,P-GPS,,29.3
580,485900,2026-01-12 12:14:24,0.0,5,7.501,0.0,0.0,0.0,8.6,6.8,-3.4,1024,1024,1024,1024,0,0,0,0,69,4.359,73.22,96.456696,P-GPS,,29.4
581,486000,2026-01-12 12:14:24,0.0,5,7.501,0.0,0.0,0.0,8.7,6.5,-3.2,1024,1024,1024,1024,0,0,0,0,69,4.359,73.22,96.456696,P-GPS,,29.4
582,486100,2026-01-12 12:14:24,0.0,5,7.501,0.0,0.0,0.0,8.6,7.0,-3.2,1024,1024,1024,1024,0,0,0,0,69,4.359,73.22,96.456696,P-GPS,,29.4
583,486200,2026-01-12 12:14:24,0.0,5,7.501,0.0,0.0,0.0,8.7,7.0,-3.0,1024,1024,1024,1024,0,0,0,0,69,4.359,73.22,96.456696,P-GPS,,29.4
584,486300,2026-01-12 12:14:24,0.0,5,7.501,0.0,0.0,0.0,8.7,6.4,-2.7,1024,1024,1024,1024,0,0,0,0,69,4.359,73.22,96.456696,P-GPS,,29.4
585,486400,2026-01-12 12:14:24,0.0,5,7.501,0.0,0.0,0.0,8.7,6.0,-2.8,1024,1024,1024,1024,0,0,0,0,69,4.359,73.22,96.456696,P-GPS,,29.4
586,486500,2026-01-12 12:14:25,0.0,5,7.501,0.0,0.0,0.0,8.6,6.4,-2.3,1024,1024,1024,1024,0,0,0,0,69,4.359,73.22,96.456696,P-GPS,,29.4
587,486600,2026-01-12 12:14:25,0.0,5,7.501,0.0,0.0,0.0,8.7,6.6,-2.5,1024,1024,1024,1024,0,0,0,0,69,4.359,73.22,96.456696,P-GPS,,29.4
588,486700,2026-01-12 12:14:25,0.0,5,7.501,0.0,0.0,0.0,8.7,6.8,-2.6,1024,1024,1024,1024,0,0,0,0,69,4.359,73.22,96.456696,P-GPS,,29.4
589,486800,2026-01-12 12:14:25,0.0,5,7.479,0.0,0.0,0.0,8.7,6.7,-2.5,1024,1024,1024,1024,0,0,0,0,69,4.846,73.22,96.456696,P-GPS,,29.4
590,486900,2026-01-12 12:14:25,0.0,5,7.479,0.0,0.0,0.0,8.9,5.8,-2.0,1024,1024,1024,1024,0,0,0,0,69,4.846,73.22,96.456696,P-GPS,,29.4
591,487000,2026-01-12 12:14:25,0.0,5,7.479,0.0,0.0,0.0,8.9,5.2,-2.4,1024,1024,1024,1024,0,0,0,0,69,4.846,73.22,96.456696,P-GPS,,29.4
592,487100,2026-01-12 12:14:25,0.0,5,7.479,0.0,0.0,0.0,8.9,5.1,-2.8,1024,1024,1024,1024,0,0,0,0,69,4.846,73.22,96.456696,P-GPS,,29.4
593,487200,2026-01-12 12:14:25,0.0,5,7.479,0.0,0.0,0.0,8.9,4.7,-2.9,1024,1024,1024,1024,0,0,0,0,69,4.846,73.22,96.456696,P-GPS,,29.4
594,487300,2026-01-12 12:14:25,0.0,5,7.479,0.0,0.0,0.0,8.7,5.0,-2.9,1024,1024,1024,1024,0,0,0,0,69,4.846,73.22,96.78478,P-GPS,,29.5
595,487400,2026-01-12 12:14:26,0.0,5,7.479,0.0,0.0,0.0,8.6,5.5,-3.2,1024,1024,1024,1024,0,0,0,0,69,4.846,73.22,96.78478,P-GPS,,29.5
596,487500,2026-01-12 12:14:26,0.0,5,7.479,0.0,0.0,0.0,8.6,5.9,-3.5,1024,1024,1024,1024,0,0,0,0,69,4.846,73.22,96.78478,P-GPS,,29.5
597,487600,2026-01-12 12:14:26,0.0,5,7.479,0.0,0.0,0.0,8.6,6.4,-3.6,1024,1024,1024,1024,0,0,0,0,69,4.846,73.22,96.78478,P-GPS,,29.5
598,487700,2026-01-12 12:14:26,0.0,5,7.479,0.0,0.0,0.0,8.6,6.5,-3.6,1024,1024,1024,1024,0,0,0,0,69,4.846,73.22,96.78478,P-GPS,,29.5
599,487800,2026-01-12 12:14:26,0.0,5,7.479,0.0,0.0,0.0,8.6,6.5,-3.6,1024,1024,1024,1024,0,0,0,0,69,4.846,73.22,96.456696,P-GPS,,29.4
600,487900,2026-01-12 12:14:26,0.0,5,7.508,0.0,0.0,0.0,8.7,5.8,-3.8,1024,1024,1024,1024,0,0,0,0,69,4.409,73.22,96.456696,P-GPS,,29.4
601,488000,2026-01-12 12:14:26,0.0,5,7.508,0.0,0.0,0.0,8.9,5.7,-3.6,1024,1024,1024,1024,0,0,0,0,69,4.409,73.22,96.456696,P-GPS,,29.4
602,488100,2026-01-12 12:14:26,0.0,5,7.508,0.0,0.0,0.0,8.8,6.3,-3.8,1024,1024,1024,1024,0,0,0,0,69,4.409,73.22,96.456696,P-GPS,,29.4
603,488200,2026-01-12 12:14:26,0.0,5,7.508,0.0,0.0,0.0,8.8,6.5,-4.2,1024,1024,1024,1024,0,0,0,0,69,4.409,73.22,96.128612,P-GPS,,29.3
604,488300,2026-01-12 12:14:26,0.0,5,7.508,0.0,0.0,0.0,8.7,6.7,-4.5,1024,1024,1024,1024,0,0,0,0,69,4.409,73.22,96.128612,P-GPS,,29.3
605,488400,2026-01-12 12:14:26,0.0,5,7.508,0.0,0.0,0.0,8.6,6.7,-4.6,1024,1024,1024,1024,0,0,0,0,69,4.409,73.22,96.128612,P-GPS,,29.3
606,488500,2026-01-12 12:14:27,0.0,5,7.508,0.0,0.0,0.0,8.7,6.9,-4.7,1024,1024,1024,1024,0,0,0,0,69,4.409,73.22,95.800528,P-GPS,,29.2
607,488600,2026-01-12 12:14:27,0.0,5,7.508,0.0,0.0,0.0,8.7,7.0,-4.7,1024,1024,1024,1024,0,0,0,0,69,4.409,73.22,95.800528,P-GPS,,29.2
608,488700,2026-01-12 12:14:27,0.0,5,7.508,0.0,0.0,0.0,8.7,7.3,-4.6,1024,1024,1024,1024,0,0,0,0,69,4.409,73.22,95.800528,P-GPS,,29.2
609,488800,2026-01-12 12:14:27,0.0,5,7.508,0.0,0.0,0.0,8.8,7.1,-4.7,1024,1024,1024,1024,0,0,0,0,69,4.409,73.22,95.472444,P-GPS,,29.1
610,488900,2026-01-12 12:14:27,0.0,5,7.508,0.0,0.0,0.0,8.8,6.6,-4.5,1024,1024,1024,1024,0,0,0,0,69,4.409,73.22,95.472444,P-GPS,,29.1
611,489000,2026-01-12 12:14:27,0.0,5,7.508,0.0,0.0,0.0,8.9,6.9,-4.6,1024,1024,1024,1024,0,0,0,0,69,4.409,73.22,95.472444,P-GPS,,29.1
612,489100,2026-01-12 12:14:27,0.0,5,7.509,0.0,0.0,0.0,8.9,7.3,-4.4,1024,1024,1024,1024,0,0,0,0,68,4.111,73.22,95.14436,P-GPS,,29.0
613,489200,2026-01-12 12:14:27,0.0,5,7.509,0.0,0.0,0.0,8.9,7.1,-4.4,1024,1024,1024,1024,0,0,0,0,68,4.111,73.22,95.14436,P-GPS,,29.0
614,489300,2026-01-12 12:14:27,0.0,5,7.509,0.0,0.0,0.0,8.9,6.8,-4.4,1024,1024,1024,1024,0,0,0,0,68,4.111,73.22,95.14436,P-GPS,,29.0
615,489400,2026-01-12 12:14:27,0.0,5,7.509,0.0,0.0,0.0,8.8,7.5,-4.7,1024,1024,1024,1024,0,0,0,0,68,4.111,73.22,94.816276,P-GPS,,28.9
616,489500,2026-01-12 12:14:28,0.0,5,7.509,0.0,0.0,0.0,8.7,7.5,-4.6,1024,1024,1024,1024,0,0,0,0,68,4.111,73.22,94.816276,P-GPS,,28.9
617,489600,2026-01-12 12:14:28,0.0,5,7.509,0.0,0.0,0.0,8.8,7.1,-4.5,1024,1024,1024,1024,0,0,0,0,68,4.111,73.22,94.816276,P-GPS,,28.9
618,489700,2026-01-12 12:14:28,0.0,5,7.509,0.0,0.0,0.0,8.8,6.9,-4.1,1024,1024,1024,1024,0,0,0,0,68,4.111,73.22,94.488192,P-GPS,,28.8
619,489800,2026-01-12 12:14:28,0.0,5,7.509,0.0,0.0,0.0,8.8,7.1,-3.8,1024,1024,1024,1024,0,0,0,0,68,4.111,73.22,94.488192,P-GPS,,28.8
620,489900,2026-01-12 12:14:28,0.0,5,7.509,0.0,0.0,0.0,8.6,8.0,-4.5,1024,1024,1024,1024,0,0,0,0,68,4.111,73.22,94.488192,P-GPS,,28.8
621,490000,2026-01-12 12:14:28,0.0,5,7.509,0.0,0.0,0.0,8.6,7.6,-4.6,1024,1024,1024,1024,0,0,0,0,68,4.111,73.22,94.488192,P-GPS,,28.8
622,490100,2026-01-12 12:14:28,0.0,5,7.509,0.0,0.0,0.0,8.6,7.8,-4.9,1024,1024,1024,1024,0,0,0,0,68,4.111,73.22,94.488192,P-GPS,,28.8
623,490200,2026-01-12 12:14:28,0.0,5,7.509,0.0,0.0,0.0,8.6,7.9,-4.9,1024,1024,1024,1024,0,0,0,0,68,4.111,73.22,94.488192,P-GPS,,28.8
624,490300,2026-01-12 12:14:28,0.0,5,7.509,0.0,0.0,0.0,8.6,7.5,-4.7,1024,1024,1024,1024,0,0,0,0,68,4.111,73.22,94.488192,P-GPS,,28.8
625,490400,2026-01-12 12:14:28,0.0,5,7.509,0.0,0.0,0.0,8.6,7.3,-4.5,1024,1024,1024,1024,0,0,0,0,68,4.111,73.22,94.488192,P-GPS,,28.8
626,490500,2026-01-12 12:14:29,0.0,5,7.509,0.0,0.0,0.0,8.6,7.4,-4.4,1024,1024,1024,1024,0,0,0,0,68,4.111,73.22,94.488192,P-GPS,,28.8
627,490600,2026-01-12 12:14:29,0.0,5,7.509,0.0,0.0,0.0,8.6,7.1,-4.0,1024,1024,1024,1024,0,0,0,0,68,4.111,73.22,94.488192,P-GPS,,28.8
628,490700,2026-01-12 12:14:29,0.0,5,7.509,0.0,0.0,0.0,8.5,7.7,-4.2,1024,1024,1024,1024,0,0,0,0,68,4.111,73.22,94.488192,P-GPS,,28.8
629,490800,2026-01-12 12:14:29,0.0,5,7.509,0.0,0.0,0.0,8.2,8.2,-4.3,1024,1024,1024,1024,0,0,0,0,68,4.111,73.22,94.488192,P-GPS,,28.8
630,490900,2026-01-12 12:14:29,0.0,5,7.509,0.0,0.0,0.0,8.2,8.6,-3.6,1024,1024,1024,1024,0,0,0,0,68,4.111,73.22,94.816276,P-GPS,,28.9
631,491000,2026-01-12 12:14:29,0.0,5,7.509,0.0,0.0,0.0,8.3,7.6,-3.4,1024,1024,1024,1024,0,0,0,0,68,4.111,73.22,94.816276,P-GPS,,28.9
632,491100,2026-01-12 12:14:29,0.0,5,7.509,0.0,0.0,0.0,8.5,6.4,-3.7,1024,1024,1024,1024,0,0,0,0,68,4.111,73.22,94.816276,P-GPS,,28.9
633,491200,2026-01-12 12:14:29,0.0,5,7.509,0.0,0.0,0.0,8.7,5.1,-3.3,1024,1024,1024,1024,0,0,0,0,68,4.111,73.22,95.14436,P-GPS,,29.0
634,491300,2026-01-12 12:14:29,0.0,5,7.489,0.0,0.0,0.0,8.7,5.9,-3.3,1024,1024,1024,1024,0,0,0,0,68,4.44,73.04,95.14436,P-GPS,,29.0
635,491400,2026-01-12 12:14:29,0.0,5,7.489,0.0,0.0,0.0,8.9,4.6,-4.0,1024,1024,1024,1024,0,0,0,0,68,4.44,73.04,95.14436,P-GPS,,29.0
636,491500,2026-01-12 12:14:30,0.0,5,7.489,0.0,0.0,0.0,8.7,4.9,-4.1,1024,1024,1024,1024,0,0,0,0,68,4.44,73.04,95.472444,P-GPS,,29.1
637,491600,2026-01-12 12:14:30,0.0,5,7.489,0.0,0.0,0.0,8.7,4.6,-3.7,1024,1024,1024,1024,0,0,0,0,68,4.44,73.04,95.472444,P-GPS,,29.1
638,491700,2026-01-12 12:14:30,0.0,5,7.489,0.0,0.0,0.0,8.7,5.0,-3.6,1024,1024,1024,1024,0,0,0,0,68,4.44,73.04,95.472444,P-GPS,,29.1
639,491800,2026-01-12 12:14:30,0.0,5,7.489,0.0,0.0,0.0,8.5,6.0,-3.2,1024,1024,1024,1024,0,0,0,0,68,4.44,73.04,95.14436,P-GPS,,29.0
640,491900,2026-01-12 12:14:30,0.0,5,7.489,0.0,0.0,0.0,8.3,6.2,-3.2,1024,1024,1024,1024,0,0,0,0,68,4.44,73.04,95.14436,P-GPS,,29.0
641,492000,2026-01-12 12:14:30,0.0,5,7.489,0.0,0.0,0.0,8.5,5.5,-3.3,1024,1024,1024,1024,0,0,0,0,68,4.44,73.04,95.472444,P-GPS,,29.1
642,492100,2026-01-12 12:14:30,0.0,5,7.489,0.0,0.0,0.0,8.5,5.3,-3.3,1024,1024,1024,1024,0,0,0,0,68,4.44,73.04,95.472444,P-GPS,,29.1
643,492200,2026-01-12 12:14:30,0.0,5,7.489,0.0,0.0,0.0,8.5,5.3,-3.2,1024,1024,1024,1024,0,0,0,0,68,4.44,73.04,95.472444,P-GPS,,29.1
644,492300,2026-01-12 12:14:30,0.0,5,7.489,0.0,0.0,0.0,8.6,5.3,-3.1,1024,1024,1024,1024,0,0,0,0,68,4.44,73.04,95.472444,P-GPS,,29.1
645,492400,2026-01-12 12:14:31,0.0,5,7.489,0.0,0.0,0.0,8.7,5.8,-3.1,1024,1024,1024,1024,0,0,0,0,68,4.44,73.04,95.472444,P-GPS,,29.1
646,492500,2026-01-12 12:14:31,0.0,5,7.489,0.0,0.0,0.0,8.8,5.8,-2.8,1024,1024,1024,1024,0,0,0,0,68,4.44,73.04,95.472444,P-GPS,,29.1
647,492600,2026-01-12 12:14:31,0.0,5,7.489,0.0,0.0,0.0,8.8,6.3,-2.9,1024,1024,1024,1024,0,0,0,0,68,4.44,73.04,95.472444,P-GPS,,29.1
648,492700,2026-01-12 12:14:31,0.0,5,7.489,0.0,0.0,0.0,8.8,6.1,-3.1,1024,1024,1024,1024,0,0,0,0,68,4.44,73.04,95.472444,P-GPS,,29.1
649,492800,2026-01-12 12:14:31,0.0,5,7.489,0.0,0.0,0.0,8.7,6.6,-3.2,1024,1024,1024,1024,0,0,0,0,68,4.44,73.04,95.472444,P-GPS,,29.1
650,492900,2026-01-12 12:14:31,0.0,5,7.489,0.0,0.0,0.0,8.9,6.6,-2.8,1024,1024,1024,1024,0,0,0,0,68,4.44,73.04,95.472444,P-GPS,,29.1
651,493000,2026-01-12 12:14:31,0.0,5,7.489,0.0,0.0,0.0,8.9,6.2,-2.6,1024,1024,1024,1024,0,0,0,0,68,4.44,73.04,95.472444,P-GPS,,29.1
652,493100,2026-01-12 12:14:31,0.0,5,7.489,0.0,0.0,0.0,8.8,6.2,-2.9,1024,1024,1024,1024,0,0,0,0,68,4.44,73.04,95.472444,P-GPS,,29.1
653,493200,2026-01-12 12:14:31,0.0,5,7.497,0.0,0.0,0.0,8.7,6.5,-3.1,1024,1024,1024,1024,0,0,0,0,68,4.297,73.04,95.472444,P-GPS,,29.1
654,493300,2026-01-12 12:14:31,0.0,5,7.497,0.0,0.0,0.0,8.7,6.4,-3.1,1024,1024,1024,1024,0,0,0,0,68,4.297,73.04,95.472444,P-GPS,,29.1
655,493400,2026-01-12 12:14:31,0.0,5,7.497,0.0,0.0,0.0,8.7,6.2,-2.7,1024,1024,1024,1024,0,0,0,0,68,4.297,73.04,95.472444,P-GPS,,29.1
656,493500,2026-01-12 12:14:32,0.0,5,7.497,0.0,0.0,0.0,8.6,6.3,-2.7,1024,1024,1024,1024,0,0,0,0,68,4.297,73.04,95.472444,P-GPS,,29.1
657,493600,2026-01-12 12:14:32,0.0,5,7.497,0.0,0.0,0.0,8.6,6.1,-2.5,1024,1024,1024,1024,0,0,0,0,68,4.297,73.04,95.800528,P-GPS,,29.2
658,493700,2026-01-12 12:14:32,0.0,5,7.497,0.0,0.0,0.0,8.6,6.0,-2.8,1024,1024,1024,1024,0,0,0,0,68,4.297,73.04,95.800528,P-GPS,,29.2
659,493800,2026-01-12 12:14:32,0.0,5,7.497,0.0,0.0,0.0,8.6,5.8,-3.1,1024,1024,1024,1024,0,0,0,0,68,4.297,73.04,95.800528,P-GPS,,29.2
660,493900,2026-01-12 12:14:32,0.0,5,7.497,0.0,0.0,0.0,8.7,5.3,-2.9,1024,1024,1024,1024,0,0,0,0,68,4.297,73.04,95.800528,P-GPS,,29.2
661,494000,2026-01-12 12:14:32,0.0,5,7.497,0.0,0.0,0.0,8.7,5.3,-2.8,1024,1024,1024,1024,0,0,0,0,68,4.297,73.04,95.800528,P-GPS,,29.2
662,494100,2026-01-12 12:14:32,0.0,5,7.497,0.0,0.0,0.0,8.7,5.2,-2.3,1024,1024,1024,1024,0,0,0,0,68,4.297,73.04,96.128612,P-GPS,,29.3
663,494200,2026-01-12 12:14:32,0.0,5,7.497,0.0,0.0,0.0,8.7,4.9,-2.2,1024,1024,1024,1024,0,0,0,0,68,4.424,73.04,96.128612,P-GPS,,29.3
664,494300,2026-01-12 12:14:32,0.0,5,7.497,0.0,0.0,0.0,8.7,4.9,-2.1,1024,1024,1024,1024,0,0,0,0,68,4.424,73.04,96.128612,P-GPS,,29.3
665,494400,2026-01-12 12:14:33,0.0,5,7.497,0.0,0.0,0.0,8.7,5.2,-2.7,1024,1024,1024,1024,0,0,0,0,68,4.424,73.04,96.128612,P-GPS,,29.3
666,494500,2026-01-12 12:14:33,0.0,5,7.497,0.0,0.0,0.0,8.8,5.1,-2.8,1024,1024,1024,1024,0,0,0,0,68,4.424,73.04,96.128612,P-GPS,,29.3
667,494600,2026-01-12 12:14:33,0.0,5,7.497,0.0,0.0,0.0,8.8,5.4,-2.9,1024,1024,1024,1024,0,0,0,0,68,4.424,73.04,96.128612,P-GPS,,29.3
668,494700,2026-01-12 12:14:33,0.0,5,7.497,0.0,0.0,0.0,8.9,4.1,-2.6,1024,1024,1024,1024,0,0,0,0,68,4.424,73.04,96.128612,P-GPS,,29.3
669,494800,2026-01-12 12:14:33,0.0,5,7.497,0.0,0.0,0.0,9.1,4.1,-2.3,1024,1024,1024,1024,0,0,0,0,68,4.424,73.04,96.128612,P-GPS,,29.3
670,494900,2026-01-12 12:14:33,0.0,5,7.497,0.0,0.0,0.0,8.8,5.6,-2.7,1024,1024,1024,1024,0,0,0,0,68,4.424,73.04,96.128612,P-GPS,,29.3
671,495000,2026-01-12 12:14:33,0.0,5,7.497,0.0,0.0,0.0,8.4,6.0,-3.8,1024,1024,1024,1024,0,0,0,0,68,4.424,73.04,96.128612,P-GPS,,29.3
672,495100,2026-01-12 12:14:33,0.0,5,7.497,0.0,0.0,0.0,8.5,5.8,-3.6,1024,1024,1024,1024,0,0,0,0,68,4.424,73.04,96.128612,P-GPS,,29.3
673,495200,2026-01-12 12:14:33,0.0,5,7.499,0.0,0.0,0.223694,8.5,5.2,-3.3,1024,1024,1024,1024,0,0,0,0,68,4.403,73.04,96.128612,P-GPS,,29.3
674,495300,2026-01-12 12:14:33,0.0,5,7.499,0.0,0.0,0.223694,8.4,4.7,-3.2,1024,1024,1024,1024,0,0,0,0,68,4.403,73.04,96.128612,P-GPS,,29.3
675,495400,2026-01-12 12:14:33,0.0,5,7.499,0.0,0.0,0.0,8.4,4.0,-3.1,1024,1024,1024,1024,0,0,0,0,68,4.403,73.04,96.128612,P-GPS,,29.3
676,495500,2026-01-12 12:14:34,0.0,5,7.499,0.0,0.0,0.0,8.3,4.5,-3.7,1024,1024,1024,1024,0,0,0,0,68,4.403,73.04,96.456696,P-GPS,,29.4
677,495600,2026-01-12 12:14:34,0.0,5,7.499,0.0,0.0,0.0,8.6,3.4,-3.4,1024,1024,1024,1024,0,0,0,0,68,4.403,73.04,96.456696,P-GPS,,29.4
678,495700,2026-01-12 12:14:34,0.0,5,7.499,0.0,0.0,0.0,8.6,3.9,-3.7,1024,1024,1024,1024,0,0,0,0,68,4.403,73.04,96.456696,P-GPS,,29.4
679,495800,2026-01-12 12:14:34,0.0,5,7.499,0.0,0.0,0.0,8.7,4.1,-4.1,1024,1024,1024,1024,0,0,0,0,68,4.403,73.04,96.78478,P-GPS,,29.5
680,495900,2026-01-12 12:14:34,0.0,5,7.499,0.0,0.0,0.0,8.5,4.7,-4.0,1024,1024,1024,1024,0,0,0,0,68,4.403,73.04,96.78478,P-GPS,,29.5
681,496000,2026-01-12 12:14:34,0.0,5,7.499,0.0,0.0,0.0,8.5,4.8,-4.1,1024,1024,1024,1024,0,0,0,0,68,4.403,73.04,97.112864,P-GPS,,29.6
682,496100,2026-01-12 12:14:34,0.0,5,7.499,0.0,0.0,0.0,8.7,4.3,-4.2,1024,1024,1024,1024,0,0,0,0,68,4.403,73.04,97.112864,P-GPS,,29.6
683,496200,2026-01-12 12:14:34,0.0,5,7.488,0.0,0.0,0.0,8.8,3.7,-4.4,1024,1024,1024,1024,0,0,0,0,68,4.31,73.04,97.112864,P-GPS,,29.6
684,496300,2026-01-12 12:14:34,0.0,5,7.488,0.0,0.0,0.0,8.9,2.4,-4.2,1024,1024,1024,1024,0,0,0,0,68,4.31,73.04,97.112864,P-GPS,,29.6
685,496400,2026-01-12 12:14:34,0.0,5,7.488,0.0,0.0,0.0,8.7,2.1,-5.1,1024,1024,1024,1024,0,0,0,0,68,4.31,73.04,97.112864,P-GPS,,29.6
686,496500,2026-01-12 12:14:35,0.0,5,7.488,0.0,0.0,0.0,8.6,3.2,-4.9,1024,1024,1024,1024,0,0,0,0,68,4.31,73.04,97.112864,P-GPS,,29.6
687,496600,2026-01-12 12:14:35,0.0,5,7.488,0.0,0.0,0.0,8.7,3.5,-4.2,1024,1024,1024,1024,0,0,0,0,68,4.31,73.04,97.112864,P-GPS,,29.6
688,496700,2026-01-12 12:14:35,0.0,5,7.488,0.0,0.0,0.0,8.7,3.4,-4.3,1024,1024,1024,1024,0,0,0,0,68,4.31,73.04,97.112864,P-GPS,,29.6
