index,time(millisecond),timestamp,speed(mph),gpslevel,voltage(v),xSpeed(mph),ySpeed(mph),zSpeed(mph),compass_heading(degrees),pitch(degrees),roll(degrees),rc_elevator,rc_aileron,rc_throttle,rc_rudder,rc_elevator(percent),rc_aileron(percent),rc_throttle(percent),rc_rudder(percent),battery_percent,current(A),battery_temperature(f),ascent(feet),flycState,message,height_above_takeoff(meters)
87,151200,2026-01-12 12:08:26,0.0,5,7.762,0.0,0.0,0.0,19.5,2.9,-2.8,1024,1024,1024,1024,0,0,0,0,90,5.227,66.38,37.72966,P-GPS,,11.5
88,151300,2026-01-12 12:08:26,0.0,5,7.762,0.0,0.0,0.0,19.5,2.9,-3.3,1024,1024,1024,1024,0,0,0,0,90,5.227,66.38,37.72966,P-GPS,,11.5
89,151400,2026-01-12 12:08:26,0.0,5,7.762,0.0,0.0,0.0,19.5,2.9,-3.6,1024,1024,1024,1024,0,0,0,0,90,5.227,66.38,37.72966,P-GPS,,11.5
90,151500,2026-01-12 12:08:26,0.0,5,7.762,0.0,0.0,0.0,19.4,3.1,-3.5,1024,1024,1024,1024,0,0,0,0,90,5.227,66.38,38.057744,P-GPS,,11.6
91,151600,2026-01-12 12:08:27,0.0,5,7.753,0.0,0.0,0.0,19.3,2.9,-3.4,1024,1024,1024,1024,0,0,0,0,89,4.787,66.38,38.057744,P-GPS,,11.6
92,151700,2026-01-12 12:08:27,0.0,5,7.753,0.0,0.0,0.0,19.3,2.5,-3.5,1024,1024,1024,1024,0,0,0,0,89,4.787,66.38,38.057744,P-GPS,,11.6
93,151800,2026-01-12 12:08:27,0.0,5,7.753,0.0,0.0,0.0,19.4,2.3,-3.3,1024,1024,1024,1024,0,0,0,0,89,4.787,66.38,38.057744,P-GPS,,11.6
94,151900,2026-01-12 12:08:27,0.0,5,7.753,0.0,0.0,0.0,19.4,2.4,-3.3,1024,1024,1024,1024,0,0,0,0,89,4.787,66.38,38.057744,P-GPS,,11.6
95,152000,2026-01-12 12:08:27,0.0,5,7.753,0.0,0.0,0.0,19.3,2.5,-3.2,1024,1024,1024,1024,0,0,0,0,89,4.787,66.38,38.057744,P-GPS,,11.6
96,152100,2026-01-12 12:08:27,0.0,5,7.753,0.0,0.0,0.0,19.3,1.9,-3.2,1024,1024,1024,1024,0,0,0,0,89,4.787,66.38,38.057744,P-GPS,,11.6
97,152200,2026-01-12 12:08:27,0.0,5,7.753,0.0,0.0,0.0,19.4,2.0,-2.9,1024,1024,1024,1024,0,0,0,0,89,4.787,66.38,38.057744,P-GPS,,11.6
98,152300,2026-01-12 12:08:27,0.0,5,7.753,0.0,0.0,0.0,19.5,1.8,-3.3,1024,1024,1024,1024,0,0,0,0,89,4.787,66.38,38.057744,P-GPS,,11.6
99,152400,2026-01-12 12:08:27,0.0,5,7.753,0.0,0.0,0.0,19.5,1.9,-3.1,1024,1024,1024,1024,0,0,0,0,89,4.787,66.38,38.057744,P-GPS,,11.6
100,152500,2026-01-12 12:08:27,0.0,5,7.753,0.0,0.0,0.0,19.5,1.8,-2.6,1024,1024,1024,1024,0,0,0,0,89,4.787,66.38,38.057744,P-GPS,,11.6
101,152600,2026-01-12 12:08:28,0.0,5,7.753,0.0,0.0,0.0,19.4,2.2,-2.5,1024,1024,1024,1024,0,0,0,0,89,4.787,66.38,38.057744,P-GPS,,11.6
102,152700,2026-01-12 12:08:28,0.0,5,7.753,0.0,0.0,0.0,19.3,2.2,-3.1,1024,1024,1024,1024,0,0,0,0,89,4.787,66.38,38.057744,P-GPS,,11.6
103,152800,2026-01-12 12:08:28,0.0,5,7.733,0.0,0.0,0.0,19.3,2.4,-3.0,1024,1024,1024,1024,0,0,0,0,89,5.121,66.38,38.057744,P-GPS,,11.6
104,152900,2026-01-12 12:08:28,0.0,5,7.733,0.0,0.0,0.0,19.4,2.4,-2.6,1024,1024,1024,1024,0,0,0,0,89,5.121,66.38,38.057744,P-GPS,,11.6
105,153000,2026-01-12 12:08:28,0.0,5,7.733,0.0,0.0,0.0,19.3,2.3,-2.4,1024,1024,1024,1024,0,0,0,0,89,5.121,66.38,38.057744,P-GPS,,11.6
106,153100,2026-01-12 12:08:28,0.0,5,7.733,0.0,0.0,0.0,19.3,2.4,-2.5,1024,1024,1024,1024,0,0,0,0,89,5.121,66.38,38.057744,P-GPS,SD card speed low. Normal use may be affected. Replace SD card (Code: 10028). Gimbal stuck. Make sure gimbal cover is removed and manually check whether gimbal can rotate freely (Code: 40002),11.6
107,153200,2026-01-12 12:08:28,0.0,5,7.733,0.0,0.0,0.0,19.3,2.9,-2.1,1024,1024,1024,1024,0,0,0,0,89,5.121,66.38,38.057744,P-GPS,,11.6
108,153300,2026-01-12 12:08:28,0.0,5,7.733,0.0,0.0,0.0,19.3,2.7,-1.3,1024,1024,1024,1024,0,0,0,0,89,5.121,66.38,38.057744,P-GPS,,11.6
109,153400,2026-01-12 12:08:28,0.0,5,7.733,0.0,0.0,0.0,19.3,3.4,-1.1,1024,1024,1024,1024,0,0,0,0,89,5.121,66.38,38.057744,P-GPS,,11.6
110,153500,2026-01-12 12:08:28,0.0,5,7.733,0.0,0.0,0.0,19.4,3.5,-1.4,1024,1024,1024,1024,0,0,0,0,89,5.121,66.38,38.057744,P-GPS,,11.6
111,153600,2026-01-12 12:08:29,0.0,5,7.733,0.0,0.0,0.0,19.4,3.8,-1.8,1024,1024,1024,1024,0,0,0,0,89,5.121,66.38,38.057744,P-GPS,,11.6
112,153700,2026-01-12 12:08:29,0.0,5,7.733,0.0,0.0,0.0,19.5,3.8,-1.6,1024,1024,1024,1024,0,0,0,0,89,5.121,66.38,38.057744,P-GPS,,11.6
113,153800,2026-01-12 12:08:29,0.0,5,7.733,0.0,0.0,0.0,19.4,3.6,-1.5,1024,1024,1024,1024,0,0,0,0,89,5.121,66.38,38.057744,P-GPS,,11.6
114,153900,2026-01-12 12:08:29,0.0,5,7.753,0.0,0.0,0.0,19.3,3.6,-1.6,1024,1024,1024,1024,0,0,0,0,89,5.174,66.56,38.057744,P-GPS,,11.6
115,154000,2026-01-12 12:08:29,0.0,5,7.753,0.0,0.0,0.0,19.5,3.8,-1.8,1024,1024,1024,1024,0,0,0,0,89,5.174,66.56,38.057744,P-GPS,,11.6
116,154100,2026-01-12 12:08:29,0.0,5,7.753,0.0,0.0,0.0,19.6,3.7,-2.3,1024,1024,1024,1024,0,0,0,0,89,5.174,66.56,38.057744,P-GPS,,11.6
117,154200,2026-01-12 12:08:29,0.0,5,7.753,0.0,0.0,0.0,19.6,3.8,-2.1,1024,1024,1024,1024,0,0,0,0,89,5.174,66.56,38.057744,P-GPS,,11.6
118,154300,2026-01-12 12:08:29,0.0,5,7.753,0.0,0.0,0.0,19.7,3.8,-2.3,1024,1024,1024,1024,0,0,0,0,89,5.174,66.56,38.057744,P-GPS,,11.6
119,154400,2026-01-12 12:08:29,0.0,5,7.753,0.0,0.0,0.0,19.6,3.8,-2.0,1024,1024,1024,1024,0,0,0,0,89,5.174,66.56,37.72966,P-GPS,,11.5
120,154500,2026-01-12 12:08:29,0.0,5,7.753,0.0,0.0,0.0,19.5,4.2,-2.1,1024,1024,1024,1024,0,0,0,0,89,5.174,66.56,37.72966,P-GPS,,11.5
121,154600,2026-01-12 12:08:30,0.0,5,7.753,0.0,0.0,0.0,19.5,4.3,-2.3,1024,1024,1024,1024,0,0,0,0,89,5.174,66.56,37.72966,P-GPS,,11.5
122,154700,2026-01-12 12:08:30,0.0,5,7.753,0.0,0.0,0.0,19.5,4.6,-2.1,1024,1024,1024,1024,0,0,0,0,89,5.174,66.56,37.72966,P-GPS,,11.5
123,154800,2026-01-12 12:08:30,0.0,5,7.753,0.0,0.0,0.0,19.5,5.1,-1.7,1024,1024,1024,1024,0,0,0,0,89,5.174,66.56,37.72966,P-GPS,,11.5
124,154900,2026-01-12 12:08:30,0.0,5,7.753,0.0,0.0,0.0,19.5,4.7,-1.3,1024,1024,1024,1024,0,0,0,0,89,5.174,66.56,37.72966,P-GPS,,11.5
125,155000,2026-01-12 12:08:30,0.0,5,7.765,0.0,0.0,0.0,19.4,5.0,-1.0,1024,1024,1024,1024,0,0,0,0,89,4.57,66.56,37.72966,P-GPS,,11.5
126,155100,2026-01-12 12:08:30,0.0,5,7.765,0.0,0.0,0.0,19.4,5.7,-0.6,1024,1024,1024,1024,0,0,0,0,89,4.57,66.56,37.72966,P-GPS,,11.5
127,155200,2026-01-12 12:08:30,0.0,5,7.765,0.0,0.0,0.0,19.5,6.7,-1.0,1024,1024,1024,1024,0,0,0,0,89,4.57,66.56,37.72966,P-GPS,,11.5
128,155300,2026-01-12 12:08:30,0.0,5,7.765,0.0,0.0,0.0,19.7,5.7,-1.4,1024,1024,1024,1024,0,0,0,0,89,4.57,66.56,37.72966,P-GPS,,11.5
129,155400,2026-01-12 12:08:30,0.0,5,7.765,0.0,0.0,0.0,19.5,5.4,-1.4,1024,1024,1024,1024,0,0,0,0,89,4.57,66.56,37.72966,P-GPS,,11.5
130,155500,2026-01-12 12:08:30,0.0,5,7.765,0.0,0.0,0.0,19.4,4.5,-1.3,1024,1024,1024,1024,0,0,0,0,89,4.57,66.56,37.72966,P-GPS,,11.5
131,155600,2026-01-12 12:08:31,0.223694,5,7.765,-0.223694,0.0,0.0,19.5,3.4,-1.4,1024,1024,1024,1024,0,0,0,0,89,4.57,66.56,37.72966,P-GPS,,11.5
132,155700,2026-01-12 12:08:31,0.223694,5,7.765,-0.223694,0.0,0.0,19.5,2.3,-1.0,1024,1024,1024,1024,0,0,0,0,89,4.57,66.56,37.72966,P-GPS,,11.5
133,155800,2026-01-12 12:08:31,0.223694,5,7.765,-0.223694,0.0,0.0,19.5,1.7,-0.5,1024,1024,1024,1024,0,0,0,0,89,4.57,66.56,37.72966,P-GPS,,11.5
134,155900,2026-01-12 12:08:31,0.0,5,7.765,0.0,0.0,0.0,19.5,2.2,-0.5,1024,1024,1024,1024,0,0,0,0,89,4.57,66.56,37.72966,P-GPS,,11.5
135,156000,2026-01-12 12:08:31,0.0,5,7.765,0.0,0.0,0.0,19.6,2.9,-0.6,1024,1024,1024,1024,0,0,0,0,89,4.57,66.56,37.72966,P-GPS,,11.5
136,156100,2026-01-12 12:08:31,0.0,5,7.718,0.0,0.0,0.0,19.5,3.2,-1.1,1024,1024,1024,1024,0,0,0,0,89,5.2,66.56,37.72966,P-GPS,,11.5
137,156200,2026-01-12 12:08:31,0.0,5,7.718,0.0,0.0,0.0,19.4,3.5,-1.5,1024,1024,1024,1024,0,0,0,0,89,5.2,66.56,37.72966,P-GPS,,11.5
138,156300,2026-01-12 12:08:31,0.223694,5,7.718,-0.223694,0.0,0.0,19.3,2.9,-1.6,1024,1024,1024,1024,0,0,0,0,89,5.2,66.56,37.72966,P-GPS,,11.5
139,156400,2026-01-12 12:08:31,0.223694,5,7.718,-0.223694,0.0,0.0,19.3,2.4,-1.8,1024,1024,1024,1024,0,0,0,0,89,5.2,66.56,37.72966,P-GPS,,11.5
140,156500,2026-01-12 12:08:31,0.223694,5,7.718,-0.223694,0.0,0.0,19.1,2.1,-2.3,1024,1024,1024,1024,0,0,0,0,89,5.2,66.56,37.72966,P-GPS,,11.5
141,156600,2026-01-12 12:08:32,0.223694,5,7.718,-0.223694,0.0,0.0,19.2,2.1,-1.8,1024,1024,1024,1024,0,0,0,0,89,5.2,66.56,37.72966,P-GPS,,11.5
142,156700,2026-01-12 12:08:32,0.223694,5,7.718,-0.223694,0.0,0.0,19.3,2.0,-2.0,1024,1024,1024,1024,0,0,0,0,89,5.2,66.56,37.72966,P-GPS,,11.5
143,156800,2026-01-12 12:08:32,0.223694,5,7.718,-0.223694,0.0,0.0,19.4,1.5,-2.5,1024,1024,1024,1024,0,0,0,0,89,5.2,66.56,37.72966,P-GPS,,11.5
144,156900,2026-01-12 12:08:32,0.223694,5,7.718,-0.223694,0.0,0.0,19.3,1.4,-2.6,1024,1024,1024,1024,0,0,0,0,89,5.2,66.56,37.72966,P-GPS,,11.5
145,157000,2026-01-12 12:08:32,0.223694,5,7.718,-0.223694,0.0,0.0,19.4,1.3,-2.4,1024,1024,1024,1024,0,0,0,0,89,5.2,66.56,37.72966,P-GPS,,11.5
146,157100,2026-01-12 12:08:32,0.0,5,7.718,0.0,0.0,0.0,19.4,1.3,-2.3,1024,1024,1024,1024,0,0,0,0,89,5.2,66.56,37.72966,P-GPS,,11.5
147,157200,2026-01-12 12:08:32,0.0,5,7.755,0.0,0.0,0.0,19.5,1.4,-2.2,1024,1024,1024,1024,0,0,0,0,89,4.889,66.56,37.72966,P-GPS,,11.5
148,157300,2026-01-12 12:08:32,0.0,5,7.755,0.0,0.0,0.0,19.5,1.6,-1.8,1024,1024,1024,1024,0,0,0,0,89,4.889,66.56,37.72966,P-GPS,,11.5
149,157400,2026-01-12 12:08:32,0.0,5,7.755,0.0,0.0,0.0,19.5,1.5,-1.6,1024,1024,1024,1024,0,0,0,0,89,4.889,66.56,37.72966,P-GPS,,11.5
150,157500,2026-01-12 12:08:32,0.0,5,7.755,0.0,0.0,0.0,19.5,1.4,-1.6,1024,1024,1024,1024,0,0,0,0,89,4.889,66.56,37.72966,P-GPS,,11.5
151,157600,2026-01-12 12:08:33,0.0,5,7.755,0.0,0.0,0.0,19.6,1.3,-1.8,1024,1024,1024,1024,0,0,0,0,89,4.889,66.56,37.401576,P-GPS,,11.4
152,157700,2026-01-12 12:08:33,0.0,5,7.755,0.0,0.0,0.0,19.5,1.4,-1.8,1024,1024,1024,1024,0,0,0,0,89,4.889,66.56,37.401576,P-GPS,,11.4
153,157800,2026-01-12 12:08:33,0.0,5,7.755,0.0,0.0,0.0,19.6,1.8,-2.2,1024,1024,1024,1024,0,0,0,0,89,4.889,66.56,37.401576,P-GPS,,11.4
154,157900,2026-01-12 12:08:33,0.0,5,7.755,0.0,0.0,0.0,19.6,1.3,-2.3,1024,1024,1024,1024,0,0,0,0,89,4.889,66.56,37.401576,P-GPS,,11.4
155,158000,2026-01-12 12:08:33,0.0,5,7.755,0.0,0.0,0.0,19.6,1.7,-1.9,1024,1024,1024,1024,0,0,0,0,89,4.889,66.56,37.401576,P-GPS,,11.4
156,158100,2026-01-12 12:08:33,0.0,5,7.755,0.0,0.0,0.0,19.7,2.1,-1.5,1024,1024,1024,1024,0,0,0,0,89,4.889,66.56,37.401576,P-GPS,,11.4
157,158200,2026-01-12 12:08:33,0.0,5,7.755,0.0,0.0,0.0,19.8,2.3,-1.5,1024,1024,1024,1024,0,0,0,0,89,4.889,66.56,37.401576,P-GPS,,11.4
158,158300,2026-01-12 12:08:33,0.0,5,7.763,0.0,0.0,0.0,19.8,2.7,-2.0,1024,1024,1024,1024,0,0,0,0,89,4.558,66.56,37.401576,P-GPS,,11.4
159,158400,2026-01-12 12:08:33,0.0,5,7.763,0.0,0.0,0.0,19.7,3.0,-2.2,1024,1024,1024,1024,0,0,0,0,89,4.558,66.56,37.72966,P-GPS,,11.5
160,158500,2026-01-12 12:08:33,0.0,5,7.763,0.0,0.0,0.0,19.7,2.9,-2.1,1024,1024,1024,1024,0,0,0,0,89,4.558,66.56,37.72966,P-GPS,,11.5
161,158600,2026-01-12 12:08:34,0.0,5,7.763,0.0,0.0,0.0,19.7,3.1,-1.9,1024,1024,1024,1024,0,0,0,0,89,4.558,66.56,37.72966,P-GPS,,11.5
162,158700,2026-01-12 12:08:34,0.0,5,7.763,0.0,0.0,0.0,19.7,3.4,-2.0,1024,1024,1024,1024,0,0,0,0,89,4.558,66.56,37.72966,P-GPS,,11.5
163,158800,2026-01-12 12:08:34,0.0,5,7.763,0.0,0.0,0.0,19.7,3.9,-1.7,1024,1024,1024,1024,0,0,0,0,89,4.558,66.56,37.72966,P-GPS,,11.5
164,158900,2026-01-12 12:08:34,0.0,5,7.763,0.0,0.0,0.0,19.8,3.9,-1.6,1024,1024,1024,1024,0,0,0,0,89,4.558,66.56,37.72966,P-GPS,,11.5
165,159000,2026-01-12 12:08:34,0.0,5,7.763,0.0,0.0,0.0,19.8,3.8,-1.8,1024,1024,1024,1024,0,0,0,0,89,4.558,66.56,37.72966,P-GPS,,11.5
166,159100,2026-01-12 12:08:34,0.0,5,7.763,0.0,0.0,0.0,19.8,3.7,-2.3,1024,1024,1024,1024,0,0,0,0,89,4.558,66.56,37.72966,P-GPS,,11.5
167,159200,2026-01-12 12:08:34,0.0,5,7.763,0.0,0.0,0.0,19.8,4.0,-2.3,1024,1024,1024,1024,0,0,0,0,89,4.558,66.56,37.72966,P-GPS,,11.5
168,159300,2026-01-12 12:08:34,0.0,5,7.763,0.0,0.0,0.0,19.8,3.8,-2.6,1024,1024,1024,1024,0,0,0,0,89,4.558,66.56,37.72966,P-GPS,,11.5
169,159400,2026-01-12 12:08:34,0.0,5,7.763,0.0,0.0,0.0,19.7,3.7,-2.6,1024,1024,1024,1024,0,0,0,0,89,4.558,66.56,37.72966,P-GPS,,11.5
170,159500,2026-01-12 12:08:34,0.0,5,7.763,0.0,0.0,0.0,19.7,3.7,-2.3,1024,1024,1024,1024,0,0,0,0,89,4.558,66.56,37.72966,P-GPS,,11.5
171,159600,2026-01-12 12:08:35,0.0,5,7.763,0.0,0.0,0.0,19.5,3.9,-2.1,1024,1024,1024,1024,0,0,0,0,89,4.558,66.56,37.72966,P-GPS,,11.5
172,159700,2026-01-12 12:08:35,0.0,5,7.763,0.0,0.0,0.0,19.4,4.3,-2.0,1024,1024,1024,1024,0,0,0,0,89,4.558,66.56,37.72966,P-GPS,,11.5
173,159800,2026-01-12 12:08:35,0.0,5,7.763,0.0,0.0,0.0,19.5,4.4,-1.6,1024,1024,1024,1024,0,0,0,0,89,4.558,66.56,37.72966,P-GPS,,11.5
174,159900,2026-01-12 12:08:35,0.0,5,7.763,0.0,0.0,0.0,19.5,4.4,-1.6,1024,1024,1024,1024,0,0,0,0,89,4.558,66.56,37.72966,P-GPS,,11.5
175,160000,2026-01-12 12:08:35,0.0,5,7.763,0.0,0.0,0.0,19.4,4.0,-1.4,1024,1024,1024,1024,0,0,0,0,89,4.558,66.56,37.72966,P-GPS,,11.5
176,160100,2026-01-12 12:08:35,0.0,5,7.763,0.0,0.0,0.0,19.5,3.3,-1.1,1024,1024,1024,1024,0,0,0,0,89,4.558,66.56,37.72966,P-GPS,,11.5
177,160200,2026-01-12 12:08:35,0.0,5,7.763,0.0,0.0,0.0,19.5,2.7,-1.0,1024,1024,1024,1024,0,0,0,0,89,4.558,66.56,37.72966,P-GPS,,11.5
178,160300,2026-01-12 12:08:35,0.0,5,7.763,0.0,0.0,0.0,19.4,2.6,-1.5,1024,1024,1024,1024,0,0,0,0,89,4.558,66.56,37.72966,P-GPS,,11.5
179,160400,2026-01-12 12:08:35,0.0,5,7.764,0.0,0.0,0.0,19.6,2.1,-1.8,1024,1024,1024,1024,0,0,0,0,89,4.554,66.56,37.72966,P-GPS,,11.5
180,160500,2026-01-12 12:08:35,0.0,5,7.764,0.0,0.0,0.0,19.5,3.0,-2.5,1024,1024,1024,1024,0,0,0,0,89,4.554,66.56,37.72966,P-GPS,,11.5
181,160600,2026-01-12 12:08:36,0.0,5,7.764,0.0,0.0,0.0,19.5,3.7,-1.5,1024,1024,1024,1024,0,0,0,0,89,4.554,66.56,37.72966,P-GPS,,11.5
182,160700,2026-01-12 12:08:36,0.0,5,7.764,0.0,0.0,0.0,19.4,4.9,-1.3,1024,1024,1024,1024,0,0,0,0,89,4.554,66.56,37.72966,P-GPS,,11.5
183,160800,2026-01-12 12:08:36,0.0,5,7.764,0.0,0.0,0.0,19.4,5.1,-0.9,1024,1024,1024,1024,0,0,0,0,89,4.554,66.56,37.401576,P-GPS,,11.4
184,160900,2026-01-12 12:08:36,0.0,5,7.764,0.0,0.0,0.0,19.5,4.7,0.0,1024,1024,1024,1024,0,0,0,0,89,4.554,66.56,37.401576,P-GPS,,11.4
185,161000,2026-01-12 12:08:36,0.0,5,7.764,0.0,0.0,0.0,19.5,4.9,0.3,1024,1024,1024,1024,0,0,0,0,89,4.554,66.56,37.401576,P-GPS,,11.4
186,161100,2026-01-12 12:08:36,0.0,5,7.764,0.0,0.0,0.0,19.3,4.7,0.2,1024,1024,1024,1024,0,0,0,0,89,4.554,66.56,37.401576,P-GPS,,11.4
187,161200,2026-01-12 12:08:36,0.0,5,7.764,0.0,0.0,0.0,19.3,4.2,-0.1,1024,1024,1024,1024,0,0,0,0,89,4.554,66.56,37.401576,P-GPS,,11.4
188,161300,2026-01-12 12:08:36,0.0,5,7.764,0.0,0.0,0.0,19.5,3.6,-0.3,1024,1024,1024,1024,0,0,0,0,89,4.554,66.56,37.401576,P-GPS,,11.4
189,161400,2026-01-12 12:08:36,0.223694,5,7.764,-0.223694,0.0,0.0,19.6,3.1,-0.4,1024,1024,1024,1024,0,0,0,0,89,4.554,66.56,37.401576,P-GPS,,11.4
190,161500,2026-01-12 12:08:36,0.223694,5,7.764,-0.223694,0.0,0.0,19.7,2.9,-0.5,1024,1024,1024,1024,0,0,0,0,89,4.554,66.56,37.401576,P-GPS,,11.4
191,161600,2026-01-12 12:08:37,0.223694,5,7.761,-0.223694,0.0,0.0,19.6,2.3,-0.8,1024,1024,1024,1024,0,0,0,0,89,4.418,66.74,37.401576,P-GPS,,11.4
192,161700,2026-01-12 12:08:37,0.223694,5,7.761,-0.223694,0.0,0.0,19.5,1.4,-1.3,1024,1024,1024,1024,0,0,0,0,89,4.418,66.74,37.401576,P-GPS,,11.4
193,161800,2026-01-12 12:08:37,0.223694,5,7.761,-0.223694,0.0,0.0,19.5,1.7,-1.6,1024,1024,1024,1024,0,0,0,0,89,4.418,66.74,37.401576,P-GPS,,11.4
194,161900,2026-01-12 12:08:37,0.223694,5,7.761,-0.223694,0.0,0.0,19.4,1.4,-1.9,1024,1024,1024,1024,0,0,0,0,89,4.418,66.74,37.401576,P-GPS,,11.4
195,162000,2026-01-12 12:08:37,0.223694,5,7.761,-0.223694,0.0,0.0,19.4,0.8,-3.1,1024,1024,1024,1024,0,0,0,0,89,4.418,66.74,37.401576,P-GPS,,11.4
196,162100,2026-01-12 12:08:37,0.223694,5,7.761,-0.223694,0.0,0.0,19.4,0.1,-2.9,1024,1024,1024,1024,0,0,0,0,89,4.418,66.74,37.401576,P-GPS,,11.4
197,162200,2026-01-12 12:08:37,0.0,5,7.761,0.0,0.0,0.0,19.6,1.0,-2.8,1024,1024,1024,1024,0,0,0,0,89,4.418,66.74,37.401576,P-GPS,,11.4
198,162300,2026-01-12 12:08:37,0.0,5,7.761,0.0,0.0,0.0,19.6,1.5,-2.7,1024,1024,1024,1024,0,0,0,0,89,4.418,66.74,37.401576,P-GPS,,11.4
199,162400,2026-01-12 12:08:37,0.0,5,7.761,0.0,0.0,0.0,19.7,2.0,-2.7,1024,1024,1024,1024,0,0,0,0,89,4.418,66.74,37.401576,P-GPS,,11.4
200,162500,2026-01-12 12:08:37,0.0,5,7.761,0.0,0.0,0.0,19.8,3.2,-3.4,1024,1024,1024,1024,0,0,0,0,89,4.418,66.74,37.72966,P-GPS,,11.5
201,162600,2026-01-12 12:08:38,0.0,5,7.761,0.0,0.0,0.0,19.9,3.4,-3.8,1024,1024,1024,1024,0,0,0,0,89,4.418,66.74,37.72966,P-GPS,,11.5
202,162700,2026-01-12 12:08:38,0.0,5,7.77,0.0,0.0,0.0,19.9,3.6,-3.6,1024,1024,1024,1024,0,0,0,0,89,4.593,66.74,37.72966,P-GPS,,11.5
203,162800,2026-01-12 12:08:38,0.0,5,7.77,0.0,0.0,0.0,19.8,4.6,-3.6,1024,1024,1024,1024,0,0,0,0,89,4.593,66.74,37.72966,P-GPS,,11.5
204,162900,2026-01-12 12:08:38,0.0,5,7.77,0.0,0.0,0.0,19.8,5.6,-3.7,1024,1024,1024,1024,0,0,0,0,89,4.593,66.74,37.72966,P-GPS,,11.5
205,163000,2026-01-12 12:08:38,0.0,5,7.77,0.0,0.0,0.0,19.7,5.7,-3.6,1024,1024,1024,1024,0,0,0,0,89,4.593,66.74,37.72966,P-GPS,,11.5
206,163100,2026-01-12 12:08:38,0.0,5,7.77,0.0,0.0,0.0,19.7,5.6,-3.2,1024,1024,1024,1024,0,0,0,0,89,4.593,66.74,38.057744,P-GPS,,11.6
207,163200,2026-01-12 12:08:38,0.0,5,7.77,0.0,0.0,0.0,19.7,6.0,-2.9,1024,1024,1024,1024,0,0,0,0,89,4.593,66.74,38.057744,P-GPS,,11.6
208,163300,2026-01-12 12:08:38,0.0,5,7.77,0.0,0.0,0.0,19.7,6.4,-2.7,1024,1024,1024,1024,0,0,0,0,89,4.593,66.74,38.057744,P-GPS,,11.6
209,163400,2026-01-12 12:08:38,0.0,5,7.77,0.0,0.0,0.0,19.6,6.4,-2.7,1024,1024,1024,1024,0,0,0,0,89,4.593,66.74,38.057744,P-GPS,,11.6
210,163500,2026-01-12 12:08:38,0.0,5,7.77,0.0,0.0,0.0,19.6,6.4,-2.6,1024,1024,1024,1024,0,0,0,0,89,4.593,66.74,38.385828,P-GPS,,11.7
211,163600,2026-01-12 12:08:39,0.0,5,7.77,0.0,0.0,0.0,19.5,6.5,-2.9,1024,1024,1024,1024,0,0,0,0,89,4.593,66.74,38.385828,P-GPS,,11.7
212,163700,2026-01-12 12:08:39,0.0,5,7.77,0.0,0.0,0.0,19.6,6.4,-3.2,1024,1024,1024,1024,0,0,0,0,89,4.593,66.74,38.385828,P-GPS,,11.7
213,163800,2026-01-12 12:08:39,0.0,5,7.763,0.0,0.0,0.0,19.5,6.5,-3.1,1024,1024,1024,1024,0,0,0,0,89,4.567,66.74,38.385828,P-GPS,,11.7
214,163900,2026-01-12 12:08:39,0.0,5,7.763,0.0,0.0,0.0,19.5,6.3,-3.2,1024,1024,1024,1024,0,0,0,0,89,4.567,66.74,38.713912,P-GPS,,11.8
215,164000,2026-01-12 12:08:39,0.0,5,7.763,0.0,0.0,0.0,19.4,6.5,-3.0,1024,1024,1024,1024,0,0,0,0,89,4.567,66.74,38.713912,P-GPS,,11.8
216,164100,2026-01-12 12:08:39,0.0,5,7.763,0.0,0.0,0.0,19.4,6.2,-2.7,1024,1024,1024,1024,0,0,0,0,89,4.567,66.74,38.713912,P-GPS,,11.8
217,164200,2026-01-12 12:08:39,0.0,5,7.763,0.0,0.0,0.0,19.4,6.0,-2.4,1024,1024,1024,1024,0,0,0,0,89,4.567,66.74,38.713912,P-GPS,,11.8
218,164300,2026-01-12 12:08:39,0.0,5,7.763,0.0,0.0,0.0,19.4,5.6,-2.2,1024,1024,1024,1024,0,0,0,0,89,4.567,66.74,38.713912,P-GPS,,11.8
219,164400,2026-01-12 12:08:39,0.0,5,7.763,0.0,0.0,0.0,19.4,5.2,-2.3,1024,1024,1024,1024,0,0,0,0,89,4.567,66.74,38.713912,P-GPS,,11.8
220,164500,2026-01-12 12:08:39,0.0,5,7.763,0.0,0.0,0.0,19.4,5.0,-2.4,1024,1024,1024,1024,0,0,0,0,89,4.567,66.74,38.713912,P-GPS,,11.8
221,164600,2026-01-12 12:08:40,0.0,5,7.763,0.0,0.0,0.0,19.4,5.1,-2.5,1024,1024,1024,1024,0,0,0,0,89,4.567,66.74,38.385828,P-GPS,,11.7
222,164700,2026-01-12 12:08:40,0.0,5,7.763,0.0,0.0,0.0,19.4,5.3,-2.6,1024,1024,1024,1024,0,0,0,0,89,4.567,66.74,38.385828,P-GPS,,11.7
223,164800,2026-01-12 12:08:40,0.0,5,7.763,0.0,0.0,0.0,19.4,5.6,-2.6,1024,1024,1024,1024,0,0,0,0,89,4.567,66.74,38.385828,P-GPS,,11.7
224,164900,2026-01-12 12:08:40,0.0,5,7.78,0.0,0.0,0.0,19.5,5.3,-2.3,1024,1024,1024,1024,0,0,0,0,89,4.391,66.74,38.385828,P-GPS,,11.7
225,165000,2026-01-12 12:08:40,0.0,5,7.78,0.0,0.0,0.0,19.6,4.9,-2.5,1024,1024,1024,1024,0,0,0,0,89,4.391,66.74,38.385828,P-GPS,,11.7
226,165100,2026-01-12 12:08:40,0.0,5,7.78,0.0,0.0,0.0,19.6,4.7,-2.6,1024,1024,1024,1024,0,0,0,0,89,4.391,66.74,38.385828,P-GPS,,11.7
227,165200,2026-01-12 12:08:40,0.223694,5,7.78,-0.223694,0.0,0.0,19.6,4.5,-2.8,1024,1024,1024,1024,0,0,0,0,89,4.391,66.74,38.385828,P-GPS,,11.7
228,165300,2026-01-12 12:08:40,0.223694,5,7.78,-0.223694,0.0,0.0,19.6,4.3,-2.5,1024,1024,1024,1024,0,0,0,0,89,4.391,66.74,38.385828,P-GPS,,11.7
229,165400,2026-01-12 12:08:40,0.0,5,7.78,0.0,0.0,0.0,19.5,3.8,-3.0,1024,1024,1024,1024,0,0,0,0,89,4.391,66.74,38.385828,P-GPS,,11.7
230,165500,2026-01-12 12:08:40,0.0,5,7.78,0.0,0.0,0.0,19.5,4.1,-2.6,1024,1024,1024,1024,0,0,0,0,89,4.391,66.74,38.057744,P-GPS,,11.6
231,165600,2026-01-12 12:08:40,0.0,5,7.78,0.0,0.0,0.0,19.5,4.7,-2.3,1024,1024,1024,1024,0,0,0,0,89,4.391,66.74,38.057744,P-GPS,,11.6
232,165700,2026-01-12 12:08:41,0.0,5,7.78,0.0,0.0,0.0,19.5,4.5,-2.3,1024,1024,1024,1024,0,0,0,0,89,4.391,66.74,38.057744,P-GPS,,11.6
233,165800,2026-01-12 12:08:41,0.0,5,7.78,0.0,0.0,0.0,19.5,5.2,-2.3,1024,1024,1024,1024,0,0,0,0,89,4.391,66.74,38.057744,P-GPS,,11.6
234,165900,2026-01-12 12:08:41,0.0,5,7.78,0.0,0.0,0.0,19.4,6.2,-2.5,1024,1024,1024,1024,0,0,0,0,89,4.391,66.74,38.057744,P-GPS,,11.6
235,166000,2026-01-12 12:08:41,0.0,5,7.766,0.0,0.0,0.0,19.3,5.9,-2.8,1024,1024,1024,1024,0,0,0,0,89,4.384,66.74,37.72966,P-GPS,,11.5
236,166100,2026-01-12 12:08:41,0.0,5,7.766,0.0,0.0,0.0,19.4,5.5,-2.3,1024,1024,1024,1024,0,0,0,0,89,4.384,66.74,37.72966,P-GPS,,11.5
237,166200,2026-01-12 12:08:41,0.0,5,7.766,0.0,0.0,0.0,19.4,5.2,-2.2,1024,1024,1024,1024,0,0,0,0,89,4.384,66.74,37.72966,P-GPS,,11.5
238,166300,2026-01-12 12:08:41,0.0,5,7.766,0.0,0.0,0.0,19.4,5.2,-1.6,1024,1024,1024,1024,0,0,0,0,89,4.384,66.74,37.72966,P-GPS,,11.5
239,166400,2026-01-12 12:08:41,0.0,5,7.766,0.0,0.0,0.0,19.3,6.0,-1.7,1024,1024,1024,1024,0,0,0,0,89,4.384,66.74,37.72966,P-GPS,,11.5
240,166500,2026-01-12 12:08:41,0.0,5,7.766,0.0,0.0,0.0,19.3,6.0,-1.3,1024,1024,1024,1024,0,0,0,0,89,4.384,66.74,37.72966,P-GPS,,11.5
241,166600,2026-01-12 12:08:42,0.0,5,7.766,0.0,0.0,0.0,19.3,5.5,-0.8,1024,1024,1024,1024,0,0,0,0,89,4.384,66.74,37.72966,P-GPS,,11.5
242,166700,2026-01-12 12:08:42,0.0,5,7.766,0.0,0.0,0.0,19.4,5.5,-0.1,1024,1024,1024,1024,0,0,0,0,89,4.384,66.74,37.72966,P-GPS,,11.5
243,166800,2026-01-12 12:08:42,0.0,5,7.766,0.0,0.0,0.0,19.5,5.8,-0.3,1024,1024,1024,1024,0,0,0,0,89,4.384,66.74,37.72966,P-GPS,,11.5
244,166900,2026-01-12 12:08:42,0.0,5,7.766,0.0,0.0,0.0,19.5,5.7,-1.1,1024,1024,1024,1024,0,0,0,0,89,4.384,66.74,37.72966,P-GPS,,11.5
245,167000,2026-01-12 12:08:42,0.0,5,7.766,0.0,0.0,0.0,19.5,5.6,-1.5,1024,1024,1024,1024,0,0,0,0,89,4.384,66.74,37.72966,P-GPS,,11.5
246,167100,2026-01-12 12:08:42,0.0,5,7.787,0.0,0.0,0.0,19.4,6.0,-2.6,1024,1024,1024,1024,0,0,0,0,88,4.404,66.74,37.72966,P-GPS,,11.5
247,167200,2026-01-12 12:08:42,0.0,5,7.787,0.0,0.0,0.0,19.4,5.8,-3.1,1024,1024,1024,1024,0,0,0,0,88,4.404,66.74,37.72966,P-GPS,,11.5
248,167300,2026-01-12 12:08:42,0.0,5,7.787,0.0,0.0,0.0,19.3,6.1,-3.7,1024,1024,1024,1024,0,0,0,0,88,4.404,66.74,37.72966,P-GPS,,11.5
249,167400,2026-01-12 12:08:42,0.0,5,7.787,0.0,0.0,0.0,19.3,5.7,-3.5,1024,1024,1024,1024,0,0,0,0,88,4.404,66.74,37.72966,P-GPS,,11.5
250,167500,2026-01-12 12:08:42,0.0,5,7.787,0.0,0.0,0.0,19.4,5.5,-3.1,1024,1024,1024,1024,0,0,0,0,88,4.404,66.74,37.72966,P-GPS,,11.5
251,167600,2026-01-12 12:08:43,0.0,5,7.787,0.0,0.0,0.0,19.3,5.8,-3.5,1024,1024,1024,1024,0,0,0,0,88,4.404,66.74,37.72966,P-GPS,,11.5
252,167700,2026-01-12 12:08:43,0.0,5,7.787,0.0,0.0,0.0,19.3,6.0,-3.0,1024,1024,1024,1024,0,0,0,0,88,4.404,66.74,37.72966,P-GPS,,11.5
253,167800,2026-01-12 12:08:43,0.0,5,7.787,0.0,0.0,0.0,19.2,6.3,-2.3,1024,1024,1024,1024,0,0,0,0,88,4.404,66.74,37.401576,P-GPS,,11.4
254,167900,2026-01-12 12:08:43,0.0,5,7.787,0.0,0.0,0.0,19.2,5.8,-1.3,1024,1024,1024,1024,0,0,0,0,88,4.404,66.74,37.401576,P-GPS,,11.4
255,168000,2026-01-12 12:08:43,0.0,5,7.787,0.0,0.0,0.0,19.2,5.2,-0.8,1024,1024,1024,1024,0,0,0,0,88,4.404,66.74,37.401576,P-GPS,,11.4
256,168100,2026-01-12 12:08:43,0.0,5,7.787,0.0,0.0,0.0,18.9,5.4,-0.7,1024,1024,1024,1024,0,0,0,0,88,4.404,66.74,37.401576,P-GPS,,11.4
257,168200,2026-01-12 12:08:43,0.223694,5,7.772,0.0,-0.223694,0.0,19.2,5.1,1.3,1024,1024,1024,1024,0,0,0,0,88,4.466,66.74,37.401576,P-GPS,,11.4
258,168300,2026-01-12 12:08:43,0.0,5,7.772,0.0,0.0,0.0,19.4,4.6,1.3,1024,1024,1024,1024,0,0,0,0,88,4.466,66.74,37.073492,P-GPS,,11.3
259,168400,2026-01-12 12:08:43,0.0,5,7.772,0.0,0.0,0.0,19.7,4.6,-0.3,1024,1024,1024,1024,0,0,0,0,88,4.466,66.74,37.073492,P-GPS,,11.3
260,168500,2026-01-12 12:08:43,0.0,5,7.772,0.0,0.0,0.0,19.6,6.8,-1.6,1024,1024,1024,1024,0,0,0,0,88,4.466,66.74,37.073492,P-GPS,,11.3
261,168600,2026-01-12 12:08:44,0.0,5,7.772,0.0,0.0,0.0,19.5,8.2,-2.9,1024,1024,1024,1024,0,0,0,0,88,4.466,66.74,36.745408,P-GPS,,11.2
262,168700,2026-01-12 12:08:44,0.223694,5,7.772,0.0,0.223694,0.0,19.6,8.5,-3.0,1024,1024,1024,1024,0,0,0,0,88,4.466,66.74,36.745408,P-GPS,,11.2
263,168800,2026-01-12 12:08:44,0.223694,5,7.772,0.0,0.223694,0.0,19.7,8.4,-3.2,1024,1024,1024,1024,0,0,0,0,88,4.466,66.74,36.745408,P-GPS,,11.2
264,168900,2026-01-12 12:08:44,0.223694,5,7.772,0.0,0.223694,0.0,19.7,8.4,-4.0,1024,1024,1024,1024,0,0,0,0,88,4.466,66.74,36.417324,P-GPS,,11.1
265,169000,2026-01-12 12:08:44,0.0,5,7.772,0.0,0.0,0.0,19.7,8.0,-4.4,1024,1024,1024,1024,0,0,0,0,88,4.466,66.74,36.417324,P-GPS,,11.1
266,169100,2026-01-12 12:08:44,0.0,5,7.772,0.0,0.0,0.0,19.6,8.0,-4.6,1024,1024,1024,1024,0,0,0,0,88,4.466,66.74,36.417324,P-GPS,,11.1
267,169200,2026-01-12 12:08:44,0.0,5,7.772,0.0,0.0,0.0,19.6,7.7,-4.5,1024,1024,1024,1024,0,0,0,0,88,4.466,66.74,36.417324,P-GPS,,11.1
268,169300,2026-01-12 12:08:44,0.0,5,7.793,0.0,0.0,0.0,19.5,7.3,-4.4,1024,1024,1024,1024,0,0,0,0,88,3.914,66.74,36.417324,P-GPS,,11.1
269,169400,2026-01-12 12:08:44,0.0,5,7.793,0.0,0.0,0.0,19.4,7.2,-4.3,1024,1024,1024,1024,0,0,0,0,88,3.914,66.74,36.417324,P-GPS,,11.1
270,169500,2026-01-12 12:08:44,0.0,5,7.793,0.0,0.0,0.0,19.5,6.5,-4.2,1024,1024,1024,1024,0,0,0,0,88,3.914,66.74,36.417324,P-GPS,,11.1
271,169600,2026-01-12 12:08:45,0.0,5,7.793,0.0,0.0,0.0,19.5,6.6,-4.2,1024,1024,1024,1024,0,0,0,0,88,3.914,66.74,36.417324,P-GPS,,11.1
272,169700,2026-01-12 12:08:45,0.0,5,7.793,0.0,0.0,0.0,19.5,7.1,-4.5,1024,1024,1024,1024,0,0,0,0,88,3.914,66.74,36.417324,P-GPS,,11.1
273,169800,2026-01-12 12:08:45,0.0,5,7.793,0.0,0.0,0.0,19.5,7.4,-4.1,1024,1024,1024,1024,0,0,0,0,88,3.914,66.74,36.417324,P-GPS,,11.1
274,169900,2026-01-12 12:08:45,0.0,5,7.793,0.0,0.0,0.0,19.5,6.8,-3.4,1024,1024,1024,1024,0,0,0,0,88,3.914,66.74,36.417324,P-GPS,,11.1
275,170000,2026-01-12 12:08:45,0.0,5,7.793,0.0,0.0,0.0,19.5,6.3,-2.8,1024,1024,1024,1024,0,0,0,0,88,3.914,66.74,36.08924,P-GPS,,11.0
276,170100,2026-01-12 12:08:45,0.0,5,7.793,0.0,0.0,0.0,19.5,6.5,-2.7,1024,1024,1024,1024,0,0,0,0,88,3.914,66.74,36.08924,P-GPS,,11.0
277,170200,2026-01-12 12:08:45,0.0,5,7.793,0.0,0.0,0.0,19.4,6.7,-3.3,1024,1024,1024,1024,0,0,0,0,88,3.914,66.74,36.08924,P-GPS,,11.0
278,170300,2026-01-12 12:08:45,0.0,5,7.793,0.0,0.0,0.0,19.3,6.7,-3.2,1024,1024,1024,1024,0,0,0,0,88,3.914,66.74,36.08924,P-GPS,,11.0
279,170400,2026-01-12 12:08:45,0.0,5,7.793,0.0,0.0,0.0,19.2,6.5,-3.0,1024,1024,1024,1024,0,0,0,0,88,3.914,66.74,36.08924,P-GPS,,11.0
280,170500,2026-01-12 12:08:45,0.223694,5,7.793,0.0,-0.223694,0.0,19.2,6.2,-2.5,1024,1024,1024,1024,0,0,0,0,88,3.914,66.74,36.08924,P-GPS,,11.0
281,170600,2026-01-12 12:08:46,0.223694,5,7.793,0.0,-0.223694,0.0,19.2,6.3,-2.0,1024,1024,1024,1024,0,0,0,0,88,3.914,66.74,36.08924,P-GPS,,11.0
282,170700,2026-01-12 12:08:46,0.223694,5,7.793,0.0,-0.223694,0.0,19.2,6.2,-1.7,1024,1024,1024,1024,0,0,0,0,88,3.914,66.74,36.08924,P-GPS,,11.0
283,170800,2026-01-12 12:08:46,0.223694,5,7.793,0.0,-0.223694,0.0,19.1,6.1,-1.4,1024,1024,1024,1024,0,0,0,0,88,3.914,66.74,36.08924,P-GPS,,11.0
284,170900,2026-01-12 12:08:46,0.223694,5,7.793,0.0,-0.223694,0.0,19.2,5.9,-0.7,1024,1024,1024,1024,0,0,0,0,88,3.914,66.74,36.08924,P-GPS,,11.0
285,171000,2026-01-12 12:08:46,0.0,5,7.793,0.0,0.0,0.0,19.2,5.7,-1.0,1024,1024,1024,1024,0,0,0,0,88,3.914,66.74,36.08924,P-GPS,,11.0
286,171100,2026-01-12 12:08:46,0.0,5,7.793,0.0,0.0,0.0,19.2,6.2,-1.2,1024,1024,1024,1024,0,0,0,0,88,3.914,66.74,36.417324,P-GPS,,11.1
287,171200,2026-01-12 12:08:46,0.0,5,7.793,0.0,0.0,0.0,19.3,6.9,-2.1,1024,1024,1024,1024,0,0,0,0,88,3.914,66.74,36.417324,P-GPS,,11.1
288,171300,2026-01-12 12:08:46,0.0,5,7.793,0.0,0.0,0.0,19.0,6.7,-1.6,1024,1024,1024,1024,0,0,0,0,88,3.914,66.74,36.417324,P-GPS,,11.1
289,171400,2026-01-12 12:08:46,0.0,5,7.792,0.0,0.0,0.0,19.0,6.6,-1.4,1024,1024,1024,1024,0,0,0,0,88,4.084,66.74,36.417324,P-GPS,,11.1
290,171500,2026-01-12 12:08:47,0.0,5,7.792,0.0,0.0,0.0,19.1,6.4,-0.9,1024,1024,1024,1024,0,0,0,0,88,4.084,66.74,36.417324,P-GPS,,11.1
291,171600,2026-01-12 12:08:47,0.0,5,7.792,0.0,0.0,0.0,19.2,6.0,-0.7,1024,1024,1024,1024,0,0,0,0,88,4.084,66.74,36.417324,P-GPS,,11.1
292,171700,2026-01-12 12:08:47,0.0,5,7.792,0.0,0.0,0.0,19.3,6.2,-0.7,1024,1024,1024,1024,0,0,0,0,88,4.084,66.74,36.417324,P-GPS,,11.1
293,171800,2026-01-12 12:08:47,0.0,5,7.792,0.0,0.0,0.0,19.2,6.8,-1.2,1024,1024,1024,1024,0,0,0,0,88,4.084,66.74,36.745408,P-GPS,,11.2
294,171900,2026-01-12 12:08:47,0.0,5,7.792,0.0,0.0,0.0,19.1,6.7,-1.8,1024,1024,1024,1024,0,0,0,0,88,4.084,66.74,36.745408,P-GPS,,11.2
295,172000,2026-01-12 12:08:47,0.0,5,7.792,0.0,0.0,0.0,19.1,7.2,-1.5,1024,1024,1024,1024,0,0,0,0,88,4.084,66.74,36.745408,P-GPS,,11.2
296,172100,2026-01-12 12:08:47,0.0,5,7.792,0.0,0.0,0.0,19.1,6.9,-1.5,1024,1024,1024,1024,0,0,0,0,88,4.084,66.74,36.745408,P-GPS,,11.2
297,172200,2026-01-12 12:08:47,0.0,5,7.792,0.0,0.0,0.0,19.1,7.0,-1.3,1024,1024,1024,1024,0,0,0,0,88,4.084,66.74,36.745408,P-GPS,,11.2
298,172300,2026-01-12 12:08:47,0.0,5,7.792,0.0,0.0,0.0,19.1,7.5,-1.3,1024,1024,1024,1024,0,0,0,0,88,4.084,66.74,36.745408,P-GPS,,11.2
299,172400,2026-01-12 12:08:47,0.0,5,7.792,0.0,0.0,0.0,19.2,7.8,-1.2,1024,1024,1024,1024,0,0,0,0,88,4.084,66.74,36.745408,P-GPS,,11.2
300,172500,2026-01-12 12:08:47,0.0,5,7.792,0.0,0.0,0.0,19.2,7.6,-1.5,1024,1024,1024,1024,0,0,0,0,88,4.084,66.74,36.745408,P-GPS,,11.2
301,172600,2026-01-12 12:08:48,0.0,5,7.764,0.0,0.0,0.0,19.2,7.8,-1.5,1024,1024,1024,1024,0,0,0,0,88,4.563,66.74,36.745408,P-GPS,,11.2
302,172700,2026-01-12 12:08:48,0.0,5,7.764,0.0,0.0,0.0,19.3,8.1,-1.3,1024,1024,1024,1024,0,0,0,0,88,4.563,66.74,36.745408,P-GPS,,11.2
303,172800,2026-01-12 12:08:48,0.0,5,7.764,0.0,0.0,0.0,19.3,8.2,-1.3,1024,1024,1024,1024,0,0,0,0,88,4.563,66.74,36.745408,P-GPS,,11.2
304,172900,2026-01-12 12:08:48,0.0,5,7.764,0.0,0.0,0.0,19.4,8.0,-1.3,1024,1024,1024,1024,0,0,0,0,88,4.563,66.74,36.745408,P-GPS,,11.2
305,173000,2026-01-12 12:08:48,0.0,5,7.764,0.0,0.0,0.0,19.4,7.9,-1.3,1024,1024,1024,1024,0,0,0,0,88,4.563,66.74,36.745408,P-GPS,,11.2
306,173100,2026-01-12 12:08:48,0.0,5,7.764,0.0,0.0,0.0,19.4,8.3,-1.6,1024,1024,1024,1024,0,0,0,0,88,4.563,66.74,36.745408,P-GPS,,11.2
307,173200,2026-01-12 12:08:48,0.0,5,7.764,0.0,0.0,0.0,19.3,8.2,-1.7,1024,1024,1024,1024,0,0,0,0,88,4.563,66.74,36.745408,P-GPS,,11.2
308,173300,2026-01-12 12:08:48,0.0,5,7.764,0.0,0.0,0.0,19.2,8.2,-1.8,1024,1024,1024,1024,0,0,0,0,88,4.563,66.74,36.745408,P-GPS,,11.2
309,173400,2026-01-12 12:08:48,0.0,5,7.764,0.0,0.0,0.0,19.2,8.2,-1.8,1024,1024,1024,1024,0,0,0,0,88,4.563,66.74,36.745408,P-GPS,,11.2
310,173500,2026-01-12 12:08:48,0.0,5,7.764,0.0,0.0,0.0,19.2,7.7,-1.5,1024,1024,1024,1024,0,0,0,0,88,4.563,66.74,37.073492,P-GPS,,11.3
311,173600,2026-01-12 12:08:49,0.0,5,7.764,0.0,0.0,0.0,19.2,7.5,-1.9,1024,1024,1024,1024,0,0,0,0,88,4.563,66.74,37.073492,P-GPS,,11.3
312,173700,2026-01-12 12:08:49,0.0,5,7.754,0.0,0.0,0.0,19.2,7.1,-2.0,1024,1024,1024,1024,0,0,0,0,88,4.452,66.74,37.073492,P-GPS,,11.3
313,173800,2026-01-12 12:08:49,0.0,5,7.754,0.0,0.0,0.0,19.2,6.8,-2.1,1024,1024,1024,1024,0,0,0,0,88,4.452,66.74,37.073492,P-GPS,,11.3
314,173900,2026-01-12 12:08:49,0.0,5,7.754,0.0,0.0,0.0,19.3,6.7,-1.9,1024,1024,1024,1024,0,0,0,0,88,4.452,66.74,37.073492,P-GPS,,11.3
315,174000,2026-01-12 12:08:49,0.0,5,7.754,0.0,0.0,0.0,19.4,6.6,-1.7,1024,1024,1024,1024,0,0,0,0,88,4.452,66.74,37.073492,P-GPS,,11.3
316,174100,2026-01-12 12:08:49,0.0,5,7.754,0.0,0.0,0.0,19.4,6.3,-2.0,1024,1024,1024,1024,0,0,0,0,88,4.452,66.74,37.073492,P-GPS,,11.3
317,174200,2026-01-12 12:08:49,0.0,5,7.754,0.0,0.0,0.0,19.4,6.3,-2.4,1024,1024,1024,1024,0,0,0,0,88,4.452,66.74,37.073492,P-GPS,,11.3
318,174300,2026-01-12 12:08:49,0.0,5,7.754,0.0,0.0,0.0,19.4,6.4,-2.8,1024,1024,1024,1024,0,0,0,0,88,4.452,66.74,37.073492,P-GPS,,11.3
319,174400,2026-01-12 12:08:49,0.0,5,7.754,0.0,0.0,0.0,19.3,6.6,-2.8,1024,1024,1024,1024,0,0,0,0,88,4.452,66.74,36.745408,P-GPS,,11.2
320,174500,2026-01-12 12:08:49,0.0,5,7.754,0.0,0.0,0.0,19.3,6.7,-3.0,1024,1024,1024,1024,0,0,0,0,88,4.452,66.74,36.745408,P-GPS,,11.2
321,174600,2026-01-12 12:08:49,0.0,5,7.754,0.0,0.0,0.0,19.2,6.5,-2.7,1024,1024,1024,1024,0,0,0,0,88,4.452,66.74,36.745408,P-GPS,,11.2
322,174700,2026-01-12 12:08:50,0.0,5,7.754,0.0,0.0,0.0,19.2,6.2,-2.2,1024,1024,1024,1024,0,0,0,0,88,4.452,66.74,36.745408,P-GPS,,11.2
323,174800,2026-01-12 12:08:50,0.0,5,7.77,0.0,0.0,0.0,19.2,6.0,-2.0,1024,1024,1024,1024,0,0,0,0,88,4.353,66.74,36.745408,P-GPS,,11.2
324,174900,2026-01-12 12:08:50,0.0,5,7.77,0.0,0.0,0.0,19.2,5.9,-1.8,1024,1024,1024,1024,0,0,0,0,88,4.353,66.74,36.745408,P-GPS,,11.2
325,175000,2026-01-12 12:08:50,0.0,5,7.77,0.0,0.0,0.0,19.3,5.8,-1.8,1024,1024,1024,1024,0,0,0,0,88,4.353,66.74,36.745408,P-GPS,,11.2
326,175100,2026-01-12 12:08:50,0.0,5,7.77,0.0,0.0,0.0,19.3,5.5,-1.6,1024,1024,1024,1024,0,0,0,0,88,4.353,66.74,36.745408,P-GPS,,11.2
327,175200,2026-01-12 12:08:50,0.0,5,7.77,0.0,0.0,0.0,19.2,5.5,-1.6,1024,1024,1024,1024,0,0,0,0,88,4.353,66.74,36.745408,P-GPS,,11.2
328,175300,2026-01-12 12:08:50,0.0,5,7.77,0.0,0.0,0.0,19.2,5.6,-1.3,1024,1024,1024,1024,0,0,0,0,88,4.353,66.74,36.745408,P-GPS,,11.2
329,175400,2026-01-12 12:08:50,0.0,5,7.77,0.0,0.0,0.0,19.2,5.8,-1.3,1024,1024,1024,1024,0,0,0,0,88,4.353,66.74,36.745408,P-GPS,,11.2
330,175500,2026-01-12 12:08:50,0.0,5,7.77,0.0,0.0,0.0,19.2,6.0,-1.2,1024,1024,1024,1024,0,0,0,0,88,4.353,66.74,36.745408,P-GPS,,11.2
331,175600,2026-01-12 12:08:51,0.0,5,7.77,0.0,0.0,0.0,19.3,6.2,-1.5,1024,1024,1024,1024,0,0,0,0,88,4.353,66.74,36.745408,P-GPS,,11.2
332,175700,2026-01-12 12:08:51,0.0,5,7.77,0.0,0.0,0.0,19.3,6.5,-2.0,1024,1024,1024,1024,0,0,0,0,88,4.353,66.74,36.745408,P-GPS,,11.2
333,175800,2026-01-12 12:08:51,0.0,5,7.77,0.0,0.0,0.0,19.2,6.6,-2.3,1024,1024,1024,1024,0,0,0,0,88,4.353,66.74,36.745408,P-GPS,,11.2
334,175900,2026-01-12 12:08:51,0.0,5,7.77,0.0,0.0,0.0,19.2,6.7,-2.2,1024,1024,1024,1024,0,0,0,0,88,4.43,66.74,36.745408,P-GPS,,11.2
335,176000,2026-01-12 12:08:51,0.0,5,7.77,0.0,0.0,0.0,19.2,6.5,-2.3,1024,1024,1024,1024,0,0,0,0,88,4.43,66.74,37.073492,P-GPS,,11.3
336,176100,2026-01-12 12:08:51,0.0,5,7.77,0.0,0.0,0.0,19.2,6.1,-2.3,1024,1024,1024,1024,0,0,0,0,88,4.43,66.74,37.073492,P-GPS,,11.3
337,176200,2026-01-12 12:08:51,0.0,5,7.77,0.0,0.0,0.0,19.2,5.9,-2.2,1024,1024,1024,1024,0,0,0,0,88,4.43,66.74,37.073492,P-GPS,,11.3
338,176300,2026-01-12 12:08:51,0.0,5,7.77,0.0,0.0,0.0,19.3,5.7,-2.2,1024,1024,1024,1024,0,0,0,0,88,4.43,66.74,37.073492,P-GPS,,11.3
339,176400,2026-01-12 12:08:51,0.0,5,7.77,0.0,0.0,0.0,19.2,5.9,-2.2,1024,1024,1024,1024,0,0,0,0,88,4.43,66.74,37.073492,P-GPS,,11.3
340,176500,2026-01-12 12:08:51,0.0,5,7.77,0.0,0.0,0.0,19.2,6.0,-2.2,1024,1024,1024,1024,0,0,0,0,88,4.43,66.74,37.073492,P-GPS,,11.3
341,176600,2026-01-12 12:08:52,0.0,5,7.77,0.0,0.0,0.0,19.1,6.4,-2.1,1024,1024,1024,1024,0,0,0,0,88,4.43,66.74,37.073492,P-GPS,,11.3
342,176700,2026-01-12 12:08:52,0.0,5,7.77,0.0,0.0,0.0,19.1,6.4,-1.7,1024,1024,1024,1024,0,0,0,0,88,4.43,66.74,37.073492,P-GPS,,11.3
343,176800,2026-01-12 12:08:52,0.0,5,7.77,0.0,0.0,0.0,19.2,6.4,-1.2,1024,1024,1024,1024,0,0,0,0,88,4.43,66.74,37.073492,P-GPS,,11.3
344,176900,2026-01-12 12:08:52,0.0,5,7.77,0.0,0.0,0.0,19.3,6.7,-1.5,1024,1024,1024,1024,0,0,0,0,88,4.43,66.74,37.073492,P-GPS,,11.3
345,177000,2026-01-12 12:08:52,0.0,5,7.756,0.0,0.0,0.0,19.3,7.0,-1.8,1024,1024,1024,1024,0,0,0,0,88,4.547,66.92,37.073492,P-GPS,,11.3
346,177100,2026-01-12 12:08:52,0.0,5,7.756,0.0,0.0,0.0,19.2,7.1,-2.1,1024,1024,1024,1024,0,0,0,0,88,4.547,66.92,37.401576,P-GPS,,11.4
347,177200,2026-01-12 12:08:52,0.0,5,7.756,0.0,0.0,0.0,19.2,7.0,-2.0,1024,1024,1024,1024,0,0,0,0,88,4.547,66.92,37.401576,P-GPS,,11.4
348,177300,2026-01-12 12:08:52,0.0,5,7.756,0.0,0.0,0.0,19.2,7.1,-2.0,1024,1024,1024,1024,0,0,0,0,88,4.547,66.92,37.401576,P-GPS,,11.4
349,177400,2026-01-12 12:08:53,0.0,5,7.756,0.0,0.0,0.0,19.2,6.9,-1.6,1024,1024,1024,1024,0,0,0,0,88,4.547,66.92,37.401576,P-GPS,,11.4
