index,time(millisecond),timestamp,speed(mph),gpslevel,voltage(v),xSpeed(mph),ySpeed(mph),zSpeed(mph),compass_heading(degrees),pitch(degrees),roll(degrees),rc_elevator,rc_aileron,rc_throttle,rc_rudder,rc_elevator(percent),rc_aileron(percent),rc_throttle(percent),rc_rudder(percent),battery_percent,current(A),battery_temperature(f),ascent(feet),flycState,message,height_above_takeoff(meters)
447,338100,2026-01-11 15:35:44,0.223694,5,7.486,-0.223694,0.0,0.0,40.9,5.7,-4.0,1024,1024,1024,1024,0,0,0,0,76,5.782,64.94,98.4252,P-GPS,,30.0
448,338200,2026-01-11 15:35:44,0.223694,5,7.567,-0.223694,0.0,0.0,41.0,5.8,-4.7,1024,1024,1024,1024,0,0,0,0,76,3.725,64.94,98.4252,P-GPS,,30.0
449,338300,2026-01-11 15:35:44,0.223694,5,7.567,-0.223694,0.0,0.0,41.0,6.7,-5.1,1024,1024,1024,1024,0,0,0,0,76,3.725,64.94,98.4252,P-GPS,,30.0
450,338400,2026-01-11 15:35:44,0.223694,5,7.567,-0.223694,0.0,0.0,41.0,6.8,-5.3,1024,1024,1024,1024,0,0,0,0,76,3.725,64.94,98.4252,P-GPS,,30.0
451,338500,2026-01-11 15:35:44,0.0,5,7.567,0.0,0.0,0.0,41.0,6.9,-5.1,1024,1024,1024,1024,0,0,0,0,76,3.725,64.94,98.4252,P-GPS,,30.0
452,338600,2026-01-11 15:35:44,0.223694,5,7.567,-0.223694,0.0,0.0,41.0,6.7,-5.4,1024,1024,1024,1024,0,0,0,0,76,3.725,64.94,98.4252,P-GPS,,30.0
453,338700,2026-01-11 15:35:44,0.223694,5,7.567,-0.223694,0.0,0.0,41.1,6.4,-5.2,1024,1024,1024,1024,0,0,0,0,76,3.725,64.94,98.4252,P-GPS,,30.0
454,338800,2026-01-11 15:35:44,0.0,5,7.567,0.0,0.0,0.223694,41.0,7.0,-4.9,1024,1024,1024,1024,0,0,0,0,76,3.725,64.94,98.4252,P-GPS,,30.0
455,338900,2026-01-11 15:35:44,0.0,5,7.567,0.0,0.0,0.223694,41.2,6.2,-4.7,1024,1024,1024,1024,0,0,0,0,76,3.725,64.94,98.4252,P-GPS,,30.0
456,339000,2026-01-11 15:35:45,0.0,5,7.567,0.0,0.0,0.0,41.1,5.6,-4.6,1024,1024,1024,1024,0,0,0,0,76,3.725,64.94,98.4252,P-GPS,,30.0
457,339100,2026-01-11 15:35:45,0.0,5,7.567,0.0,0.0,0.0,41.1,5.5,-4.9,1024,1024,1024,1024,0,0,0,0,76,3.725,64.94,98.4252,P-GPS,,30.0
458,339200,2026-01-11 15:35:45,0.0,5,7.567,0.0,0.0,0.0,41.1,6.1,-4.4,1024,1024,1024,1024,0,0,0,0,76,3.725,64.94,98.4252,P-GPS,,30.0
459,339300,2026-01-11 15:35:45,0.0,5,7.567,0.0,0.0,0.0,41.1,6.3,-4.0,1024,1024,1024,1024,0,0,0,0,76,3.725,64.94,98.4252,P-GPS,,30.0
460,339400,2026-01-11 15:35:45,0.0,5,7.567,0.0,0.0,0.0,41.2,6.4,-4.0,1024,1024,1024,1024,0,0,0,0,76,3.725,64.94,98.4252,P-GPS,,30.0
461,339500,2026-01-11 15:35:45,0.0,5,7.567,0.0,0.0,0.0,41.2,6.2,-3.7,1024,1024,1024,1024,0,0,0,0,76,3.725,64.94,98.4252,P-GPS,,30.0
462,339600,2026-01-11 15:35:45,0.0,5,7.567,0.0,0.0,0.0,41.2,5.8,-3.7,1024,1024,1024,1024,0,0,0,0,76,3.725,64.94,98.4252,P-GPS,,30.0
463,339700,2026-01-11 15:35:45,0.0,5,7.567,0.0,0.0,0.0,41.1,5.2,-3.3,1024,1024,1024,1024,0,0,0,0,76,3.725,64.94,98.097116,P-GPS,,29.9
464,339800,2026-01-11 15:35:45,0.0,5,7.567,0.0,0.0,0.0,41.0,4.5,-3.4,1024,1024,1024,1024,0,0,0,0,76,3.725,64.94,98.097116,P-GPS,,29.9
465,339900,2026-01-11 15:35:46,0.0,5,7.567,0.0,0.0,0.0,41.0,4.2,-3.3,1024,1024,1024,1024,0,0,0,0,76,3.725,64.94,98.097116,P-GPS,,29.9
466,340000,2026-01-11 15:35:46,0.0,5,7.567,0.0,0.0,0.0,40.8,3.9,-3.4,1024,1024,1024,1024,0,0,0,0,76,3.725,64.94,98.097116,P-GPS,,29.9
467,340100,2026-01-11 15:35:46,0.0,5,7.567,0.0,0.0,0.0,40.8,4.5,-3.5,1024,1024,1024,1024,0,0,0,0,76,3.725,64.94,98.097116,P-GPS,,29.9
468,340200,2026-01-11 15:35:46,0.0,5,7.567,0.0,0.0,0.0,40.9,3.5,-3.5,1024,1024,1024,1024,0,0,0,0,76,3.725,64.94,97.769032,P-GPS,,29.8
469,340300,2026-01-11 15:35:46,0.0,5,7.567,0.0,0.0,0.0,40.8,3.2,-3.8,1024,1024,1024,1024,0,0,0,0,76,3.725,64.94,97.769032,P-GPS,,29.8
470,340400,2026-01-11 15:35:46,0.0,5,7.572,0.0,0.0,0.0,40.7,3.7,-4.3,1024,1024,1024,1024,0,0,0,0,76,4.218,64.94,97.440948,P-GPS,,29.7
471,340500,2026-01-11 15:35:46,0.0,5,7.572,0.0,0.0,0.0,40.7,4.1,-4.7,1024,1024,1024,1024,0,0,0,0,76,4.218,64.94,97.440948,P-GPS,,29.7
472,340600,2026-01-11 15:35:46,0.0,5,7.572,0.0,0.0,0.0,40.9,4.4,-4.1,1024,1024,1024,1024,0,0,0,0,76,4.218,64.94,97.440948,P-GPS,,29.7
473,340700,2026-01-11 15:35:46,0.0,5,7.572,0.0,0.0,0.0,40.8,4.0,-4.2,1024,1024,1024,1024,0,0,0,0,76,4.218,64.94,97.440948,P-GPS,,29.7
474,340800,2026-01-11 15:35:46,0.0,5,7.572,0.0,0.0,0.0,41.1,4.1,-4.4,1024,1024,1024,1024,0,0,0,0,76,4.218,64.94,97.440948,P-GPS,,29.7
475,340900,2026-01-11 15:35:46,0.0,5,7.572,0.0,0.0,0.0,41.1,5.5,-4.9,1024,1024,1024,1024,0,0,0,0,76,4.218,64.94,97.440948,P-GPS,,29.7
476,341000,2026-01-11 15:35:47,0.0,5,7.572,0.0,0.0,0.0,41.1,6.4,-5.3,1024,1024,1024,1024,0,0,0,0,76,4.218,64.94,97.440948,P-GPS,,29.7
477,341100,2026-01-11 15:35:47,0.0,5,7.572,0.0,0.0,0.0,41.1,7.1,-4.8,1024,1024,1024,1024,0,0,0,0,76,4.218,64.94,97.440948,P-GPS,,29.7
478,341200,2026-01-11 15:35:47,0.0,5,7.572,0.0,0.0,0.0,41.0,7.7,-4.6,1024,1024,1024,1024,0,0,0,0,76,4.218,64.94,97.440948,P-GPS,,29.7
479,341300,2026-01-11 15:35:47,0.0,5,7.572,0.0,0.0,0.0,41.0,7.4,-4.5,1024,1024,1024,1024,0,0,0,0,76,4.218,64.94,97.769032,P-GPS,,29.8
480,341400,2026-01-11 15:35:47,0.0,5,7.572,0.0,0.0,0.0,41.0,6.9,-4.4,1024,1024,1024,1024,0,0,0,0,76,4.218,64.94,97.769032,P-GPS,,29.8
481,341500,2026-01-11 15:35:47,0.0,5,7.565,0.0,0.0,0.0,41.0,6.7,-5.0,1024,1024,1024,1024,0,0,0,0,76,4.182,64.94,97.769032,P-GPS,,29.8
482,341600,2026-01-11 15:35:47,0.0,5,7.565,0.0,0.0,0.0,41.0,7.2,-4.9,1024,1024,1024,1024,0,0,0,0,76,4.182,64.94,97.769032,P-GPS,,29.8
483,341700,2026-01-11 15:35:47,0.0,5,7.565,0.0,0.0,0.0,40.9,7.2,-4.9,1024,1024,1024,1024,0,0,0,0,76,4.182,64.94,97.769032,P-GPS,,29.8
484,341800,2026-01-11 15:35:47,0.0,5,7.565,0.0,0.0,0.0,40.9,7.6,-4.7,1024,1024,1024,1024,0,0,0,0,76,4.182,64.94,97.769032,P-GPS,,29.8
485,341900,2026-01-11 15:35:47,0.0,5,7.565,0.0,0.0,0.0,41.0,6.8,-4.4,1024,1024,1024,1024,0,0,0,0,76,4.182,64.94,97.769032,P-GPS,,29.8
486,342000,2026-01-11 15:35:48,0.0,5,7.565,0.0,0.0,0.0,41.0,6.7,-4.0,1024,1024,1024,1024,0,0,0,0,76,4.182,64.94,97.769032,P-GPS,,29.8
487,342100,2026-01-11 15:35:48,0.0,5,7.565,0.0,0.0,0.0,40.9,6.2,-4.2,1024,1024,1024,1024,0,0,0,0,76,4.182,64.94,97.769032,P-GPS,,29.8
488,342200,2026-01-11 15:35:48,0.0,5,7.565,0.0,0.0,0.0,41.0,5.5,-4.5,1024,1024,1024,1024,0,0,0,0,76,4.182,64.94,97.769032,P-GPS,,29.8
489,342300,2026-01-11 15:35:48,0.0,5,7.565,0.0,0.0,0.0,40.8,4.4,-5.1,1024,1024,1024,1024,0,0,0,0,76,4.182,64.94,97.440948,P-GPS,,29.7
490,342400,2026-01-11 15:35:48,0.0,5,7.565,0.0,0.0,0.0,40.7,5.3,-4.6,1024,1024,1024,1024,0,0,0,0,76,4.182,64.94,97.440948,P-GPS,,29.7
491,342500,2026-01-11 15:35:48,0.0,5,7.565,0.0,0.0,0.0,40.7,4.7,-4.4,1024,1024,1024,1024,0,0,0,0,76,4.182,64.94,97.440948,P-GPS,,29.7
492,342600,2026-01-11 15:35:48,0.0,5,7.571,0.0,0.0,0.0,40.9,4.5,-4.2,1024,1024,1024,1024,0,0,0,0,76,4.13,64.94,97.112864,P-GPS,,29.6
493,342700,2026-01-11 15:35:48,0.0,5,7.571,0.0,0.0,0.0,41.0,4.6,-4.0,1024,1024,1024,1024,0,0,0,0,76,4.13,64.94,97.112864,P-GPS,,29.6
494,342800,2026-01-11 15:35:48,0.0,5,7.571,0.0,0.0,0.223694,41.4,5.0,-4.4,1024,1024,1024,1024,0,0,0,0,76,4.13,64.94,97.112864,P-GPS,,29.6
495,342900,2026-01-11 15:35:48,0.0,5,7.571,0.0,0.0,0.223694,41.3,5.3,-4.3,1024,1024,1024,1024,0,0,0,0,76,4.13,64.94,97.112864,P-GPS,,29.6
496,343000,2026-01-11 15:35:49,0.0,5,7.571,0.0,0.0,0.0,41.3,6.2,-3.8,1024,1024,1024,1024,0,0,0,0,76,4.13,64.94,96.78478,P-GPS,,29.5
497,343100,2026-01-11 15:35:49,0.0,5,7.571,0.0,0.0,0.0,41.4,6.0,-3.0,1024,1024,1024,1024,0,0,0,0,76,4.13,64.94,96.78478,P-GPS,,29.5
498,343200,2026-01-11 15:35:49,0.0,5,7.571,0.0,0.0,0.0,41.3,6.6,-2.3,1024,1024,1024,1024,0,0,0,0,76,4.13,64.94,96.78478,P-GPS,,29.5
499,343300,2026-01-11 15:35:49,0.0,5,7.571,0.0,0.0,0.0,41.5,6.8,-1.8,1024,1024,1024,1024,0,0,0,0,76,4.13,64.94,96.456696,P-GPS,,29.4
500,343400,2026-01-11 15:35:49,0.0,5,7.571,0.0,0.0,0.0,41.5,5.4,-2.4,1024,1024,1024,1024,0,0,0,0,76,4.13,64.94,96.456696,P-GPS,,29.4
501,343500,2026-01-11 15:35:49,0.0,5,7.571,0.0,0.0,0.0,41.5,4.7,-3.0,1024,1024,1024,1024,0,0,0,0,76,4.13,64.94,96.456696,P-GPS,,29.4
502,343600,2026-01-11 15:35:49,0.0,5,7.571,0.0,0.0,0.0,41.6,4.5,-3.6,1024,1024,1024,1024,0,0,0,0,76,4.13,64.94,96.456696,P-GPS,,29.4
503,343700,2026-01-11 15:35:49,0.0,5,7.571,0.0,0.0,0.0,41.5,4.8,-3.9,1024,1024,1024,1024,0,0,0,0,76,4.13,64.94,96.456696,P-GPS,,29.4
504,343800,2026-01-11 15:35:49,0.0,5,7.534,0.0,0.0,0.0,41.5,5.0,-4.0,1024,1024,1024,1024,0,0,0,0,76,4.786,64.94,96.456696,P-GPS,,29.4
505,343900,2026-01-11 15:35:49,0.0,5,7.534,0.0,0.0,0.0,41.4,5.2,-4.0,1024,1024,1024,1024,0,0,0,0,76,4.786,64.94,96.456696,P-GPS,,29.4
506,344000,2026-01-11 15:35:50,0.0,5,7.534,0.0,0.0,0.0,41.3,5.5,-4.3,1024,1024,1024,1024,0,0,0,0,76,4.786,64.94,96.456696,P-GPS,,29.4
507,344100,2026-01-11 15:35:50,0.0,5,7.534,0.0,0.0,0.0,41.3,6.4,-4.4,1024,1024,1024,1024,0,0,0,0,76,4.786,64.94,96.456696,P-GPS,,29.4
508,344200,2026-01-11 15:35:50,0.0,5,7.534,0.0,0.0,0.0,41.1,7.5,-4.4,1024,1024,1024,1024,0,0,0,0,76,4.786,64.94,96.456696,P-GPS,,29.4
509,344300,2026-01-11 15:35:50,0.0,5,7.534,0.0,0.0,0.0,41.1,7.8,-4.5,1024,1024,1024,1024,0,0,0,0,76,4.786,64.94,96.456696,P-GPS,,29.4
510,344400,2026-01-11 15:35:50,0.0,5,7.534,0.0,0.0,0.0,41.1,8.3,-4.2,1024,1024,1024,1024,0,0,0,0,76,4.786,64.94,96.456696,P-GPS,,29.4
511,344500,2026-01-11 15:35:50,0.0,5,7.534,0.0,0.0,0.0,41.2,8.3,-3.7,1024,1024,1024,1024,0,0,0,0,76,4.786,64.94,96.456696,P-GPS,,29.4
512,344600,2026-01-11 15:35:50,0.0,5,7.534,0.0,0.0,0.0,41.0,8.4,-3.3,1024,1024,1024,1024,0,0,0,0,76,4.786,64.94,96.456696,P-GPS,,29.4
513,344700,2026-01-11 15:35:50,0.0,5,7.534,0.0,0.0,0.0,41.1,8.1,-3.7,1024,1024,1024,1024,0,0,0,0,76,4.786,64.94,96.456696,P-GPS,,29.4
514,344800,2026-01-11 15:35:50,0.0,5,7.534,0.0,0.0,0.0,41.2,8.6,-3.5,1024,1024,1024,1024,0,0,0,0,76,4.786,64.94,96.456696,P-GPS,,29.4
515,344900,2026-01-11 15:35:50,0.0,5,7.553,0.0,0.0,0.0,41.2,8.6,-3.5,1024,1024,1024,1024,0,0,0,0,76,4.505,64.94,96.456696,P-GPS,,29.4
516,345000,2026-01-11 15:35:51,0.0,5,7.553,0.0,0.0,0.0,41.1,8.2,-3.0,1024,1024,1024,1024,0,0,0,0,76,4.505,64.94,96.456696,P-GPS,,29.4
517,345100,2026-01-11 15:35:51,0.0,5,7.553,0.0,0.0,0.0,41.2,7.6,-2.5,1024,1024,1024,1024,0,0,0,0,76,4.505,64.94,96.456696,P-GPS,,29.4
518,345200,2026-01-11 15:35:51,0.0,5,7.553,0.0,0.0,0.0,41.2,7.3,-2.5,1024,1024,1024,1024,0,0,0,0,76,4.505,64.94,96.456696,P-GPS,,29.4
519,345300,2026-01-11 15:35:51,0.0,5,7.553,0.0,0.0,0.0,41.0,7.6,-2.8,1024,1024,1024,1024,0,0,0,0,76,4.505,64.94,96.456696,P-GPS,,29.4
520,345400,2026-01-11 15:35:51,0.0,5,7.553,0.0,0.0,0.0,41.0,6.9,-3.1,1024,1024,1024,1024,0,0,0,0,76,4.505,64.94,96.456696,P-GPS,,29.4
521,345500,2026-01-11 15:35:51,0.0,5,7.553,0.0,0.0,0.0,41.0,6.5,-3.7,1024,1024,1024,1024,0,0,0,0,76,4.505,64.94,96.456696,P-GPS,,29.4
522,345600,2026-01-11 15:35:51,0.0,5,7.553,0.0,0.0,0.0,41.2,6.4,-4.1,1024,1024,1024,1024,0,0,0,0,76,4.505,64.94,96.456696,P-GPS,,29.4
523,345700,2026-01-11 15:35:51,0.0,5,7.553,0.0,0.0,0.0,41.1,7.6,-4.4,1024,1024,1024,1024,0,0,0,0,76,4.505,64.94,96.128612,P-GPS,,29.3
524,345800,2026-01-11 15:35:51,0.0,5,7.553,0.0,0.0,0.0,41.2,7.2,-4.1,1024,1024,1024,1024,0,0,0,0,76,4.505,64.94,96.128612,P-GPS,,29.3
525,345900,2026-01-11 15:35:52,0.0,5,7.553,0.0,0.0,0.0,41.2,7.6,-4.6,1024,1024,1024,1024,0,0,0,0,76,4.505,64.94,96.128612,P-GPS,,29.3
526,346000,2026-01-11 15:35:52,0.0,5,7.573,0.0,0.0,0.0,41.2,8.1,-4.7,1024,1024,1024,1024,0,0,0,0,76,4.313,64.94,96.128612,P-GPS,,29.3
527,346100,2026-01-11 15:35:52,0.0,5,7.573,0.0,0.0,0.0,41.2,8.0,-4.8,1024,1024,1024,1024,0,0,0,0,76,4.313,64.94,96.128612,P-GPS,,29.3
528,346200,2026-01-11 15:35:52,0.0,5,7.573,0.0,0.0,0.0,41.1,8.6,-4.8,1024,1024,1024,1024,0,0,0,0,76,4.313,64.94,96.128612,P-GPS,,29.3
529,346300,2026-01-11 15:35:52,0.0,5,7.573,0.0,0.0,0.0,41.0,8.9,-5.2,1024,1024,1024,1024,0,0,0,0,76,4.313,64.94,96.128612,P-GPS,,29.3
530,346400,2026-01-11 15:35:52,0.0,5,7.573,0.0,0.0,0.0,41.1,8.8,-5.6,1024,1024,1024,1024,0,0,0,0,76,4.313,64.94,96.128612,P-GPS,,29.3
531,346500,2026-01-11 15:35:52,0.0,5,7.573,0.0,0.0,0.0,41.0,8.6,-5.6,1024,1024,1024,1024,0,0,0,0,76,4.313,64.94,96.128612,P-GPS,,29.3
532,346600,2026-01-11 15:35:52,0.0,5,7.573,0.0,0.0,0.0,41.0,8.7,-5.5,1024,1024,1024,1024,0,0,0,0,76,4.313,64.94,96.128612,P-GPS,,29.3
533,346700,2026-01-11 15:35:52,0.0,5,7.573,0.0,0.0,0.0,41.0,8.7,-5.6,1024,1024,1024,1024,0,0,0,0,76,4.313,64.94,96.456696,P-GPS,,29.4
534,346800,2026-01-11 15:35:52,0.0,5,7.573,0.0,0.0,0.0,41.0,8.9,-5.3,1024,1024,1024,1024,0,0,0,0,76,4.313,64.94,96.456696,P-GPS,,29.4
535,346900,2026-01-11 15:35:53,0.0,5,7.573,0.0,0.0,0.0,41.0,8.7,-6.0,1024,1024,1024,1024,0,0,0,0,76,4.313,64.94,96.456696,P-GPS,,29.4
536,347000,2026-01-11 15:35:53,0.0,5,7.573,0.0,0.0,0.0,40.8,9.0,-6.2,1024,1024,1024,1024,0,0,0,0,76,4.313,64.94,96.456696,P-GPS,,29.4
537,347100,2026-01-11 15:35:53,0.0,5,7.524,0.0,0.0,0.0,40.9,9.1,-7.0,1024,1024,1024,1024,0,0,0,0,76,4.899,64.94,96.456696,P-GPS,,29.4
538,347200,2026-01-11 15:35:53,0.0,5,7.524,0.0,0.0,0.0,40.8,9.9,-6.4,1024,1024,1024,1024,0,0,0,0,76,4.899,64.94,96.456696,P-GPS,,29.4
539,347300,2026-01-11 15:35:53,0.0,5,7.524,0.0,0.0,0.0,40.8,10.3,-5.9,1024,1024,1024,1024,0,0,0,0,76,4.899,64.94,96.456696,P-GPS,,29.4
540,347400,2026-01-11 15:35:53,0.0,5,7.524,0.0,0.0,0.0,40.8,10.3,-6.4,1024,1024,1024,1024,0,0,0,0,76,4.899,64.94,96.456696,P-GPS,,29.4
541,347500,2026-01-11 15:35:53,0.0,5,7.524,0.0,0.0,0.0,40.8,9.9,-6.1,1024,1024,1024,1024,0,0,0,0,76,4.899,64.94,96.456696,P-GPS,,29.4
542,347600,2026-01-11 15:35:53,0.0,5,7.524,0.0,0.0,0.0,40.8,11.0,-6.9,1024,1024,1024,1024,0,0,0,0,76,4.899,64.94,96.456696,P-GPS,,29.4
543,347700,2026-01-11 15:35:53,0.0,5,7.524,0.0,0.0,0.0,40.8,11.2,-6.8,1024,1024,1024,1024,0,0,0,0,76,4.899,64.94,96.456696,P-GPS,,29.4
544,347800,2026-01-11 15:35:53,0.223694,5,7.524,0.0,0.223694,0.0,40.6,11.4,-7.6,1024,1024,1024,1024,0,0,0,0,76,4.899,64.94,96.456696,P-GPS,,29.4
545,347900,2026-01-11 15:35:53,0.0,5,7.524,0.0,0.0,0.0,40.7,11.2,-8.1,1024,1024,1024,1024,0,0,0,0,76,4.899,64.94,96.456696,P-GPS,,29.4
546,348000,2026-01-11 15:35:54,0.0,5,7.524,0.0,0.0,0.0,40.8,9.8,-7.7,1024,1024,1024,1024,0,0,0,0,76,4.899,64.94,96.456696,P-GPS,,29.4
547,348100,2026-01-11 15:35:54,0.0,5,7.524,0.0,0.0,0.0,40.7,9.9,-7.8,1024,1024,1024,1024,0,0,0,0,76,4.899,64.94,96.456696,P-GPS,,29.4
548,348200,2026-01-11 15:35:54,0.0,5,7.546,0.0,0.0,0.0,40.7,9.8,-7.9,1024,1024,1024,1024,0,0,0,0,76,4.494,64.94,96.456696,P-GPS,,29.4
549,348300,2026-01-11 15:35:54,0.0,5,7.546,0.0,0.0,0.0,40.7,9.2,-7.7,1024,1024,1024,1024,0,0,0,0,76,4.494,64.94,96.456696,P-GPS,,29.4
550,348400,2026-01-11 15:35:54,0.0,5,7.546,0.0,0.0,0.0,40.5,9.9,-7.8,1024,1024,1024,1024,0,0,0,0,76,4.494,64.94,96.128612,P-GPS,,29.3
551,348500,2026-01-11 15:35:54,0.0,5,7.546,0.0,0.0,0.0,40.6,9.7,-7.6,1024,1024,1024,1024,0,0,0,0,76,4.494,64.94,96.128612,P-GPS,,29.3
552,348600,2026-01-11 15:35:54,0.0,5,7.546,0.0,0.0,0.223694,40.7,10.2,-7.9,1024,1024,1024,1024,0,0,0,0,76,4.494,64.94,96.128612,P-GPS,,29.3
553,348700,2026-01-11 15:35:54,0.0,5,7.546,0.0,0.0,0.223694,40.8,10.4,-8.2,1024,1024,1024,1024,0,0,0,0,76,4.494,64.94,96.128612,P-GPS,,29.3
554,348800,2026-01-11 15:35:54,0.0,5,7.546,0.0,0.0,0.447388,40.7,10.3,-8.4,1024,1024,1024,1024,0,0,0,0,76,4.494,64.94,96.128612,P-GPS,,29.3
555,348900,2026-01-11 15:35:55,0.0,5,7.546,0.0,0.0,0.223694,40.6,10.9,-8.3,1024,1024,1024,1024,0,0,0,0,76,4.494,64.94,95.800528,P-GPS,,29.2
556,349000,2026-01-11 15:35:55,0.0,5,7.546,0.0,0.0,0.223694,40.5,11.2,-8.4,1024,1024,1024,1024,0,0,0,0,76,4.494,64.94,95.800528,P-GPS,,29.2
557,349100,2026-01-11 15:35:55,0.0,5,7.546,0.0,0.0,0.0,40.5,11.4,-8.6,1024,1024,1024,1024,0,0,0,0,76,4.494,64.94,95.800528,P-GPS,,29.2
558,349200,2026-01-11 15:35:55,0.0,5,7.546,0.0,0.0,0.0,40.5,11.6,-8.7,1024,1024,1024,1024,0,0,0,0,76,4.494,64.94,95.472444,P-GPS,,29.1
559,349300,2026-01-11 15:35:55,0.0,5,7.546,0.0,0.0,0.0,40.5,11.5,-8.5,1024,1024,1024,1024,0,0,0,0,76,4.494,64.94,95.472444,P-GPS,,29.1
560,349400,2026-01-11 15:35:55,0.0,5,7.546,0.0,0.0,0.0,40.5,11.4,-8.2,1024,1024,1024,1024,0,0,0,0,76,4.494,64.94,95.472444,P-GPS,,29.1
561,349500,2026-01-11 15:35:55,0.0,5,7.546,0.0,0.0,0.0,40.6,11.1,-8.0,1024,1024,1024,1024,0,0,0,0,76,4.494,64.94,95.472444,P-GPS,,29.1
562,349600,2026-01-11 15:35:55,0.0,5,7.546,0.0,0.0,0.0,40.7,10.6,-7.5,1024,1024,1024,1024,0,0,0,0,76,4.494,64.94,95.14436,P-GPS,,29.0
563,349700,2026-01-11 15:35:55,0.0,5,7.546,0.0,0.0,0.0,40.7,10.5,-7.2,1024,1024,1024,1024,0,0,0,0,76,4.494,64.94,95.14436,P-GPS,,29.0
564,349800,2026-01-11 15:35:55,0.0,5,7.546,0.0,0.0,0.0,40.8,10.5,-7.1,1024,1024,1024,1024,0,0,0,0,76,4.494,64.94,95.14436,P-GPS,,29.0
565,349900,2026-01-11 15:35:55,0.0,5,7.546,0.0,0.0,0.0,40.8,10.7,-6.9,1024,1024,1024,1024,0,0,0,0,76,4.494,64.94,95.14436,P-GPS,,29.0
566,350000,2026-01-11 15:35:56,0.0,5,7.546,0.0,0.0,0.0,40.8,10.7,-6.9,1024,1024,1024,1024,0,0,0,0,76,4.494,64.94,94.816276,P-GPS,,28.9
567,350100,2026-01-11 15:35:56,0.0,5,7.546,0.0,0.0,0.0,40.7,10.4,-6.7,1024,1024,1024,1024,0,0,0,0,76,4.494,64.94,94.816276,P-GPS,,28.9
568,350200,2026-01-11 15:35:56,0.0,5,7.546,0.0,0.0,0.0,40.6,10.3,-6.9,1024,1024,1024,1024,0,0,0,0,76,4.494,64.94,94.816276,P-GPS,,28.9
569,350300,2026-01-11 15:35:56,0.0,5,7.546,0.0,0.0,0.0,40.7,9.9,-7.2,1024,1024,1024,1024,0,0,0,0,76,4.494,64.94,94.816276,P-GPS,,28.9
570,350400,2026-01-11 15:35:56,0.0,5,7.511,0.0,0.0,0.0,40.6,10.0,-7.3,1024,1024,1024,1024,0,0,0,0,75,5.047,64.94,94.816276,P-GPS,,28.9
571,350500,2026-01-11 15:35:56,0.0,5,7.511,0.0,0.0,0.0,40.7,9.8,-7.1,1024,1024,1024,1024,0,0,0,0,75,5.047,64.94,94.816276,P-GPS,,28.9
572,350600,2026-01-11 15:35:56,0.0,5,7.511,0.0,0.0,0.0,40.6,10.0,-7.1,1024,1024,1024,1024,0,0,0,0,75,5.047,64.94,94.816276,P-GPS,,28.9
573,350700,2026-01-11 15:35:56,0.0,5,7.511,0.0,0.0,0.0,40.7,9.8,-7.0,1024,1024,1024,1024,0,0,0,0,75,5.047,64.94,94.816276,P-GPS,,28.9
574,350800,2026-01-11 15:35:56,0.0,5,7.511,0.0,0.0,0.0,40.6,10.0,-7.0,1024,1024,1024,1024,0,0,0,0,75,5.047,64.94,94.816276,P-GPS,,28.9
575,350900,2026-01-11 15:35:56,0.0,5,7.511,0.0,0.0,0.0,40.6,9.6,-7.1,1024,1024,1024,1024,0,0,0,0,75,5.047,64.94,94.488192,P-GPS,,28.8
576,351000,2026-01-11 15:35:57,0.0,5,7.511,0.0,0.0,0.0,40.6,9.8,-7.2,1024,1024,1024,1024,0,0,0,0,75,5.047,64.94,94.488192,P-GPS,,28.8
577,351100,2026-01-11 15:35:57,0.0,5,7.511,0.0,0.0,0.0,40.8,9.3,-7.2,1024,1024,1024,1024,0,0,0,0,75,5.047,64.94,94.488192,P-GPS,,28.8
578,351200,2026-01-11 15:35:57,0.0,5,7.511,0.0,0.0,0.0,40.8,9.6,-7.1,1024,1024,1024,1024,0,0,0,0,75,5.047,64.94,94.488192,P-GPS,,28.8
579,351300,2026-01-11 15:35:57,0.0,5,7.511,0.0,0.0,0.0,40.8,9.6,-6.9,1024,1024,1024,1024,0,0,0,0,75,5.047,64.94,94.488192,P-GPS,,28.8
580,351400,2026-01-11 15:35:57,0.0,5,7.511,0.0,0.0,0.0,40.7,9.7,-7.0,1024,1024,1024,1024,0,0,0,0,75,5.047,64.94,94.488192,P-GPS,,28.8
581,351500,2026-01-11 15:35:57,0.0,5,7.511,0.0,0.0,0.0,40.7,9.5,-7.0,1024,1024,1024,1024,0,0,0,0,75,5.047,64.94,94.488192,P-GPS,,28.8
582,351600,2026-01-11 15:35:57,0.0,5,7.525,0.0,0.0,0.0,40.7,10.1,-7.4,1024,1024,1024,1024,0,0,0,0,75,4.78,64.94,94.160108,P-GPS,,28.7
583,351700,2026-01-11 15:35:57,0.0,5,7.525,0.0,0.0,0.0,40.7,9.9,-7.1,1024,1024,1024,1024,0,0,0,0,75,4.78,64.94,94.160108,P-GPS,,28.7
584,351800,2026-01-11 15:35:57,0.0,5,7.525,0.0,0.0,0.0,40.7,9.8,-7.0,1024,1024,1024,1024,0,0,0,0,75,4.78,64.94,94.160108,P-GPS,,28.7
585,351900,2026-01-11 15:35:57,0.0,5,7.525,0.0,0.0,0.0,40.6,10.4,-6.9,1024,1024,1024,1024,0,0,0,0,75,4.78,64.94,94.160108,P-GPS,,28.7
586,352000,2026-01-11 15:35:58,0.0,5,7.525,0.0,0.0,0.0,40.7,10.5,-6.6,1024,1024,1024,1024,0,0,0,0,75,4.78,64.94,93.832024,P-GPS,,28.6
587,352100,2026-01-11 15:35:58,0.0,5,7.525,0.0,0.0,0.0,40.8,9.8,-6.5,1024,1024,1024,1024,0,0,0,0,75,4.78,64.94,93.832024,P-GPS,,28.6
588,352200,2026-01-11 15:35:58,0.0,5,7.525,0.0,0.0,0.0,40.8,10.5,-6.0,1024,1024,1024,1024,0,0,0,0,75,4.78,64.94,93.832024,P-GPS,,28.6
589,352300,2026-01-11 15:35:58,0.0,5,7.525,0.0,0.0,0.0,40.8,10.8,-6.6,1024,1024,1024,1024,0,0,0,0,75,4.78,64.94,93.832024,P-GPS,,28.6
590,352400,2026-01-11 15:35:58,0.0,5,7.525,0.0,0.0,0.0,40.7,11.5,-6.2,1024,1024,1024,1024,0,0,0,0,75,4.78,64.94,93.50394,P-GPS,,28.5
591,352500,2026-01-11 15:35:58,0.0,5,7.525,0.0,0.0,0.0,40.7,11.2,-5.8,1024,1024,1024,1024,0,0,0,0,75,4.78,64.94,93.50394,P-GPS,,28.5
592,352600,2026-01-11 15:35:58,0.0,5,7.525,0.0,0.0,0.0,40.7,11.2,-5.6,1024,1024,1024,1024,0,0,0,0,75,4.78,64.94,93.50394,P-GPS,,28.5
593,352700,2026-01-11 15:35:58,0.0,5,7.501,0.0,0.0,0.0,40.7,11.2,-5.9,1024,1024,1024,1024,0,0,0,0,75,4.823,64.94,93.50394,P-GPS,,28.5
594,352800,2026-01-11 15:35:58,0.0,5,7.501,0.0,0.0,0.0,40.5,11.8,-5.8,1024,1024,1024,1024,0,0,0,0,75,4.823,64.94,93.50394,P-GPS,,28.5
595,352900,2026-01-11 15:35:58,0.0,5,7.501,0.0,0.0,0.0,40.5,12.4,-5.5,1024,1024,1024,1024,0,0,0,0,75,4.823,64.94,93.50394,P-GPS,,28.5
596,353000,2026-01-11 15:35:59,0.0,5,7.501,0.0,0.0,0.0,40.7,12.0,-5.0,1024,1024,1024,1024,0,0,0,0,75,4.823,64.94,93.50394,P-GPS,,28.5
597,353100,2026-01-11 15:35:59,0.0,5,7.501,0.0,0.0,-0.223694,40.6,11.8,-5.2,1024,1024,1024,1024,0,0,0,0,75,4.823,64.94,93.50394,P-GPS,,28.5
598,353200,2026-01-11 15:35:59,0.0,5,7.501,0.0,0.0,-0.223694,40.7,11.8,-5.3,1024,1024,1024,1024,0,0,0,0,75,4.823,64.94,93.832024,P-GPS,,28.6
599,353300,2026-01-11 15:35:59,0.0,5,7.501,0.0,0.0,-0.223694,40.7,11.7,-5.6,1024,1024,1024,1024,0,0,0,0,75,4.823,64.94,93.832024,P-GPS,,28.6
600,353400,2026-01-11 15:35:59,0.0,5,7.501,0.0,0.0,-0.223694,40.7,12.1,-5.9,1024,1024,1024,1024,0,0,0,0,75,4.823,64.94,93.832024,P-GPS,,28.6
601,353500,2026-01-11 15:35:59,0.0,5,7.501,0.0,0.0,0.0,40.7,12.2,-5.9,1024,1024,1024,1024,0,0,0,0,75,4.823,64.94,93.832024,P-GPS,,28.6
602,353600,2026-01-11 15:35:59,0.0,5,7.501,0.0,0.0,0.0,40.6,12.5,-6.1,1024,1024,1024,1024,0,0,0,0,75,4.823,64.94,93.832024,P-GPS,,28.6
603,353700,2026-01-11 15:35:59,0.0,5,7.501,0.0,0.0,0.0,40.6,12.9,-5.9,1024,1024,1024,1024,0,0,0,0,75,4.823,64.94,93.832024,P-GPS,,28.6
604,353800,2026-01-11 15:35:59,0.0,5,7.529,0.0,0.0,0.0,40.5,13.0,-6.2,1024,1024,1024,1024,0,0,0,0,75,5.066,65.12,93.832024,P-GPS,,28.6
605,353900,2026-01-11 15:35:59,0.0,5,7.529,0.0,0.0,0.0,40.5,13.0,-6.3,1024,1024,1024,1024,0,0,0,0,75,5.066,65.12,93.832024,P-GPS,,28.6
606,354000,2026-01-11 15:36:00,0.0,5,7.529,0.0,0.0,0.0,40.5,13.3,-6.4,1024,1024,1024,1024,0,0,0,0,75,5.066,65.12,93.832024,P-GPS,,28.6
607,354100,2026-01-11 15:36:00,0.0,5,7.529,0.0,0.0,0.0,40.5,13.4,-6.5,1024,1024,1024,1024,0,0,0,0,75,5.066,65.12,93.832024,P-GPS,,28.6
608,354200,2026-01-11 15:36:00,0.0,5,7.529,0.0,0.0,0.0,40.4,13.6,-6.5,1024,1024,1024,1024,0,0,0,0,75,5.066,65.12,93.832024,P-GPS,,28.6
609,354300,2026-01-11 15:36:00,0.0,5,7.529,0.0,0.0,0.0,40.4,14.0,-6.6,1024,1024,1024,1024,0,0,0,0,75,5.066,65.12,94.160108,P-GPS,,28.7
610,354400,2026-01-11 15:36:00,0.0,5,7.529,0.0,0.0,0.0,40.5,13.8,-6.6,1024,1024,1024,1024,0,0,0,0,75,5.066,65.12,94.160108,P-GPS,,28.7
611,354500,2026-01-11 15:36:00,0.0,5,7.529,0.0,0.0,0.0,40.5,13.6,-6.5,1024,1024,1024,1024,0,0,0,0,75,5.066,65.12,94.160108,P-GPS,,28.7
612,354600,2026-01-11 15:36:00,0.0,5,7.529,0.0,0.0,0.0,40.5,13.5,-6.5,1024,1024,1024,1024,0,0,0,0,75,5.066,65.12,94.160108,P-GPS,,28.7
613,354700,2026-01-11 15:36:00,0.0,5,7.529,0.0,0.0,0.0,40.5,13.2,-6.4,1024,1024,1024,1024,0,0,0,0,75,5.066,65.12,94.160108,P-GPS,,28.7
614,354800,2026-01-11 15:36:00,0.0,5,7.529,0.0,0.0,0.0,40.5,13.3,-6.2,1024,1024,1024,1024,0,0,0,0,75,5.066,65.12,94.160108,P-GPS,,28.7
615,354900,2026-01-11 15:36:00,0.0,5,7.479,0.0,0.0,0.0,40.5,13.2,-6.0,1024,1024,1024,1024,0,0,0,0,75,5.617,65.12,94.160108,P-GPS,,28.7
616,355000,2026-01-11 15:36:01,0.0,5,7.479,0.0,0.0,0.0,40.5,13.3,-5.9,1024,1024,1024,1024,0,0,0,0,75,5.617,65.12,94.160108,P-GPS,,28.7
617,355100,2026-01-11 15:36:01,0.0,5,7.479,0.0,0.0,0.0,40.6,13.0,-5.7,1024,1024,1024,1024,0,0,0,0,75,5.617,65.12,94.160108,P-GPS,,28.7
618,355200,2026-01-11 15:36:01,0.0,5,7.479,0.0,0.0,0.0,40.6,13.0,-5.6,1024,1024,1024,1024,0,0,0,0,75,5.617,65.12,94.160108,P-GPS,,28.7
619,355300,2026-01-11 15:36:01,0.0,5,7.479,0.0,0.0,0.0,40.6,13.0,-5.4,1024,1024,1024,1024,0,0,0,0,75,5.617,65.12,94.160108,P-GPS,,28.7
620,355400,2026-01-11 15:36:01,0.0,5,7.479,0.0,0.0,0.0,40.6,12.9,-5.3,1024,1024,1024,1024,0,0,0,0,75,5.617,65.12,94.160108,P-GPS,,28.7
621,355500,2026-01-11 15:36:01,0.0,5,7.479,0.0,0.0,0.0,40.7,12.9,-5.3,1024,1024,1024,1024,0,0,0,0,75,5.617,65.12,94.160108,P-GPS,,28.7
622,355600,2026-01-11 15:36:01,0.0,5,7.479,0.0,0.0,0.0,40.7,12.8,-5.2,1024,1024,1024,1024,0,0,0,0,75,5.617,65.12,94.160108,P-GPS,,28.7
623,355700,2026-01-11 15:36:01,0.0,5,7.479,0.0,0.0,0.0,40.8,12.4,-5.1,1024,1024,1024,1024,0,0,0,0,75,5.617,65.12,94.160108,P-GPS,Strong wind warning Strong wind warning. Aircraft unable to return to home automatically. Lower altitude immediately and return to home manually (Code: 30149). SD card speed low. Normal use may be affected. Replace SD card (Code: 10028). Gimbal stuck. Make sure gimbal c,28.7
624,355800,2026-01-11 15:36:01,0.0,5,7.479,0.0,0.0,0.0,40.7,12.2,-4.9,1024,1024,1024,1024,0,0,0,0,75,5.617,65.12,94.160108,P-GPS,,28.7
625,355900,2026-01-11 15:36:01,0.0,5,7.479,0.0,0.0,0.0,40.7,12.0,-4.8,1024,1024,1024,1024,0,0,0,0,75,5.617,65.12,94.160108,P-GPS,,28.7
626,356000,2026-01-11 15:36:02,0.0,5,7.473,0.0,0.0,0.0,40.7,12.3,-4.7,1024,1024,1024,1024,0,0,0,0,75,5.629,65.12,94.160108,P-GPS,,28.7
627,356100,2026-01-11 15:36:02,0.0,5,7.473,0.0,0.0,0.0,40.7,12.3,-4.9,1024,1024,1024,1024,0,0,0,0,75,5.629,65.12,94.160108,P-GPS,,28.7
628,356200,2026-01-11 15:36:02,0.0,5,7.473,0.0,0.0,0.0,40.7,12.5,-5.0,1024,1024,1024,1024,0,0,0,0,75,5.629,65.12,94.160108,P-GPS,,28.7
629,356300,2026-01-11 15:36:02,0.0,5,7.473,0.0,0.0,0.0,40.8,12.2,-5.1,1024,1024,1024,1024,0,0,0,0,75,5.629,65.12,94.160108,P-GPS,,28.7
630,356400,2026-01-11 15:36:02,0.0,5,7.473,0.0,0.0,0.0,40.8,12.8,-5.2,1024,1024,1024,1024,0,0,0,0,75,5.629,65.12,94.488192,P-GPS,,28.8
631,356500,2026-01-11 15:36:02,0.0,5,7.473,0.0,0.0,0.0,40.9,12.7,-5.0,1024,1024,1024,1024,0,0,0,0,75,5.629,65.12,94.488192,P-GPS,,28.8
632,356600,2026-01-11 15:36:02,0.0,5,7.473,0.0,0.0,0.0,40.9,12.5,-5.0,1024,1024,1024,1024,0,0,0,0,75,5.629,65.12,94.488192,P-GPS,,28.8
633,356700,2026-01-11 15:36:02,0.0,5,7.473,0.0,0.0,0.0,40.9,12.6,-5.2,1024,1024,1024,1024,0,0,0,0,75,5.629,65.12,94.816276,P-GPS,,28.9
634,356800,2026-01-11 15:36:02,0.0,5,7.473,0.0,0.0,0.0,40.8,13.1,-5.3,1024,1024,1024,1024,0,0,0,0,75,5.629,65.12,94.816276,P-GPS,,28.9
635,356900,2026-01-11 15:36:02,0.0,5,7.473,0.0,0.0,0.0,40.8,13.3,-5.4,1024,1024,1024,1024,0,0,0,0,75,5.629,65.12,94.816276,P-GPS,,28.9
636,357000,2026-01-11 15:36:03,0.0,5,7.473,0.0,0.0,0.0,40.8,13.6,-5.6,1024,1024,1024,1024,0,0,0,0,75,5.629,65.12,95.14436,P-GPS,,29.0
637,357100,2026-01-11 15:36:03,0.0,5,7.457,0.0,0.0,0.0,40.8,13.4,-5.6,1024,1024,1024,1024,0,0,0,0,75,5.95,65.12,95.14436,P-GPS,,29.0
638,357200,2026-01-11 15:36:03,0.0,5,7.457,0.0,0.0,0.0,40.7,13.8,-6.0,1024,1024,1024,1024,0,0,0,0,75,5.95,65.12,95.14436,P-GPS,,29.0
639,357300,2026-01-11 15:36:03,0.0,5,7.457,0.0,0.0,0.0,40.7,13.8,-6.0,1024,1024,1024,1024,0,0,0,0,75,5.95,65.12,95.472444,P-GPS,,29.1
640,357400,2026-01-11 15:36:03,0.0,5,7.457,0.0,0.0,0.0,40.8,13.8,-6.2,1024,1024,1024,1024,0,0,0,0,75,5.95,65.12,95.472444,P-GPS,,29.1
641,357500,2026-01-11 15:36:03,0.0,5,7.457,0.0,0.0,0.0,40.8,13.4,-6.1,1024,1024,1024,1024,0,0,0,0,75,5.95,65.12,95.472444,P-GPS,,29.1
642,357600,2026-01-11 15:36:03,0.0,5,7.457,0.0,0.0,0.0,40.6,13.3,-6.4,1024,1024,1024,1024,0,0,0,0,75,5.95,65.12,95.800528,P-GPS,,29.2
643,357700,2026-01-11 15:36:03,0.0,5,7.457,0.0,0.0,0.0,40.5,13.4,-6.5,1024,1024,1024,1024,0,0,0,0,75,5.95,65.12,95.800528,P-GPS,,29.2
644,357800,2026-01-11 15:36:03,0.0,5,7.457,0.0,0.0,0.0,40.5,13.7,-6.6,1024,1024,1024,1024,0,0,0,0,75,5.95,65.12,95.800528,P-GPS,,29.2
645,357900,2026-01-11 15:36:03,0.0,5,7.457,0.0,0.0,0.0,40.5,14.0,-6.0,1024,1024,1024,1024,0,0,0,0,75,5.95,65.12,95.800528,P-GPS,,29.2
646,358000,2026-01-11 15:36:04,0.0,5,7.457,0.0,0.0,0.0,40.4,13.7,-5.6,1024,1024,1024,1024,0,0,0,0,75,5.95,65.12,95.800528,P-GPS,,29.2
647,358100,2026-01-11 15:36:04,0.0,5,7.457,0.0,0.0,0.0,40.4,13.6,-5.3,1024,1024,1024,1024,0,0,0,0,75,5.95,65.12,95.800528,P-GPS,,29.2
648,358200,2026-01-11 15:36:04,0.0,5,7.457,0.0,0.0,0.0,40.5,13.9,-5.3,1024,1024,1024,1024,0,0,0,0,75,5.95,65.12,95.800528,P-GPS,,29.2
649,358300,2026-01-11 15:36:04,0.0,5,7.457,0.0,0.0,0.0,40.6,13.7,-5.3,1024,1024,1024,1024,0,0,0,0,75,5.95,65.12,95.800528,P-GPS,,29.2
650,358400,2026-01-11 15:36:04,0.0,5,7.457,0.0,0.0,0.0,40.7,13.4,-5.2,1024,1024,1024,1024,0,0,0,0,75,5.95,65.12,95.800528,P-GPS,,29.2
651,358500,2026-01-11 15:36:04,0.0,5,7.457,0.0,0.0,0.0,40.7,12.9,-5.1,1024,1024,1024,1024,0,0,0,0,75,5.95,65.12,95.800528,P-GPS,,29.2
652,358600,2026-01-11 15:36:04,0.0,5,7.457,0.0,0.0,0.0,40.7,12.9,-5.2,1024,1024,1024,1024,0,0,0,0,75,5.95,65.12,95.800528,P-GPS,,29.2
653,358700,2026-01-11 15:36:04,0.0,5,7.457,0.0,0.0,0.0,40.6,13.1,-5.3,1024,1024,1024,1024,0,0,0,0,75,5.95,65.12,95.800528,P-GPS,,29.2
654,358800,2026-01-11 15:36:04,0.0,5,7.457,0.0,0.0,0.0,40.6,13.3,-5.5,1024,1024,1024,1024,0,0,0,0,75,5.95,65.12,95.800528,P-GPS,,29.2
655,358900,2026-01-11 15:36:04,0.0,5,7.457,0.0,0.0,0.0,40.6,13.3,-5.7,1024,1024,1024,1024,0,0,0,0,75,5.95,65.12,95.800528,P-GPS,,29.2
656,359000,2026-01-11 15:36:05,0.0,5,7.457,0.0,0.0,0.0,40.6,13.4,-5.8,1024,1024,1024,1024,0,0,0,0,75,5.95,65.12,95.800528,P-GPS,,29.2
657,359100,2026-01-11 15:36:05,0.0,5,7.457,0.0,0.0,0.0,40.6,13.5,-5.8,1024,1024,1024,1024,0,0,0,0,75,5.95,65.12,95.800528,P-GPS,,29.2
658,359200,2026-01-11 15:36:05,0.0,5,7.457,0.0,0.0,0.0,40.7,13.8,-5.9,1024,1024,1024,1024,0,0,0,0,75,5.95,65.12,95.800528,P-GPS,,29.2
659,359300,2026-01-11 15:36:05,0.0,5,7.459,0.0,0.0,0.0,40.7,13.7,-6.0,1024,1024,1024,1024,0,0,0,0,75,5.931,65.12,95.800528,P-GPS,,29.2
660,359400,2026-01-11 15:36:05,0.0,5,7.459,0.0,0.0,0.0,40.6,14.0,-6.2,1024,1024,1024,1024,0,0,0,0,75,5.931,65.12,95.800528,P-GPS,,29.2
661,359500,2026-01-11 15:36:05,0.0,5,7.459,0.0,0.0,0.0,40.7,13.6,-6.1,1024,1024,1024,1024,0,0,0,0,75,5.931,65.12,95.800528,P-GPS,,29.2
662,359600,2026-01-11 15:36:05,0.0,5,7.459,0.0,0.0,0.0,40.7,13.3,-6.1,1024,1024,1024,1024,0,0,0,0,75,5.931,65.12,95.800528,P-GPS,,29.2
663,359700,2026-01-11 15:36:05,0.0,5,7.459,0.0,0.0,0.0,40.6,13.2,-6.1,1024,1024,1024,1024,0,0,0,0,75,5.931,65.12,96.128612,P-GPS,,29.3
664,359800,2026-01-11 15:36:05,0.0,5,7.459,0.0,0.0,0.0,40.6,13.2,-6.0,1024,1024,1024,1024,0,0,0,0,75,5.931,65.12,96.128612,P-GPS,,29.3
665,359900,2026-01-11 15:36:05,0.0,5,7.459,0.0,0.0,0.0,40.5,13.2,-5.9,1024,1024,1024,1024,0,0,0,0,75,5.931,65.12,96.128612,P-GPS,,29.3
666,360000,2026-01-11 15:36:06,0.0,5,7.459,0.0,0.0,0.0,40.5,13.3,-5.8,1024,1024,1024,1024,0,0,0,0,75,5.931,65.12,96.128612,P-GPS,,29.3
667,360100,2026-01-11 15:36:06,0.0,5,7.459,0.0,0.0,0.0,40.6,13.4,-6.0,1024,1024,1024,1024,0,0,0,0,75,5.931,65.12,96.128612,P-GPS,,29.3
668,360200,2026-01-11 15:36:06,0.0,5,7.459,0.0,0.0,0.0,40.6,13.5,-6.2,1024,1024,1024,1024,0,0,0,0,75,5.931,65.12,96.128612,P-GPS,,29.3
669,360300,2026-01-11 15:36:06,0.0,5,7.459,0.0,0.0,0.0,40.6,13.5,-6.0,1024,1024,1024,1024,0,0,0,0,75,5.931,65.12,96.128612,P-GPS,,29.3
670,360400,2026-01-11 15:36:06,0.0,5,7.459,0.0,0.0,0.0,40.6,13.6,-6.1,1024,1024,1024,1024,0,0,0,0,75,5.931,65.12,96.128612,P-GPS,,29.3
671,360500,2026-01-11 15:36:06,0.0,5,7.462,0.0,0.0,0.0,40.7,13.0,-6.5,1024,1024,1024,1024,0,0,0,0,75,5.866,65.3,96.128612,P-GPS,,29.3
672,360600,2026-01-11 15:36:06,0.0,5,7.462,0.0,0.0,0.0,40.7,12.9,-6.5,1024,1024,1024,1024,0,0,0,0,75,5.866,65.3,96.128612,P-GPS,,29.3
673,360700,2026-01-11 15:36:06,0.0,5,7.462,0.0,0.0,0.0,40.8,12.8,-5.8,1024,1024,1024,1024,0,0,0,0,75,5.866,65.3,96.128612,P-GPS,,29.3
674,360800,2026-01-11 15:36:06,0.0,5,7.462,0.0,0.0,0.0,40.8,13.0,-5.4,1024,1024,1024,1024,0,0,0,0,75,5.866,65.3,96.128612,P-GPS,,29.3
675,360900,2026-01-11 15:36:07,0.0,5,7.462,0.0,0.0,0.0,40.8,12.9,-5.3,1024,1024,1024,1024,0,0,0,0,75,5.866,65.3,96.128612,P-GPS,,29.3
676,361000,2026-01-11 15:36:07,0.0,5,7.462,0.0,0.0,0.0,40.8,12.8,-5.6,1024,1024,1024,1024,0,0,0,0,75,5.866,65.3,96.128612,P-GPS,,29.3
677,361100,2026-01-11 15:36:07,0.0,5,7.462,0.0,0.0,0.0,40.8,12.7,-5.3,1024,1024,1024,1024,0,0,0,0,75,5.866,65.3,96.128612,P-GPS,,29.3
678,361200,2026-01-11 15:36:07,0.0,5,7.462,0.0,0.0,0.0,40.8,12.7,-5.5,1024,1024,1024,1024,0,0,0,0,75,5.866,65.3,96.128612,P-GPS,,29.3
679,361300,2026-01-11 15:36:07,0.0,5,7.462,0.0,0.0,0.0,40.7,12.2,-5.6,1024,1024,1024,1024,0,0,0,0,75,5.866,65.3,96.128612,P-GPS,,29.3
680,361400,2026-01-11 15:36:07,0.0,5,7.462,0.0,0.0,0.0,40.7,12.1,-5.8,1024,1024,1024,1024,0,0,0,0,75,5.866,65.3,96.128612,P-GPS,,29.3
681,361500,2026-01-11 15:36:07,0.0,5,7.462,0.0,0.0,0.0,40.6,12.1,-5.7,1024,1024,1024,1024,0,0,0,0,75,5.866,65.3,96.128612,P-GPS,,29.3
682,361600,2026-01-11 15:36:07,0.0,5,7.455,0.0,0.0,0.0,40.6,12.0,-6.2,1024,1024,1024,1024,0,0,0,0,75,5.998,65.3,96.128612,P-GPS,,29.3
683,361700,2026-01-11 15:36:07,0.0,5,7.455,0.0,0.0,0.0,40.6,12.2,-6.3,1024,1024,1024,1024,0,0,0,0,75,5.998,65.3,96.128612,P-GPS,,29.3
684,361800,2026-01-11 15:36:07,0.0,5,7.455,0.0,0.0,0.0,40.6,12.8,-6.5,1024,1024,1024,1024,0,0,0,0,75,5.998,65.3,96.128612,P-GPS,,29.3
685,361900,2026-01-11 15:36:07,0.0,5,7.455,0.0,0.0,0.0,40.6,12.8,-6.4,1024,1024,1024,1024,0,0,0,0,75,5.998,65.3,96.128612,P-GPS,,29.3
686,362000,2026-01-11 15:36:08,0.0,5,7.455,0.0,0.0,0.0,40.6,13.1,-6.4,1024,1024,1024,1024,0,0,0,0,75,5.998,65.3,96.128612,P-GPS,,29.3
687,362100,2026-01-11 15:36:08,0.0,5,7.455,0.0,0.0,0.0,40.6,13.2,-6.1,1024,1024,1024,1024,0,0,0,0,75,5.998,65.3,96.128612,P-GPS,,29.3
688,362200,2026-01-11 15:36:08,0.0,5,7.455,0.0,0.0,0.0,40.7,13.0,-5.7,1024,1024,1024,1024,0,0,0,0,75,5.998,65.3,96.456696,P-GPS,,29.4
689,362300,2026-01-11 15:36:08,0.0,5,7.455,0.0,0.0,0.0,40.7,12.5,-5.6,1024,1024,1024,1024,0,0,0,0,75,5.998,65.3,96.456696,P-GPS,,29.4
690,362400,2026-01-11 15:36:08,0.0,5,7.455,0.0,0.0,0.0,40.7,12.3,-5.5,1024,1024,1024,1024,0,0,0,0,75,5.998,65.3,96.456696,P-GPS,,29.4
691,362500,2026-01-11 15:36:08,0.0,5,7.455,0.0,0.0,0.0,40.6,12.6,-5.6,1024,1024,1024,1024,0,0,0,0,75,5.998,65.3,96.456696,P-GPS,,29.4
692,362600,2026-01-11 15:36:08,0.0,5,7.455,0.0,0.0,0.0,40.7,12.7,-5.3,1024,1024,1024,1024,0,0,0,0,75,5.998,65.3,96.456696,P-GPS,,29.4
693,362700,2026-01-11 15:36:08,0.0,5,7.445,0.0,0.0,0.0,40.7,12.8,-5.2,1024,1024,1024,1024,0,0,0,0,75,6.055,65.3,96.456696,P-GPS,,29.4
694,362800,2026-01-11 15:36:08,0.0,5,7.445,0.0,0.0,0.0,40.6,12.9,-5.2,1024,1024,1024,1024,0,0,0,0,75,6.055,65.3,96.456696,P-GPS,,29.4
695,362900,2026-01-11 15:36:09,0.0,5,7.445,0.0,0.0,0.0,40.6,12.5,-5.4,1024,1024,1024,1024,0,0,0,0,75,6.055,65.3,96.456696,P-GPS,,29.4
696,363000,2026-01-11 15:36:09,0.0,5,7.445,0.0,0.0,0.0,40.5,12.5,-5.4,1024,1024,1024,1024,0,0,0,0,75,6.055,65.3,96.456696,P-GPS,,29.4
697,363100,2026-01-11 15:36:09,0.0,5,7.445,0.0,0.0,0.0,40.6,12.4,-5.3,1024,1024,1024,1024,0,0,0,0,75,6.055,65.3,96.456696,P-GPS,,29.4
698,363200,2026-01-11 15:36:09,0.0,5,7.445,0.0,0.0,0.0,40.6,12.4,-5.5,1024,1024,1024,1024,0,0,0,0,75,6.055,65.3,96.456696,P-GPS,,29.4
699,363300,2026-01-11 15:36:09,0.0,5,7.445,0.0,0.0,0.0,40.6,12.2,-5.5,1024,1024,1024,1024,0,0,0,0,75,6.055,65.3,96.456696,P-GPS,,29.4
700,363400,2026-01-11 15:36:09,0.0,5,7.445,0.0,0.0,0.0,40.6,12.1,-5.1,1024,1024,1024,1024,0,0,0,0,75,6.055,65.3,96.456696,P-GPS,,29.4
701,363500,2026-01-11 15:36:09,0.0,5,7.445,0.0,0.0,0.0,40.7,12.0,-5.3,1024,1024,1024,1024,0,0,0,0,75,6.055,65.3,96.456696,P-GPS,,29.4
702,363600,2026-01-11 15:36:09,0.0,5,7.445,0.0,0.0,0.0,40.7,11.8,-5.2,1024,1024,1024,1024,0,0,0,0,75,6.055,65.3,96.456696,P-GPS,,29.4
703,363700,2026-01-11 15:36:09,0.0,5,7.445,0.0,0.0,0.0,40.7,11.6,-5.2,1024,1024,1024,1024,0,0,0,0,75,6.055,65.3,96.456696,P-GPS,,29.4
704,363800,2026-01-11 15:36:09,0.0,5,7.457,0.0,0.0,0.0,40.7,11.5,-5.6,1024,1024,1024,1024,0,0,0,0,75,5.655,65.3,96.456696,P-GPS,,29.4
705,363900,2026-01-11 15:36:09,0.0,5,7.457,0.0,0.0,0.0,40.6,11.4,-5.7,1024,1024,1024,1024,0,0,0,0,75,5.655,65.3,96.456696,P-GPS,,29.4
706,364000,2026-01-11 15:36:10,0.0,5,7.457,0.0,0.0,0.0,40.6,11.3,-5.8,1024,1024,1024,1024,0,0,0,0,75,5.655,65.3,96.456696,P-GPS,,29.4
707,364100,2026-01-11 15:36:10,0.0,5,7.457,0.0,0.0,0.0,40.6,11.4,-6.0,1024,1024,1024,1024,0,0,0,0,75,5.655,65.3,96.456696,P-GPS,,29.4
708,364200,2026-01-11 15:36:10,0.0,5,7.457,0.0,0.0,0.0,40.6,11.2,-6.3,1024,1024,1024,1024,0,0,0,0,75,5.655,65.3,96.456696,P-GPS,,29.4
