index,time(millisecond),timestamp,speed(mph),gpslevel,voltage(v),xSpeed(mph),ySpeed(mph),zSpeed(mph),compass_heading(degrees),pitch(degrees),roll(degrees),rc_elevator,rc_aileron,rc_throttle,rc_rudder,rc_elevator(percent),rc_aileron(percent),rc_throttle(percent),rc_rudder(percent),battery_percent,current(A),battery_temperature(f),ascent(feet),flycState,message,height_above_takeoff(meters)
85,300200,2026-01-12 12:11:17,0.0,5,7.741,0.0,0.0,0.0,19.3,4.4,-3.0,1024,1024,1024,1024,0,0,0,0,80,3.879,69.98,35.433072,P-GPS,,10.8
86,300300,2026-01-12 12:11:17,0.0,5,7.741,0.0,0.0,0.0,19.1,5.2,-2.9,1024,1024,1024,1024,0,0,0,0,80,3.879,69.98,35.433072,P-GPS,,10.8
87,300400,2026-01-12 12:11:17,0.0,5,7.741,0.0,0.0,0.0,19.1,5.0,-2.8,1024,1024,1024,1024,0,0,0,0,80,3.879,69.98,35.433072,P-GPS,,10.8
88,300500,2026-01-12 12:11:17,0.0,5,7.741,0.0,0.0,0.0,19.2,5.3,-2.8,1024,1024,1024,1024,0,0,0,0,80,3.879,69.98,35.433072,P-GPS,,10.8
89,300600,2026-01-12 12:11:17,0.0,5,7.741,0.0,0.0,0.0,19.2,5.2,-2.6,1024,1024,1024,1024,0,0,0,0,80,3.879,69.98,35.433072,P-GPS,,10.8
90,300700,2026-01-12 12:11:17,0.0,5,7.741,0.0,0.0,0.0,19.3,4.3,-2.9,1024,1024,1024,1024,0,0,0,0,80,3.879,69.98,35.433072,P-GPS,,10.8
91,300800,2026-01-12 12:11:17,0.0,5,7.741,0.0,0.0,0.0,19.3,4.1,-3.0,1024,1024,1024,1024,0,0,0,0,80,3.879,69.98,35.433072,P-GPS,,10.8
92,300900,2026-01-12 12:11:17,0.0,5,7.741,0.0,0.0,0.0,19.3,4.2,-2.9,1024,1024,1024,1024,0,0,0,0,80,3.879,69.98,35.433072,P-GPS,,10.8
93,301000,2026-01-12 12:11:17,0.0,5,7.741,0.0,0.0,0.0,19.3,4.4,-3.2,1024,1024,1024,1024,0,0,0,0,80,3.879,69.98,35.433072,P-GPS,,10.8
94,301100,2026-01-12 12:11:18,0.0,5,7.741,0.0,0.0,0.0,19.2,4.8,-3.3,1024,1024,1024,1024,0,0,0,0,80,3.879,69.98,35.433072,P-GPS,,10.8
95,301200,2026-01-12 12:11:18,0.0,5,7.684,0.0,0.0,0.0,19.1,4.8,-3.2,1024,1024,1024,1024,0,0,0,0,80,4.874,69.98,35.433072,P-GPS,,10.8
96,301300,2026-01-12 12:11:18,0.0,5,7.684,0.0,0.0,0.0,19.1,4.5,-3.0,1024,1024,1024,1024,0,0,0,0,80,4.874,69.98,35.433072,P-GPS,,10.8
97,301400,2026-01-12 12:11:18,0.0,5,7.684,0.0,0.0,0.0,19.1,4.3,-2.8,1024,1024,1024,1024,0,0,0,0,80,4.874,69.98,35.433072,P-GPS,,10.8
98,301500,2026-01-12 12:11:18,0.0,5,7.684,0.0,0.0,0.0,19.1,4.6,-2.7,1024,1024,1024,1024,0,0,0,0,80,4.874,69.98,35.433072,P-GPS,,10.8
99,301600,2026-01-12 12:11:18,0.0,5,7.684,0.0,0.0,0.0,19.2,4.7,-2.6,1024,1024,1024,1024,0,0,0,0,80,4.874,69.98,35.433072,P-GPS,,10.8
100,301700,2026-01-12 12:11:18,0.0,5,7.684,0.0,0.0,0.0,19.1,5.0,-2.7,1024,1024,1024,1024,0,0,0,0,80,4.874,69.98,35.433072,P-GPS,,10.8
101,301800,2026-01-12 12:11:18,0.0,5,7.684,0.0,0.0,0.0,19.1,4.9,-2.7,1024,1024,1024,1024,0,0,0,0,80,4.874,69.98,35.433072,P-GPS,,10.8
102,301900,2026-01-12 12:11:18,0.0,5,7.684,0.0,0.0,0.0,19.0,5.4,-2.2,1024,1024,1024,1024,0,0,0,0,80,4.874,69.98,35.433072,P-GPS,,10.8
103,302000,2026-01-12 12:11:18,0.0,5,7.684,0.0,0.0,0.0,19.0,5.5,-2.1,1024,1024,1024,1024,0,0,0,0,80,4.874,69.98,35.433072,P-GPS,,10.8
104,302100,2026-01-12 12:11:18,0.0,5,7.684,0.0,0.0,0.0,19.0,5.6,-2.1,1024,1024,1024,1024,0,0,0,0,80,4.874,69.98,35.433072,P-GPS,,10.8
105,302200,2026-01-12 12:11:19,0.0,5,7.684,0.0,0.0,0.0,19.1,5.6,-2.4,1024,1024,1024,1024,0,0,0,0,80,4.874,69.98,35.433072,P-GPS,,10.8
106,302300,2026-01-12 12:11:19,0.0,5,7.676,0.0,0.0,0.0,19.1,5.8,-2.4,1024,1024,1024,1024,0,0,0,0,80,4.89,69.98,35.433072,P-GPS,,10.8
107,302400,2026-01-12 12:11:19,0.0,5,7.676,0.0,0.0,0.0,19.0,5.5,-2.3,1024,1024,1024,1024,0,0,0,0,80,4.89,69.98,35.433072,P-GPS,,10.8
108,302500,2026-01-12 12:11:19,0.0,5,7.676,0.0,0.0,0.0,19.0,5.3,-2.6,1024,1024,1024,1024,0,0,0,0,80,4.89,69.98,35.433072,P-GPS,,10.8
109,302600,2026-01-12 12:11:19,0.0,5,7.676,0.0,0.0,0.0,18.9,5.2,-2.9,1024,1024,1024,1024,0,0,0,0,80,4.89,69.98,35.104988,P-GPS,,10.7
110,302700,2026-01-12 12:11:19,0.0,5,7.676,0.0,0.0,0.0,19.0,4.9,-2.6,1024,1024,1024,1024,0,0,0,0,80,4.89,69.98,35.104988,P-GPS,,10.7
111,302800,2026-01-12 12:11:19,0.0,5,7.676,0.0,0.0,0.0,19.0,4.7,-2.6,1024,1024,1024,1024,0,0,0,0,80,4.89,69.98,35.104988,P-GPS,,10.7
112,302900,2026-01-12 12:11:19,0.0,5,7.676,0.0,0.0,0.0,19.0,4.3,-2.7,1024,1024,1024,1024,0,0,0,0,80,4.89,69.98,35.104988,P-GPS,,10.7
113,303000,2026-01-12 12:11:19,0.0,5,7.676,0.0,0.0,0.0,19.0,4.5,-2.4,1024,1024,1024,1024,0,0,0,0,80,4.89,69.98,35.104988,P-GPS,,10.7
114,303100,2026-01-12 12:11:20,0.0,5,7.676,0.0,0.0,0.0,18.9,4.6,-2.3,1024,1024,1024,1024,0,0,0,0,80,4.89,69.98,35.104988,P-GPS,,10.7
115,303200,2026-01-12 12:11:20,0.0,5,7.676,0.0,0.0,0.0,19.0,4.3,-1.8,1024,1024,1024,1024,0,0,0,0,80,4.89,69.98,35.104988,P-GPS,,10.7
116,303300,2026-01-12 12:11:20,0.0,5,7.676,0.0,0.0,0.0,19.1,3.8,-1.8,1024,1024,1024,1024,0,0,0,0,80,4.89,69.98,35.104988,P-GPS,,10.7
117,303400,2026-01-12 12:11:20,0.0,5,7.675,0.0,0.0,0.0,19.0,4.3,-1.8,1024,1024,1024,1024,0,0,0,0,80,4.91,69.98,34.776904,P-GPS,,10.6
118,303500,2026-01-12 12:11:20,0.0,5,7.675,0.0,0.0,0.0,19.0,4.7,-2.1,1024,1024,1024,1024,0,0,0,0,80,4.91,69.98,34.776904,P-GPS,,10.6
119,303600,2026-01-12 12:11:20,0.0,5,7.675,0.0,0.0,0.0,19.0,5.0,-2.0,1024,1024,1024,1024,0,0,0,0,80,4.91,69.98,34.776904,P-GPS,,10.6
120,303700,2026-01-12 12:11:20,0.0,5,7.675,0.0,0.0,0.0,19.0,4.8,-1.7,1024,1024,1024,1024,0,0,0,0,80,4.91,69.98,34.776904,P-GPS,,10.6
121,303800,2026-01-12 12:11:20,0.0,5,7.675,0.0,0.0,0.0,19.0,5.1,-1.8,1024,1024,1024,1024,0,0,0,0,80,4.91,69.98,34.776904,P-GPS,,10.6
122,303900,2026-01-12 12:11:20,0.0,5,7.675,0.0,0.0,0.0,19.1,5.4,-1.8,1024,1024,1024,1024,0,0,0,0,80,4.91,69.98,34.776904,P-GPS,,10.6
123,304000,2026-01-12 12:11:20,0.0,5,7.675,0.0,0.0,0.0,19.2,5.1,-2.1,1024,1024,1024,1024,0,0,0,0,80,4.91,69.98,34.776904,P-GPS,,10.6
124,304100,2026-01-12 12:11:20,0.0,5,7.675,0.0,0.0,0.0,19.1,5.1,-2.1,1024,1024,1024,1024,0,0,0,0,80,4.91,69.98,34.776904,P-GPS,,10.6
125,304200,2026-01-12 12:11:21,0.0,5,7.675,0.0,0.0,0.0,19.0,5.3,-2.5,1024,1024,1024,1024,0,0,0,0,80,4.91,69.98,34.776904,P-GPS,,10.6
126,304300,2026-01-12 12:11:21,0.0,5,7.675,0.0,0.0,0.0,19.0,5.3,-2.7,1024,1024,1024,1024,0,0,0,0,80,4.91,69.98,34.776904,P-GPS,,10.6
127,304400,2026-01-12 12:11:21,0.0,5,7.675,0.0,0.0,0.0,19.0,5.0,-2.8,1024,1024,1024,1024,0,0,0,0,80,4.91,69.98,34.776904,P-GPS,,10.6
128,304500,2026-01-12 12:11:21,0.0,5,7.675,0.0,0.0,0.0,19.0,4.8,-3.0,1024,1024,1024,1024,0,0,0,0,80,4.924,69.98,34.776904,P-GPS,,10.6
129,304600,2026-01-12 12:11:21,0.0,5,7.675,0.0,0.0,0.0,19.0,4.8,-3.0,1024,1024,1024,1024,0,0,0,0,80,4.924,69.98,34.776904,P-GPS,,10.6
130,304700,2026-01-12 12:11:21,0.0,5,7.675,0.0,0.0,0.0,19.0,4.3,-2.7,1024,1024,1024,1024,0,0,0,0,80,4.924,69.98,34.776904,P-GPS,,10.6
131,304800,2026-01-12 12:11:21,0.0,5,7.675,0.0,0.0,0.0,19.1,4.0,-2.4,1024,1024,1024,1024,0,0,0,0,80,4.924,69.98,34.776904,P-GPS,,10.6
132,304900,2026-01-12 12:11:21,0.0,5,7.675,0.0,0.0,0.0,19.1,4.0,-2.5,1024,1024,1024,1024,0,0,0,0,80,4.924,69.98,34.776904,P-GPS,,10.6
133,305000,2026-01-12 12:11:21,0.0,5,7.675,0.0,0.0,0.0,19.1,4.2,-2.2,1024,1024,1024,1024,0,0,0,0,80,4.924,69.98,34.776904,P-GPS,,10.6
134,305100,2026-01-12 12:11:21,0.0,5,7.675,0.0,0.0,0.0,19.1,4.0,-2.1,1024,1024,1024,1024,0,0,0,0,80,4.924,69.98,34.776904,P-GPS,,10.6
135,305200,2026-01-12 12:11:22,0.0,5,7.675,0.0,0.0,0.0,19.1,3.8,-2.2,1024,1024,1024,1024,0,0,0,0,80,4.924,69.98,34.776904,P-GPS,,10.6
136,305300,2026-01-12 12:11:22,0.0,5,7.675,0.0,0.0,0.0,19.1,4.0,-2.0,1024,1024,1024,1024,0,0,0,0,80,4.924,69.98,34.44882,P-GPS,,10.5
137,305400,2026-01-12 12:11:22,0.0,5,7.675,0.0,0.0,0.0,19.0,3.9,-2.2,1024,1024,1024,1024,0,0,0,0,80,4.924,69.98,34.44882,P-GPS,,10.5
138,305500,2026-01-12 12:11:22,0.0,5,7.675,0.0,0.0,0.0,19.0,3.8,-2.3,1024,1024,1024,1024,0,0,0,0,80,4.924,69.98,34.44882,P-GPS,,10.5
139,305600,2026-01-12 12:11:22,0.0,5,7.681,0.0,0.0,0.0,19.0,4.0,-2.2,1024,1024,1024,1024,0,0,0,0,80,4.84,69.98,34.44882,P-GPS,,10.5
140,305700,2026-01-12 12:11:22,0.0,5,7.681,0.0,0.0,0.0,19.0,3.6,-2.1,1024,1024,1024,1024,0,0,0,0,80,4.84,69.98,34.44882,P-GPS,,10.5
141,305800,2026-01-12 12:11:22,0.0,5,7.681,0.0,0.0,0.0,19.0,3.3,-2.2,1024,1024,1024,1024,0,0,0,0,80,4.84,69.98,34.44882,P-GPS,,10.5
142,305900,2026-01-12 12:11:22,0.0,5,7.681,0.0,0.0,0.0,19.0,3.3,-2.1,1024,1024,1024,1024,0,0,0,0,80,4.84,69.98,34.44882,P-GPS,,10.5
143,306000,2026-01-12 12:11:22,0.0,5,7.681,0.0,0.0,0.0,19.1,3.7,-1.9,1024,1024,1024,1024,0,0,0,0,80,4.84,69.98,34.44882,P-GPS,,10.5
144,306100,2026-01-12 12:11:22,0.0,5,7.681,0.0,0.0,0.0,19.1,3.6,-1.8,1024,1024,1024,1024,0,0,0,0,80,4.84,69.98,34.120736,P-GPS,,10.4
145,306200,2026-01-12 12:11:23,0.0,5,7.681,0.0,0.0,0.0,19.1,3.2,-2.2,1024,1024,1024,1024,0,0,0,0,80,4.84,69.98,34.120736,P-GPS,,10.4
146,306300,2026-01-12 12:11:23,0.0,5,7.681,0.0,0.0,0.0,19.0,3.3,-2.3,1024,1024,1024,1024,0,0,0,0,80,4.84,69.98,34.120736,P-GPS,,10.4
147,306400,2026-01-12 12:11:23,0.0,5,7.681,0.0,0.0,0.0,19.0,3.3,-2.2,1024,1024,1024,1024,0,0,0,0,80,4.84,69.98,34.120736,P-GPS,,10.4
148,306500,2026-01-12 12:11:23,0.0,5,7.681,0.0,0.0,0.0,19.1,3.5,-2.0,1024,1024,1024,1024,0,0,0,0,80,4.84,69.98,34.120736,P-GPS,,10.4
149,306600,2026-01-12 12:11:23,0.0,5,7.681,0.0,0.0,0.0,19.1,3.3,-2.1,1024,1024,1024,1024,0,0,0,0,80,4.84,69.98,34.120736,P-GPS,,10.4
150,306700,2026-01-12 12:11:23,0.0,5,7.673,0.0,0.0,0.0,19.0,3.4,-2.2,1024,1024,1024,1024,0,0,0,0,80,4.786,70.16,34.120736,P-GPS,,10.4
151,306800,2026-01-12 12:11:23,0.0,5,7.673,0.0,0.0,0.0,19.0,3.0,-2.4,1024,1024,1024,1024,0,0,0,0,80,4.786,70.16,34.120736,P-GPS,,10.4
152,306900,2026-01-12 12:11:23,0.0,5,7.673,0.0,0.0,0.0,19.0,3.0,-2.2,1024,1024,1024,1024,0,0,0,0,80,4.786,70.16,34.120736,P-GPS,,10.4
153,307000,2026-01-12 12:11:23,0.0,5,7.673,0.0,0.0,0.0,19.0,3.5,-2.0,1024,1024,1024,1024,0,0,0,0,80,4.786,70.16,34.120736,P-GPS,,10.4
154,307100,2026-01-12 12:11:23,0.0,5,7.673,0.0,0.0,0.0,19.0,3.4,-2.0,1024,1024,1024,1024,0,0,0,0,80,4.786,70.16,34.120736,P-GPS,,10.4
155,307200,2026-01-12 12:11:24,0.0,5,7.673,0.0,0.0,0.0,19.0,3.4,-1.7,1024,1024,1024,1024,0,0,0,0,80,4.786,70.16,33.792652,P-GPS,,10.3
156,307300,2026-01-12 12:11:24,0.0,5,7.673,0.0,0.0,0.0,19.0,3.2,-1.3,1024,1024,1024,1024,0,0,0,0,80,4.786,70.16,33.792652,P-GPS,,10.3
157,307400,2026-01-12 12:11:24,0.0,5,7.673,0.0,0.0,0.0,19.0,3.3,-1.2,1024,1024,1024,1024,0,0,0,0,80,4.786,70.16,33.792652,P-GPS,,10.3
158,307500,2026-01-12 12:11:24,0.0,5,7.673,0.0,0.0,0.0,19.0,2.8,-1.5,1024,1024,1024,1024,0,0,0,0,80,4.786,70.16,33.792652,P-GPS,,10.3
159,307600,2026-01-12 12:11:24,0.0,5,7.673,0.0,0.0,0.0,19.0,2.9,-1.4,1024,1024,1024,1024,0,0,0,0,80,4.786,70.16,33.792652,P-GPS,,10.3
160,307700,2026-01-12 12:11:24,0.0,5,7.673,0.0,0.0,0.0,19.0,3.2,-1.2,1024,1024,1024,1024,0,0,0,0,80,4.786,70.16,33.792652,P-GPS,,10.3
161,307800,2026-01-12 12:11:24,0.0,5,7.663,0.0,0.0,0.0,19.0,2.8,-1.4,1024,1024,1024,1024,0,0,0,0,80,4.852,70.16,33.792652,P-GPS,,10.3
162,307900,2026-01-12 12:11:24,0.0,5,7.663,0.0,0.0,0.0,19.0,3.1,-1.3,1024,1024,1024,1024,0,0,0,0,80,4.852,70.16,33.792652,P-GPS,,10.3
163,308000,2026-01-12 12:11:24,0.0,5,7.663,0.0,0.0,0.0,19.0,2.9,-1.5,1024,1024,1024,1024,0,0,0,0,80,4.852,70.16,33.792652,P-GPS,,10.3
164,308100,2026-01-12 12:11:24,0.0,5,7.663,0.0,0.0,0.0,19.0,3.1,-1.5,1024,1024,1024,1024,0,0,0,0,80,4.852,70.16,33.792652,P-GPS,,10.3
165,308200,2026-01-12 12:11:25,0.0,5,7.663,0.0,0.0,0.0,19.0,2.7,-1.7,1024,1024,1024,1024,0,0,0,0,80,4.852,70.16,33.792652,P-GPS,,10.3
166,308300,2026-01-12 12:11:25,0.0,5,7.663,0.0,0.0,0.0,19.1,2.7,-1.6,1024,1024,1024,1024,0,0,0,0,80,4.852,70.16,33.792652,P-GPS,,10.3
167,308400,2026-01-12 12:11:25,0.0,5,7.663,0.0,0.0,0.0,19.2,2.9,-1.3,1024,1024,1024,1024,0,0,0,0,80,4.852,70.16,33.792652,P-GPS,,10.3
168,308500,2026-01-12 12:11:25,0.0,5,7.663,0.0,0.0,0.0,19.1,2.8,-1.5,1024,1024,1024,1024,0,0,0,0,80,4.852,70.16,33.792652,P-GPS,,10.3
169,308600,2026-01-12 12:11:25,0.0,5,7.663,0.0,0.0,0.0,19.1,3.1,-1.6,1024,1024,1024,1024,0,0,0,0,80,4.852,70.16,33.792652,P-GPS,,10.3
170,308700,2026-01-12 12:11:25,0.0,5,7.663,0.0,0.0,0.0,19.0,3.3,-1.8,1024,1024,1024,1024,0,0,0,0,80,4.852,70.16,33.792652,P-GPS,,10.3
171,308800,2026-01-12 12:11:25,0.0,5,7.663,0.0,0.0,0.0,18.9,3.4,-1.8,1024,1024,1024,1024,0,0,0,0,80,4.852,70.16,33.792652,P-GPS,,10.3
172,308900,2026-01-12 12:11:25,0.0,5,7.663,0.0,0.0,0.0,18.9,3.4,-1.7,1024,1024,1024,1024,0,0,0,0,80,4.852,70.16,33.792652,P-GPS,,10.3
173,309000,2026-01-12 12:11:25,0.0,5,7.663,0.0,0.0,0.0,19.0,3.3,-1.4,1024,1024,1024,1024,0,0,0,0,80,4.852,70.16,33.792652,P-GPS,,10.3
174,309100,2026-01-12 12:11:25,0.0,5,7.663,0.0,0.0,0.0,19.0,3.3,-1.1,1024,1024,1024,1024,0,0,0,0,80,4.852,70.16,33.792652,P-GPS,,10.3
175,309200,2026-01-12 12:11:26,0.0,5,7.663,0.0,0.0,0.0,19.0,3.2,-1.2,1024,1024,1024,1024,0,0,0,0,80,4.852,70.16,33.792652,P-GPS,,10.3
176,309300,2026-01-12 12:11:26,0.0,5,7.663,0.0,0.0,0.0,19.0,3.2,-1.3,1024,1024,1024,1024,0,0,0,0,80,4.852,70.16,33.792652,P-GPS,,10.3
177,309400,2026-01-12 12:11:26,0.0,5,7.663,0.0,0.0,0.0,19.0,3.3,-1.3,1024,1024,1024,1024,0,0,0,0,80,4.852,70.16,33.792652,P-GPS,,10.3
178,309500,2026-01-12 12:11:26,0.0,5,7.663,0.0,0.0,0.0,18.9,3.3,-1.3,1024,1024,1024,1024,0,0,0,0,80,4.852,70.16,33.792652,P-GPS,,10.3
179,309600,2026-01-12 12:11:26,0.0,5,7.663,0.0,0.0,0.0,19.0,3.1,-1.3,1024,1024,1024,1024,0,0,0,0,79,4.852,70.16,33.792652,P-GPS,,10.3
180,309700,2026-01-12 12:11:26,0.0,5,7.663,0.0,0.0,0.0,19.0,3.0,-1.3,1024,1024,1024,1024,0,0,0,0,79,4.852,70.16,33.792652,P-GPS,,10.3
181,309800,2026-01-12 12:11:26,0.0,5,7.663,0.0,0.0,0.0,19.0,2.9,-1.5,1024,1024,1024,1024,0,0,0,0,79,4.852,70.16,33.792652,P-GPS,,10.3
182,309900,2026-01-12 12:11:26,0.0,5,7.663,0.0,0.0,0.0,18.9,3.0,-1.3,1024,1024,1024,1024,0,0,0,0,79,4.852,70.16,33.792652,P-GPS,,10.3
183,310000,2026-01-12 12:11:26,0.0,5,7.668,0.0,0.0,0.0,18.9,3.0,-1.1,1024,1024,1024,1024,0,0,0,0,79,4.824,70.16,33.792652,P-GPS,,10.3
184,310100,2026-01-12 12:11:27,0.0,5,7.668,0.0,0.0,0.0,19.0,2.8,-1.0,1024,1024,1024,1024,0,0,0,0,79,4.824,70.16,33.792652,P-GPS,,10.3
185,310200,2026-01-12 12:11:27,0.0,5,7.668,0.0,0.0,0.0,19.0,3.1,-0.9,1024,1024,1024,1024,0,0,0,0,79,4.824,70.16,33.792652,P-GPS,,10.3
186,310300,2026-01-12 12:11:27,0.0,5,7.668,0.0,0.0,0.0,19.0,2.9,-1.0,1024,1024,1024,1024,0,0,0,0,79,4.824,70.16,33.792652,P-GPS,,10.3
187,310400,2026-01-12 12:11:27,0.0,5,7.668,0.0,0.0,0.0,19.0,2.8,-1.0,1024,1024,1024,1024,0,0,0,0,79,4.824,70.16,33.792652,P-GPS,,10.3
188,310500,2026-01-12 12:11:27,0.0,5,7.668,0.0,0.0,0.0,18.9,2.7,-0.9,1024,1024,1024,1024,0,0,0,0,79,4.824,70.16,33.792652,P-GPS,,10.3
189,310600,2026-01-12 12:11:27,0.0,5,7.668,0.0,0.0,0.0,18.9,2.7,-0.8,1024,1024,1024,1024,0,0,0,0,79,4.824,70.16,33.792652,P-GPS,,10.3
190,310700,2026-01-12 12:11:27,0.0,5,7.668,0.0,0.0,0.0,18.9,2.8,-0.8,1024,1024,1024,1024,0,0,0,0,79,4.824,70.16,33.792652,P-GPS,,10.3
191,310800,2026-01-12 12:11:27,0.0,5,7.668,0.0,0.0,0.0,18.9,2.8,-0.8,1024,1024,1024,1024,0,0,0,0,79,4.824,70.16,33.792652,P-GPS,,10.3
192,310900,2026-01-12 12:11:27,0.0,5,7.668,0.0,0.0,0.0,18.9,2.9,-0.8,1024,1024,1024,1024,0,0,0,0,79,4.824,70.16,33.792652,P-GPS,,10.3
193,311000,2026-01-12 12:11:27,0.0,5,7.668,0.0,0.0,0.0,19.0,3.1,-0.7,1024,1024,1024,1024,0,0,0,0,79,4.824,70.16,33.792652,P-GPS,,10.3
194,311100,2026-01-12 12:11:27,0.0,5,7.664,0.0,0.0,0.0,18.9,3.3,-0.9,1024,1024,1024,1024,0,0,0,0,79,4.759,70.16,33.792652,P-GPS,,10.3
195,311200,2026-01-12 12:11:28,0.0,5,7.664,0.0,0.0,0.0,18.9,3.0,-1.0,1024,1024,1024,1024,0,0,0,0,79,4.759,70.16,33.792652,P-GPS,,10.3
196,311300,2026-01-12 12:11:28,0.0,5,7.664,0.0,0.0,0.0,18.9,2.9,-0.9,1024,1024,1024,1024,0,0,0,0,79,4.759,70.16,33.792652,P-GPS,,10.3
197,311400,2026-01-12 12:11:28,0.0,5,7.664,0.0,0.0,0.0,19.0,2.6,-0.7,1024,1024,1024,1024,0,0,0,0,79,4.759,70.16,33.792652,P-GPS,,10.3
198,311500,2026-01-12 12:11:28,0.0,5,7.664,0.0,0.0,0.0,19.0,2.6,-0.5,1024,1024,1024,1024,0,0,0,0,79,4.759,70.16,33.792652,P-GPS,,10.3
199,311600,2026-01-12 12:11:28,0.0,5,7.664,0.0,0.0,0.0,18.9,2.8,-0.5,1024,1024,1024,1024,0,0,0,0,79,4.759,70.16,33.792652,P-GPS,,10.3
200,311700,2026-01-12 12:11:28,0.0,5,7.664,0.0,0.0,0.0,18.9,3.1,-0.8,1024,1024,1024,1024,0,0,0,0,79,4.759,70.16,33.792652,P-GPS,,10.3
201,311800,2026-01-12 12:11:28,0.0,5,7.664,0.0,0.0,0.0,18.9,3.2,-0.9,1024,1024,1024,1024,0,0,0,0,79,4.759,70.16,33.792652,P-GPS,,10.3
202,311900,2026-01-12 12:11:28,0.0,5,7.664,0.0,0.0,0.0,18.9,3.2,-0.9,1024,1024,1024,1024,0,0,0,0,79,4.759,70.16,33.792652,P-GPS,,10.3
203,312000,2026-01-12 12:11:28,0.0,5,7.664,0.0,0.0,0.0,18.9,3.2,-0.9,1024,1024,1024,1024,0,0,0,0,79,4.759,70.16,33.792652,P-GPS,,10.3
204,312100,2026-01-12 12:11:28,0.0,5,7.664,0.0,0.0,0.0,19.0,3.1,-1.2,1024,1024,1024,1024,0,0,0,0,79,4.759,70.16,33.792652,P-GPS,,10.3
205,312200,2026-01-12 12:11:29,0.0,5,7.671,0.0,0.0,0.0,19.0,3.0,-1.4,1024,1024,1024,1024,0,0,0,0,79,4.639,70.16,33.792652,P-GPS,,10.3
206,312300,2026-01-12 12:11:29,0.0,5,7.671,0.0,0.0,0.0,19.0,3.2,-1.5,1024,1024,1024,1024,0,0,0,0,79,4.639,70.16,33.792652,P-GPS,,10.3
207,312400,2026-01-12 12:11:29,0.0,5,7.671,0.0,0.0,0.0,19.0,3.4,-1.5,1024,1024,1024,1024,0,0,0,0,79,4.639,70.16,33.792652,P-GPS,,10.3
208,312500,2026-01-12 12:11:29,0.0,5,7.671,0.0,0.0,0.0,19.0,3.5,-1.4,1024,1024,1024,1024,0,0,0,0,79,4.639,70.16,33.792652,P-GPS,,10.3
209,312600,2026-01-12 12:11:29,0.0,5,7.671,0.0,0.0,0.0,19.1,3.6,-1.2,1024,1024,1024,1024,0,0,0,0,79,4.639,70.16,34.120736,P-GPS,,10.4
210,312700,2026-01-12 12:11:29,0.0,5,7.671,0.0,0.0,0.0,19.1,3.5,-1.0,1024,1024,1024,1024,0,0,0,0,79,4.639,70.16,34.120736,P-GPS,,10.4
211,312800,2026-01-12 12:11:29,0.0,5,7.671,0.0,0.0,0.0,19.1,3.5,-1.1,1024,1024,1024,1024,0,0,0,0,79,4.639,70.16,34.120736,P-GPS,,10.4
212,312900,2026-01-12 12:11:29,0.0,5,7.671,0.0,0.0,0.0,19.1,3.4,-1.0,1024,1024,1024,1024,0,0,0,0,79,4.639,70.16,34.120736,P-GPS,,10.4
213,313000,2026-01-12 12:11:29,0.0,5,7.671,0.0,0.0,0.0,19.1,3.4,-1.1,1024,1024,1024,1024,0,0,0,0,79,4.639,70.16,34.120736,P-GPS,,10.4
214,313100,2026-01-12 12:11:29,0.0,5,7.671,0.0,0.0,0.0,19.0,3.4,-1.0,1024,1024,1024,1024,0,0,0,0,79,4.639,70.16,34.120736,P-GPS,,10.4
215,313200,2026-01-12 12:11:30,0.0,5,7.671,0.0,0.0,0.0,19.0,3.6,-0.9,1024,1024,1024,1024,0,0,0,0,79,4.639,70.16,34.120736,P-GPS,,10.4
216,313300,2026-01-12 12:11:30,0.0,5,7.667,0.0,0.0,0.0,19.1,3.6,-1.0,1024,1024,1024,1024,0,0,0,0,79,4.6,70.16,34.120736,P-GPS,,10.4
217,313400,2026-01-12 12:11:30,0.0,5,7.667,0.0,0.0,0.0,19.1,3.7,-1.0,1024,1024,1024,1024,0,0,0,0,79,4.6,70.16,34.120736,P-GPS,,10.4
218,313500,2026-01-12 12:11:30,0.0,5,7.667,0.0,0.0,0.0,19.1,3.7,-1.3,1024,1024,1024,1024,0,0,0,0,79,4.6,70.16,34.120736,P-GPS,,10.4
219,313600,2026-01-12 12:11:30,0.0,5,7.667,0.0,0.0,0.0,19.0,3.6,-1.7,1024,1024,1024,1024,0,0,0,0,79,4.6,70.16,34.120736,P-GPS,,10.4
220,313700,2026-01-12 12:11:30,0.0,5,7.667,0.0,0.0,0.0,19.0,3.3,-1.3,1024,1024,1024,1024,0,0,0,0,79,4.6,70.16,34.120736,P-GPS,,10.4
221,313800,2026-01-12 12:11:30,0.0,5,7.667,0.0,0.0,0.0,19.1,3.6,-1.0,1024,1024,1024,1024,0,0,0,0,79,4.6,70.16,34.120736,P-GPS,,10.4
222,313900,2026-01-12 12:11:30,0.0,5,7.667,0.0,0.0,0.0,19.1,4.0,-1.1,1024,1024,1024,1024,0,0,0,0,79,4.6,70.16,34.120736,P-GPS,,10.4
223,314000,2026-01-12 12:11:30,0.0,5,7.667,0.0,0.0,0.0,19.0,4.1,-1.3,1024,1024,1024,1024,0,0,0,0,79,4.6,70.16,34.44882,P-GPS,,10.5
224,314100,2026-01-12 12:11:31,0.0,5,7.667,0.0,0.0,0.0,19.0,4.3,-0.9,1024,1024,1024,1024,0,0,0,0,79,4.6,70.16,34.44882,P-GPS,,10.5
225,314200,2026-01-12 12:11:31,0.0,5,7.667,0.0,0.0,0.0,19.0,4.5,-0.7,1024,1024,1024,1024,0,0,0,0,79,4.6,70.16,34.44882,P-GPS,,10.5
226,314300,2026-01-12 12:11:31,0.0,5,7.667,0.0,0.0,0.0,19.0,4.3,-0.6,1024,1024,1024,1024,0,0,0,0,79,4.6,70.16,34.44882,P-GPS,,10.5
227,314400,2026-01-12 12:11:31,0.0,5,7.65,0.0,0.0,0.0,19.0,4.2,-0.5,1024,1024,1024,1024,0,0,0,0,79,4.806,70.16,34.44882,P-GPS,,10.5
228,314500,2026-01-12 12:11:31,0.0,5,7.65,0.0,0.0,0.0,19.0,4.4,-0.3,1024,1024,1024,1024,0,0,0,0,79,4.806,70.16,34.44882,P-GPS,,10.5
229,314600,2026-01-12 12:11:31,0.0,5,7.65,0.0,0.0,0.0,19.1,4.5,-0.2,1024,1024,1024,1024,0,0,0,0,79,4.806,70.16,34.44882,P-GPS,,10.5
230,314700,2026-01-12 12:11:31,0.0,5,7.65,0.0,0.0,0.0,19.1,4.4,-0.5,1024,1024,1024,1024,0,0,0,0,79,4.806,70.16,34.44882,P-GPS,,10.5
231,314800,2026-01-12 12:11:31,0.0,5,7.65,0.0,0.0,0.0,19.2,3.8,-0.8,1024,1024,1024,1024,0,0,0,0,79,4.806,70.16,34.44882,P-GPS,,10.5
232,314900,2026-01-12 12:11:31,0.0,5,7.65,0.0,0.0,0.0,19.2,3.7,-1.2,1024,1024,1024,1024,0,0,0,0,79,4.806,70.16,34.44882,P-GPS,,10.5
233,315000,2026-01-12 12:11:31,0.0,5,7.65,0.0,0.0,0.0,19.1,4.0,-1.2,1024,1024,1024,1024,0,0,0,0,79,4.806,70.16,34.44882,P-GPS,,10.5
234,315100,2026-01-12 12:11:31,0.0,5,7.65,0.0,0.0,0.0,19.1,4.3,-1.2,1024,1024,1024,1024,0,0,0,0,79,4.806,70.16,34.44882,P-GPS,,10.5
235,315200,2026-01-12 12:11:32,0.0,5,7.65,0.0,0.0,0.0,19.1,4.7,-1.2,1024,1024,1024,1024,0,0,0,0,79,4.806,70.16,34.44882,P-GPS,,10.5
236,315300,2026-01-12 12:11:32,0.0,5,7.65,0.0,0.0,0.0,19.1,5.0,-1.2,1024,1024,1024,1024,0,0,0,0,79,4.806,70.16,34.776904,P-GPS,,10.6
237,315400,2026-01-12 12:11:32,0.0,5,7.65,0.0,0.0,0.0,19.1,5.3,-1.1,1024,1024,1024,1024,0,0,0,0,79,4.806,70.16,34.776904,P-GPS,,10.6
238,315500,2026-01-12 12:11:32,0.0,5,7.65,0.0,0.0,0.0,19.1,5.1,-1.1,1024,1024,1024,1024,0,0,0,0,79,4.974,70.16,34.776904,P-GPS,,10.6
239,315600,2026-01-12 12:11:32,0.0,5,7.65,0.0,0.0,0.0,19.1,4.9,-1.3,1024,1024,1024,1024,0,0,0,0,79,4.974,70.16,34.776904,P-GPS,,10.6
240,315700,2026-01-12 12:11:32,0.0,5,7.65,0.0,0.0,0.0,19.0,4.6,-1.4,1024,1024,1024,1024,0,0,0,0,79,4.974,70.16,34.776904,P-GPS,,10.6
241,315800,2026-01-12 12:11:32,0.0,5,7.65,0.0,0.0,0.0,19.1,4.3,-1.4,1024,1024,1024,1024,0,0,0,0,79,4.974,70.16,34.776904,P-GPS,,10.6
242,315900,2026-01-12 12:11:32,0.0,5,7.65,0.0,0.0,0.0,19.1,4.3,-1.4,1024,1024,1024,1024,0,0,0,0,79,4.974,70.16,34.776904,P-GPS,,10.6
243,316000,2026-01-12 12:11:32,0.0,5,7.65,0.0,0.0,0.0,19.1,4.6,-1.3,1024,1024,1024,1024,0,0,0,0,79,4.974,70.16,34.776904,P-GPS,,10.6
244,316100,2026-01-12 12:11:32,0.0,5,7.65,0.0,0.0,0.0,19.0,4.7,-1.5,1024,1024,1024,1024,0,0,0,0,79,4.974,70.16,34.776904,P-GPS,,10.6
245,316200,2026-01-12 12:11:33,0.0,5,7.65,0.0,0.0,0.0,19.1,4.8,-1.6,1024,1024,1024,1024,0,0,0,0,79,4.974,70.16,34.776904,P-GPS,,10.6
246,316300,2026-01-12 12:11:33,0.0,5,7.65,0.0,0.0,0.0,19.1,4.6,-1.6,1024,1024,1024,1024,0,0,0,0,79,4.974,70.16,34.776904,P-GPS,,10.6
247,316400,2026-01-12 12:11:33,0.0,5,7.65,0.0,0.0,0.0,19.2,4.6,-1.6,1024,1024,1024,1024,0,0,0,0,79,4.974,70.16,34.776904,P-GPS,,10.6
248,316500,2026-01-12 12:11:33,0.0,5,7.65,0.0,0.0,0.0,19.2,4.4,-1.7,1024,1024,1024,1024,0,0,0,0,79,4.974,70.16,34.776904,P-GPS,,10.6
249,316600,2026-01-12 12:11:33,0.0,5,7.642,0.0,0.0,0.0,19.2,4.5,-1.7,1024,1024,1024,1024,0,0,0,0,79,4.97,70.34,34.776904,P-GPS,,10.6
250,316700,2026-01-12 12:11:33,0.0,5,7.642,0.0,0.0,0.0,19.2,4.5,-1.6,1024,1024,1024,1024,0,0,0,0,79,4.97,70.34,34.776904,P-GPS,,10.6
251,316800,2026-01-12 12:11:33,0.0,5,7.642,0.0,0.0,0.0,19.1,4.3,-1.5,1024,1024,1024,1024,0,0,0,0,79,4.97,70.34,34.776904,P-GPS,,10.6
252,316900,2026-01-12 12:11:33,0.0,5,7.642,0.0,0.0,0.0,19.1,4.2,-1.7,1024,1024,1024,1024,0,0,0,0,79,4.97,70.34,34.776904,P-GPS,,10.6
253,317000,2026-01-12 12:11:33,0.0,5,7.642,0.0,0.0,0.0,19.1,4.0,-1.6,1024,1024,1024,1024,0,0,0,0,79,4.97,70.34,34.776904,P-GPS,,10.6
254,317100,2026-01-12 12:11:33,0.0,5,7.642,0.0,0.0,0.0,19.1,4.1,-1.8,1024,1024,1024,1024,0,0,0,0,79,4.97,70.34,34.776904,P-GPS,,10.6
255,317200,2026-01-12 12:11:34,0.0,5,7.642,0.0,0.0,0.0,19.1,4.3,-1.7,1024,1024,1024,1024,0,0,0,0,79,4.97,70.34,35.104988,P-GPS,,10.7
256,317300,2026-01-12 12:11:34,0.0,5,7.642,0.0,0.0,0.0,19.1,4.1,-1.7,1024,1024,1024,1024,0,0,0,0,79,4.97,70.34,35.104988,P-GPS,,10.7
257,317400,2026-01-12 12:11:34,0.0,5,7.642,0.0,0.0,0.0,19.1,4.2,-1.6,1024,1024,1024,1024,0,0,0,0,79,4.97,70.34,35.104988,P-GPS,,10.7
258,317500,2026-01-12 12:11:34,0.0,5,7.642,0.0,0.0,0.0,19.1,4.1,-1.4,1024,1024,1024,1024,0,0,0,0,79,4.97,70.34,35.104988,P-GPS,,10.7
259,317600,2026-01-12 12:11:34,0.0,5,7.642,0.0,0.0,0.0,19.1,4.1,-1.3,1024,1024,1024,1024,0,0,0,0,79,4.97,70.34,35.104988,P-GPS,,10.7
260,317700,2026-01-12 12:11:34,0.0,5,7.64,0.0,0.0,0.0,19.1,4.1,-1.4,1024,1024,1024,1024,0,0,0,0,79,4.968,70.34,35.104988,P-GPS,,10.7
261,317800,2026-01-12 12:11:34,0.0,5,7.64,0.0,0.0,0.0,19.1,3.8,-1.6,1024,1024,1024,1024,0,0,0,0,79,4.968,70.34,35.104988,P-GPS,,10.7
262,317900,2026-01-12 12:11:34,0.0,5,7.64,0.0,0.0,0.0,19.1,3.9,-1.7,1024,1024,1024,1024,0,0,0,0,79,4.968,70.34,35.104988,P-GPS,,10.7
263,318000,2026-01-12 12:11:34,0.0,5,7.64,0.0,0.0,0.0,19.1,3.9,-1.7,1024,1024,1024,1024,0,0,0,0,79,4.968,70.34,35.104988,P-GPS,,10.7
264,318100,2026-01-12 12:11:35,0.0,5,7.64,0.0,0.0,0.0,19.0,4.1,-1.6,1024,1024,1024,1024,0,0,0,0,79,4.968,70.34,35.104988,P-GPS,,10.7
265,318200,2026-01-12 12:11:35,0.0,5,7.64,0.0,0.0,0.0,19.0,4.3,-1.5,1024,1024,1024,1024,0,0,0,0,79,4.968,70.34,35.104988,P-GPS,,10.7
266,318300,2026-01-12 12:11:35,0.0,5,7.64,0.0,0.0,0.0,19.0,4.5,-1.4,1024,1024,1024,1024,0,0,0,0,79,4.968,70.34,35.104988,P-GPS,,10.7
267,318400,2026-01-12 12:11:35,0.0,5,7.64,0.0,0.0,0.0,19.0,4.4,-1.1,1024,1024,1024,1024,0,0,0,0,79,4.968,70.34,35.104988,P-GPS,,10.7
268,318500,2026-01-12 12:11:35,0.0,5,7.64,0.0,0.0,0.0,19.0,4.4,-1.0,1024,1024,1024,1024,0,0,0,0,79,4.968,70.34,35.104988,P-GPS,,10.7
269,318600,2026-01-12 12:11:35,0.0,5,7.64,0.0,0.0,0.0,19.0,4.3,-0.8,1024,1024,1024,1024,0,0,0,0,79,4.968,70.34,35.104988,P-GPS,,10.7
270,318700,2026-01-12 12:11:35,0.0,5,7.64,0.0,0.0,0.0,19.0,4.1,-0.8,1024,1024,1024,1024,0,0,0,0,79,4.968,70.34,35.104988,P-GPS,,10.7
271,318800,2026-01-12 12:11:35,0.0,5,7.634,0.0,0.0,0.0,19.1,3.6,-0.5,1024,1024,1024,1024,0,0,0,0,79,4.982,70.34,34.776904,P-GPS,,10.6
272,318900,2026-01-12 12:11:35,0.0,5,7.634,0.0,0.0,0.0,19.1,3.4,-0.7,1024,1024,1024,1024,0,0,0,0,79,4.982,70.34,34.776904,P-GPS,,10.6
273,319000,2026-01-12 12:11:35,0.0,5,7.634,0.0,0.0,0.0,19.1,3.4,-1.2,1024,1024,1024,1024,0,0,0,0,79,4.982,70.34,34.776904,P-GPS,,10.6
274,319100,2026-01-12 12:11:35,0.0,5,7.634,0.0,0.0,0.0,19.1,3.4,-1.5,1024,1024,1024,1024,0,0,0,0,79,4.982,70.34,34.776904,P-GPS,,10.6
275,319200,2026-01-12 12:11:36,0.0,5,7.634,0.0,0.0,0.0,19.1,3.5,-1.7,1024,1024,1024,1024,0,0,0,0,79,4.982,70.34,34.776904,P-GPS,,10.6
276,319300,2026-01-12 12:11:36,0.0,5,7.634,0.0,0.0,0.0,19.1,3.5,-1.6,1024,1024,1024,1024,0,0,0,0,79,4.982,70.34,35.104988,P-GPS,,10.7
277,319400,2026-01-12 12:11:36,0.0,5,7.634,0.0,0.0,0.0,19.1,3.7,-1.7,1024,1024,1024,1024,0,0,0,0,79,4.982,70.34,35.104988,P-GPS,,10.7
278,319500,2026-01-12 12:11:36,0.0,5,7.634,0.0,0.0,0.0,19.2,3.5,-1.6,1024,1024,1024,1024,0,0,0,0,79,4.982,70.34,35.104988,P-GPS,,10.7
279,319600,2026-01-12 12:11:36,0.0,5,7.634,0.0,0.0,0.0,19.2,3.5,-1.8,1024,1024,1024,1024,0,0,0,0,79,4.982,70.34,35.104988,P-GPS,,10.7
280,319700,2026-01-12 12:11:36,0.0,5,7.634,0.0,0.0,0.0,19.1,3.7,-2.1,1024,1024,1024,1024,0,0,0,0,79,4.982,70.34,35.104988,P-GPS,,10.7
281,319800,2026-01-12 12:11:36,0.0,5,7.634,0.0,0.0,0.0,19.1,3.6,-2.0,1024,1024,1024,1024,0,0,0,0,79,4.982,70.34,35.104988,P-GPS,,10.7
282,319900,2026-01-12 12:11:36,0.0,5,7.634,0.0,0.0,0.0,19.1,3.4,-1.9,1024,1024,1024,1024,0,0,0,0,79,4.982,70.34,35.104988,P-GPS,,10.7
283,320000,2026-01-12 12:11:36,0.0,5,7.634,0.0,0.0,0.0,19.1,3.3,-1.9,1024,1024,1024,1024,0,0,0,0,79,4.982,70.34,35.104988,P-GPS,,10.7
284,320100,2026-01-12 12:11:36,0.0,5,7.634,0.0,0.0,0.0,19.1,3.4,-1.7,1024,1024,1024,1024,0,0,0,0,79,4.982,70.34,35.104988,P-GPS,,10.7
285,320200,2026-01-12 12:11:37,0.0,5,7.634,0.0,0.0,0.0,19.1,3.5,-1.6,1024,1024,1024,1024,0,0,0,0,79,4.982,70.34,35.104988,P-GPS,,10.7
286,320300,2026-01-12 12:11:37,0.0,5,7.634,0.0,0.0,0.0,19.0,3.6,-1.7,1024,1024,1024,1024,0,0,0,0,79,4.982,70.34,35.104988,P-GPS,,10.7
287,320400,2026-01-12 12:11:37,0.0,5,7.634,0.0,0.0,0.0,19.0,3.4,-1.8,1024,1024,1024,1024,0,0,0,0,79,4.982,70.34,35.104988,P-GPS,,10.7
288,320500,2026-01-12 12:11:37,0.0,5,7.634,0.0,0.0,0.0,19.0,3.0,-1.7,1024,1024,1024,1024,0,0,0,0,79,4.982,70.34,35.104988,P-GPS,,10.7
289,320600,2026-01-12 12:11:37,0.0,5,7.634,0.0,0.0,0.0,19.0,2.9,-1.5,1024,1024,1024,1024,0,0,0,0,79,4.982,70.34,35.104988,P-GPS,,10.7
290,320700,2026-01-12 12:11:37,0.0,5,7.634,0.0,0.0,0.0,18.9,2.6,-1.3,1024,1024,1024,1024,0,0,0,0,79,4.982,70.34,35.104988,P-GPS,,10.7
291,320800,2026-01-12 12:11:37,0.0,5,7.634,0.0,0.0,0.0,18.9,3.4,-0.9,1024,1024,1024,1024,0,0,0,0,79,4.982,70.34,35.104988,P-GPS,,10.7
292,320900,2026-01-12 12:11:37,0.0,5,7.634,0.0,0.0,0.0,19.0,3.4,-0.8,1024,1024,1024,1024,0,0,0,0,79,4.982,70.34,35.104988,P-GPS,,10.7
293,321000,2026-01-12 12:11:37,0.0,5,7.642,0.0,0.0,0.0,19.0,3.3,-0.8,1024,1024,1024,1024,0,0,0,0,79,4.867,70.34,35.104988,P-GPS,,10.7
294,321100,2026-01-12 12:11:37,0.0,5,7.642,0.0,0.0,0.0,19.0,3.5,-1.0,1024,1024,1024,1024,0,0,0,0,79,4.867,70.34,35.104988,P-GPS,,10.7
295,321200,2026-01-12 12:11:38,0.0,5,7.642,0.0,0.0,0.0,19.1,3.6,-1.1,1024,1024,1024,1024,0,0,0,0,79,4.867,70.34,35.104988,P-GPS,,10.7
296,321300,2026-01-12 12:11:38,0.0,5,7.642,0.0,0.0,0.0,19.1,3.5,-1.1,1024,1024,1024,1024,0,0,0,0,79,4.867,70.34,35.104988,P-GPS,,10.7
297,321400,2026-01-12 12:11:38,0.0,5,7.642,0.0,0.0,0.0,19.1,3.6,-1.3,1024,1024,1024,1024,0,0,0,0,79,4.867,70.34,35.104988,P-GPS,,10.7
298,321500,2026-01-12 12:11:38,0.0,5,7.642,0.0,0.0,0.0,19.0,3.8,-1.6,1024,1024,1024,1024,0,0,0,0,79,4.867,70.34,35.104988,P-GPS,,10.7
299,321600,2026-01-12 12:11:38,0.0,5,7.642,0.0,0.0,0.0,19.0,3.8,-1.8,1024,1024,1024,1024,0,0,0,0,79,4.867,70.34,35.104988,P-GPS,,10.7
300,321700,2026-01-12 12:11:38,0.0,5,7.642,0.0,0.0,0.0,19.0,3.7,-1.6,1024,1024,1024,1024,0,0,0,0,79,4.867,70.34,35.104988,P-GPS,,10.7
301,321800,2026-01-12 12:11:38,0.0,5,7.642,0.0,0.0,0.0,19.1,3.6,-1.2,1024,1024,1024,1024,0,0,0,0,79,4.867,70.34,35.104988,P-GPS,,10.7
302,321900,2026-01-12 12:11:38,0.0,5,7.642,0.0,0.0,0.0,19.1,3.4,-0.8,1024,1024,1024,1024,0,0,0,0,79,4.867,70.34,35.104988,P-GPS,,10.7
303,322000,2026-01-12 12:11:38,0.0,5,7.642,0.0,0.0,0.0,19.1,3.0,-0.8,1024,1024,1024,1024,0,0,0,0,79,4.867,70.34,35.104988,P-GPS,,10.7
304,322100,2026-01-12 12:11:38,0.0,5,7.647,0.0,0.0,0.0,19.2,2.9,-0.7,1024,1024,1024,1024,0,0,0,0,79,4.635,70.52,35.104988,P-GPS,,10.7
305,322200,2026-01-12 12:11:39,0.0,5,7.647,0.0,0.0,0.0,19.2,2.6,-0.5,1024,1024,1024,1024,0,0,0,0,79,4.635,70.52,35.104988,P-GPS,,10.7
306,322300,2026-01-12 12:11:39,0.0,5,7.647,0.0,0.0,0.0,19.1,2.6,-0.4,1024,1024,1024,1024,0,0,0,0,79,4.635,70.52,35.104988,P-GPS,,10.7
307,322400,2026-01-12 12:11:39,0.0,5,7.647,0.0,0.0,0.0,19.0,3.0,-0.5,1024,1024,1024,1024,0,0,0,0,79,4.635,70.52,35.104988,P-GPS,,10.7
308,322500,2026-01-12 12:11:39,0.0,5,7.647,0.0,0.0,0.0,18.9,3.2,-0.4,1024,1024,1024,1024,0,0,0,0,79,4.635,70.52,35.104988,P-GPS,,10.7
309,322600,2026-01-12 12:11:39,0.0,5,7.647,0.0,0.0,0.0,19.0,3.2,-0.3,1024,1024,1024,1024,0,0,0,0,79,4.635,70.52,34.776904,P-GPS,,10.6
310,322700,2026-01-12 12:11:39,0.0,5,7.647,0.0,0.0,0.0,19.0,3.0,-0.6,1024,1024,1024,1024,0,0,0,0,79,4.635,70.52,34.776904,P-GPS,,10.6
311,322800,2026-01-12 12:11:39,0.0,5,7.647,0.0,0.0,0.0,19.1,3.1,-0.7,1024,1024,1024,1024,0,0,0,0,79,4.635,70.52,34.776904,P-GPS,,10.6
312,322900,2026-01-12 12:11:39,0.0,5,7.647,0.0,0.0,0.0,19.0,3.2,-0.9,1024,1024,1024,1024,0,0,0,0,79,4.635,70.52,34.776904,P-GPS,,10.6
313,323000,2026-01-12 12:11:39,0.0,5,7.647,0.0,0.0,0.0,19.1,3.1,-1.0,1024,1024,1024,1024,0,0,0,0,79,4.635,70.52,35.104988,P-GPS,,10.7
314,323100,2026-01-12 12:11:40,0.0,5,7.647,0.0,0.0,0.0,19.2,3.1,-1.1,1024,1024,1024,1024,0,0,0,0,79,4.635,70.52,35.104988,P-GPS,,10.7
315,323200,2026-01-12 12:11:40,0.0,5,7.647,0.0,0.0,0.0,19.3,2.7,-1.4,1024,1024,1024,1024,0,0,0,0,79,4.591,70.52,35.104988,P-GPS,,10.7
316,323300,2026-01-12 12:11:40,0.0,5,7.647,0.0,0.0,0.0,19.4,2.8,-1.8,1024,1024,1024,1024,0,0,0,0,79,4.591,70.52,35.104988,P-GPS,,10.7
317,323400,2026-01-12 12:11:40,0.0,5,7.647,0.0,0.0,0.0,19.3,3.2,-2.1,1024,1024,1024,1024,0,0,0,0,79,4.591,70.52,35.104988,P-GPS,,10.7
318,323500,2026-01-12 12:11:40,0.0,5,7.647,0.0,0.0,0.0,19.3,3.1,-1.8,1024,1024,1024,1024,0,0,0,0,79,4.591,70.52,35.104988,P-GPS,,10.7
319,323600,2026-01-12 12:11:40,0.0,5,7.647,0.0,0.0,0.0,19.2,3.1,-1.6,1024,1024,1024,1024,0,0,0,0,79,4.591,70.52,35.104988,P-GPS,,10.7
320,323700,2026-01-12 12:11:40,0.0,5,7.647,0.0,0.0,0.0,19.1,3.1,-1.2,1024,1024,1024,1024,0,0,0,0,79,4.591,70.52,35.104988,P-GPS,,10.7
321,323800,2026-01-12 12:11:40,0.0,5,7.647,0.0,0.0,0.0,19.1,2.9,-0.6,1024,1024,1024,1024,0,0,0,0,79,4.591,70.52,35.104988,P-GPS,,10.7
322,323900,2026-01-12 12:11:40,0.0,5,7.647,0.0,0.0,0.0,19.1,2.6,-0.4,1024,1024,1024,1024,0,0,0,0,79,4.591,70.52,35.104988,P-GPS,,10.7
323,324000,2026-01-12 12:11:40,0.0,5,7.647,0.0,0.0,0.0,19.3,2.2,-0.5,1024,1024,1024,1024,0,0,0,0,79,4.591,70.52,35.104988,P-GPS,,10.7
324,324100,2026-01-12 12:11:40,0.0,5,7.647,0.0,0.0,0.0,19.2,2.2,-0.6,1024,1024,1024,1024,0,0,0,0,79,4.591,70.52,35.104988,P-GPS,,10.7
