index,time(millisecond),timestamp,speed(mph),gpslevel,voltage(v),xSpeed(mph),ySpeed(mph),zSpeed(mph),compass_heading(degrees),pitch(degrees),roll(degrees),rc_elevator,rc_aileron,rc_throttle,rc_rudder,rc_elevator(percent),rc_aileron(percent),rc_throttle(percent),rc_rudder(percent),battery_percent,current(A),battery_temperature(f),ascent(feet),flycState,message,height_above_takeoff(meters)
85,436400,2026-01-12 12:13:35,0.0,5,7.565,0.0,0.0,0.0,26.4,8.7,-3.3,1024,1024,1024,1024,0,0,0,0,72,4.718,72.86,35.761156,P-GPS,,10.9
86,436500,2026-01-12 12:13:35,0.0,5,7.565,0.0,0.0,0.0,26.1,10.0,-3.8,1024,1024,1024,1024,0,0,0,0,72,4.718,72.86,35.761156,P-GPS,,10.9
87,436600,2026-01-12 12:13:35,0.0,5,7.565,0.0,0.0,0.0,26.2,9.4,-4.6,1024,1024,1024,1024,0,0,0,0,72,4.718,72.86,35.433072,P-GPS,,10.8
88,436700,2026-01-12 12:13:35,0.0,5,7.565,0.0,0.0,0.0,25.8,8.2,-4.4,1024,1024,1024,1024,0,0,0,0,72,4.718,72.86,35.433072,P-GPS,,10.8
89,436800,2026-01-12 12:13:35,0.0,5,7.565,0.0,0.0,0.0,25.9,7.4,-2.3,1024,1024,1024,1024,0,0,0,0,72,4.718,72.86,35.433072,P-GPS,,10.8
90,436900,2026-01-12 12:13:35,0.0,5,7.565,0.0,0.0,0.0,26.1,7.1,-1.5,1024,1024,1024,1024,0,0,0,0,72,4.718,72.86,35.433072,P-GPS,,10.8
91,437000,2026-01-12 12:13:35,0.0,5,7.565,0.0,0.0,0.0,26.3,6.9,-1.6,1024,1024,1024,1024,0,0,0,0,72,4.718,72.86,35.104988,P-GPS,,10.7
92,437100,2026-01-12 12:13:35,0.223694,5,7.565,0.0,-0.223694,0.0,26.2,6.9,-1.6,1024,1024,1024,1024,0,0,0,0,72,4.718,72.86,35.104988,P-GPS,,10.7
93,437200,2026-01-12 12:13:35,0.223694,5,7.565,0.0,-0.223694,0.0,26.1,6.4,-1.7,1024,1024,1024,1024,0,0,0,0,72,4.718,72.86,34.776904,P-GPS,,10.6
94,437300,2026-01-12 12:13:35,0.223694,5,7.565,0.0,-0.223694,0.0,26.0,4.9,-1.3,1024,1024,1024,1024,0,0,0,0,72,4.718,72.86,34.776904,P-GPS,,10.6
95,437400,2026-01-12 12:13:35,0.223694,5,7.565,0.0,-0.223694,0.0,26.0,6.1,-0.5,1024,1024,1024,1024,0,0,0,0,72,4.718,72.86,34.776904,P-GPS,,10.6
96,437500,2026-01-12 12:13:36,0.223694,5,7.565,0.0,-0.223694,0.0,26.0,5.8,0.3,1024,1024,1024,1024,0,0,0,0,72,4.718,72.86,34.44882,P-GPS,,10.5
97,437600,2026-01-12 12:13:36,0.223694,5,7.565,0.0,-0.223694,0.0,25.9,6.4,0.0,1024,1024,1024,1024,0,0,0,0,72,4.718,72.86,34.44882,P-GPS,,10.5
98,437700,2026-01-12 12:13:36,0.223694,5,7.565,0.0,-0.223694,0.0,26.1,6.7,0.9,1024,1024,1024,1024,0,0,0,0,72,4.718,72.86,34.120736,P-GPS,,10.4
99,437800,2026-01-12 12:13:36,0.223694,5,7.565,0.0,-0.223694,0.0,26.2,7.3,1.2,1024,1024,1024,1024,0,0,0,0,72,4.718,72.86,34.120736,P-GPS,,10.4
100,437900,2026-01-12 12:13:36,0.0,5,7.565,0.0,0.0,0.0,26.2,7.4,0.9,1024,1024,1024,1024,0,0,0,0,72,4.718,72.86,34.120736,P-GPS,,10.4
101,438000,2026-01-12 12:13:36,0.0,5,7.565,0.0,0.0,0.0,26.1,6.4,0.7,1024,1024,1024,1024,0,0,0,0,72,4.718,72.86,34.120736,P-GPS,,10.4
102,438100,2026-01-12 12:13:36,0.0,5,7.565,0.0,0.0,0.0,26.4,6.0,0.5,1024,1024,1024,1024,0,0,0,0,72,4.718,72.86,34.120736,P-GPS,,10.4
103,438200,2026-01-12 12:13:36,0.0,5,7.565,0.0,0.0,0.0,26.3,6.5,0.0,1024,1024,1024,1024,0,0,0,0,72,4.718,72.86,34.120736,P-GPS,,10.4
104,438300,2026-01-12 12:13:36,0.0,5,7.515,0.0,0.0,0.0,26.2,6.3,0.0,1024,1024,1024,1024,0,0,0,0,72,4.717,72.86,34.44882,P-GPS,,10.5
105,438400,2026-01-12 12:13:36,0.0,5,7.515,0.0,0.0,-0.223694,26.1,6.1,-0.3,1024,1024,1024,1024,0,0,0,0,72,4.717,72.86,34.44882,P-GPS,,10.5
106,438500,2026-01-12 12:13:37,0.0,5,7.515,0.0,0.0,-0.223694,26.0,5.8,-2.5,1024,1024,1024,1024,0,0,0,0,72,4.717,72.86,34.120736,P-GPS,,10.4
107,438600,2026-01-12 12:13:37,0.0,5,7.515,0.0,0.0,-0.223694,26.0,7.4,-2.4,1024,1024,1024,1024,0,0,0,0,72,4.717,72.86,34.120736,P-GPS,,10.4
108,438700,2026-01-12 12:13:37,0.0,5,7.515,0.0,0.0,0.0,25.9,9.0,-2.7,1024,1024,1024,1024,0,0,0,0,72,4.717,72.86,34.120736,P-GPS,,10.4
109,438800,2026-01-12 12:13:37,0.0,5,7.515,0.0,0.0,0.0,25.9,8.7,-2.4,1024,1024,1024,1024,0,0,0,0,72,4.717,72.86,33.792652,P-GPS,,10.3
110,438900,2026-01-12 12:13:37,0.0,5,7.515,0.0,0.0,0.0,25.8,8.4,-0.9,1024,1024,1024,1024,0,0,0,0,72,4.717,72.86,33.792652,P-GPS,,10.3
111,439000,2026-01-12 12:13:37,0.0,5,7.515,0.0,0.0,0.0,26.1,9.3,1.6,1024,1024,1024,1024,0,0,0,0,72,4.717,72.86,33.792652,P-GPS,,10.3
112,439100,2026-01-12 12:13:37,0.0,5,7.515,0.0,0.0,0.223694,26.3,9.4,1.6,1024,1024,1024,1024,0,0,0,0,72,4.717,72.86,33.792652,P-GPS,SD card speed low. Normal use may be affected. Replace SD card (Code: 10028). Gimbal stuck. Make sure gimbal cover is removed and manually check whether gimbal can rotate freely (Code: 40002),10.3
113,439200,2026-01-12 12:13:37,0.0,5,7.515,0.0,0.0,0.223694,26.2,8.5,1.5,1024,1024,1024,1024,0,0,0,0,72,4.717,72.86,33.792652,P-GPS,,10.3
114,439300,2026-01-12 12:13:37,0.0,5,7.515,0.0,0.0,0.223694,26.3,7.3,1.7,1024,1024,1024,1024,0,0,0,0,72,4.717,72.86,33.792652,P-GPS,,10.3
115,439400,2026-01-12 12:13:37,0.0,5,7.515,0.0,0.0,0.0,26.4,6.8,1.6,1024,1024,1024,1024,0,0,0,0,72,4.717,72.86,33.792652,P-GPS,,10.3
116,439500,2026-01-12 12:13:38,0.0,5,7.515,0.0,0.0,0.0,26.6,6.0,1.1,1024,1024,1024,1024,0,0,0,0,72,4.717,72.86,33.792652,P-GPS,,10.3
117,439600,2026-01-12 12:13:38,0.223694,5,7.515,0.0,0.223694,0.0,26.3,6.4,-1.6,1024,1024,1024,1024,0,0,0,0,72,4.717,72.86,33.792652,P-GPS,,10.3
118,439700,2026-01-12 12:13:38,0.0,5,7.515,0.0,0.0,0.0,25.9,8.4,-2.3,1024,1024,1024,1024,0,0,0,0,72,4.717,72.86,33.792652,P-GPS,,10.3
119,439800,2026-01-12 12:13:38,0.0,5,7.515,0.0,0.0,0.0,26.2,8.4,-1.5,1024,1024,1024,1024,0,0,0,0,72,4.717,72.86,33.792652,P-GPS,,10.3
120,439900,2026-01-12 12:13:38,0.0,5,7.515,0.0,0.0,0.0,26.5,8.5,-1.0,1024,1024,1024,1024,0,0,0,0,72,4.717,72.86,33.792652,P-GPS,,10.3
121,440000,2026-01-12 12:13:38,0.0,5,7.515,0.0,0.0,0.0,26.5,7.6,-0.8,1024,1024,1024,1024,0,0,0,0,72,4.717,72.86,34.120736,P-GPS,,10.4
122,440100,2026-01-12 12:13:38,0.0,5,7.515,0.0,0.0,0.0,26.5,7.3,-1.8,1024,1024,1024,1024,0,0,0,0,72,4.717,72.86,34.120736,P-GPS,,10.4
123,440200,2026-01-12 12:13:38,0.223694,5,7.569,0.0,0.223694,0.0,26.5,7.0,-2.5,1024,1024,1024,1024,0,0,0,0,72,4.097,72.86,34.120736,P-GPS,,10.4
124,440300,2026-01-12 12:13:38,0.223694,5,7.569,0.0,0.223694,0.0,26.2,7.5,-3.8,1024,1024,1024,1024,0,0,0,0,72,4.097,72.86,34.44882,P-GPS,,10.5
125,440400,2026-01-12 12:13:38,0.0,5,7.569,0.0,0.0,0.0,26.0,7.4,-3.9,1024,1024,1024,1024,0,0,0,0,72,4.097,72.86,34.44882,P-GPS,,10.5
126,440500,2026-01-12 12:13:39,0.0,5,7.569,0.0,0.0,0.0,25.9,6.7,-3.7,1024,1024,1024,1024,0,0,0,0,72,4.097,72.86,34.44882,P-GPS,,10.5
127,440600,2026-01-12 12:13:39,0.0,5,7.569,0.0,0.0,0.0,25.8,6.7,-2.8,1024,1024,1024,1024,0,0,0,0,72,4.097,72.86,34.44882,P-GPS,,10.5
128,440700,2026-01-12 12:13:39,0.0,5,7.569,0.0,0.0,0.0,25.9,8.0,-1.4,1024,1024,1024,1024,0,0,0,0,72,4.097,72.86,34.44882,P-GPS,,10.5
129,440800,2026-01-12 12:13:39,0.0,5,7.569,0.0,0.0,0.0,26.1,7.3,-1.7,1024,1024,1024,1024,0,0,0,0,72,4.097,72.86,34.776904,P-GPS,,10.6
130,440900,2026-01-12 12:13:39,0.0,5,7.569,0.0,0.0,0.0,26.3,6.7,-1.7,1024,1024,1024,1024,0,0,0,0,72,4.097,72.86,34.776904,P-GPS,,10.6
131,441000,2026-01-12 12:13:39,0.0,5,7.569,0.0,0.0,0.0,26.2,7.4,-2.8,1024,1024,1024,1024,0,0,0,0,72,4.097,72.86,34.776904,P-GPS,,10.6
132,441100,2026-01-12 12:13:39,0.0,5,7.569,0.0,0.0,0.0,26.2,6.8,-2.5,1024,1024,1024,1024,0,0,0,0,72,4.097,72.86,35.104988,P-GPS,,10.7
133,441200,2026-01-12 12:13:39,0.223694,5,7.536,-0.223694,0.0,0.0,26.3,5.7,-2.7,1024,1024,1024,1024,0,0,0,0,72,4.445,72.86,35.104988,P-GPS,,10.7
134,441300,2026-01-12 12:13:39,0.0,5,7.536,0.0,0.0,0.0,26.2,5.8,-3.0,1024,1024,1024,1024,0,0,0,0,72,4.445,72.86,35.104988,P-GPS,,10.7
135,441400,2026-01-12 12:13:39,0.223694,5,7.536,-0.223694,0.0,0.0,26.2,5.9,-2.9,1024,1024,1024,1024,0,0,0,0,72,4.445,72.86,35.104988,P-GPS,,10.7
136,441500,2026-01-12 12:13:40,0.0,5,7.536,0.0,0.0,0.0,26.2,5.6,-3.0,1024,1024,1024,1024,0,0,0,0,72,4.445,72.86,35.433072,P-GPS,,10.8
137,441600,2026-01-12 12:13:40,0.0,5,7.536,0.0,0.0,0.0,26.2,4.9,-3.1,1024,1024,1024,1024,0,0,0,0,72,4.445,72.86,35.433072,P-GPS,,10.8
138,441700,2026-01-12 12:13:40,0.0,5,7.536,0.0,0.0,0.0,26.1,5.2,-3.1,1024,1024,1024,1024,0,0,0,0,72,4.445,72.86,35.433072,P-GPS,,10.8
139,441800,2026-01-12 12:13:40,0.0,5,7.536,0.0,0.0,0.0,26.1,5.4,-3.2,1024,1024,1024,1024,0,0,0,0,72,4.445,72.86,35.433072,P-GPS,,10.8
140,441900,2026-01-12 12:13:40,0.0,5,7.536,0.0,0.0,0.0,26.1,4.8,-2.8,1024,1024,1024,1024,0,0,0,0,71,4.445,72.86,35.433072,P-GPS,,10.8
141,442000,2026-01-12 12:13:40,0.0,5,7.536,0.0,0.0,0.0,26.1,4.4,-2.1,1024,1024,1024,1024,0,0,0,0,71,4.445,72.86,35.433072,P-GPS,,10.8
142,442100,2026-01-12 12:13:40,0.0,5,7.536,0.0,0.0,0.0,26.2,4.8,-1.8,1024,1024,1024,1024,0,0,0,0,71,4.445,72.86,35.433072,P-GPS,,10.8
143,442200,2026-01-12 12:13:40,0.0,5,7.516,0.0,0.0,0.0,26.2,5.0,-2.3,1024,1024,1024,1024,0,0,0,0,71,4.749,72.86,35.433072,P-GPS,,10.8
144,442300,2026-01-12 12:13:40,0.0,5,7.516,0.0,0.0,0.0,26.1,6.1,-2.5,1024,1024,1024,1024,0,0,0,0,71,4.749,72.86,35.433072,P-GPS,,10.8
145,442400,2026-01-12 12:13:40,0.0,5,7.516,0.0,0.0,0.0,25.9,7.1,-1.9,1024,1024,1024,1024,0,0,0,0,71,4.749,72.86,35.433072,P-GPS,,10.8
146,442500,2026-01-12 12:13:41,0.0,5,7.516,0.0,0.0,0.0,25.8,7.6,-2.6,1024,1024,1024,1024,0,0,0,0,71,4.749,72.86,35.433072,P-GPS,,10.8
147,442600,2026-01-12 12:13:41,0.0,5,7.516,0.0,0.0,0.0,25.7,7.6,-2.4,1024,1024,1024,1024,0,0,0,0,71,4.749,72.86,35.433072,P-GPS,,10.8
148,442700,2026-01-12 12:13:41,0.0,5,7.516,0.0,0.0,0.0,25.8,7.1,-2.1,1024,1024,1024,1024,0,0,0,0,71,4.749,72.86,35.433072,P-GPS,,10.8
149,442800,2026-01-12 12:13:41,0.0,5,7.516,0.0,0.0,0.0,26.0,6.2,-1.6,1024,1024,1024,1024,0,0,0,0,71,4.749,72.86,35.433072,P-GPS,,10.8
150,442900,2026-01-12 12:13:41,0.0,5,7.516,0.0,0.0,0.0,26.2,4.3,-1.8,1024,1024,1024,1024,0,0,0,0,71,4.749,72.86,35.433072,P-GPS,,10.8
151,443000,2026-01-12 12:13:41,0.0,5,7.516,0.0,0.0,0.0,26.3,2.9,-1.5,1024,1024,1024,1024,0,0,0,0,71,4.749,72.86,35.433072,P-GPS,,10.8
152,443100,2026-01-12 12:13:41,0.0,5,7.516,0.0,0.0,-0.223694,26.0,2.2,-1.8,1024,1024,1024,1024,0,0,0,0,71,4.749,72.86,35.433072,P-GPS,,10.8
153,443200,2026-01-12 12:13:41,0.0,5,7.484,0.0,0.0,-0.223694,26.0,2.6,-2.9,1024,1024,1024,1024,0,0,0,0,71,5.442,73.04,35.433072,P-GPS,,10.8
154,443300,2026-01-12 12:13:41,0.0,5,7.484,0.0,0.0,-0.223694,26.0,1.2,-3.5,1024,1024,1024,1024,0,0,0,0,71,5.442,73.04,35.433072,P-GPS,,10.8
155,443400,2026-01-12 12:13:41,0.0,5,7.484,0.0,0.0,-0.223694,26.3,0.9,-4.5,1024,1024,1024,1024,0,0,0,0,71,5.442,73.04,35.433072,P-GPS,,10.8
156,443500,2026-01-12 12:13:42,0.0,5,7.484,0.0,0.0,-0.223694,26.4,1.4,-1.9,1024,1024,1024,1024,0,0,0,0,71,5.442,73.04,35.433072,P-GPS,,10.8
157,443600,2026-01-12 12:13:42,0.0,5,7.484,0.0,0.0,-0.223694,25.8,4.0,-3.9,1024,1024,1024,1024,0,0,0,0,71,5.442,73.04,35.104988,P-GPS,,10.7
158,443700,2026-01-12 12:13:42,0.223694,5,7.484,0.223694,0.0,0.0,25.9,6.1,-2.0,1024,1024,1024,1024,0,0,0,0,71,5.442,73.04,35.104988,P-GPS,,10.7
159,443800,2026-01-12 12:13:42,0.223694,5,7.484,0.223694,0.0,0.0,25.8,6.7,-1.0,1024,1024,1024,1024,0,0,0,0,71,5.442,73.04,34.776904,P-GPS,,10.6
160,443900,2026-01-12 12:13:42,0.223694,5,7.484,0.223694,0.0,0.0,26.1,8.8,0.9,1024,1024,1024,1024,0,0,0,0,71,5.442,73.04,34.776904,P-GPS,,10.6
161,444000,2026-01-12 12:13:42,0.223694,5,7.484,0.223694,0.0,0.0,26.4,7.1,2.1,1024,1024,1024,1024,0,0,0,0,71,5.442,73.04,34.776904,P-GPS,,10.6
162,444100,2026-01-12 12:13:42,0.0,5,7.484,0.0,0.0,0.0,26.5,7.1,0.7,1024,1024,1024,1024,0,0,0,0,71,5.442,73.04,34.44882,P-GPS,,10.5
163,444200,2026-01-12 12:13:42,0.223694,5,7.556,0.0,0.223694,0.0,26.4,8.7,-1.4,1024,1024,1024,1024,0,0,0,0,71,4.378,73.04,34.44882,P-GPS,,10.5
164,444300,2026-01-12 12:13:42,0.223694,5,7.556,0.0,0.223694,0.0,26.4,8.4,-2.0,1024,1024,1024,1024,0,0,0,0,71,4.378,73.04,34.44882,P-GPS,,10.5
165,444400,2026-01-12 12:13:42,0.223694,5,7.556,0.0,0.223694,0.0,26.4,7.9,-2.8,1024,1024,1024,1024,0,0,0,0,71,4.378,73.04,34.44882,P-GPS,,10.5
166,444500,2026-01-12 12:13:43,0.0,5,7.556,0.0,0.0,0.0,26.3,7.8,-3.6,1024,1024,1024,1024,0,0,0,0,71,4.378,73.04,34.44882,P-GPS,,10.5
167,444600,2026-01-12 12:13:43,0.0,5,7.556,0.0,0.0,0.0,25.9,8.0,-4.4,1024,1024,1024,1024,0,0,0,0,71,4.378,73.04,34.44882,P-GPS,,10.5
168,444700,2026-01-12 12:13:43,0.0,5,7.556,0.0,0.0,0.0,25.9,7.8,-4.1,1024,1024,1024,1024,0,0,0,0,71,4.378,73.04,34.44882,P-GPS,,10.5
169,444800,2026-01-12 12:13:43,0.0,5,7.556,0.0,0.0,0.0,25.7,9.1,-3.2,1024,1024,1024,1024,0,0,0,0,71,4.378,73.04,34.776904,P-GPS,,10.6
170,444900,2026-01-12 12:13:43,0.0,5,7.556,0.0,0.0,0.223694,25.8,7.7,-2.6,1024,1024,1024,1024,0,0,0,0,71,4.378,73.04,34.776904,P-GPS,,10.6
171,445000,2026-01-12 12:13:43,0.0,5,7.556,0.0,0.0,0.0,25.9,6.5,-2.1,1024,1024,1024,1024,0,0,0,0,71,4.378,73.04,34.776904,P-GPS,,10.6
172,445100,2026-01-12 12:13:43,0.0,5,7.556,0.0,0.0,0.0,26.0,6.6,-2.1,1024,1024,1024,1024,0,0,0,0,71,4.378,73.04,34.776904,P-GPS,,10.6
173,445200,2026-01-12 12:13:43,0.0,5,7.543,0.0,0.0,0.0,26.1,6.6,-1.6,1024,1024,1024,1024,0,0,0,0,71,4.454,73.04,34.776904,P-GPS,,10.6
174,445300,2026-01-12 12:13:43,0.0,5,7.543,0.0,0.0,0.0,26.2,5.7,-2.8,1024,1024,1024,1024,0,0,0,0,71,4.454,73.04,34.776904,P-GPS,,10.6
175,445400,2026-01-12 12:13:44,0.0,5,7.543,0.0,0.0,0.0,26.3,5.2,-3.6,1024,1024,1024,1024,0,0,0,0,71,4.454,73.04,34.776904,P-GPS,,10.6
176,445500,2026-01-12 12:13:44,0.0,5,7.543,0.0,0.0,0.0,26.4,4.5,-3.6,1024,1024,1024,1024,0,0,0,0,71,4.454,73.04,34.776904,P-GPS,,10.6
177,445600,2026-01-12 12:13:44,0.0,5,7.543,0.0,0.0,0.0,26.2,6.7,-4.0,1024,1024,1024,1024,0,0,0,0,71,4.454,73.04,35.104988,P-GPS,,10.7
178,445700,2026-01-12 12:13:44,0.0,5,7.543,0.0,0.0,0.0,26.1,7.3,-4.3,1024,1024,1024,1024,0,0,0,0,71,4.454,73.04,35.104988,P-GPS,,10.7
179,445800,2026-01-12 12:13:44,0.0,5,7.543,0.0,0.0,0.0,26.0,7.9,-3.9,1024,1024,1024,1024,0,0,0,0,71,4.454,73.04,35.104988,P-GPS,,10.7
180,445900,2026-01-12 12:13:44,0.0,5,7.543,0.0,0.0,0.0,25.8,7.3,-3.8,1024,1024,1024,1024,0,0,0,0,71,4.454,73.04,35.104988,P-GPS,,10.7
181,446000,2026-01-12 12:13:44,0.0,5,7.543,0.0,0.0,0.0,25.9,7.5,-3.3,1024,1024,1024,1024,0,0,0,0,71,4.454,73.04,34.776904,P-GPS,,10.6
182,446100,2026-01-12 12:13:44,0.0,5,7.543,0.0,0.0,0.0,25.9,7.0,-3.1,1024,1024,1024,1024,0,0,0,0,71,4.454,73.04,34.776904,P-GPS,,10.6
183,446200,2026-01-12 12:13:44,0.0,5,7.505,0.0,0.0,0.0,25.9,7.3,-3.3,1024,1024,1024,1024,0,0,0,0,71,5.075,73.04,34.776904,P-GPS,,10.6
184,446300,2026-01-12 12:13:44,0.0,5,7.505,0.0,0.0,0.0,26.0,7.4,-3.2,1024,1024,1024,1024,0,0,0,0,71,5.075,73.04,34.776904,P-GPS,,10.6
185,446400,2026-01-12 12:13:45,0.0,5,7.505,0.0,0.0,0.0,26.0,7.8,-3.3,1024,1024,1024,1024,0,0,0,0,71,5.075,73.04,34.776904,P-GPS,,10.6
186,446500,2026-01-12 12:13:45,0.0,5,7.505,0.0,0.0,0.0,26.0,8.2,-3.0,1024,1024,1024,1024,0,0,0,0,71,5.075,73.04,34.776904,P-GPS,,10.6
187,446600,2026-01-12 12:13:45,0.0,5,7.505,0.0,0.0,0.0,26.0,8.3,-2.7,1024,1024,1024,1024,0,0,0,0,71,5.075,73.04,34.776904,P-GPS,,10.6
188,446700,2026-01-12 12:13:45,0.0,5,7.505,0.0,0.0,0.0,26.0,8.0,-2.4,1024,1024,1024,1024,0,0,0,0,71,5.075,73.04,34.776904,P-GPS,,10.6
189,446800,2026-01-12 12:13:45,0.0,5,7.505,0.0,0.0,0.0,25.9,8.4,-2.7,1024,1024,1024,1024,0,0,0,0,71,5.075,73.04,34.776904,P-GPS,,10.6
190,446900,2026-01-12 12:13:45,0.0,5,7.505,0.0,0.0,0.0,25.8,8.6,-2.6,1024,1024,1024,1024,0,0,0,0,71,5.075,73.04,34.776904,P-GPS,,10.6
191,447000,2026-01-12 12:13:45,0.0,5,7.505,0.0,0.0,0.0,25.9,8.3,-2.5,1024,1024,1024,1024,0,0,0,0,71,5.075,73.04,34.776904,P-GPS,,10.6
192,447100,2026-01-12 12:13:45,0.0,5,7.505,0.0,0.0,0.0,25.9,8.2,-2.5,1024,1024,1024,1024,0,0,0,0,71,5.075,73.04,34.776904,P-GPS,,10.6
193,447200,2026-01-12 12:13:45,0.0,5,7.505,0.0,0.0,0.0,26.0,8.1,-2.3,1024,1024,1024,1024,0,0,0,0,71,5.075,73.04,34.776904,P-GPS,,10.6
194,447300,2026-01-12 12:13:45,0.0,5,7.505,0.0,0.0,0.0,26.2,7.2,-2.0,1024,1024,1024,1024,0,0,0,0,71,5.075,73.04,34.44882,P-GPS,,10.5
195,447400,2026-01-12 12:13:45,0.0,5,7.505,0.0,0.0,0.0,26.2,6.2,-1.9,1024,1024,1024,1024,0,0,0,0,71,5.075,73.04,34.44882,P-GPS,,10.5
196,447500,2026-01-12 12:13:46,0.0,5,7.505,0.0,0.0,0.0,26.1,6.1,-2.4,1024,1024,1024,1024,0,0,0,0,71,5.075,73.04,34.44882,P-GPS,,10.5
197,447600,2026-01-12 12:13:46,0.0,5,7.505,0.0,0.0,0.0,26.0,6.5,-2.9,1024,1024,1024,1024,0,0,0,0,71,5.075,73.04,34.44882,P-GPS,,10.5
198,447700,2026-01-12 12:13:46,0.0,5,7.505,0.0,0.0,0.0,26.0,6.9,-3.2,1024,1024,1024,1024,0,0,0,0,71,5.075,73.04,34.44882,P-GPS,,10.5
199,447800,2026-01-12 12:13:46,0.0,5,7.505,0.0,0.0,0.0,26.0,7.7,-3.4,1024,1024,1024,1024,0,0,0,0,71,5.075,73.04,34.44882,P-GPS,,10.5
200,447900,2026-01-12 12:13:46,0.0,5,7.505,0.0,0.0,0.0,26.1,7.7,-3.1,1024,1024,1024,1024,0,0,0,0,71,5.075,73.04,34.44882,P-GPS,,10.5
201,448000,2026-01-12 12:13:46,0.0,5,7.505,0.0,0.0,0.0,26.0,7.9,-2.8,1024,1024,1024,1024,0,0,0,0,71,5.075,73.04,34.44882,P-GPS,,10.5
202,448100,2026-01-12 12:13:46,0.0,5,7.505,0.0,0.0,0.0,26.1,7.5,-2.7,1024,1024,1024,1024,0,0,0,0,71,5.075,73.04,34.44882,P-GPS,,10.5
203,448200,2026-01-12 12:13:46,0.0,5,7.505,0.0,0.0,0.0,26.0,8.1,-2.6,1024,1024,1024,1024,0,0,0,0,71,5.075,73.04,34.44882,P-GPS,,10.5
204,448300,2026-01-12 12:13:46,0.0,5,7.516,0.0,0.0,0.0,26.0,7.8,-3.2,1024,1024,1024,1024,0,0,0,0,71,4.784,73.04,34.44882,P-GPS,,10.5
205,448400,2026-01-12 12:13:46,0.0,5,7.516,0.0,0.0,0.0,26.1,7.2,-3.4,1024,1024,1024,1024,0,0,0,0,71,4.784,73.04,34.44882,P-GPS,,10.5
206,448500,2026-01-12 12:13:47,0.0,5,7.516,0.0,0.0,0.0,26.1,6.3,-3.3,1024,1024,1024,1024,0,0,0,0,71,4.784,73.04,34.44882,P-GPS,,10.5
207,448600,2026-01-12 12:13:47,0.0,5,7.516,0.0,0.0,0.0,26.1,6.9,-3.3,1024,1024,1024,1024,0,0,0,0,71,4.784,73.04,34.776904,P-GPS,,10.6
208,448700,2026-01-12 12:13:47,0.0,5,7.516,0.0,0.0,0.0,26.0,7.5,-4.1,1024,1024,1024,1024,0,0,0,0,71,4.784,73.04,34.776904,P-GPS,,10.6
209,448800,2026-01-12 12:13:47,0.0,5,7.516,0.0,0.0,0.0,26.0,7.7,-4.2,1024,1024,1024,1024,0,0,0,0,71,4.784,73.04,34.776904,P-GPS,,10.6
210,448900,2026-01-12 12:13:47,0.0,5,7.516,0.0,0.0,0.0,26.0,7.7,-4.4,1024,1024,1024,1024,0,0,0,0,71,4.784,73.04,34.776904,P-GPS,,10.6
211,449000,2026-01-12 12:13:47,0.0,5,7.516,0.0,0.0,0.0,25.8,9.0,-4.6,1024,1024,1024,1024,0,0,0,0,71,4.784,73.04,34.776904,P-GPS,,10.6
212,449100,2026-01-12 12:13:47,0.0,5,7.516,0.0,0.0,0.0,25.9,7.7,-4.0,1024,1024,1024,1024,0,0,0,0,71,4.784,73.04,34.776904,P-GPS,,10.6
213,449200,2026-01-12 12:13:47,0.0,5,7.516,0.0,0.0,0.0,25.9,7.6,-4.4,1024,1024,1024,1024,0,0,0,0,71,4.784,73.04,34.776904,P-GPS,,10.6
214,449300,2026-01-12 12:13:47,0.0,5,7.516,0.0,0.0,0.0,25.8,8.1,-4.6,1024,1024,1024,1024,0,0,0,0,71,4.784,73.04,34.776904,P-GPS,,10.6
215,449400,2026-01-12 12:13:48,0.0,5,7.482,0.0,0.0,0.0,25.9,7.3,-3.9,1024,1024,1024,1024,0,0,0,0,71,4.872,73.04,34.776904,P-GPS,,10.6
216,449500,2026-01-12 12:13:48,0.0,5,7.482,0.0,0.0,0.0,25.8,7.1,-4.3,1024,1024,1024,1024,0,0,0,0,71,4.872,73.04,34.776904,P-GPS,,10.6
217,449600,2026-01-12 12:13:48,0.0,5,7.482,0.0,0.0,0.0,26.0,5.9,-4.2,1024,1024,1024,1024,0,0,0,0,71,4.872,73.04,35.104988,P-GPS,,10.7
218,449700,2026-01-12 12:13:48,0.0,5,7.482,0.0,0.0,0.0,26.2,5.3,-4.0,1024,1024,1024,1024,0,0,0,0,71,4.872,73.04,34.776904,P-GPS,,10.6
219,449800,2026-01-12 12:13:48,0.0,5,7.482,0.0,0.0,0.0,26.1,5.9,-3.8,1024,1024,1024,1024,0,0,0,0,71,4.872,73.04,34.776904,P-GPS,,10.6
220,449900,2026-01-12 12:13:48,0.0,5,7.482,0.0,0.0,0.0,25.9,6.9,-4.7,1024,1024,1024,1024,0,0,0,0,71,4.872,73.04,34.44882,P-GPS,,10.5
221,450000,2026-01-12 12:13:48,0.0,5,7.482,0.0,0.0,0.0,25.9,6.7,-4.5,1024,1024,1024,1024,0,0,0,0,71,4.872,73.04,34.44882,P-GPS,,10.5
222,450100,2026-01-12 12:13:48,0.0,5,7.482,0.0,0.0,0.0,26.2,5.5,-3.6,1024,1024,1024,1024,0,0,0,0,71,4.872,73.04,34.120736,P-GPS,,10.4
223,450200,2026-01-12 12:13:48,0.0,5,7.482,0.0,0.0,0.0,26.3,4.6,-3.5,1024,1024,1024,1024,0,0,0,0,71,4.872,73.04,33.792652,P-GPS,,10.3
224,450300,2026-01-12 12:13:48,0.0,5,7.482,0.0,0.0,0.0,26.2,6.6,-3.0,1024,1024,1024,1024,0,0,0,0,71,4.872,73.04,33.792652,P-GPS,,10.3
225,450400,2026-01-12 12:13:48,0.0,5,7.482,0.0,0.0,0.0,26.2,7.7,-2.5,1024,1024,1024,1024,0,0,0,0,71,4.872,73.04,33.464568,P-GPS,,10.2
226,450500,2026-01-12 12:13:49,0.0,5,7.557,0.0,0.0,0.0,26.1,9.2,-2.9,1024,1024,1024,1024,0,0,0,0,71,4.046,73.04,33.136484,P-GPS,,10.1
227,450600,2026-01-12 12:13:49,0.0,5,7.557,0.0,0.0,0.223694,25.9,8.6,-3.2,1024,1024,1024,1024,0,0,0,0,71,4.046,73.04,33.136484,P-GPS,,10.1
228,450700,2026-01-12 12:13:49,0.0,5,7.557,0.0,0.0,0.223694,26.0,7.5,-2.6,1024,1024,1024,1024,0,0,0,0,71,4.046,73.04,33.136484,P-GPS,,10.1
229,450800,2026-01-12 12:13:49,0.0,5,7.557,0.0,0.0,0.0,26.0,7.5,-2.7,1024,1024,1024,1024,0,0,0,0,71,4.046,73.04,33.136484,P-GPS,,10.1
230,450900,2026-01-12 12:13:49,0.0,5,7.557,0.0,0.0,0.0,26.4,4.4,-3.6,1024,1024,1024,1024,0,0,0,0,71,4.046,73.04,33.136484,P-GPS,,10.1
231,451000,2026-01-12 12:13:49,0.0,5,7.557,0.0,0.0,0.0,26.2,5.8,-4.1,1024,1024,1024,1024,0,0,0,0,71,4.046,73.04,33.136484,P-GPS,,10.1
232,451100,2026-01-12 12:13:49,0.0,5,7.557,0.0,0.0,0.0,26.0,6.8,-3.2,1024,1024,1024,1024,0,0,0,0,71,4.046,73.04,33.136484,P-GPS,,10.1
233,451200,2026-01-12 12:13:49,0.0,5,7.557,0.0,0.0,0.0,25.9,7.4,-2.3,1024,1024,1024,1024,0,0,0,0,71,4.046,73.04,32.8084,P-GPS,,10.0
234,451300,2026-01-12 12:13:49,0.0,5,7.557,0.0,0.0,0.0,26.0,8.0,-1.9,1024,1024,1024,1024,0,0,0,0,71,4.046,73.04,32.8084,P-GPS,,10.0
235,451400,2026-01-12 12:13:50,0.0,5,7.557,0.0,0.0,0.0,26.1,8.0,-0.9,1024,1024,1024,1024,0,0,0,0,71,4.046,73.04,32.8084,P-GPS,,10.0
236,451500,2026-01-12 12:13:50,0.0,5,7.557,0.0,0.0,0.0,26.1,8.3,-0.7,1024,1024,1024,1024,0,0,0,0,71,4.046,73.04,32.8084,P-GPS,,10.0
237,451600,2026-01-12 12:13:50,0.0,5,7.531,0.0,0.0,0.0,26.0,8.8,-0.9,1024,1024,1024,1024,0,0,0,0,71,4.785,73.04,32.8084,P-GPS,,10.0
238,451700,2026-01-12 12:13:50,0.0,5,7.531,0.0,0.0,0.0,26.0,8.1,-0.7,1024,1024,1024,1024,0,0,0,0,71,4.785,73.04,32.8084,P-GPS,,10.0
239,451800,2026-01-12 12:13:50,0.0,5,7.531,0.0,0.0,0.0,26.0,7.5,-1.2,1024,1024,1024,1024,0,0,0,0,71,4.785,73.04,32.8084,P-GPS,,10.0
240,451900,2026-01-12 12:13:50,0.0,5,7.531,0.0,0.0,0.0,26.0,7.0,-1.7,1024,1024,1024,1024,0,0,0,0,71,4.785,73.04,32.8084,P-GPS,,10.0
241,452000,2026-01-12 12:13:50,0.0,5,7.531,0.0,0.0,0.0,26.0,6.9,-2.4,1024,1024,1024,1024,0,0,0,0,71,4.785,73.04,32.8084,P-GPS,,10.0
242,452100,2026-01-12 12:13:50,0.0,5,7.531,0.0,0.0,0.0,26.0,6.9,-2.5,1024,1024,1024,1024,0,0,0,0,71,4.785,73.04,32.8084,P-GPS,,10.0
243,452200,2026-01-12 12:13:50,0.0,5,7.531,0.0,0.0,0.0,26.0,7.0,-2.7,1024,1024,1024,1024,0,0,0,0,71,4.785,73.04,33.136484,P-GPS,,10.1
244,452300,2026-01-12 12:13:50,0.0,5,7.531,0.0,0.0,0.0,25.9,7.7,-2.9,1024,1024,1024,1024,0,0,0,0,71,4.785,73.04,33.136484,P-GPS,,10.1
245,452400,2026-01-12 12:13:50,0.0,5,7.531,0.0,0.0,0.0,25.9,8.3,-2.7,1024,1024,1024,1024,0,0,0,0,71,4.785,73.04,33.136484,P-GPS,,10.1
246,452500,2026-01-12 12:13:51,0.0,5,7.531,0.0,0.0,0.0,25.9,7.5,-2.7,1024,1024,1024,1024,0,0,0,0,71,4.785,73.04,33.136484,P-GPS,,10.1
247,452600,2026-01-12 12:13:51,0.0,5,7.531,0.0,0.0,0.0,25.9,7.1,-2.2,1024,1024,1024,1024,0,0,0,0,71,4.785,73.04,33.136484,P-GPS,,10.1
248,452700,2026-01-12 12:13:51,0.0,5,7.515,0.0,0.0,0.0,26.0,6.8,-2.1,1024,1024,1024,1024,0,0,0,0,71,4.825,73.04,33.136484,P-GPS,,10.1
249,452800,2026-01-12 12:13:51,0.0,5,7.515,0.0,0.0,0.0,26.0,7.0,-2.4,1024,1024,1024,1024,0,0,0,0,71,4.825,73.04,33.136484,P-GPS,,10.1
250,452900,2026-01-12 12:13:51,0.0,5,7.515,0.0,0.0,0.0,26.0,7.0,-2.2,1024,1024,1024,1024,0,0,0,0,71,4.825,73.04,33.136484,P-GPS,,10.1
251,453000,2026-01-12 12:13:51,0.0,5,7.515,0.0,0.0,0.0,26.0,6.9,-2.0,1024,1024,1024,1024,0,0,0,0,71,4.825,73.04,33.136484,P-GPS,,10.1
252,453100,2026-01-12 12:13:51,0.0,5,7.515,0.0,0.0,0.0,26.0,7.2,-1.7,1024,1024,1024,1024,0,0,0,0,71,4.825,73.04,33.464568,P-GPS,,10.2
253,453200,2026-01-12 12:13:51,0.0,5,7.515,0.0,0.0,0.0,26.0,7.1,-2.3,1024,1024,1024,1024,0,0,0,0,71,4.825,73.04,33.464568,P-GPS,,10.2
254,453300,2026-01-12 12:13:51,0.0,5,7.515,0.0,0.0,0.0,26.0,6.9,-2.2,1024,1024,1024,1024,0,0,0,0,71,4.825,73.04,33.464568,P-GPS,,10.2
255,453400,2026-01-12 12:13:51,0.0,5,7.515,0.0,0.0,0.0,26.0,6.2,-2.3,1024,1024,1024,1024,0,0,0,0,71,4.825,73.04,33.464568,P-GPS,,10.2
256,453500,2026-01-12 12:13:52,0.0,5,7.515,0.0,0.0,0.0,26.1,6.1,-2.1,1024,1024,1024,1024,0,0,0,0,71,4.825,73.04,33.464568,P-GPS,,10.2
257,453600,2026-01-12 12:13:52,0.0,5,7.515,0.0,0.0,0.0,26.0,7.0,-2.9,1024,1024,1024,1024,0,0,0,0,71,4.825,73.04,33.464568,P-GPS,,10.2
258,453700,2026-01-12 12:13:52,0.0,5,7.515,0.0,0.0,0.0,26.0,7.4,-2.8,1024,1024,1024,1024,0,0,0,0,71,4.825,73.04,33.792652,P-GPS,,10.3
259,453800,2026-01-12 12:13:52,0.0,5,7.522,0.0,0.0,0.0,25.9,8.3,-3.6,1024,1024,1024,1024,0,0,0,0,71,4.814,73.04,33.792652,P-GPS,,10.3
260,453900,2026-01-12 12:13:52,0.0,5,7.522,0.0,0.0,0.0,25.9,9.0,-3.4,1024,1024,1024,1024,0,0,0,0,71,4.814,73.04,33.792652,P-GPS,,10.3
261,454000,2026-01-12 12:13:52,0.0,5,7.522,0.0,0.0,0.0,25.8,9.0,-3.3,1024,1024,1024,1024,0,0,0,0,71,4.814,73.04,33.792652,P-GPS,,10.3
262,454100,2026-01-12 12:13:52,0.0,5,7.522,0.0,0.0,0.0,25.9,8.6,-2.8,1024,1024,1024,1024,0,0,0,0,71,4.814,73.04,33.792652,P-GPS,,10.3
263,454200,2026-01-12 12:13:52,0.0,5,7.522,0.0,0.0,0.0,26.1,8.0,-2.5,1024,1024,1024,1024,0,0,0,0,71,4.814,73.04,34.120736,P-GPS,,10.4
264,454300,2026-01-12 12:13:52,0.0,5,7.522,0.0,0.0,0.0,26.2,8.2,-3.1,1024,1024,1024,1024,0,0,0,0,71,4.814,73.04,34.120736,P-GPS,,10.4
265,454400,2026-01-12 12:13:52,0.0,5,7.522,0.0,0.0,0.0,26.0,8.5,-3.6,1024,1024,1024,1024,0,0,0,0,71,4.814,73.04,34.120736,P-GPS,,10.4
266,454500,2026-01-12 12:13:53,0.0,5,7.522,0.0,0.0,0.0,25.8,8.6,-3.5,1024,1024,1024,1024,0,0,0,0,71,4.814,73.04,34.120736,P-GPS,,10.4
267,454600,2026-01-12 12:13:53,0.0,5,7.522,0.0,0.0,0.0,26.0,8.6,-3.0,1024,1024,1024,1024,0,0,0,0,71,4.814,73.04,34.120736,P-GPS,,10.4
268,454700,2026-01-12 12:13:53,0.0,5,7.522,0.0,0.0,0.0,26.1,8.3,-3.0,1024,1024,1024,1024,0,0,0,0,71,4.814,73.04,34.120736,P-GPS,,10.4
269,454800,2026-01-12 12:13:53,0.0,5,7.522,0.0,0.0,0.0,26.0,8.8,-3.4,1024,1024,1024,1024,0,0,0,0,71,4.814,73.04,34.120736,P-GPS,,10.4
270,454900,2026-01-12 12:13:53,0.0,5,7.514,0.0,0.0,0.0,25.8,9.0,-4.0,1024,1024,1024,1024,0,0,0,0,71,4.896,73.04,34.44882,P-GPS,,10.5
271,455000,2026-01-12 12:13:53,0.0,5,7.514,0.0,0.0,0.0,25.9,9.0,-4.5,1024,1024,1024,1024,0,0,0,0,71,4.896,73.04,34.44882,P-GPS,,10.5
272,455100,2026-01-12 12:13:53,0.0,5,7.514,0.0,0.0,0.0,26.0,8.8,-4.2,1024,1024,1024,1024,0,0,0,0,71,4.896,73.04,34.44882,P-GPS,,10.5
273,455200,2026-01-12 12:13:53,0.0,5,7.514,0.0,0.0,0.0,26.0,8.5,-4.7,1024,1024,1024,1024,0,0,0,0,71,4.896,73.04,34.44882,P-GPS,,10.5
274,455300,2026-01-12 12:13:53,0.0,5,7.514,0.0,0.0,0.0,26.0,8.1,-4.6,1024,1024,1024,1024,0,0,0,0,71,4.896,73.04,34.44882,P-GPS,,10.5
275,455400,2026-01-12 12:13:53,0.0,5,7.514,0.0,0.0,0.0,26.0,7.8,-4.5,1024,1024,1024,1024,0,0,0,0,71,4.896,73.04,34.44882,P-GPS,,10.5
276,455500,2026-01-12 12:13:54,0.0,5,7.514,0.0,0.0,0.0,25.9,7.8,-4.5,1024,1024,1024,1024,0,0,0,0,71,4.896,73.04,34.776904,P-GPS,,10.6
277,455600,2026-01-12 12:13:54,0.0,5,7.514,0.0,0.0,0.0,25.9,7.1,-4.3,1024,1024,1024,1024,0,0,0,0,71,4.896,73.04,34.776904,P-GPS,,10.6
278,455700,2026-01-12 12:13:54,0.0,5,7.514,0.0,0.0,0.0,25.8,6.9,-4.4,1024,1024,1024,1024,0,0,0,0,71,4.896,73.04,34.776904,P-GPS,,10.6
279,455800,2026-01-12 12:13:54,0.0,5,7.514,0.0,0.0,0.0,25.9,6.7,-4.5,1024,1024,1024,1024,0,0,0,0,71,4.896,73.04,34.776904,P-GPS,,10.6
280,455900,2026-01-12 12:13:54,0.0,5,7.514,0.0,0.0,0.0,25.8,6.1,-4.3,1024,1024,1024,1024,0,0,0,0,71,4.896,73.04,34.776904,P-GPS,,10.6
281,456000,2026-01-12 12:13:54,0.0,5,7.51,0.0,0.0,0.0,25.8,6.0,-4.1,1024,1024,1024,1024,0,0,0,0,71,4.613,73.04,34.776904,P-GPS,,10.6
282,456100,2026-01-12 12:13:54,0.0,5,7.51,0.0,0.0,0.0,25.8,6.6,-4.4,1024,1024,1024,1024,0,0,0,0,71,4.613,73.04,34.776904,P-GPS,,10.6
283,456200,2026-01-12 12:13:54,0.0,5,7.51,0.0,0.0,0.0,25.8,6.6,-4.0,1024,1024,1024,1024,0,0,0,0,71,4.613,73.04,34.776904,P-GPS,,10.6
284,456300,2026-01-12 12:13:54,0.0,5,7.51,0.0,0.0,0.0,25.8,6.5,-4.3,1024,1024,1024,1024,0,0,0,0,71,4.613,73.04,34.776904,P-GPS,,10.6
285,456400,2026-01-12 12:13:55,0.0,5,7.51,0.0,0.0,0.0,25.9,6.8,-4.3,1024,1024,1024,1024,0,0,0,0,71,4.613,73.04,34.776904,P-GPS,,10.6
286,456500,2026-01-12 12:13:55,0.0,5,7.51,0.0,0.0,0.0,26.0,6.4,-4.1,1024,1024,1024,1024,0,0,0,0,71,4.613,73.04,34.44882,P-GPS,,10.5
287,456600,2026-01-12 12:13:55,0.0,5,7.51,0.0,0.0,0.0,26.0,6.1,-3.9,1024,1024,1024,1024,0,0,0,0,71,4.613,73.04,34.44882,P-GPS,,10.5
288,456700,2026-01-12 12:13:55,0.0,5,7.51,0.0,0.0,0.0,25.9,6.1,-3.9,1024,1024,1024,1024,0,0,0,0,71,4.613,73.04,34.44882,P-GPS,,10.5
289,456800,2026-01-12 12:13:55,0.0,5,7.51,0.0,0.0,0.0,26.0,5.6,-4.0,1024,1024,1024,1024,0,0,0,0,71,4.613,73.04,34.44882,P-GPS,,10.5
290,456900,2026-01-12 12:13:55,0.0,5,7.51,0.0,0.0,0.0,26.0,5.5,-3.7,1024,1024,1024,1024,0,0,0,0,71,4.613,73.04,34.44882,P-GPS,,10.5
291,457000,2026-01-12 12:13:55,0.0,5,7.51,0.0,0.0,0.0,26.0,5.2,-3.8,1024,1024,1024,1024,0,0,0,0,71,4.613,73.04,34.44882,P-GPS,,10.5
292,457100,2026-01-12 12:13:55,0.0,5,7.512,0.0,0.0,0.0,25.9,5.5,-3.7,1024,1024,1024,1024,0,0,0,0,71,4.623,73.04,34.44882,P-GPS,,10.5
293,457200,2026-01-12 12:13:55,0.0,5,7.512,0.0,0.0,0.0,26.0,5.1,-3.6,1024,1024,1024,1024,0,0,0,0,71,4.623,73.04,34.44882,P-GPS,,10.5
294,457300,2026-01-12 12:13:55,0.0,5,7.512,0.0,0.0,0.0,26.1,4.6,-3.4,1024,1024,1024,1024,0,0,0,0,71,4.623,73.04,34.120736,P-GPS,,10.4
295,457400,2026-01-12 12:13:55,0.0,5,7.512,0.0,0.0,0.0,26.0,5.1,-3.6,1024,1024,1024,1024,0,0,0,0,71,4.623,73.04,34.120736,P-GPS,,10.4
296,457500,2026-01-12 12:13:56,0.0,5,7.512,0.0,0.0,0.0,26.1,5.6,-3.7,1024,1024,1024,1024,0,0,0,0,71,4.623,73.04,34.120736,P-GPS,,10.4
297,457600,2026-01-12 12:13:56,0.0,5,7.512,0.0,0.0,0.0,26.1,6.2,-3.5,1024,1024,1024,1024,0,0,0,0,71,4.623,73.04,34.120736,P-GPS,,10.4
298,457700,2026-01-12 12:13:56,0.0,5,7.512,0.0,0.0,0.0,26.1,6.4,-3.4,1024,1024,1024,1024,0,0,0,0,71,4.623,73.04,34.120736,P-GPS,,10.4
299,457800,2026-01-12 12:13:56,0.0,5,7.512,0.0,0.0,0.0,26.1,6.2,-3.5,1024,1024,1024,1024,0,0,0,0,71,4.623,73.04,34.120736,P-GPS,,10.4
300,457900,2026-01-12 12:13:56,0.0,5,7.512,0.0,0.0,0.0,26.0,6.3,-3.5,1024,1024,1024,1024,0,0,0,0,71,4.623,73.04,34.120736,P-GPS,,10.4
301,458000,2026-01-12 12:13:56,0.0,5,7.512,0.0,0.0,0.0,26.1,6.3,-3.5,1024,1024,1024,1024,0,0,0,0,71,4.623,73.04,34.120736,P-GPS,,10.4
302,458100,2026-01-12 12:13:56,0.0,5,7.512,0.0,0.0,0.0,26.1,6.5,-3.3,1024,1024,1024,1024,0,0,0,0,71,4.623,73.04,34.120736,P-GPS,,10.4
303,458200,2026-01-12 12:13:56,0.0,5,7.512,0.0,0.0,0.0,26.1,6.5,-3.1,1024,1024,1024,1024,0,0,0,0,71,4.623,73.04,34.120736,P-GPS,,10.4
304,458300,2026-01-12 12:13:56,0.0,5,7.512,0.0,0.0,0.0,26.1,6.3,-3.0,1024,1024,1024,1024,0,0,0,0,71,4.623,73.04,34.120736,P-GPS,,10.4
305,458400,2026-01-12 12:13:56,0.0,5,7.512,0.0,0.0,0.0,26.1,6.1,-3.1,1024,1024,1024,1024,0,0,0,0,71,4.623,73.04,34.120736,P-GPS,,10.4
306,458500,2026-01-12 12:13:57,0.0,5,7.512,0.0,0.0,0.0,26.0,6.0,-3.2,1024,1024,1024,1024,0,0,0,0,71,4.623,73.04,34.120736,P-GPS,,10.4
307,458600,2026-01-12 12:13:57,0.0,5,7.512,0.0,0.0,0.0,26.1,5.9,-2.9,1024,1024,1024,1024,0,0,0,0,71,4.623,73.04,34.120736,P-GPS,,10.4
308,458700,2026-01-12 12:13:57,0.0,5,7.512,0.0,0.0,0.0,26.1,5.8,-3.0,1024,1024,1024,1024,0,0,0,0,71,4.623,73.04,34.120736,P-GPS,,10.4
309,458800,2026-01-12 12:13:57,0.0,5,7.512,0.0,0.0,0.0,26.1,5.7,-3.2,1024,1024,1024,1024,0,0,0,0,71,4.623,73.04,34.120736,P-GPS,,10.4
310,458900,2026-01-12 12:13:57,0.0,5,7.512,0.0,0.0,0.0,26.2,6.1,-3.4,1024,1024,1024,1024,0,0,0,0,71,4.623,73.04,34.120736,P-GPS,,10.4
311,459000,2026-01-12 12:13:57,0.0,5,7.512,0.0,0.0,0.0,26.1,6.3,-3.4,1024,1024,1024,1024,0,0,0,0,71,4.623,73.04,34.120736,P-GPS,,10.4
312,459100,2026-01-12 12:13:57,0.0,5,7.512,0.0,0.0,0.0,26.0,6.6,-3.7,1024,1024,1024,1024,0,0,0,0,71,4.623,73.04,34.120736,P-GPS,,10.4
313,459200,2026-01-12 12:13:57,0.0,5,7.512,0.0,0.0,0.0,26.0,7.0,-3.3,1024,1024,1024,1024,0,0,0,0,71,4.623,73.04,34.120736,P-GPS,,10.4
314,459300,2026-01-12 12:13:57,0.0,5,7.511,0.0,0.0,0.0,25.9,7.3,-3.5,1024,1024,1024,1024,0,0,0,0,71,4.675,73.04,34.120736,P-GPS,,10.4
315,459400,2026-01-12 12:13:57,0.0,5,7.511,0.0,0.0,0.0,25.8,7.3,-3.7,1024,1024,1024,1024,0,0,0,0,71,4.675,73.04,34.120736,P-GPS,,10.4
316,459500,2026-01-12 12:13:58,0.0,5,7.511,0.0,0.0,0.0,25.9,7.2,-3.7,1024,1024,1024,1024,0,0,0,0,71,4.675,73.04,34.44882,P-GPS,,10.5
317,459600,2026-01-12 12:13:58,0.0,5,7.511,0.0,0.0,0.0,26.0,6.3,-3.7,1024,1024,1024,1024,0,0,0,0,71,4.675,73.04,34.44882,P-GPS,,10.5
318,459700,2026-01-12 12:13:58,0.0,5,7.511,0.0,0.0,0.0,25.9,6.8,-3.8,1024,1024,1024,1024,0,0,0,0,71,4.675,73.04,34.44882,P-GPS,,10.5
319,459800,2026-01-12 12:13:58,0.0,5,7.511,0.0,0.0,0.0,25.9,6.5,-3.8,1024,1024,1024,1024,0,0,0,0,71,4.675,73.04,34.44882,P-GPS,,10.5
320,459900,2026-01-12 12:13:58,0.0,5,7.511,0.0,0.0,0.0,26.0,6.3,-3.5,1024,1024,1024,1024,0,0,0,0,70,4.675,73.04,34.44882,P-GPS,,10.5
321,460000,2026-01-12 12:13:58,0.0,5,7.511,0.0,0.0,0.0,26.0,6.3,-3.7,1024,1024,1024,1024,0,0,0,0,70,4.675,73.04,34.44882,P-GPS,,10.5
