index,time(millisecond),timestamp,speed(mph),gpslevel,voltage(v),xSpeed(mph),ySpeed(mph),zSpeed(mph),compass_heading(degrees),pitch(degrees),roll(degrees),rc_elevator,rc_aileron,rc_throttle,rc_rudder,rc_elevator(percent),rc_aileron(percent),rc_throttle(percent),rc_rudder(percent),battery_percent,current(A),battery_temperature(f),ascent(feet),flycState,message,height_above_takeoff(meters)
797,79800,2026-01-12 12:07:11,0.0,5,7.66,0.0,0.0,0.0,359.8,7.6,-5.4,1024,1024,1024,1024,0,0,0,0,94,6.369,64.94,166.666672,P-GPS,,50.8
798,79900,2026-01-12 12:07:11,0.0,5,7.66,0.0,0.0,0.0,359.7,6.9,-5.5,1024,1024,1024,1024,0,0,0,0,94,6.369,64.94,166.666672,P-GPS,,50.8
799,80000,2026-01-12 12:07:11,0.0,5,7.66,0.0,0.0,0.0,359.6,7.3,-5.6,1024,1024,1024,1024,0,0,0,0,94,6.369,64.94,166.666672,P-GPS,,50.8
800,80100,2026-01-12 12:07:11,0.0,5,7.66,0.0,0.0,0.0,359.7,7.6,-5.6,1024,1024,1024,1024,0,0,0,0,94,6.369,64.94,166.994756,P-GPS,,50.9
801,80200,2026-01-12 12:07:11,0.0,5,7.66,0.0,0.0,0.0,359.7,7.4,-5.7,1024,1024,1024,1024,0,0,0,0,94,6.369,64.94,166.994756,P-GPS,,50.9
802,80300,2026-01-12 12:07:11,0.0,5,7.66,0.0,0.0,0.0,359.8,7.6,-5.4,1024,1024,1024,1024,0,0,0,0,94,6.369,64.94,166.994756,P-GPS,,50.9
803,80400,2026-01-12 12:07:11,0.0,5,7.66,0.0,0.0,0.0,359.8,7.2,-5.6,1024,1024,1024,1024,0,0,0,0,94,6.369,64.94,166.994756,P-GPS,,50.9
804,80500,2026-01-12 12:07:11,0.0,5,7.66,0.0,0.0,0.0,359.8,7.3,-5.3,1024,1024,1024,1024,0,0,0,0,94,6.369,64.94,166.994756,P-GPS,,50.9
805,80600,2026-01-12 12:07:11,0.0,5,7.66,0.0,0.0,0.0,359.8,6.6,-5.5,1024,1024,1024,1024,0,0,0,0,94,6.369,64.94,167.32284,P-GPS,,51.0
806,80700,2026-01-12 12:07:11,0.0,5,7.772,0.0,0.0,0.0,359.7,6.8,-6.0,1024,1024,1024,1024,0,0,0,0,94,4.475,65.12,167.32284,P-GPS,,51.0
807,80800,2026-01-12 12:07:12,0.0,5,7.772,0.0,0.0,0.0,359.6,6.9,-6.3,1024,1024,1024,1024,0,0,0,0,94,4.475,65.12,167.32284,P-GPS,,51.0
808,80900,2026-01-12 12:07:12,0.0,5,7.772,0.0,0.0,0.0,359.6,6.8,-6.4,1024,1024,1024,1024,0,0,0,0,94,4.475,65.12,167.32284,P-GPS,,51.0
809,81000,2026-01-12 12:07:12,0.0,5,7.772,0.0,0.0,0.0,359.6,6.8,-6.1,1024,1024,1024,1024,0,0,0,0,94,4.475,65.12,167.32284,P-GPS,,51.0
810,81100,2026-01-12 12:07:12,0.0,5,7.772,0.0,0.0,0.0,359.5,6.1,-5.6,1024,1024,1024,1024,0,0,0,0,94,4.475,65.12,167.32284,P-GPS,,51.0
811,81200,2026-01-12 12:07:12,0.0,5,7.772,0.0,0.0,0.0,359.4,6.3,-6.3,1024,1024,1024,1024,0,0,0,0,94,4.475,65.12,167.32284,P-GPS,SD card speed low SD card speed low. Normal use may be affected. Replace SD card (Code: 10028). Gimbal stuck. Make sure gimbal cover is removed and manually check whether gimbal can rotate freely (Code: 40002),51.0
812,81300,2026-01-12 12:07:12,0.0,5,7.772,0.0,0.0,0.0,359.3,6.5,-6.4,1024,1024,1024,1024,0,0,0,0,94,4.475,65.12,166.994756,P-GPS,,50.9
813,81400,2026-01-12 12:07:12,0.0,5,7.772,0.0,0.0,0.0,359.3,6.7,-6.1,1024,1024,1024,1024,0,0,0,0,94,4.475,65.12,166.994756,P-GPS,,50.9
814,81500,2026-01-12 12:07:12,0.0,5,7.772,0.0,0.0,0.0,359.4,6.4,-6.1,1024,1024,1024,1024,0,0,0,0,94,4.475,65.12,166.666672,P-GPS,,50.8
815,81600,2026-01-12 12:07:12,0.0,5,7.772,0.0,0.0,0.0,359.5,5.9,-5.9,1024,1024,1024,1024,0,0,0,0,94,4.475,65.12,166.666672,P-GPS,,50.8
816,81700,2026-01-12 12:07:12,0.0,5,7.772,0.0,0.0,0.0,359.5,5.8,-5.8,1024,1024,1024,1024,0,0,0,0,94,4.475,65.12,166.666672,P-GPS,,50.8
817,81800,2026-01-12 12:07:13,0.0,5,7.831,0.0,0.0,0.0,359.5,6.1,-5.8,1024,1024,1024,1024,0,0,0,0,93,3.629,65.12,166.338588,P-GPS,,50.7
818,81900,2026-01-12 12:07:13,0.0,5,7.831,0.0,0.0,0.0,359.5,5.8,-5.9,1024,1024,1024,1024,0,0,0,0,93,3.629,65.12,166.338588,P-GPS,,50.7
819,82000,2026-01-12 12:07:13,0.0,5,7.831,0.0,0.0,0.0,359.6,5.6,-6.3,1024,1024,1024,1024,0,0,0,0,93,3.629,65.12,166.010504,P-GPS,,50.6
820,82100,2026-01-12 12:07:13,0.0,5,7.831,0.0,0.0,0.0,359.6,5.5,-6.2,1024,1024,1024,1024,0,0,0,0,93,3.629,65.12,166.010504,P-GPS,,50.6
821,82200,2026-01-12 12:07:13,0.0,5,7.831,0.0,0.0,0.0,359.5,5.6,-6.4,1024,1024,1024,1024,0,0,0,0,93,3.629,65.12,166.010504,P-GPS,,50.6
822,82300,2026-01-12 12:07:13,0.0,5,7.831,0.0,0.0,0.0,359.7,5.3,-6.1,1024,1024,1024,1024,0,0,0,0,93,3.629,65.12,166.010504,P-GPS,,50.6
823,82400,2026-01-12 12:07:13,0.0,5,7.831,0.0,0.0,0.0,359.7,5.2,-6.5,1024,1024,1024,1024,0,0,0,0,93,3.629,65.12,166.010504,P-GPS,,50.6
824,82500,2026-01-12 12:07:13,0.0,5,7.831,0.0,0.0,0.0,359.7,5.3,-6.2,1024,1024,1024,1024,0,0,0,0,93,3.629,65.12,165.68242,P-GPS,,50.5
825,82600,2026-01-12 12:07:13,0.0,5,7.831,0.0,0.0,0.0,359.6,5.7,-6.4,1024,1024,1024,1024,0,0,0,0,93,3.629,65.12,165.68242,P-GPS,,50.5
826,82700,2026-01-12 12:07:13,0.0,5,7.831,0.0,0.0,0.0,359.7,5.1,-5.8,1024,1024,1024,1024,0,0,0,0,93,3.629,65.12,165.68242,P-GPS,,50.5
827,82800,2026-01-12 12:07:13,0.0,5,7.831,0.0,0.0,0.0,359.6,5.2,-4.9,1024,1024,1024,1024,0,0,0,0,93,3.629,65.12,165.68242,P-GPS,,50.5
828,82900,2026-01-12 12:07:14,0.0,5,7.838,0.0,0.0,0.0,359.7,5.2,-4.4,1024,1024,1024,1024,0,0,0,0,93,3.569,65.3,165.68242,P-GPS,,50.5
829,83000,2026-01-12 12:07:14,0.0,5,7.838,0.0,0.0,0.0,359.6,5.3,-4.8,1024,1024,1024,1024,0,0,0,0,93,3.569,65.3,165.68242,P-GPS,,50.5
830,83100,2026-01-12 12:07:14,0.0,5,7.838,0.0,0.0,0.0,359.7,4.7,-4.6,1024,1024,1024,1024,0,0,0,0,93,3.569,65.3,165.68242,P-GPS,,50.5
831,83200,2026-01-12 12:07:14,0.0,5,7.838,0.0,0.0,0.0,359.8,4.3,-4.0,1024,1024,1024,1024,0,0,0,0,93,3.569,65.3,165.68242,P-GPS,,50.5
832,83300,2026-01-12 12:07:14,0.0,5,7.838,0.0,0.0,0.0,359.7,4.3,-3.9,1024,1024,1024,1024,0,0,0,0,93,3.569,65.3,165.68242,P-GPS,,50.5
833,83400,2026-01-12 12:07:14,0.0,5,7.838,0.0,0.0,0.0,359.7,4.5,-3.6,1024,1024,1024,1024,0,0,0,0,93,3.569,65.3,165.68242,P-GPS,,50.5
834,83500,2026-01-12 12:07:14,0.0,5,7.838,0.0,0.0,0.0,359.8,5.1,-4.4,1024,1024,1024,1024,0,0,0,0,93,3.569,65.3,166.010504,P-GPS,,50.6
835,83600,2026-01-12 12:07:14,0.0,5,7.838,0.0,0.0,0.0,0.0,5.3,-4.3,1024,1024,1024,1024,0,0,0,0,93,3.569,65.3,166.010504,P-GPS,,50.6
836,83700,2026-01-12 12:07:14,0.0,5,7.838,0.0,0.0,0.0,0.1,5.0,-3.7,1024,1024,1024,1024,0,0,0,0,93,3.569,65.3,166.338588,P-GPS,,50.7
837,83800,2026-01-12 12:07:15,0.0,5,7.838,0.0,0.0,0.0,0.1,4.5,-3.8,1024,1024,1024,1024,0,0,0,0,93,3.569,65.3,166.338588,P-GPS,,50.7
838,83900,2026-01-12 12:07:15,0.0,5,7.838,0.0,0.0,0.0,0.0,5.4,-3.9,1024,1024,1024,1024,0,0,0,0,93,3.569,65.3,166.666672,P-GPS,,50.8
839,84000,2026-01-12 12:07:15,0.0,5,7.815,0.0,0.0,0.0,0.0,5.4,-4.2,1024,1024,1024,1024,0,0,0,0,93,4.017,65.48,166.666672,P-GPS,,50.8
840,84100,2026-01-12 12:07:15,0.0,5,7.815,0.0,0.0,0.0,0.0,5.1,-4.1,1024,1024,1024,1024,0,0,0,0,93,4.017,65.48,166.666672,P-GPS,,50.8
841,84200,2026-01-12 12:07:15,0.0,5,7.815,0.0,0.0,0.0,0.0,5.3,-4.3,1024,1024,1024,1024,0,0,0,0,93,4.017,65.48,166.994756,P-GPS,,50.9
842,84300,2026-01-12 12:07:15,0.0,5,7.815,0.0,0.0,0.0,0.0,6.0,-4.3,1024,1024,1024,1024,0,0,0,0,93,4.017,65.48,166.994756,P-GPS,,50.9
843,84400,2026-01-12 12:07:15,0.0,5,7.815,0.0,0.0,0.0,0.1,5.8,-4.0,1024,1024,1024,1024,0,0,0,0,93,4.017,65.48,166.994756,P-GPS,,50.9
844,84500,2026-01-12 12:07:15,0.0,5,7.815,0.0,0.0,0.0,0.0,6.3,-4.0,1024,1024,1024,1024,0,0,0,0,93,4.017,65.48,167.32284,P-GPS,,51.0
845,84600,2026-01-12 12:07:15,0.0,5,7.815,0.0,0.0,0.0,0.0,5.1,-3.8,1024,1024,1024,1024,0,0,0,0,93,4.017,65.48,167.32284,P-GPS,,51.0
846,84700,2026-01-12 12:07:15,0.0,5,7.815,0.0,0.0,0.0,359.9,4.7,-4.3,1024,1024,1024,1024,0,0,0,0,93,4.017,65.48,167.32284,P-GPS,,51.0
847,84800,2026-01-12 12:07:16,0.0,5,7.815,0.0,0.0,0.0,359.8,5.2,-5.4,1024,1024,1024,1024,0,0,0,0,93,4.017,65.48,167.32284,P-GPS,,51.0
848,84900,2026-01-12 12:07:16,0.0,5,7.815,0.0,0.0,0.0,359.8,6.1,-5.8,1024,1024,1024,1024,0,0,0,0,93,4.017,65.48,167.32284,P-GPS,,51.0
849,85000,2026-01-12 12:07:16,0.0,5,7.815,0.0,0.0,0.0,359.8,5.9,-6.0,1024,1024,1024,1024,0,0,0,0,93,4.017,65.48,167.32284,P-GPS,,51.0
850,85100,2026-01-12 12:07:16,0.0,5,7.815,0.0,0.0,0.223694,0.0,6.3,-6.1,1024,1024,1024,1024,0,0,0,0,93,4.017,65.48,167.32284,P-GPS,,51.0
851,85200,2026-01-12 12:07:16,0.0,5,7.851,0.0,0.0,0.223694,0.0,6.5,-6.2,1024,1024,1024,1024,0,0,0,0,93,3.838,65.48,167.650924,P-GPS,,51.1
852,85300,2026-01-12 12:07:16,0.0,5,7.851,0.0,0.0,0.223694,359.9,6.4,-5.9,1024,1024,1024,1024,0,0,0,0,93,3.838,65.48,167.650924,P-GPS,,51.1
853,85400,2026-01-12 12:07:16,0.0,5,7.851,0.0,0.0,0.223694,0.0,5.8,-5.9,1024,1024,1024,1024,0,0,0,0,93,3.838,65.48,167.650924,P-GPS,,51.1
854,85500,2026-01-12 12:07:16,0.0,5,7.851,0.0,0.0,0.0,0.0,5.4,-6.0,1024,1024,1024,1024,0,0,0,0,93,3.838,65.48,167.650924,P-GPS,,51.1
855,85600,2026-01-12 12:07:16,0.0,5,7.851,0.0,0.0,0.0,0.0,6.1,-5.8,1024,1024,1024,1024,0,0,0,0,93,3.838,65.48,167.650924,P-GPS,,51.1
856,85700,2026-01-12 12:07:16,0.0,5,7.851,0.0,0.0,0.0,359.9,6.3,-5.6,1024,1024,1024,1024,0,0,0,0,93,3.838,65.48,167.979008,P-GPS,,51.2
857,85800,2026-01-12 12:07:17,0.0,5,7.851,0.0,0.0,0.0,0.0,5.7,-5.4,1024,1024,1024,1024,0,0,0,0,93,3.838,65.48,167.979008,P-GPS,,51.2
858,85900,2026-01-12 12:07:17,0.0,5,7.851,0.0,0.0,0.223694,0.0,5.4,-5.9,1024,1024,1024,1024,0,0,0,0,93,3.838,65.48,167.979008,P-GPS,,51.2
859,86000,2026-01-12 12:07:17,0.0,5,7.851,0.0,0.0,0.223694,0.0,5.6,-6.1,1024,1024,1024,1024,0,0,0,0,93,3.838,65.48,167.979008,P-GPS,,51.2
860,86100,2026-01-12 12:07:17,0.0,5,7.851,0.0,0.0,0.223694,0.0,5.9,-6.2,1024,1024,1024,1024,0,0,0,0,93,3.838,65.48,167.979008,P-GPS,,51.2
861,86200,2026-01-12 12:07:17,0.0,5,7.851,0.0,0.0,0.223694,0.0,6.1,-6.4,1024,1024,1024,1024,0,0,0,0,93,3.838,65.48,167.979008,P-GPS,,51.2
862,86300,2026-01-12 12:07:17,0.0,5,7.797,0.0,0.0,0.223694,0.0,6.3,-6.5,1024,1024,1024,1024,0,0,0,0,93,4.366,65.48,167.979008,P-GPS,,51.2
863,86400,2026-01-12 12:07:17,0.0,5,7.797,0.0,0.0,0.0,359.9,6.6,-6.8,1024,1024,1024,1024,0,0,0,0,93,4.366,65.48,167.979008,P-GPS,,51.2
864,86500,2026-01-12 12:07:17,0.0,5,7.797,0.0,0.0,0.0,359.9,7.0,-6.8,1024,1024,1024,1024,0,0,0,0,93,4.366,65.48,167.979008,P-GPS,,51.2
865,86600,2026-01-12 12:07:17,0.0,5,7.797,0.0,0.0,0.0,359.9,6.9,-6.9,1024,1024,1024,1024,0,0,0,0,93,4.366,65.48,167.979008,P-GPS,,51.2
866,86700,2026-01-12 12:07:17,0.0,5,7.797,0.0,0.0,0.0,359.9,7.1,-7.0,1024,1024,1024,1024,0,0,0,0,93,4.366,65.48,167.979008,P-GPS,,51.2
867,86800,2026-01-12 12:07:18,0.0,5,7.797,0.0,0.0,0.223694,359.9,7.1,-6.8,1024,1024,1024,1024,0,0,0,0,93,4.366,65.48,167.979008,P-GPS,,51.2
868,86900,2026-01-12 12:07:18,0.0,5,7.797,0.0,0.0,0.0,359.9,7.1,-6.7,1024,1024,1024,1024,0,0,0,0,93,4.366,65.48,167.979008,P-GPS,,51.2
869,87000,2026-01-12 12:07:18,0.0,5,7.797,0.0,0.0,0.0,359.9,6.9,-6.4,1024,1024,1024,1024,0,0,0,0,93,4.366,65.48,167.979008,P-GPS,,51.2
870,87100,2026-01-12 12:07:18,0.0,5,7.797,0.0,0.0,0.0,0.0,6.8,-6.3,1024,1024,1024,1024,0,0,0,0,93,4.366,65.48,167.650924,P-GPS,,51.1
871,87200,2026-01-12 12:07:18,0.0,5,7.797,0.0,0.0,0.0,359.9,6.9,-6.4,1024,1024,1024,1024,0,0,0,0,93,4.366,65.48,167.650924,P-GPS,,51.1
872,87300,2026-01-12 12:07:18,0.0,5,7.797,0.0,0.0,0.0,0.0,6.7,-6.4,1024,1024,1024,1024,0,0,0,0,93,4.366,65.48,167.650924,P-GPS,,51.1
873,87400,2026-01-12 12:07:18,0.0,5,7.793,0.0,0.0,0.0,359.9,7.0,-6.5,1024,1024,1024,1024,0,0,0,0,93,4.452,65.48,167.650924,P-GPS,,51.1
874,87500,2026-01-12 12:07:18,0.0,5,7.793,0.0,0.0,0.0,359.9,7.0,-6.3,1024,1024,1024,1024,0,0,0,0,93,4.452,65.48,167.650924,P-GPS,,51.1
875,87600,2026-01-12 12:07:18,0.0,5,7.793,0.0,0.0,0.0,0.0,7.1,-6.5,1024,1024,1024,1024,0,0,0,0,93,4.452,65.48,167.650924,P-GPS,,51.1
876,87700,2026-01-12 12:07:18,0.0,5,7.793,0.0,0.0,0.0,359.9,7.3,-6.6,1024,1024,1024,1024,0,0,0,0,93,4.452,65.48,167.650924,P-GPS,,51.1
877,87800,2026-01-12 12:07:19,0.0,5,7.793,0.0,0.0,0.0,359.9,7.4,-6.4,1024,1024,1024,1024,0,0,0,0,93,4.452,65.48,167.32284,P-GPS,,51.0
878,87900,2026-01-12 12:07:19,0.0,5,7.793,0.0,0.0,0.0,359.9,7.4,-6.4,1024,1024,1024,1024,0,0,0,0,93,4.452,65.48,167.32284,P-GPS,,51.0
879,88000,2026-01-12 12:07:19,0.0,5,7.793,0.0,0.0,0.0,359.9,7.4,-6.3,1024,1024,1024,1024,0,0,0,0,93,4.452,65.48,167.32284,P-GPS,,51.0
880,88100,2026-01-12 12:07:19,0.0,5,7.793,0.0,0.0,0.0,359.9,7.5,-6.2,1024,1024,1024,1024,0,0,0,0,93,4.452,65.48,167.32284,P-GPS,,51.0
881,88200,2026-01-12 12:07:19,0.0,5,7.793,0.0,0.0,0.0,359.9,7.1,-6.3,1024,1024,1024,1024,0,0,0,0,93,4.452,65.48,167.32284,P-GPS,,51.0
882,88300,2026-01-12 12:07:19,0.0,5,7.793,0.0,0.0,0.0,359.8,7.0,-6.6,1024,1024,1024,1024,0,0,0,0,93,4.452,65.48,167.32284,P-GPS,,51.0
883,88400,2026-01-12 12:07:19,0.0,5,7.795,0.0,0.0,0.0,359.9,6.9,-6.7,1024,1024,1024,1024,0,0,0,0,93,4.436,65.48,166.994756,P-GPS,,50.9
884,88500,2026-01-12 12:07:19,0.0,5,7.795,0.0,0.0,0.0,359.9,6.9,-6.5,1024,1024,1024,1024,0,0,0,0,93,4.436,65.48,166.994756,P-GPS,,50.9
885,88600,2026-01-12 12:07:19,0.0,5,7.795,0.0,0.0,0.0,359.8,7.1,-6.5,1024,1024,1024,1024,0,0,0,0,93,4.436,65.48,166.994756,P-GPS,,50.9
886,88700,2026-01-12 12:07:19,0.0,5,7.795,0.0,0.0,0.0,359.9,7.0,-6.4,1024,1024,1024,1024,0,0,0,0,93,4.436,65.48,166.994756,P-GPS,,50.9
887,88800,2026-01-12 12:07:20,0.0,5,7.795,0.0,0.0,0.0,359.9,6.9,-6.1,1024,1024,1024,1024,0,0,0,0,93,4.436,65.48,166.666672,P-GPS,,50.8
888,88900,2026-01-12 12:07:20,0.0,5,7.795,0.0,0.0,0.0,359.9,6.8,-6.1,1024,1024,1024,1024,0,0,0,0,93,4.436,65.48,166.666672,P-GPS,,50.8
889,89000,2026-01-12 12:07:20,0.0,5,7.795,0.0,0.0,0.0,359.9,7.2,-6.1,1024,1024,1024,1024,0,0,0,0,93,4.436,65.48,166.666672,P-GPS,,50.8
890,89100,2026-01-12 12:07:20,0.0,5,7.795,0.0,0.0,0.0,0.0,7.1,-6.4,1024,1024,1024,1024,0,0,0,0,93,4.436,65.48,166.666672,P-GPS,,50.8
891,89200,2026-01-12 12:07:20,0.0,5,7.795,0.0,0.0,0.0,0.0,7.4,-5.8,1024,1024,1024,1024,0,0,0,0,93,4.436,65.48,166.338588,P-GPS,,50.7
892,89300,2026-01-12 12:07:20,0.0,5,7.795,0.0,0.0,0.0,0.0,7.4,-5.5,1024,1024,1024,1024,0,0,0,0,93,4.436,65.48,166.338588,P-GPS,,50.7
893,89400,2026-01-12 12:07:20,0.0,5,7.795,0.0,0.0,0.0,359.9,7.9,-5.7,1024,1024,1024,1024,0,0,0,0,93,4.436,65.48,166.338588,P-GPS,,50.7
894,89500,2026-01-12 12:07:20,0.0,5,7.795,0.0,0.0,0.0,359.9,8.4,-5.6,1024,1024,1024,1024,0,0,0,0,93,4.436,65.48,166.338588,P-GPS,,50.7
895,89600,2026-01-12 12:07:20,0.0,5,7.795,0.0,0.0,0.0,359.9,8.2,-5.5,1024,1024,1024,1024,0,0,0,0,93,4.436,65.48,166.338588,P-GPS,,50.7
896,89700,2026-01-12 12:07:20,0.0,5,7.795,0.0,0.0,0.0,359.9,7.7,-5.7,1024,1024,1024,1024,0,0,0,0,93,4.436,65.48,166.010504,P-GPS,,50.6
897,89800,2026-01-12 12:07:21,0.0,5,7.795,0.0,0.0,0.0,359.9,7.7,-5.9,1024,1024,1024,1024,0,0,0,0,93,4.436,65.48,166.010504,P-GPS,,50.6
898,89900,2026-01-12 12:07:21,0.0,5,7.795,0.0,0.0,0.0,359.9,7.8,-5.9,1024,1024,1024,1024,0,0,0,0,93,4.436,65.48,166.010504,P-GPS,,50.6
899,90000,2026-01-12 12:07:21,0.0,5,7.795,0.0,0.0,0.0,359.9,7.9,-6.3,1024,1024,1024,1024,0,0,0,0,93,4.436,65.48,166.010504,P-GPS,,50.6
900,90100,2026-01-12 12:07:21,0.0,5,7.795,0.0,0.0,0.0,359.9,8.1,-6.4,1024,1024,1024,1024,0,0,0,0,93,4.436,65.48,166.010504,P-GPS,,50.6
901,90200,2026-01-12 12:07:21,0.0,5,7.795,0.0,0.0,0.0,0.0,7.8,-6.5,1024,1024,1024,1024,0,0,0,0,93,4.436,65.48,166.010504,P-GPS,,50.6
902,90300,2026-01-12 12:07:21,0.0,5,7.795,0.0,0.0,0.0,0.0,7.9,-6.7,1024,1024,1024,1024,0,0,0,0,93,4.436,65.48,166.010504,P-GPS,,50.6
903,90400,2026-01-12 12:07:21,0.0,5,7.795,0.0,0.0,0.0,359.9,8.3,-7.0,1024,1024,1024,1024,0,0,0,0,93,4.436,65.48,166.010504,P-GPS,,50.6
904,90500,2026-01-12 12:07:21,0.0,5,7.795,0.0,0.0,0.0,359.8,8.7,-6.9,1024,1024,1024,1024,0,0,0,0,93,4.436,65.48,166.010504,P-GPS,,50.6
905,90600,2026-01-12 12:07:21,0.0,5,7.798,0.0,0.0,0.0,359.8,8.7,-6.9,1024,1024,1024,1024,0,0,0,0,93,4.508,65.66,166.010504,P-GPS,,50.6
906,90700,2026-01-12 12:07:21,0.0,5,7.798,0.0,0.0,0.0,359.8,8.3,-6.8,1024,1024,1024,1024,0,0,0,0,93,4.508,65.66,165.68242,P-GPS,,50.5
907,90800,2026-01-12 12:07:22,0.0,5,7.798,0.0,0.0,0.0,359.8,8.5,-6.7,1024,1024,1024,1024,0,0,0,0,93,4.508,65.66,165.68242,P-GPS,,50.5
908,90900,2026-01-12 12:07:22,0.0,5,7.798,0.0,0.0,0.0,359.8,8.6,-6.6,1024,1024,1024,1024,0,0,0,0,93,4.508,65.66,165.68242,P-GPS,,50.5
909,91000,2026-01-12 12:07:22,0.0,5,7.798,0.0,0.0,0.0,359.8,8.3,-6.8,1024,1024,1024,1024,0,0,0,0,93,4.508,65.66,165.68242,P-GPS,,50.5
910,91100,2026-01-12 12:07:22,0.0,5,7.798,0.0,0.0,0.0,359.8,8.2,-6.9,1024,1024,1024,1024,0,0,0,0,93,4.508,65.66,165.68242,P-GPS,,50.5
911,91200,2026-01-12 12:07:22,0.0,5,7.798,0.0,0.0,0.0,359.7,8.2,-6.6,1024,1024,1024,1024,0,0,0,0,93,4.508,65.66,165.68242,P-GPS,,50.5
912,91300,2026-01-12 12:07:22,0.0,5,7.798,0.0,0.0,0.0,359.8,8.2,-6.7,1024,1024,1024,1024,0,0,0,0,93,4.508,65.66,165.68242,P-GPS,,50.5
913,91400,2026-01-12 12:07:22,0.0,5,7.798,0.0,0.0,0.0,359.8,7.8,-6.9,1024,1024,1024,1024,0,0,0,0,93,4.508,65.66,165.354336,P-GPS,,50.4
914,91500,2026-01-12 12:07:22,0.0,5,7.798,0.0,0.0,0.0,359.8,7.7,-6.8,1024,1024,1024,1024,0,0,0,0,93,4.508,65.66,165.354336,P-GPS,,50.4
915,91600,2026-01-12 12:07:22,0.0,5,7.798,0.0,0.0,0.0,359.8,7.7,-6.6,1024,1024,1024,1024,0,0,0,0,93,4.508,65.66,165.354336,P-GPS,,50.4
916,91700,2026-01-12 12:07:22,0.0,5,7.798,0.0,0.0,0.0,359.8,8.1,-6.4,1024,1024,1024,1024,0,0,0,0,93,4.508,65.66,165.354336,P-GPS,,50.4
917,91800,2026-01-12 12:07:22,0.0,5,7.768,0.0,0.0,0.0,359.7,8.4,-6.6,1024,1024,1024,1024,0,0,0,0,93,4.792,65.66,165.354336,P-GPS,,50.4
918,91900,2026-01-12 12:07:23,0.0,5,7.768,0.0,0.0,0.0,359.7,7.8,-7.0,1024,1024,1024,1024,0,0,0,0,93,4.792,65.66,165.354336,P-GPS,,50.4
919,92000,2026-01-12 12:07:23,0.0,5,7.768,0.0,0.0,0.0,359.6,7.5,-7.3,1024,1024,1024,1024,0,0,0,0,93,4.792,65.66,165.354336,P-GPS,,50.4
920,92100,2026-01-12 12:07:23,0.0,5,7.768,0.0,0.0,0.0,359.6,7.5,-7.0,1024,1024,1024,1024,0,0,0,0,93,4.792,65.66,165.026252,P-GPS,,50.3
921,92200,2026-01-12 12:07:23,0.0,5,7.768,0.0,0.0,0.0,359.6,7.1,-6.9,1024,1024,1024,1024,0,0,0,0,93,4.792,65.66,165.026252,P-GPS,,50.3
922,92300,2026-01-12 12:07:23,0.0,5,7.768,0.0,0.0,0.0,359.7,7.1,-6.8,1024,1024,1024,1024,0,0,0,0,93,4.792,65.66,165.026252,P-GPS,,50.3
923,92400,2026-01-12 12:07:23,0.0,5,7.768,0.0,0.0,0.0,359.6,7.0,-7.1,1024,1024,1024,1024,0,0,0,0,93,4.792,65.66,165.026252,P-GPS,,50.3
924,92500,2026-01-12 12:07:23,0.0,5,7.768,0.0,0.0,0.0,359.7,6.7,-7.2,1024,1024,1024,1024,0,0,0,0,93,4.792,65.66,165.026252,P-GPS,,50.3
925,92600,2026-01-12 12:07:23,0.0,5,7.768,0.0,0.0,0.0,359.7,6.8,-7.2,1024,1024,1024,1024,0,0,0,0,93,4.792,65.66,165.026252,P-GPS,,50.3
926,92700,2026-01-12 12:07:23,0.0,5,7.768,0.0,0.0,0.0,359.7,6.2,-7.2,1024,1024,1024,1024,0,0,0,0,93,4.792,65.66,165.026252,P-GPS,,50.3
927,92800,2026-01-12 12:07:24,0.0,5,7.768,0.0,0.0,0.0,359.7,6.6,-7.0,1024,1024,1024,1024,0,0,0,0,93,4.792,65.66,165.026252,P-GPS,,50.3
928,92900,2026-01-12 12:07:24,0.0,5,7.772,0.0,0.0,0.0,359.8,6.7,-7.0,1024,1024,1024,1024,0,0,0,0,93,4.918,65.66,165.026252,P-GPS,,50.3
929,93000,2026-01-12 12:07:24,0.0,5,7.772,0.0,0.0,0.0,359.7,7.3,-6.8,1024,1024,1024,1024,0,0,0,0,93,4.918,65.66,165.026252,P-GPS,,50.3
930,93100,2026-01-12 12:07:24,0.0,5,7.772,0.0,0.0,0.0,359.7,7.1,-6.9,1024,1024,1024,1024,0,0,0,0,93,4.918,65.66,165.026252,P-GPS,,50.3
931,93200,2026-01-12 12:07:24,0.0,5,7.772,0.0,0.0,0.0,359.7,7.0,-7.1,1024,1024,1024,1024,0,0,0,0,93,4.918,65.66,165.026252,P-GPS,,50.3
932,93300,2026-01-12 12:07:24,0.0,5,7.772,0.0,0.0,0.0,359.7,7.3,-7.2,1024,1024,1024,1024,0,0,0,0,93,4.918,65.66,165.026252,P-GPS,,50.3
933,93400,2026-01-12 12:07:24,0.0,5,7.772,0.0,0.0,0.0,359.7,7.0,-7.1,1024,1024,1024,1024,0,0,0,0,93,4.918,65.66,165.026252,P-GPS,,50.3
934,93500,2026-01-12 12:07:24,0.0,5,7.772,0.0,0.0,0.0,359.7,6.6,-6.9,1024,1024,1024,1024,0,0,0,0,93,4.918,65.66,164.698168,P-GPS,,50.2
935,93600,2026-01-12 12:07:24,0.0,5,7.772,0.0,0.0,0.0,359.7,6.7,-7.0,1024,1024,1024,1024,0,0,0,0,93,4.918,65.66,165.026252,P-GPS,,50.3
936,93700,2026-01-12 12:07:24,0.0,5,7.772,0.0,0.0,0.0,359.7,6.8,-7.1,1024,1024,1024,1024,0,0,0,0,93,4.918,65.66,164.698168,P-GPS,,50.2
937,93800,2026-01-12 12:07:25,0.0,5,7.772,0.0,0.0,0.0,359.7,6.7,-7.0,1024,1024,1024,1024,0,0,0,0,93,4.918,65.66,164.698168,P-GPS,,50.2
938,93900,2026-01-12 12:07:25,0.0,5,7.772,0.0,0.0,0.0,359.7,6.7,-6.8,1024,1024,1024,1024,0,0,0,0,93,4.918,65.66,164.698168,P-GPS,,50.2
939,94000,2026-01-12 12:07:25,0.0,5,7.755,0.0,0.0,0.0,359.7,6.9,-6.9,1024,1024,1024,1024,0,0,0,0,93,5.071,65.66,164.698168,P-GPS,,50.2
940,94100,2026-01-12 12:07:25,0.0,5,7.755,0.0,0.0,0.0,359.7,7.0,-7.0,1024,1024,1024,1024,0,0,0,0,93,5.071,65.66,164.698168,P-GPS,,50.2
941,94200,2026-01-12 12:07:25,0.0,5,7.755,0.0,0.0,0.0,359.8,7.1,-6.9,1024,1024,1024,1024,0,0,0,0,93,5.071,65.66,164.698168,P-GPS,,50.2
942,94300,2026-01-12 12:07:25,0.0,5,7.755,0.0,0.0,0.0,359.8,7.0,-6.8,1024,1024,1024,1024,0,0,0,0,93,5.071,65.66,164.698168,P-GPS,,50.2
943,94400,2026-01-12 12:07:25,0.0,5,7.755,0.0,0.0,0.0,359.8,7.0,-6.8,1024,1024,1024,1024,0,0,0,0,93,5.071,65.66,164.698168,P-GPS,,50.2
944,94500,2026-01-12 12:07:25,0.0,5,7.755,0.0,0.0,0.0,359.8,6.9,-6.7,1024,1024,1024,1024,0,0,0,0,93,5.071,65.66,164.698168,P-GPS,,50.2
945,94600,2026-01-12 12:07:25,0.0,5,7.755,0.0,0.0,0.0,359.8,7.0,-6.6,1024,1024,1024,1024,0,0,0,0,93,5.071,65.66,164.698168,P-GPS,,50.2
946,94700,2026-01-12 12:07:25,0.0,5,7.755,0.0,0.0,0.0,359.8,6.8,-6.4,1024,1024,1024,1024,0,0,0,0,93,5.071,65.66,164.698168,P-GPS,,50.2
947,94800,2026-01-12 12:07:26,0.0,5,7.755,0.0,0.0,0.0,359.8,6.8,-6.3,1024,1024,1024,1024,0,0,0,0,93,5.071,65.66,164.698168,P-GPS,,50.2
948,94900,2026-01-12 12:07:26,0.0,5,7.755,0.0,0.0,0.0,359.8,7.0,-6.4,1024,1024,1024,1024,0,0,0,0,93,5.071,65.66,164.698168,P-GPS,,50.2
949,95000,2026-01-12 12:07:26,0.0,5,7.755,0.0,0.0,0.0,359.8,6.9,-6.4,1024,1024,1024,1024,0,0,0,0,93,5.071,65.66,164.698168,P-GPS,,50.2
950,95100,2026-01-12 12:07:26,0.0,5,7.748,0.0,0.0,0.0,359.8,6.7,-6.5,1024,1024,1024,1024,0,0,0,0,93,5.265,65.66,164.698168,P-GPS,,50.2
951,95200,2026-01-12 12:07:26,0.0,5,7.748,0.0,0.0,0.0,359.7,6.8,-6.8,1024,1024,1024,1024,0,0,0,0,93,5.265,65.66,164.698168,P-GPS,,50.2
952,95300,2026-01-12 12:07:26,0.0,5,7.748,0.0,0.0,0.0,359.8,6.8,-6.6,1024,1024,1024,1024,0,0,0,0,93,5.265,65.66,164.698168,P-GPS,,50.2
953,95400,2026-01-12 12:07:26,0.0,5,7.748,0.0,0.0,0.0,359.8,6.9,-6.3,1024,1024,1024,1024,0,0,0,0,93,5.265,65.66,164.698168,P-GPS,,50.2
954,95500,2026-01-12 12:07:26,0.0,5,7.748,0.0,0.0,0.0,359.8,6.7,-6.4,1024,1024,1024,1024,0,0,0,0,93,5.265,65.66,164.698168,P-GPS,,50.2
955,95600,2026-01-12 12:07:26,0.0,5,7.748,0.0,0.0,0.0,359.8,7.0,-6.3,1024,1024,1024,1024,0,0,0,0,93,5.265,65.66,164.698168,P-GPS,,50.2
956,95700,2026-01-12 12:07:26,0.0,5,7.748,0.0,0.0,0.0,359.9,7.0,-6.1,1024,1024,1024,1024,0,0,0,0,93,5.265,65.66,164.698168,P-GPS,,50.2
957,95800,2026-01-12 12:07:27,0.0,5,7.748,0.0,0.0,0.0,359.8,7.4,-6.2,1024,1024,1024,1024,0,0,0,0,93,5.265,65.66,164.698168,P-GPS,,50.2
958,95900,2026-01-12 12:07:27,0.0,5,7.748,0.0,0.0,0.0,359.8,7.6,-6.3,1024,1024,1024,1024,0,0,0,0,93,5.265,65.66,164.698168,P-GPS,,50.2
959,96000,2026-01-12 12:07:27,0.0,5,7.748,0.0,0.0,0.0,359.7,7.7,-6.4,1024,1024,1024,1024,0,0,0,0,93,5.265,65.66,164.698168,P-GPS,,50.2
960,96100,2026-01-12 12:07:27,0.0,5,7.748,0.0,0.0,0.0,359.8,7.6,-6.5,1024,1024,1024,1024,0,0,0,0,93,5.265,65.66,164.698168,P-GPS,,50.2
961,96200,2026-01-12 12:07:27,0.0,5,7.757,0.0,0.0,0.0,359.8,7.2,-6.4,1024,1024,1024,1024,0,0,0,0,93,5.084,65.84,164.698168,P-GPS,,50.2
962,96300,2026-01-12 12:07:27,0.0,5,7.757,0.0,0.0,0.0,359.9,7.2,-6.2,1024,1024,1024,1024,0,0,0,0,93,5.084,65.84,164.698168,P-GPS,,50.2
963,96400,2026-01-12 12:07:27,0.0,5,7.757,0.0,0.0,0.0,359.9,7.5,-5.9,1024,1024,1024,1024,0,0,0,0,93,5.084,65.84,164.698168,P-GPS,,50.2
964,96500,2026-01-12 12:07:27,0.0,5,7.757,0.0,0.0,0.0,359.9,7.6,-5.5,1024,1024,1024,1024,0,0,0,0,93,5.084,65.84,165.026252,P-GPS,,50.3
965,96600,2026-01-12 12:07:27,0.0,5,7.757,0.0,0.0,0.0,359.9,7.3,-5.7,1024,1024,1024,1024,0,0,0,0,93,5.084,65.84,165.026252,P-GPS,,50.3
966,96700,2026-01-12 12:07:27,0.0,5,7.757,0.0,0.0,0.0,359.9,7.2,-5.7,1024,1024,1024,1024,0,0,0,0,93,5.084,65.84,165.026252,P-GPS,,50.3
967,96800,2026-01-12 12:07:28,0.0,5,7.757,0.0,0.0,0.0,359.9,6.9,-5.7,1024,1024,1024,1024,0,0,0,0,93,5.084,65.84,165.026252,P-GPS,,50.3
968,96900,2026-01-12 12:07:28,0.0,5,7.757,0.0,0.0,0.0,359.9,6.8,-5.9,1024,1024,1024,1024,0,0,0,0,93,5.084,65.84,165.026252,P-GPS,,50.3
969,97000,2026-01-12 12:07:28,0.0,5,7.757,0.0,0.0,0.0,359.8,7.3,-5.8,1024,1024,1024,1024,0,0,0,0,93,5.084,65.84,165.026252,P-GPS,,50.3
970,97100,2026-01-12 12:07:28,0.0,5,7.757,0.0,0.0,0.0,359.8,7.6,-5.7,1024,1024,1024,1024,0,0,0,0,93,5.084,65.84,165.026252,P-GPS,,50.3
971,97200,2026-01-12 12:07:28,0.0,5,7.757,0.0,0.0,0.0,359.8,8.3,-5.8,1024,1024,1024,1024,0,0,0,0,93,5.084,65.84,165.026252,P-GPS,,50.3
972,97300,2026-01-12 12:07:28,0.0,5,7.789,0.0,0.0,0.0,359.7,8.5,-5.8,1024,1024,1024,1024,0,0,0,0,93,4.635,65.84,165.026252,P-GPS,,50.3
973,97400,2026-01-12 12:07:28,0.0,5,7.789,0.0,0.0,0.0,359.8,7.9,-6.0,1024,1024,1024,1024,0,0,0,0,93,4.635,65.84,165.354336,P-GPS,,50.4
974,97500,2026-01-12 12:07:28,0.0,5,7.789,0.0,0.0,0.0,359.8,7.4,-6.1,1024,1024,1024,1024,0,0,0,0,93,4.635,65.84,165.354336,P-GPS,,50.4
975,97600,2026-01-12 12:07:28,0.0,5,7.789,0.0,0.0,0.0,359.8,7.3,-6.2,1024,1024,1024,1024,0,0,0,0,93,4.635,65.84,165.354336,P-GPS,,50.4
976,97700,2026-01-12 12:07:28,0.0,5,7.789,0.0,0.0,0.0,359.7,7.2,-6.3,1024,1024,1024,1024,0,0,0,0,93,4.635,65.84,165.354336,P-GPS,,50.4
977,97800,2026-01-12 12:07:29,0.0,5,7.789,0.0,0.0,0.0,359.7,6.9,-6.3,1024,1024,1024,1024,0,0,0,0,93,4.635,65.84,165.354336,P-GPS,,50.4
978,97900,2026-01-12 12:07:29,0.0,5,7.789,0.0,0.0,0.0,359.7,6.7,-6.3,1024,1024,1024,1024,0,0,0,0,93,4.635,65.84,165.354336,P-GPS,,50.4
979,98000,2026-01-12 12:07:29,0.0,5,7.789,0.0,0.0,0.0,359.7,6.6,-6.2,1024,1024,1024,1024,0,0,0,0,93,4.635,65.84,165.354336,P-GPS,,50.4
980,98100,2026-01-12 12:07:29,0.0,5,7.789,0.0,0.0,0.0,359.7,6.5,-6.2,1024,1024,1024,1024,0,0,0,0,93,4.635,65.84,165.354336,P-GPS,,50.4
981,98200,2026-01-12 12:07:29,0.0,5,7.789,0.0,0.0,0.0,359.8,6.4,-6.2,1024,1024,1024,1024,0,0,0,0,93,4.635,65.84,165.354336,P-GPS,,50.4
982,98300,2026-01-12 12:07:29,0.0,5,7.789,0.0,0.0,0.0,359.8,6.4,-6.1,1024,1024,1024,1024,0,0,0,0,93,4.635,65.84,165.354336,P-GPS,,50.4
983,98400,2026-01-12 12:07:29,0.0,5,7.753,0.0,0.0,0.0,359.8,6.5,-6.3,1024,1024,1024,1024,0,0,0,0,92,5.072,65.84,165.354336,P-GPS,,50.4
984,98500,2026-01-12 12:07:29,0.0,5,7.753,0.0,0.0,0.0,359.8,6.8,-6.4,1024,1024,1024,1024,0,0,0,0,92,5.072,65.84,165.354336,P-GPS,,50.4
985,98600,2026-01-12 12:07:29,0.0,5,7.753,0.0,0.0,0.0,359.7,7.2,-6.5,1024,1024,1024,1024,0,0,0,0,92,5.072,65.84,165.354336,P-GPS,,50.4
986,98700,2026-01-12 12:07:29,0.0,5,7.753,0.0,0.0,0.0,359.7,7.5,-6.4,1024,1024,1024,1024,0,0,0,0,92,5.072,65.84,165.354336,P-GPS,,50.4
987,98800,2026-01-12 12:07:30,0.0,5,7.753,0.0,0.0,0.0,359.7,6.8,-6.9,1024,1024,1024,1024,0,0,0,0,92,5.072,65.84,165.354336,P-GPS,,50.4
988,98900,2026-01-12 12:07:30,0.0,5,7.753,0.0,0.0,0.0,359.7,6.4,-6.9,1024,1024,1024,1024,0,0,0,0,92,5.072,65.84,165.354336,P-GPS,,50.4
989,99000,2026-01-12 12:07:30,0.0,5,7.753,0.0,0.0,0.0,359.7,6.6,-6.8,1024,1024,1024,1024,0,0,0,0,92,5.072,65.84,165.354336,P-GPS,,50.4
990,99100,2026-01-12 12:07:30,0.0,5,7.753,0.0,0.0,0.0,359.7,6.6,-6.8,1024,1024,1024,1024,0,0,0,0,92,5.072,65.84,165.354336,P-GPS,,50.4
991,99200,2026-01-12 12:07:30,0.0,5,7.753,0.0,0.0,0.0,359.7,6.7,-6.7,1024,1024,1024,1024,0,0,0,0,92,5.072,65.84,165.354336,P-GPS,,50.4
992,99300,2026-01-12 12:07:30,0.0,5,7.753,0.0,0.0,0.0,359.7,6.5,-6.8,1024,1024,1024,1024,0,0,0,0,92,5.072,65.84,165.354336,P-GPS,,50.4
993,99400,2026-01-12 12:07:30,0.0,5,7.753,0.0,0.0,0.0,359.8,6.3,-6.6,1024,1024,1024,1024,0,0,0,0,92,5.072,65.84,165.354336,P-GPS,,50.4
994,99500,2026-01-12 12:07:30,0.0,5,7.755,0.0,0.0,0.0,359.8,6.1,-6.4,1024,1024,1024,1024,0,0,0,0,92,5.019,65.84,165.354336,P-GPS,,50.4
995,99600,2026-01-12 12:07:30,0.0,5,7.755,0.0,0.0,0.0,359.8,6.1,-6.5,1024,1024,1024,1024,0,0,0,0,92,5.019,65.84,165.354336,P-GPS,,50.4
996,99700,2026-01-12 12:07:30,0.0,5,7.755,0.0,0.0,0.0,359.9,5.9,-6.4,1024,1024,1024,1024,0,0,0,0,92,5.019,65.84,165.354336,P-GPS,,50.4
997,99800,2026-01-12 12:07:31,0.0,5,7.755,0.0,0.0,0.0,359.9,6.1,-6.4,1024,1024,1024,1024,0,0,0,0,92,5.019,65.84,165.354336,P-GPS,,50.4
998,99900,2026-01-12 12:07:31,0.0,5,7.755,0.0,0.0,0.0,359.8,6.5,-6.5,1024,1024,1024,1024,0,0,0,0,92,5.019,65.84,165.354336,P-GPS,,50.4
999,100000,2026-01-12 12:07:31,0.0,5,7.755,0.0,0.0,0.0,359.8,6.7,-6.5,1024,1024,1024,1024,0,0,0,0,92,5.019,65.84,165.354336,P-GPS,,50.4
1000,100100,2026-01-12 12:07:31,0.0,5,7.755,0.0,0.0,0.0,359.8,6.9,-6.6,1024,1024,1024,1024,0,0,0,0,92,5.019,65.84,165.354336,P-GPS,,50.4
1001,100200,2026-01-12 12:07:31,0.0,5,7.755,0.0,0.0,0.0,359.7,7.0,-6.5,1024,1024,1024,1024,0,0,0,0,92,5.019,65.84,165.354336,P-GPS,,50.4
1002,100300,2026-01-12 12:07:31,0.0,5,7.755,0.0,0.0,0.0,359.8,6.9,-6.5,1024,1024,1024,1024,0,0,0,0,92,5.019,65.84,165.354336,P-GPS,,50.4
1003,100400,2026-01-12 12:07:31,0.0,5,7.755,0.0,0.0,0.0,359.8,6.8,-6.5,1024,1024,1024,1024,0,0,0,0,92,5.019,65.84,165.354336,P-GPS,,50.4
1004,100500,2026-01-12 12:07:31,0.0,5,7.755,0.0,0.0,0.0,359.8,6.7,-6.5,1024,1024,1024,1024,0,0,0,0,92,5.019,65.84,165.354336,P-GPS,,50.4
1005,100600,2026-01-12 12:07:31,0.0,5,7.755,0.0,0.0,0.0,359.8,6.5,-6.6,1024,1024,1024,1024,0,0,0,0,92,5.019,65.84,165.354336,P-GPS,,50.4
1006,100700,2026-01-12 12:07:31,0.0,5,7.755,0.0,0.0,0.0,359.8,6.3,-6.6,1024,1024,1024,1024,0,0,0,0,92,5.019,65.84,165.354336,P-GPS,,50.4
1007,100800,2026-01-12 12:07:32,0.0,5,7.755,0.0,0.0,0.0,359.7,6.5,-6.7,1024,1024,1024,1024,0,0,0,0,92,5.019,65.84,165.354336,P-GPS,,50.4
1008,100900,2026-01-12 12:07:32,0.0,5,7.755,0.0,0.0,0.0,359.7,6.6,-6.8,1024,1024,1024,1024,0,0,0,0,92,5.019,65.84,165.354336,P-GPS,,50.4
1009,101000,2026-01-12 12:07:32,0.0,5,7.755,0.0,0.0,0.0,359.8,6.7,-7.0,1024,1024,1024,1024,0,0,0,0,92,5.019,65.84,165.354336,P-GPS,,50.4
1010,101100,2026-01-12 12:07:32,0.0,5,7.755,0.0,0.0,0.0,359.9,6.4,-6.2,1024,1024,1024,1024,0,0,0,0,92,5.019,65.84,165.354336,P-GPS,,50.4
1011,101200,2026-01-12 12:07:32,0.0,5,7.755,0.0,0.0,0.0,359.9,6.5,-5.9,1024,1024,1024,1024,0,0,0,0,92,5.019,65.84,165.354336,P-GPS,,50.4
1012,101300,2026-01-12 12:07:32,0.0,5,7.755,0.0,0.0,0.0,0.0,6.3,-6.1,1024,1024,1024,1024,0,0,0,0,92,5.019,65.84,165.68242,P-GPS,,50.5
1013,101400,2026-01-12 12:07:32,0.0,5,7.755,0.0,0.0,0.0,359.9,6.4,-6.3,1024,1024,1024,1024,0,0,0,0,92,5.019,65.84,165.68242,P-GPS,,50.5
1014,101500,2026-01-12 12:07:32,0.0,5,7.755,0.0,0.0,0.0,359.9,6.5,-6.5,1024,1024,1024,1024,0,0,0,0,92,5.019,65.84,165.68242,P-GPS,,50.5
1015,101600,2026-01-12 12:07:32,0.0,5,7.749,0.0,0.0,0.0,359.8,6.9,-6.7,1024,1024,1024,1024,0,0,0,0,92,5.12,65.84,165.68242,P-GPS,,50.5
1016,101700,2026-01-12 12:07:32,0.0,5,7.749,0.0,0.0,0.0,359.8,7.1,-6.9,1024,1024,1024,1024,0,0,0,0,92,5.12,65.84,165.68242,P-GPS,,50.5
1017,101800,2026-01-12 12:07:33,0.0,5,7.749,0.0,0.0,0.0,359.8,7.3,-7.0,1024,1024,1024,1024,0,0,0,0,92,5.12,65.84,165.68242,P-GPS,,50.5
1018,101900,2026-01-12 12:07:33,0.0,5,7.749,0.0,0.0,0.0,359.8,7.2,-6.9,1024,1024,1024,1024,0,0,0,0,92,5.12,65.84,165.68242,P-GPS,,50.5
1019,102000,2026-01-12 12:07:33,0.0,5,7.749,0.0,0.0,0.0,359.8,7.3,-7.0,1024,1024,1024,1024,0,0,0,0,92,5.12,65.84,165.68242,P-GPS,,50.5
1020,102100,2026-01-12 12:07:33,0.0,5,7.749,0.0,0.0,0.0,359.8,7.5,-7.1,1024,1024,1024,1024,0,0,0,0,92,5.12,65.84,165.68242,P-GPS,,50.5
1021,102200,2026-01-12 12:07:33,0.0,5,7.749,0.0,0.0,0.0,359.8,7.8,-7.0,1024,1024,1024,1024,0,0,0,0,92,5.12,65.84,165.68242,P-GPS,,50.5
1022,102300,2026-01-12 12:07:33,0.0,5,7.749,0.0,0.0,0.0,359.8,7.2,-6.9,1024,1024,1024,1024,0,0,0,0,92,5.12,65.84,165.68242,P-GPS,,50.5
1023,102400,2026-01-12 12:07:33,0.0,5,7.749,0.0,0.0,0.0,359.9,6.8,-6.5,1024,1024,1024,1024,0,0,0,0,92,5.12,65.84,165.68242,P-GPS,,50.5
1024,102500,2026-01-12 12:07:33,0.0,5,7.749,0.0,0.0,0.0,359.8,7.2,-6.5,1024,1024,1024,1024,0,0,0,0,92,5.12,65.84,165.68242,P-GPS,,50.5
1025,102600,2026-01-12 12:07:33,0.0,5,7.749,0.0,0.0,0.0,359.8,7.5,-6.4,1024,1024,1024,1024,0,0,0,0,92,5.12,65.84,165.68242,P-GPS,,50.5
1026,102700,2026-01-12 12:07:33,0.0,5,7.749,0.0,0.0,0.0,359.8,7.4,-6.4,1024,1024,1024,1024,0,0,0,0,92,5.12,65.84,165.68242,P-GPS,,50.5
1027,102800,2026-01-12 12:07:33,0.0,5,7.771,0.0,0.0,0.0,359.8,7.5,-6.5,1024,1024,1024,1024,0,0,0,0,92,4.72,65.84,166.010504,P-GPS,,50.6
1028,102900,2026-01-12 12:07:34,0.0,5,7.771,0.0,0.0,0.0,359.8,7.1,-6.3,1024,1024,1024,1024,0,0,0,0,92,4.72,65.84,166.010504,P-GPS,,50.6
1029,103000,2026-01-12 12:07:34,0.0,5,7.771,0.0,0.0,0.0,359.8,7.5,-6.6,1024,1024,1024,1024,0,0,0,0,92,4.72,65.84,166.010504,P-GPS,,50.6
1030,103100,2026-01-12 12:07:34,0.0,5,7.771,0.0,0.0,0.0,359.8,8.0,-6.8,1024,1024,1024,1024,0,0,0,0,92,4.72,65.84,166.010504,P-GPS,,50.6
1031,103200,2026-01-12 12:07:34,0.0,5,7.771,0.0,0.0,0.0,359.8,7.4,-6.9,1024,1024,1024,1024,0,0,0,0,92,4.72,65.84,166.010504,P-GPS,,50.6
1032,103300,2026-01-12 12:07:34,0.0,5,7.771,0.0,0.0,0.0,359.9,7.1,-6.8,1024,1024,1024,1024,0,0,0,0,92,4.72,65.84,165.68242,P-GPS,,50.5
1033,103400,2026-01-12 12:07:34,0.0,5,7.771,0.0,0.0,0.0,359.9,7.6,-6.5,1024,1024,1024,1024,0,0,0,0,92,4.72,65.84,165.68242,P-GPS,,50.5
1034,103500,2026-01-12 12:07:34,0.0,5,7.771,0.0,0.0,0.0,359.9,7.9,-6.3,1024,1024,1024,1024,0,0,0,0,92,4.72,65.84,165.68242,P-GPS,,50.5
1035,103600,2026-01-12 12:07:34,0.0,5,7.771,0.0,0.0,0.0,359.9,8.3,-6.2,1024,1024,1024,1024,0,0,0,0,92,4.72,65.84,165.68242,P-GPS,,50.5
1036,103700,2026-01-12 12:07:34,0.0,5,7.771,0.0,0.0,0.0,359.8,8.4,-6.3,1024,1024,1024,1024,0,0,0,0,92,4.72,65.84,165.68242,P-GPS,,50.5
1037,103800,2026-01-12 12:07:35,0.0,5,7.771,0.0,0.0,0.0,359.8,8.4,-6.4,1024,1024,1024,1024,0,0,0,0,92,4.72,65.84,165.68242,P-GPS,,50.5
1038,103900,2026-01-12 12:07:35,0.0,5,7.767,0.0,0.0,0.0,359.8,8.4,-6.4,1024,1024,1024,1024,0,0,0,0,92,4.823,65.84,165.68242,P-GPS,,50.5
1039,104000,2026-01-12 12:07:35,0.0,5,7.767,0.0,0.0,0.0,359.9,8.1,-6.5,1024,1024,1024,1024,0,0,0,0,92,4.823,65.84,165.68242,P-GPS,,50.5
1040,104100,2026-01-12 12:07:35,0.0,5,7.767,0.0,0.0,0.0,359.9,7.9,-6.5,1024,1024,1024,1024,0,0,0,0,92,4.823,65.84,165.68242,P-GPS,,50.5
1041,104200,2026-01-12 12:07:35,0.0,5,7.767,0.0,0.0,0.0,359.9,8.0,-6.5,1024,1024,1024,1024,0,0,0,0,92,4.823,65.84,165.68242,P-GPS,,50.5
