time(millisecond),timestamp,speed(mph),gpslevel,voltage(v),xSpeed(mph),ySpeed(mph),zSpeed(mph),compass_heading(degrees),pitch(degrees),roll(degrees),rc_elevator,rc_aileron,rc_throttle,rc_rudder,rc_elevator(percent),rc_aileron(percent),rc_throttle(percent),rc_rudder(percent),battery_percent,current(A),battery_temperature(f),ascent(feet),flycState,message,height_above_takeoff(meters)
373900,2026-01-11 15:36:19,0.0,5,7.427,0.0,0.0,-4.47388,40.7,11.8,-4.6,1024,1024,1684,1024,0,0,100,0,74,5.927,65.48,157.808404,P-GPS,,48.1
374000,2026-01-11 15:36:20,0.0,5,7.427,0.0,0.0,-4.47388,40.7,12.1,-4.5,1024,1024,1684,1024,0,0,100,0,74,5.927,65.48,158.464572,P-GPS,,48.3
374100,2026-01-11 15:36:20,0.0,5,7.427,0.0,0.0,-4.47388,40.6,12.6,-4.5,1024,1024,1684,1024,0,0,100,0,74,5.927,65.48,159.12074,P-GPS,,48.5
374200,2026-01-11 15:36:20,0.0,5,7.427,0.0,0.0,-4.250186,40.7,12.6,-4.5,1024,1024,1684,1024,0,0,100,0,74,5.927,65.48,159.776908,P-GPS,,48.7
374300,2026-01-11 15:36:20,0.0,5,7.427,0.0,0.0,-4.47388,40.7,12.3,-4.5,1024,1024,1024,1024,0,0,0,0,74,5.927,65.48,160.433076,P-GPS,,48.9
374400,2026-01-11 15:36:20,0.0,5,7.427,0.0,0.0,-4.47388,40.7,12.2,-4.7,1024,1024,1024,1024,0,0,0,0,74,5.927,65.48,161.089244,P-GPS,,49.1
374500,2026-01-11 15:36:20,0.0,5,7.427,0.0,0.0,-4.250186,40.6,11.9,-4.7,1024,1024,1024,1024,0,0,0,0,74,5.927,65.48,161.417328,P-GPS,,49.2
374600,2026-01-11 15:36:20,0.0,5,7.427,0.0,0.0,-4.026492,40.6,12.6,-5.3,1024,1024,1024,1024,0,0,0,0,74,5.927,65.48,162.073496,P-GPS,,49.4
374700,2026-01-11 15:36:20,0.0,5,7.427,0.0,0.0,-3.35541,40.4,13.3,-5.8,1024,1024,1024,1024,0,0,0,0,74,5.927,65.48,162.729664,P-GPS,,49.6
374800,2026-01-11 15:36:20,0.0,5,7.427,0.0,0.0,-2.684328,40.4,13.4,-6.1,1024,1024,1024,1024,0,0,0,0,74,5.927,65.48,163.057748,P-GPS,,49.7
374900,2026-01-11 15:36:20,0.0,5,7.427,0.0,0.0,-1.789552,40.4,13.0,-6.4,1024,1024,1024,1024,0,0,0,0,74,5.927,65.48,163.057748,P-GPS,,49.7
375000,2026-01-11 15:36:21,0.0,5,7.531,0.0,0.0,-1.11847,40.5,12.6,-6.6,1024,1024,1024,1024,0,0,0,0,74,4.691,65.48,163.385832,P-GPS,,49.8
375100,2026-01-11 15:36:21,0.0,5,7.531,0.0,0.0,-0.447388,40.6,11.9,-6.9,1024,1024,1024,1024,0,0,0,0,74,4.691,65.48,163.385832,P-GPS,,49.8
375200,2026-01-11 15:36:21,0.223694,5,7.531,-0.223694,0.0,-0.223694,40.7,10.7,-6.8,1024,1024,1024,1024,0,0,0,0,74,4.691,65.48,163.385832,P-GPS,,49.8
375300,2026-01-11 15:36:21,0.223694,5,7.531,-0.223694,0.0,0.0,40.8,10.1,-6.7,1024,1024,1024,1024,0,0,0,0,74,4.691,65.48,163.385832,P-GPS,,49.8
375400,2026-01-11 15:36:21,0.223694,5,7.531,-0.223694,0.0,0.0,40.9,9.0,-6.4,1024,1024,1024,1024,0,0,0,0,74,4.691,65.48,163.057748,P-GPS,,49.7
375500,2026-01-11 15:36:21,0.223694,5,7.531,-0.223694,0.0,0.0,40.8,8.8,-6.4,1024,1024,1024,1024,0,0,0,0,74,4.691,65.48,163.057748,P-GPS,,49.7
375600,2026-01-11 15:36:21,0.223694,5,7.531,-0.223694,0.0,0.0,40.8,8.8,-6.3,1024,1024,1024,1024,0,0,0,0,74,4.691,65.48,163.057748,P-GPS,,49.7
375700,2026-01-11 15:36:21,0.0,5,7.531,0.0,0.0,0.0,40.9,8.4,-5.9,1024,1024,1024,1024,0,0,0,0,74,4.691,65.48,163.057748,P-GPS,,49.7
375800,2026-01-11 15:36:21,0.0,5,7.531,0.0,0.0,0.0,41.0,8.0,-5.6,1024,1024,1024,1024,0,0,0,0,74,4.691,65.48,162.729664,P-GPS,,49.6
375900,2026-01-11 15:36:21,0.0,5,7.531,0.0,0.0,0.0,40.9,8.2,-5.6,1024,1024,1024,1024,0,0,0,0,74,4.691,65.48,162.729664,P-GPS,,49.6
376000,2026-01-11 15:36:22,0.0,5,7.531,0.0,0.0,0.0,40.9,8.6,-5.7,1024,1024,1024,1024,0,0,0,0,74,4.691,65.48,162.729664,P-GPS,,49.6
376100,2026-01-11 15:36:22,0.0,5,7.51,0.0,0.0,0.0,40.9,8.5,-5.5,1024,1024,1024,1024,0,0,0,0,74,3.954,65.48,162.729664,P-GPS,,49.6
376200,2026-01-11 15:36:22,0.0,5,7.51,0.0,0.0,0.0,40.9,8.0,-5.3,1024,1024,1024,1024,0,0,0,0,74,3.954,65.48,162.729664,P-GPS,,49.6
376300,2026-01-11 15:36:22,0.0,5,7.51,0.0,0.0,0.0,40.9,7.9,-5.2,1024,1024,1024,1024,0,0,0,0,74,3.954,65.48,162.729664,P-GPS,,49.6
376400,2026-01-11 15:36:22,0.0,5,7.51,0.0,0.0,0.0,40.9,7.6,-5.4,1024,1024,1024,1024,0,0,0,0,74,3.954,65.48,162.729664,P-GPS,,49.6
376500,2026-01-11 15:36:22,0.0,5,7.51,0.0,0.0,0.0,40.8,7.5,-5.0,1024,1024,1024,1024,0,0,0,0,74,3.954,65.48,162.729664,P-GPS,,49.6
376600,2026-01-11 15:36:22,0.223694,5,7.51,0.0,-0.223694,0.0,40.8,7.1,-5.5,1024,1024,1024,1024,0,0,0,0,74,3.954,65.48,162.729664,P-GPS,,49.6
376700,2026-01-11 15:36:22,0.0,5,7.51,0.0,0.0,0.0,40.9,6.9,-5.5,1024,1024,1024,1024,0,0,0,0,74,3.954,65.48,162.729664,P-GPS,,49.6
376800,2026-01-11 15:36:22,0.0,5,7.51,0.0,0.0,0.0,41.0,6.8,-5.2,1024,1024,1024,1024,0,0,0,0,74,3.954,65.48,162.729664,P-GPS,,49.6
376900,2026-01-11 15:36:22,0.0,5,7.51,0.0,0.0,0.0,41.1,5.9,-5.1,1024,1024,1024,1024,0,0,0,0,74,3.954,65.48,162.729664,P-GPS,,49.6
377000,2026-01-11 15:36:23,0.0,5,7.51,0.0,0.0,0.0,41.0,6.1,-5.0,1024,1024,1024,1024,0,0,0,0,74,3.954,65.48,162.729664,P-GPS,,49.6
377100,2026-01-11 15:36:23,0.0,5,7.51,0.0,0.0,0.0,40.7,6.7,-5.1,1024,1024,1024,1024,0,0,0,0,74,3.954,65.48,162.729664,P-GPS,,49.6
377200,2026-01-11 15:36:23,0.0,5,7.528,0.0,0.0,0.0,40.7,6.7,-5.7,1024,1024,1024,1024,0,0,0,0,74,3.846,65.48,162.729664,P-GPS,,49.6
377300,2026-01-11 15:36:23,0.0,5,7.528,0.0,0.0,0.0,40.8,7.0,-5.5,1024,1024,1024,1024,0,0,0,0,74,3.846,65.48,162.729664,P-GPS,,49.6
377400,2026-01-11 15:36:23,0.0,5,7.528,0.0,0.0,0.0,40.9,6.1,-4.7,1024,1024,1024,1024,0,0,0,0,74,3.846,65.48,162.729664,P-GPS,,49.6
377500,2026-01-11 15:36:23,0.0,5,7.528,0.0,0.0,0.0,40.9,6.1,-5.2,1024,1024,1024,1024,0,0,0,0,74,3.846,65.48,162.729664,P-GPS,,49.6
377600,2026-01-11 15:36:23,0.0,5,7.528,0.0,0.0,0.0,40.9,6.2,-5.4,1024,1024,1024,1024,0,0,0,0,74,3.846,65.48,162.729664,P-GPS,,49.6
377700,2026-01-11 15:36:23,0.0,5,7.528,0.0,0.0,0.0,40.9,6.4,-5.6,1024,1024,1024,1024,0,0,0,0,74,3.846,65.48,163.057748,P-GPS,SD card speed low SD card speed low. Normal use may be affected. Replace SD card (Code: 10028). Gimbal stuck. Make sure gimbal cover is removed and manually check whether gimbal can rotate freely (Code: 40002),49.7
377800,2026-01-11 15:36:23,0.0,5,7.528,0.0,0.0,0.0,40.8,6.8,-5.2,1024,1024,1024,1024,0,0,0,0,74,3.846,65.48,163.057748,P-GPS,,49.7
377900,2026-01-11 15:36:23,0.0,5,7.528,0.0,0.0,0.0,40.7,6.6,-5.5,1024,1024,1024,1024,0,0,0,0,74,3.846,65.48,163.057748,P-GPS,,49.7
378000,2026-01-11 15:36:24,0.0,5,7.528,0.0,0.0,0.0,40.7,6.4,-5.7,1024,1024,1024,1024,0,0,0,0,74,3.846,65.48,163.057748,P-GPS,,49.7
378100,2026-01-11 15:36:24,0.0,5,7.528,0.0,0.0,0.0,40.7,6.4,-5.3,1024,1024,1024,1024,0,0,0,0,74,3.846,65.48,163.057748,P-GPS,,49.7
378200,2026-01-11 15:36:24,0.0,5,7.528,0.0,0.0,0.0,40.8,6.2,-5.2,1024,1024,1024,1024,0,0,0,0,74,3.846,65.48,163.057748,P-GPS,,49.7
378300,2026-01-11 15:36:24,0.0,5,7.528,0.0,0.0,0.223694,40.9,6.1,-5.0,1024,1024,1024,1024,0,0,0,0,74,3.846,65.48,163.057748,P-GPS,,49.7
378400,2026-01-11 15:36:24,0.0,5,7.528,0.0,0.0,0.223694,40.9,7.1,-5.2,1024,1024,1024,1024,0,0,0,0,74,3.846,65.48,163.057748,P-GPS,,49.7
378500,2026-01-11 15:36:24,0.0,5,7.528,0.0,0.0,0.223694,41.0,7.0,-4.8,1024,1024,1024,1024,0,0,0,0,74,3.846,65.48,163.385832,P-GPS,,49.8
378600,2026-01-11 15:36:24,0.0,5,7.528,0.0,0.0,0.0,41.1,6.5,-5.2,1024,1024,1024,1024,0,0,0,0,73,3.846,65.48,163.385832,P-GPS,,49.8
378700,2026-01-11 15:36:24,0.0,5,7.528,0.0,0.0,0.0,41.0,6.9,-5.5,1024,1024,1024,1024,0,0,0,0,73,3.846,65.48,163.385832,P-GPS,,49.8
378800,2026-01-11 15:36:24,0.0,5,7.528,0.0,0.0,0.0,40.9,7.6,-5.8,1024,1024,1024,1024,0,0,0,0,73,3.846,65.48,163.385832,P-GPS,,49.8
378900,2026-01-11 15:36:25,0.0,5,7.528,0.0,0.0,0.0,40.9,7.7,-5.7,1024,1024,1024,1024,0,0,0,0,73,3.846,65.48,163.713916,P-GPS,,49.9
379000,2026-01-11 15:36:25,0.0,5,7.528,0.0,0.0,0.0,40.8,7.8,-6.0,1024,1024,1024,1024,0,0,0,0,73,3.846,65.48,163.713916,P-GPS,,49.9
379100,2026-01-11 15:36:25,0.0,5,7.528,0.0,0.0,0.223694,40.8,7.8,-5.9,1024,1024,1024,1024,0,0,0,0,73,3.846,65.48,163.713916,P-GPS,,49.9
379200,2026-01-11 15:36:25,0.0,5,7.528,0.0,0.0,0.223694,40.8,7.1,-6.1,1024,1024,1024,1024,0,0,0,0,73,3.846,65.48,163.713916,P-GPS,,49.9
379300,2026-01-11 15:36:25,0.0,5,7.528,0.0,0.0,0.223694,40.8,7.6,-5.8,1024,1024,1024,1024,0,0,0,0,73,3.846,65.48,164.042,P-GPS,,50.0
379400,2026-01-11 15:36:25,0.0,5,7.532,0.0,0.0,0.223694,40.8,7.3,-5.4,1024,1024,1024,1024,0,0,0,0,73,3.975,65.48,164.042,P-GPS,,50.0
379500,2026-01-11 15:36:25,0.0,5,7.532,0.0,0.0,0.223694,40.8,6.5,-5.6,1024,1024,1024,1024,0,0,0,0,73,3.975,65.48,164.042,P-GPS,,50.0
379600,2026-01-11 15:36:25,0.0,5,7.532,0.0,0.0,0.223694,40.6,6.5,-4.9,1024,1024,1024,1024,0,0,0,0,73,3.975,65.48,164.042,P-GPS,,50.0
379700,2026-01-11 15:36:25,0.0,5,7.532,0.0,0.0,0.223694,40.5,6.4,-5.3,1024,1024,1024,1024,0,0,0,0,73,3.975,65.48,164.042,P-GPS,,50.0
379800,2026-01-11 15:36:25,0.0,5,7.532,0.0,0.0,0.223694,40.7,6.4,-5.5,1024,1024,1024,1024,0,0,0,0,73,3.975,65.48,163.713916,P-GPS,,49.9
379900,2026-01-11 15:36:25,0.0,5,7.532,0.0,0.0,0.223694,40.9,6.3,-5.1,1024,1024,1024,1024,0,0,0,0,73,3.975,65.48,163.713916,P-GPS,,49.9
380000,2026-01-11 15:36:26,0.0,5,7.532,0.0,0.0,0.223694,41.0,6.4,-5.0,1024,1024,1024,1024,0,0,0,0,73,3.975,65.48,163.713916,P-GPS,,49.9
380100,2026-01-11 15:36:26,0.0,5,7.532,0.0,0.0,0.223694,41.0,6.5,-4.9,1024,1024,1024,1024,0,0,0,0,73,3.975,65.48,163.713916,P-GPS,,49.9
380200,2026-01-11 15:36:26,0.0,5,7.532,0.0,0.0,0.223694,41.0,6.6,-5.2,1024,1024,1024,1024,0,0,0,0,73,3.975,65.48,163.713916,P-GPS,,49.9
380300,2026-01-11 15:36:26,0.0,5,7.532,0.0,0.0,0.223694,41.0,6.4,-5.4,1024,1024,1024,1024,0,0,0,0,73,3.975,65.48,163.713916,P-GPS,,49.9
380400,2026-01-11 15:36:26,0.0,5,7.532,0.0,0.0,0.223694,40.9,7.0,-5.7,1024,1024,1024,1024,0,0,0,0,73,3.975,65.48,163.713916,P-GPS,,49.9
380500,2026-01-11 15:36:26,0.0,5,7.529,0.0,0.0,0.223694,40.8,7.0,-5.7,1024,1024,1024,1024,0,0,0,0,73,3.89,65.48,163.713916,P-GPS,,49.9
380600,2026-01-11 15:36:26,0.0,5,7.529,0.0,0.0,0.0,40.8,7.3,-5.7,1024,1024,1024,1024,0,0,0,0,73,3.89,65.48,163.713916,P-GPS,,49.9
380700,2026-01-11 15:36:26,0.0,5,7.529,0.0,0.0,0.0,40.7,7.5,-5.6,1024,1024,1024,1024,0,0,0,0,73,3.89,65.48,163.713916,P-GPS,,49.9
380800,2026-01-11 15:36:26,0.0,5,7.529,0.0,0.0,0.223694,40.7,8.1,-5.8,1024,1024,1024,1024,0,0,0,0,73,3.89,65.48,163.713916,P-GPS,,49.9
380900,2026-01-11 15:36:26,0.0,5,7.529,0.0,0.0,0.223694,40.8,7.5,-5.9,1024,1024,1024,1024,0,0,0,0,73,3.89,65.48,163.713916,P-GPS,,49.9
381000,2026-01-11 15:36:27,0.0,5,7.529,0.0,0.0,0.223694,40.9,7.7,-6.1,1024,1024,1024,1024,0,0,0,0,73,3.89,65.48,164.042,P-GPS,,50.0
381100,2026-01-11 15:36:27,0.0,5,7.529,0.0,0.0,0.223694,41.0,7.4,-5.9,1024,1024,1024,1024,0,0,0,0,73,3.89,65.48,164.042,P-GPS,,50.0
381200,2026-01-11 15:36:27,0.0,5,7.529,0.0,0.0,0.223694,41.0,7.0,-5.9,1024,1024,1024,1024,0,0,0,0,73,3.89,65.48,164.042,P-GPS,,50.0
381300,2026-01-11 15:36:27,0.0,5,7.529,0.0,0.0,0.0,40.9,7.2,-6.0,1024,1024,1024,1024,0,0,0,0,73,3.89,65.48,164.042,P-GPS,,50.0
381400,2026-01-11 15:36:27,0.0,5,7.529,0.0,0.0,0.223694,41.0,6.9,-6.6,1024,1024,1024,1024,0,0,0,0,73,3.89,65.48,164.042,P-GPS,,50.0
381500,2026-01-11 15:36:27,0.0,5,7.529,0.0,0.0,0.223694,41.1,6.7,-7.3,1024,1024,1024,1024,0,0,0,0,73,3.89,65.48,164.370084,P-GPS,,50.1
381600,2026-01-11 15:36:27,0.0,5,7.518,0.0,0.0,0.223694,41.1,6.8,-7.8,1024,1024,1024,1024,0,0,0,0,73,4.146,65.48,164.370084,P-GPS,,50.1
381700,2026-01-11 15:36:27,0.0,5,7.518,0.0,0.0,0.223694,41.0,7.4,-7.6,1024,1024,1024,1024,0,0,0,0,73,4.146,65.48,164.370084,P-GPS,,50.1
381800,2026-01-11 15:36:27,0.0,5,7.518,0.0,0.0,0.223694,41.0,7.9,-7.2,1024,1024,1024,1024,0,0,0,0,73,4.146,65.48,164.370084,P-GPS,,50.1
381900,2026-01-11 15:36:27,0.0,5,7.518,0.0,0.0,0.223694,40.9,8.2,-6.6,1024,1024,1024,1024,0,0,0,0,73,4.146,65.48,164.370084,P-GPS,,50.1
382000,2026-01-11 15:36:28,0.0,5,7.518,0.0,0.0,0.223694,41.0,8.6,-5.9,1024,1024,1024,1024,0,0,0,0,73,4.146,65.48,164.042,P-GPS,,50.0
382100,2026-01-11 15:36:28,0.0,5,7.518,0.0,0.0,0.223694,41.1,8.5,-5.8,1024,1024,1024,1024,0,0,0,0,73,4.146,65.48,164.042,P-GPS,,50.0
382200,2026-01-11 15:36:28,0.0,5,7.518,0.0,0.0,0.223694,41.2,8.7,-5.5,1024,1024,1024,1024,0,0,0,0,73,4.146,65.48,164.042,P-GPS,,50.0
382300,2026-01-11 15:36:28,0.0,5,7.518,0.0,0.0,0.223694,41.1,9.3,-5.8,1024,1024,1024,1024,0,0,0,0,73,4.146,65.48,163.713916,P-GPS,,49.9
382400,2026-01-11 15:36:28,0.0,5,7.518,0.0,0.0,0.223694,41.2,8.9,-6.1,1024,1024,1024,1024,0,0,0,0,73,4.146,65.48,163.713916,P-GPS,,49.9
382500,2026-01-11 15:36:28,0.0,5,7.518,0.0,0.0,0.223694,41.0,9.4,-6.2,1024,1024,1024,1024,0,0,0,0,73,4.146,65.48,163.713916,P-GPS,,49.9
382600,2026-01-11 15:36:28,0.0,5,7.518,0.0,0.0,0.223694,41.0,10.2,-6.4,1024,1024,1024,1024,0,0,0,0,73,4.146,65.48,163.385832,P-GPS,,49.8
382700,2026-01-11 15:36:28,0.0,5,7.506,0.0,0.0,0.223694,40.9,10.5,-6.7,1024,1024,1024,1024,0,0,0,0,73,4.188,65.48,163.385832,P-GPS,,49.8
382800,2026-01-11 15:36:28,0.0,5,7.506,0.0,0.0,0.223694,40.9,10.1,-7.1,1024,1024,1024,1024,0,0,0,0,73,4.188,65.48,163.385832,P-GPS,,49.8
382900,2026-01-11 15:36:28,0.0,5,7.506,0.0,0.0,0.223694,40.8,10.2,-7.3,1024,1024,1024,1024,0,0,0,0,73,4.188,65.48,163.385832,P-GPS,,49.8
383000,2026-01-11 15:36:29,0.0,5,7.506,0.0,0.0,0.223694,40.9,9.8,-7.3,1024,1024,1024,1024,0,0,0,0,73,4.188,65.48,163.385832,P-GPS,,49.8
383100,2026-01-11 15:36:29,0.0,5,7.506,0.0,0.0,0.0,40.9,9.9,-7.1,1024,1024,1024,1024,0,0,0,0,73,4.188,65.48,163.385832,P-GPS,,49.8
383200,2026-01-11 15:36:29,0.0,5,7.506,0.0,0.0,0.0,40.7,10.4,-7.2,1024,1024,1024,1024,0,0,0,0,73,4.188,65.48,163.385832,P-GPS,,49.8
383300,2026-01-11 15:36:29,0.0,5,7.506,0.0,0.0,0.223694,40.8,10.4,-7.3,1024,1024,1024,1024,0,0,0,0,73,4.188,65.48,163.385832,P-GPS,,49.8
383400,2026-01-11 15:36:29,0.0,5,7.506,0.0,0.0,0.223694,40.9,9.7,-6.8,1024,1024,1024,1024,0,0,0,0,73,4.188,65.48,163.385832,P-GPS,,49.8
383500,2026-01-11 15:36:29,0.0,5,7.506,0.0,0.0,0.0,40.9,9.1,-6.3,1024,1024,1024,1024,0,0,0,0,73,4.188,65.48,163.385832,P-GPS,,49.8
383600,2026-01-11 15:36:29,0.0,5,7.506,0.0,0.0,0.0,41.0,9.6,-5.2,1024,1024,1024,1024,0,0,0,0,73,4.188,65.48,163.057748,P-GPS,,49.7
383700,2026-01-11 15:36:29,0.0,5,7.506,0.0,0.0,0.0,40.9,10.7,-5.9,1024,1024,1024,1024,0,0,0,0,73,4.188,65.48,163.057748,P-GPS,,49.7
383800,2026-01-11 15:36:29,0.0,5,7.453,0.0,0.0,0.0,40.9,10.9,-5.7,1024,1024,1024,1024,0,0,0,0,73,4.969,65.48,163.057748,P-GPS,,49.7
383900,2026-01-11 15:36:30,0.0,5,7.453,0.0,0.0,0.0,40.7,12.1,-6.5,1024,1024,1024,1024,0,0,0,0,73,4.969,65.48,162.729664,P-GPS,,49.6
384000,2026-01-11 15:36:30,0.0,5,7.453,0.0,0.0,0.223694,41.0,10.9,-5.5,1024,1024,1024,1024,0,0,0,0,73,4.969,65.48,162.729664,P-GPS,,49.6
384100,2026-01-11 15:36:30,0.223694,5,7.453,0.223694,0.0,0.223694,40.9,11.0,-5.0,1024,1024,1024,1024,0,0,0,0,73,4.969,65.48,162.40158,P-GPS,,49.5
384200,2026-01-11 15:36:30,0.223694,5,7.453,0.223694,0.0,0.223694,40.8,12.3,-5.0,1024,1024,1024,1024,0,0,0,0,73,4.969,65.48,162.40158,P-GPS,,49.5
384300,2026-01-11 15:36:30,0.223694,5,7.453,0.223694,0.0,0.223694,40.8,12.8,-4.7,1024,1024,1024,1024,0,0,0,0,73,4.969,65.48,162.073496,P-GPS,,49.4
384400,2026-01-11 15:36:30,0.223694,5,7.453,0.223694,0.0,0.0,40.9,13.0,-4.5,1024,1024,1024,1024,0,0,0,0,73,4.969,65.48,162.073496,P-GPS,,49.4
384500,2026-01-11 15:36:30,0.0,5,7.453,0.0,0.0,0.0,40.8,13.3,-4.8,1024,1024,1024,1024,0,0,0,0,73,4.969,65.48,162.073496,P-GPS,,49.4
384600,2026-01-11 15:36:30,0.0,5,7.453,0.0,0.0,0.0,40.9,12.9,-4.6,1024,1024,1024,1024,0,0,0,0,73,4.969,65.48,161.745412,P-GPS,,49.3
384700,2026-01-11 15:36:30,0.0,5,7.453,0.0,0.0,0.0,40.8,13.3,-4.8,1024,1024,1024,1024,0,0,0,0,73,4.969,65.48,161.745412,P-GPS,,49.3
384800,2026-01-11 15:36:30,0.0,5,7.453,0.0,0.0,0.0,40.8,13.1,-4.6,1024,1024,1024,1024,0,0,0,0,73,4.969,65.48,161.745412,P-GPS,,49.3
384900,2026-01-11 15:36:30,0.0,5,7.477,0.0,0.0,0.0,40.8,12.9,-5.0,1024,1024,1024,1024,0,0,0,0,73,5.055,65.48,161.745412,P-GPS,,49.3
385000,2026-01-11 15:36:31,0.0,5,7.477,0.0,0.0,0.0,40.7,12.4,-6.3,1024,1024,1024,1024,0,0,0,0,73,5.055,65.48,162.073496,P-GPS,,49.4
385100,2026-01-11 15:36:31,0.0,5,7.477,0.0,0.0,0.0,40.7,11.9,-6.4,1024,1024,1024,1024,0,0,0,0,73,5.055,65.48,162.073496,P-GPS,,49.4
385200,2026-01-11 15:36:31,0.0,5,7.477,0.0,0.0,0.0,40.7,10.1,-5.9,1024,1024,1024,1024,0,0,0,0,73,5.055,65.48,162.073496,P-GPS,,49.4
385300,2026-01-11 15:36:31,0.0,5,7.477,0.0,0.0,-0.223694,40.5,11.5,-6.1,1024,1024,1024,1024,0,0,0,0,73,5.055,65.48,162.073496,P-GPS,,49.4
385400,2026-01-11 15:36:31,0.0,5,7.477,0.0,0.0,0.0,40.5,10.8,-5.9,1024,1024,1024,1024,0,0,0,0,73,5.055,65.48,162.073496,P-GPS,,49.4
385500,2026-01-11 15:36:31,0.0,5,7.477,0.0,0.0,0.0,40.8,10.5,-5.4,1024,1024,1024,1024,0,0,0,0,73,5.055,65.48,161.745412,P-GPS,,49.3
385600,2026-01-11 15:36:31,0.0,5,7.477,0.0,0.0,0.0,40.8,10.3,-5.4,1024,1024,1024,1024,0,0,0,0,73,5.055,65.48,161.745412,P-GPS,,49.3
385700,2026-01-11 15:36:31,0.0,5,7.477,0.0,0.0,0.0,40.8,10.2,-5.8,1024,1024,1024,1024,0,0,0,0,73,5.055,65.48,161.745412,P-GPS,,49.3
385800,2026-01-11 15:36:31,0.0,5,7.477,0.0,0.0,0.0,40.9,8.7,-5.9,1024,1024,1024,1024,0,0,0,0,73,5.055,65.48,161.745412,P-GPS,,49.3
385900,2026-01-11 15:36:31,0.0,5,7.477,0.0,0.0,0.0,41.0,8.7,-5.9,1024,1024,1024,1024,0,0,0,0,73,5.055,65.48,161.745412,P-GPS,,49.3
386000,2026-01-11 15:36:32,0.0,5,7.501,0.0,0.0,0.0,40.9,8.1,-5.6,1024,1024,1024,1024,0,0,0,0,73,4.727,65.48,161.745412,P-GPS,,49.3
386100,2026-01-11 15:36:32,0.0,5,7.501,0.0,0.0,0.0,40.8,8.3,-5.8,1024,1024,1024,1024,0,0,0,0,73,4.727,65.48,161.745412,P-GPS,,49.3
386200,2026-01-11 15:36:32,0.0,5,7.501,0.0,0.0,-0.223694,40.8,8.3,-5.4,1024,1024,1024,1024,0,0,0,0,73,4.727,65.48,161.417328,P-GPS,,49.2
386300,2026-01-11 15:36:32,0.0,5,7.501,0.0,0.0,-0.223694,40.8,8.0,-5.1,1024,1024,1024,1024,0,0,0,0,73,4.727,65.48,161.417328,P-GPS,,49.2
386400,2026-01-11 15:36:32,0.223694,5,7.501,0.0,-0.223694,0.0,41.0,7.4,-4.8,1024,1024,1024,1024,0,0,0,0,73,4.727,65.48,161.417328,P-GPS,,49.2
386500,2026-01-11 15:36:32,0.223694,5,7.501,0.0,-0.223694,0.0,41.1,6.8,-4.5,1024,1024,1024,1024,0,0,0,0,73,4.727,65.48,161.089244,P-GPS,,49.1
386600,2026-01-11 15:36:32,0.3131716,5,7.501,-0.223694,-0.223694,0.0,41.0,5.4,-3.6,1024,1024,1024,1024,0,0,0,0,73,4.727,65.48,160.76116,P-GPS,,49.0
386700,2026-01-11 15:36:32,0.3131716,5,7.501,-0.223694,-0.223694,0.0,40.7,4.5,-3.5,1024,1024,1024,1024,0,0,0,0,73,4.727,65.48,160.76116,P-GPS,,49.0
386800,2026-01-11 15:36:32,0.4921268,5,7.501,-0.223694,-0.447388,0.0,40.6,4.3,-4.0,1024,1024,1024,1024,0,0,0,0,73,4.727,65.48,160.433076,P-GPS,,48.9
386900,2026-01-11 15:36:32,0.4921268,5,7.501,-0.223694,-0.447388,0.0,40.4,4.1,-2.2,1024,1024,1024,1024,0,0,0,0,73,4.727,65.48,160.433076,P-GPS,,48.9
387000,2026-01-11 15:36:33,0.4921268,5,7.501,-0.223694,-0.447388,0.0,40.4,2.5,-2.4,1024,1024,1024,1024,0,0,0,0,73,4.727,65.48,160.104992,P-GPS,,48.8
387100,2026-01-11 15:36:33,0.4921268,5,7.557,-0.223694,-0.447388,0.0,40.4,0.9,-4.0,1024,1024,1024,1024,0,0,0,0,73,3.374,65.48,160.104992,P-GPS,,48.8
387200,2026-01-11 15:36:33,0.3131716,5,7.557,-0.223694,-0.223694,0.0,40.4,0.0,-3.6,1024,1024,1024,1024,0,0,0,0,73,3.374,65.48,160.104992,P-GPS,,48.8
387300,2026-01-11 15:36:33,0.3131716,5,7.557,-0.223694,-0.223694,0.0,40.4,1.7,-3.1,1024,1024,1024,1024,0,0,0,0,73,3.374,65.48,160.104992,P-GPS,,48.8
387400,2026-01-11 15:36:33,0.3131716,5,7.557,-0.223694,-0.223694,0.0,40.7,1.3,-3.6,1024,1024,1024,1024,0,0,0,0,73,3.374,65.48,160.104992,P-GPS,,48.8
387500,2026-01-11 15:36:33,0.0,5,7.557,0.0,0.0,0.0,40.7,1.9,-4.6,1024,1024,1024,1024,0,0,0,0,73,3.374,65.48,160.104992,P-GPS,,48.8
387600,2026-01-11 15:36:33,0.0,5,7.557,0.0,0.0,0.0,40.7,2.0,-4.6,1024,1024,1024,1024,0,0,0,0,73,3.374,65.48,160.104992,P-GPS,,48.8
387700,2026-01-11 15:36:33,0.0,5,7.557,0.0,0.0,0.0,40.8,2.6,-4.2,1024,1024,1024,1024,0,0,0,0,73,3.374,65.48,160.433076,P-GPS,,48.9
387800,2026-01-11 15:36:33,0.0,5,7.557,0.0,0.0,0.0,40.8,3.8,-4.1,1024,1024,1024,1024,0,0,0,0,73,3.374,65.48,160.433076,P-GPS,,48.9
387900,2026-01-11 15:36:34,0.0,5,7.557,0.0,0.0,0.0,41.0,3.9,-3.7,1024,1024,1024,1024,0,0,0,0,73,3.374,65.48,160.76116,P-GPS,,49.0
388000,2026-01-11 15:36:34,0.0,5,7.557,0.0,0.0,0.0,41.1,4.8,-4.6,1024,1024,1024,1024,0,0,0,0,73,3.374,65.48,161.089244,P-GPS,,49.1
388100,2026-01-11 15:36:34,0.0,5,7.557,0.0,0.0,0.0,41.2,6.2,-4.8,1024,1024,1024,1024,0,0,0,0,73,3.374,65.48,161.417328,P-GPS,,49.2
388200,2026-01-11 15:36:34,0.0,5,7.557,0.0,0.0,0.0,41.2,5.6,-4.5,1024,1024,1024,1024,0,0,0,0,73,3.374,65.48,161.417328,P-GPS,,49.2
388300,2026-01-11 15:36:34,0.0,5,7.557,0.0,0.0,-0.223694,41.0,5.8,-5.0,1024,1024,1024,1024,0,0,0,0,73,3.374,65.48,161.745412,P-GPS,,49.3
388400,2026-01-11 15:36:34,0.223694,5,7.557,0.0,0.223694,0.0,40.9,6.5,-5.5,1024,1024,1024,1024,0,0,0,0,73,3.374,65.48,162.073496,P-GPS,,49.4
388500,2026-01-11 15:36:34,0.3131716,5,7.557,0.223694,0.223694,0.0,40.9,7.4,-5.7,1024,1024,1024,1024,0,0,0,0,73,3.374,65.48,162.073496,P-GPS,,49.4
388600,2026-01-11 15:36:34,0.223694,5,7.557,0.0,0.223694,0.0,41.0,7.7,-5.9,1024,1024,1024,1024,0,0,0,0,73,3.374,65.48,162.40158,P-GPS,,49.5
388700,2026-01-11 15:36:34,0.223694,5,7.557,0.0,0.223694,0.0,40.9,8.0,-6.1,1024,1024,1024,1024,0,0,0,0,73,3.374,65.48,162.40158,P-GPS,,49.5
388800,2026-01-11 15:36:34,0.223694,5,7.557,0.0,0.223694,0.0,41.0,7.8,-5.6,1024,1024,1024,1024,0,0,0,0,73,3.374,65.48,162.729664,P-GPS,,49.6
388900,2026-01-11 15:36:35,0.223694,5,7.557,0.0,0.223694,0.0,40.9,7.8,-5.9,1024,1024,1024,1024,0,0,0,0,73,3.374,65.48,162.729664,P-GPS,,49.6
389000,2026-01-11 15:36:35,0.223694,5,7.557,0.0,0.223694,0.0,40.9,8.0,-6.0,1024,1024,1024,1024,0,0,0,0,73,3.374,65.48,162.729664,P-GPS,,49.6
389100,2026-01-11 15:36:35,0.223694,5,7.557,0.0,0.223694,0.223694,41.0,8.1,-6.0,1024,1024,1024,1024,0,0,0,0,73,3.374,65.48,163.057748,P-GPS,,49.7
389200,2026-01-11 15:36:35,0.0,5,7.557,0.0,0.0,0.223694,41.0,8.2,-5.7,1024,1024,1024,1024,0,0,0,0,73,3.374,65.48,163.057748,P-GPS,,49.7
389300,2026-01-11 15:36:35,0.0,5,7.521,0.0,0.0,0.223694,41.1,8.0,-5.7,1024,1024,1024,1024,0,0,0,0,73,3.775,65.48,163.057748,P-GPS,,49.7
389400,2026-01-11 15:36:35,0.0,5,7.521,0.0,0.0,0.223694,41.2,8.2,-5.8,1024,1024,1024,1024,0,0,0,0,73,3.775,65.48,163.057748,P-GPS,,49.7
389500,2026-01-11 15:36:35,0.0,5,7.521,0.0,0.0,0.223694,41.2,8.3,-5.8,1024,1024,1024,1024,0,0,0,0,73,3.775,65.48,163.057748,P-GPS,,49.7
389600,2026-01-11 15:36:35,0.0,5,7.521,0.0,0.0,0.0,41.2,8.3,-5.8,1024,1024,1024,1024,0,0,0,0,73,3.775,65.48,163.057748,P-GPS,,49.7
389700,2026-01-11 15:36:35,0.0,5,7.521,0.0,0.0,0.0,41.2,8.6,-5.9,1024,1024,1024,1024,0,0,0,0,73,3.775,65.48,163.057748,P-GPS,,49.7
389800,2026-01-11 15:36:35,0.0,5,7.521,0.0,0.0,0.0,41.1,8.9,-5.8,1024,1024,1024,1024,0,0,0,0,73,3.775,65.48,163.057748,P-GPS,,49.7
389900,2026-01-11 15:36:35,0.0,5,7.521,0.0,0.0,0.0,41.1,8.9,-5.7,1024,1024,1024,1024,0,0,0,0,73,3.775,65.48,163.057748,P-GPS,,49.7
390000,2026-01-11 15:36:36,0.0,5,7.521,0.0,0.0,0.0,41.0,9.3,-5.8,1024,1024,1024,1024,0,0,0,0,73,3.775,65.48,163.057748,P-GPS,,49.7
390100,2026-01-11 15:36:36,0.0,5,7.521,0.0,0.0,0.0,41.0,9.3,-5.6,1024,1024,1024,1024,0,0,0,0,73,3.775,65.48,163.057748,P-GPS,,49.7
390200,2026-01-11 15:36:36,0.0,5,7.521,0.0,0.0,0.0,41.1,9.2,-5.7,1024,1024,1024,1024,0,0,0,0,73,3.775,65.48,163.057748,P-GPS,,49.7
390300,2026-01-11 15:36:36,0.0,5,7.521,0.0,0.0,0.0,41.1,8.9,-5.5,1024,1024,1024,1024,0,0,0,0,73,3.775,65.48,162.729664,P-GPS,,49.6
390400,2026-01-11 15:36:36,0.0,5,7.521,0.0,0.0,0.0,41.1,8.6,-5.4,1024,1024,1024,1024,0,0,0,0,73,3.775,65.48,162.729664,P-GPS,,49.6
390500,2026-01-11 15:36:36,0.0,5,7.532,0.0,0.0,0.0,41.0,9.5,-5.6,1024,1024,1024,1024,0,0,0,0,73,3.888,65.3,162.729664,P-GPS,,49.6
390600,2026-01-11 15:36:36,0.0,5,7.532,0.0,0.0,0.0,41.1,9.6,-5.4,1024,1024,1024,1024,0,0,0,0,73,3.888,65.3,162.729664,P-GPS,,49.6
390700,2026-01-11 15:36:36,0.0,5,7.532,0.0,0.0,0.0,41.1,9.5,-5.6,1024,1024,1024,1024,0,0,0,0,73,3.888,65.3,162.729664,P-GPS,,49.6
390800,2026-01-11 15:36:36,0.0,5,7.532,0.0,0.0,0.0,41.1,9.3,-5.6,1024,1024,1024,1024,0,0,0,0,73,3.888,65.3,162.729664,P-GPS,,49.6
390900,2026-01-11 15:36:36,0.0,5,7.532,0.0,0.0,0.0,41.1,9.6,-5.8,1024,1024,1024,1024,0,0,0,0,73,3.888,65.3,162.40158,P-GPS,,49.5
391000,2026-01-11 15:36:37,0.0,5,7.532,0.0,0.0,0.0,41.1,9.5,-5.7,1024,1024,1024,1024,0,0,0,0,73,3.888,65.3,162.40158,P-GPS,,49.5
391100,2026-01-11 15:36:37,0.0,5,7.532,0.0,0.0,0.0,41.0,9.3,-5.9,1024,1024,1024,1024,0,0,0,0,73,3.888,65.3,162.40158,P-GPS,,49.5
391200,2026-01-11 15:36:37,0.0,5,7.532,0.0,0.0,0.0,41.0,9.7,-6.1,1024,1024,1024,1024,0,0,0,0,73,3.888,65.3,162.40158,P-GPS,,49.5
391300,2026-01-11 15:36:37,0.0,5,7.532,0.0,0.0,0.0,40.9,10.2,-5.9,1024,1024,1024,1024,0,0,0,0,73,3.888,65.3,162.40158,P-GPS,,49.5
391400,2026-01-11 15:36:37,0.0,5,7.532,0.0,0.0,0.0,41.0,10.0,-6.0,1024,1024,1024,1024,0,0,0,0,73,3.888,65.3,162.40158,P-GPS,,49.5
391500,2026-01-11 15:36:37,0.0,5,7.532,0.0,0.0,0.0,40.9,9.9,-6.1,1024,1024,1024,1024,0,0,0,0,73,3.888,65.3,162.40158,P-GPS,,49.5
391600,2026-01-11 15:36:37,0.0,5,7.535,0.0,0.0,0.0,40.9,10.1,-6.3,1024,1024,1024,1024,0,0,0,0,73,4.06,65.3,162.40158,P-GPS,,49.5
391700,2026-01-11 15:36:37,0.0,5,7.535,0.0,0.0,0.0,40.9,9.7,-6.1,1024,1024,1024,1024,0,0,0,0,73,4.06,65.3,162.40158,P-GPS,,49.5
391800,2026-01-11 15:36:37,0.0,5,7.535,0.0,0.0,0.0,40.9,9.5,-5.9,1024,1024,1024,1024,0,0,0,0,73,4.06,65.3,162.40158,P-GPS,,49.5
391900,2026-01-11 15:36:37,0.0,5,7.535,0.0,0.0,0.0,40.9,9.6,-5.8,1024,1024,1024,1024,0,0,0,0,73,4.06,65.3,162.40158,P-GPS,,49.5
392000,2026-01-11 15:36:38,0.0,5,7.535,0.0,0.0,0.0,40.9,9.6,-5.9,1024,1024,1024,1024,0,0,0,0,73,4.06,65.3,162.073496,P-GPS,,49.4
392100,2026-01-11 15:36:38,0.0,5,7.535,0.0,0.0,0.0,40.9,9.9,-5.6,1024,1024,1024,1024,0,0,0,0,73,4.06,65.3,162.073496,P-GPS,,49.4
392200,2026-01-11 15:36:38,0.0,5,7.535,0.0,0.0,0.0,41.0,9.6,-5.3,1024,1024,1024,1024,0,0,0,0,73,4.06,65.3,162.073496,P-GPS,,49.4
392300,2026-01-11 15:36:38,0.0,5,7.535,0.0,0.0,0.0,41.0,9.7,-5.4,1024,1024,1024,1024,0,0,0,0,73,4.06,65.3,162.073496,P-GPS,,49.4
392400,2026-01-11 15:36:38,0.0,5,7.535,0.0,0.0,0.0,40.9,10.3,-5.6,1024,1024,1024,1024,0,0,0,0,73,4.06,65.3,162.073496,P-GPS,,49.4
392500,2026-01-11 15:36:38,0.0,5,7.535,0.0,0.0,0.0,40.9,9.9,-5.4,1024,1024,1024,1024,0,0,0,0,73,4.06,65.3,162.073496,P-GPS,,49.4
392600,2026-01-11 15:36:38,0.0,5,7.535,0.0,0.0,0.0,40.9,10.3,-5.3,1024,1024,1024,1024,0,0,0,0,73,4.06,65.3,161.745412,P-GPS,,49.3
392700,2026-01-11 15:36:38,0.0,5,7.506,0.0,0.0,0.0,40.9,10.4,-5.3,1024,1024,1024,1024,0,0,0,0,73,4.266,65.3,161.745412,P-GPS,,49.3
392800,2026-01-11 15:36:38,0.0,5,7.506,0.0,0.0,0.0,41.0,10.0,-5.1,1024,1024,1024,1024,0,0,0,0,73,4.266,65.3,161.745412,P-GPS,,49.3
392900,2026-01-11 15:36:38,0.0,5,7.506,0.0,0.0,0.0,40.9,10.4,-5.3,1024,1024,1024,1024,0,0,0,0,73,4.266,65.3,161.745412,P-GPS,,49.3
393000,2026-01-11 15:36:39,0.0,5,7.506,0.0,0.0,0.0,40.8,11.0,-5.5,1024,1024,1024,1024,0,0,0,0,73,4.266,65.3,161.745412,P-GPS,,49.3
393100,2026-01-11 15:36:39,0.0,5,7.506,0.0,0.0,0.0,40.9,10.9,-5.4,1024,1024,1024,1024,0,0,0,0,73,4.266,65.3,161.417328,P-GPS,,49.2
393200,2026-01-11 15:36:39,0.0,5,7.506,0.0,0.0,0.0,40.9,10.9,-5.4,1024,1024,1024,1024,0,0,0,0,73,4.266,65.3,161.417328,P-GPS,,49.2
393300,2026-01-11 15:36:39,0.0,5,7.506,0.0,0.0,0.0,40.9,11.1,-5.3,1024,1024,1024,1024,0,0,0,0,73,4.266,65.3,161.417328,P-GPS,,49.2
393400,2026-01-11 15:36:39,0.0,5,7.506,0.0,0.0,0.0,40.9,11.5,-4.9,1024,1024,1024,1024,0,0,0,0,73,4.266,65.3,161.417328,P-GPS,,49.2
393500,2026-01-11 15:36:39,0.0,5,7.506,0.0,0.0,0.0,40.9,11.7,-5.0,1024,1024,1024,1024,0,0,0,0,73,4.266,65.3,161.417328,P-GPS,,49.2
393600,2026-01-11 15:36:39,0.0,5,7.506,0.0,0.0,0.0,40.9,11.4,-5.1,1024,1024,1024,1024,0,0,0,0,73,4.266,65.3,161.417328,P-GPS,,49.2
393700,2026-01-11 15:36:39,0.0,5,7.506,0.0,0.0,0.0,40.8,11.9,-5.5,1024,1024,1024,1024,0,0,0,0,73,4.266,65.3,161.417328,P-GPS,,49.2
393800,2026-01-11 15:36:39,0.0,5,7.513,0.0,0.0,0.0,40.8,11.9,-5.7,1024,1024,1024,1024,0,0,0,0,73,4.242,65.3,161.417328,P-GPS,,49.2
393900,2026-01-11 15:36:39,0.0,5,7.513,0.0,0.0,0.0,40.8,11.8,-5.3,1024,1024,1024,1024,0,0,0,0,73,4.242,65.3,161.089244,P-GPS,,49.1
394000,2026-01-11 15:36:40,0.0,5,7.513,0.0,0.0,0.0,40.8,11.5,-5.3,1024,1024,1024,1024,0,0,0,0,73,4.242,65.3,161.089244,P-GPS,,49.1
394100,2026-01-11 15:36:40,0.0,5,7.513,0.0,0.0,0.0,40.9,11.1,-4.9,1024,1024,1024,1024,0,0,0,0,73,4.242,65.3,161.089244,P-GPS,,49.1
394200,2026-01-11 15:36:40,0.0,5,7.513,0.0,0.0,0.0,40.9,11.1,-4.5,1024,1024,1024,1024,0,0,0,0,73,4.242,65.3,161.089244,P-GPS,,49.1
394300,2026-01-11 15:36:40,0.0,5,7.513,0.0,0.0,0.0,40.7,11.6,-4.5,1024,1024,1024,1024,0,0,0,0,73,4.242,65.3,161.089244,P-GPS,,49.1
394400,2026-01-11 15:36:40,0.0,5,7.513,0.0,0.0,0.0,40.7,11.7,-4.6,1024,1024,1024,1024,0,0,0,0,73,4.242,65.3,161.089244,P-GPS,,49.1
394500,2026-01-11 15:36:40,0.0,5,7.513,0.0,0.0,0.0,40.8,11.9,-4.1,1024,1024,1024,1024,0,0,0,0,73,4.242,65.3,161.089244,P-GPS,,49.1
394600,2026-01-11 15:36:40,0.0,5,7.513,0.0,0.0,0.0,40.9,11.8,-4.2,1024,1024,1024,1024,0,0,0,0,73,4.242,65.3,161.089244,P-GPS,,49.1
394700,2026-01-11 15:36:40,0.0,5,7.513,0.0,0.0,0.0,40.9,11.6,-3.9,1024,1024,1024,1024,0,0,0,0,73,4.242,65.3,161.089244,P-GPS,,49.1
394800,2026-01-11 15:36:40,0.0,5,7.513,0.0,0.0,0.0,40.9,11.5,-4.0,1024,1024,1024,1024,0,0,0,0,73,4.242,65.3,160.76116,P-GPS,,49.0
394900,2026-01-11 15:36:40,0.0,5,7.491,0.0,0.0,0.0,40.9,11.7,-4.1,1024,1024,1024,1024,0,0,0,0,73,4.38,65.12,160.76116,P-GPS,,49.0
395000,2026-01-11 15:36:41,0.0,5,7.491,0.0,0.0,0.0,40.8,11.9,-4.3,1024,1024,1024,1024,0,0,0,0,73,4.38,65.12,160.76116,P-GPS,,49.0
395100,2026-01-11 15:36:41,0.0,5,7.491,0.0,0.0,0.0,40.8,12.2,-4.2,1024,1024,1024,1024,0,0,0,0,73,4.38,65.12,160.76116,P-GPS,,49.0
395200,2026-01-11 15:36:41,0.0,5,7.491,0.0,0.0,0.0,40.8,12.1,-4.3,1024,1024,1024,1024,0,0,0,0,73,4.38,65.12,160.76116,P-GPS,,49.0
395300,2026-01-11 15:36:41,0.0,5,7.491,0.0,0.0,0.0,40.8,12.2,-4.4,1024,1024,1024,1024,0,0,0,0,73,4.38,65.12,160.76116,P-GPS,,49.0
395400,2026-01-11 15:36:41,0.0,5,7.491,0.0,0.0,0.0,40.9,12.1,-4.3,1024,1024,1024,1024,0,0,0,0,73,4.38,65.12,160.76116,P-GPS,,49.0
395500,2026-01-11 15:36:41,0.0,5,7.491,0.0,0.0,0.0,40.9,12.0,-4.2,1024,1024,1024,1024,0,0,0,0,73,4.38,65.12,161.089244,P-GPS,,49.1
395600,2026-01-11 15:36:41,0.0,5,7.491,0.0,0.0,0.0,40.9,12.0,-4.1,1024,1024,1024,1024,0,0,0,0,73,4.38,65.12,161.089244,P-GPS,,49.1
395700,2026-01-11 15:36:41,0.0,5,7.491,0.0,0.0,0.0,40.9,12.0,-4.1,1024,1024,1024,1024,0,0,0,0,73,4.38,65.12,161.089244,P-GPS,,49.1
395800,2026-01-11 15:36:41,0.0,5,7.491,0.0,0.0,0.0,40.8,12.0,-4.3,1024,1024,1024,1024,0,0,0,0,73,4.38,65.12,161.089244,P-GPS,,49.1
395900,2026-01-11 15:36:41,0.0,5,7.491,0.0,0.0,0.0,40.8,12.0,-4.4,1024,1024,1024,1024,0,0,0,0,73,4.38,65.12,161.089244,P-GPS,,49.1
396000,2026-01-11 15:36:42,0.0,5,7.493,0.0,0.0,0.0,40.8,11.9,-4.4,1024,1024,1024,1024,0,0,0,0,73,4.661,65.3,161.089244,P-GPS,,49.1
396100,2026-01-11 15:36:42,0.0,5,7.493,0.0,0.0,0.0,40.8,11.8,-4.5,1024,1024,1024,1024,0,0,0,0,73,4.661,65.3,161.089244,P-GPS,,49.1
396200,2026-01-11 15:36:42,0.0,5,7.493,0.0,0.0,0.0,40.9,11.8,-4.4,1024,1024,1024,1024,0,0,0,0,73,4.661,65.3,161.089244,P-GPS,,49.1
396300,2026-01-11 15:36:42,0.0,5,7.493,0.0,0.0,0.0,40.9,11.7,-4.5,1024,1024,1024,1024,0,0,0,0,73,4.661,65.3,161.089244,P-GPS,,49.1
396400,2026-01-11 15:36:42,0.0,5,7.493,0.0,0.0,0.0,40.9,11.7,-4.3,1024,1024,1024,1024,0,0,0,0,73,4.661,65.3,161.089244,P-GPS,,49.1
396500,2026-01-11 15:36:42,0.0,5,7.493,0.0,0.0,0.0,40.8,11.6,-4.3,1024,1024,1024,1024,0,0,0,0,73,4.661,65.3,161.089244,P-GPS,,49.1
396600,2026-01-11 15:36:42,0.0,5,7.493,0.0,0.0,0.0,40.9,11.6,-4.2,1024,1024,1024,1024,0,0,0,0,73,4.661,65.3,161.089244,P-GPS,,49.1
396700,2026-01-11 15:36:42,0.0,5,7.493,0.0,0.0,0.0,40.8,11.6,-4.3,1024,1024,1024,1024,0,0,0,0,73,4.661,65.3,161.089244,P-GPS,,49.1
396800,2026-01-11 15:36:42,0.0,5,7.493,0.0,0.0,0.0,40.8,11.6,-4.1,1024,1024,1024,1024,0,0,0,0,73,4.661,65.3,161.089244,P-GPS,,49.1
396900,2026-01-11 15:36:42,0.0,5,7.493,0.0,0.0,0.0,40.8,11.7,-4.0,1024,1024,1024,1024,0,0,0,0,73,4.661,65.3,161.089244,P-GPS,,49.1
397000,2026-01-11 15:36:43,0.0,5,7.493,0.0,0.0,0.0,40.8,11.7,-4.3,1024,1024,1024,1024,0,0,0,0,73,4.661,65.3,161.089244,P-GPS,,49.1
397100,2026-01-11 15:36:43,0.0,5,7.499,0.0,0.0,0.0,40.9,11.7,-4.3,1024,1024,1024,1024,0,0,0,0,72,4.545,65.3,161.089244,P-GPS,,49.1
397200,2026-01-11 15:36:43,0.0,5,7.499,0.0,0.0,0.0,40.9,11.9,-4.2,1024,1024,1024,1024,0,0,0,0,72,4.545,65.3,161.089244,P-GPS,,49.1
397300,2026-01-11 15:36:43,0.0,5,7.499,0.0,0.0,0.0,40.8,11.9,-4.2,1024,1024,1024,1024,0,0,0,0,72,4.545,65.3,161.089244,P-GPS,,49.1
397400,2026-01-11 15:36:43,0.0,5,7.499,0.0,0.0,0.0,40.8,12.1,-4.5,1024,1024,1024,1024,0,0,0,0,72,4.545,65.3,161.089244,P-GPS,,49.1
397500,2026-01-11 15:36:43,0.0,5,7.499,0.0,0.0,0.0,40.8,12.4,-4.6,1024,1024,1024,1024,0,0,0,0,72,4.545,65.3,161.089244,P-GPS,,49.1
397600,2026-01-11 15:36:43,0.0,5,7.499,0.0,0.0,0.0,40.9,12.3,-4.4,1024,1024,1024,1024,0,0,0,0,72,4.545,65.3,161.089244,P-GPS,,49.1
397700,2026-01-11 15:36:43,0.0,5,7.499,0.0,0.0,0.0,40.8,12.3,-4.0,1024,1024,1024,1024,0,0,0,0,72,4.545,65.3,161.089244,P-GPS,,49.1
397800,2026-01-11 15:36:43,0.0,5,7.499,0.0,0.0,0.0,40.8,12.2,-3.4,1024,1024,1024,1024,0,0,0,0,72,4.545,65.3,161.089244,P-GPS,,49.1
397900,2026-01-11 15:36:43,0.0,5,7.499,0.0,0.0,0.0,40.8,11.9,-3.4,1024,1024,1024,1024,0,0,0,0,72,4.545,65.3,161.089244,P-GPS,,49.1
398000,2026-01-11 15:36:44,0.0,5,7.499,0.0,0.0,0.0,40.8,11.9,-3.6,1024,1024,1024,1024,0,0,0,0,72,4.545,65.3,161.089244,P-GPS,,49.1
398100,2026-01-11 15:36:44,0.0,5,7.499,0.0,0.0,0.0,40.8,11.8,-3.6,1024,1024,1024,1024,0,0,0,0,72,4.545,65.3,161.089244,P-GPS,,49.1
398200,2026-01-11 15:36:44,0.0,5,7.499,0.0,0.0,0.0,40.8,12.1,-3.7,1024,1024,1024,1024,0,0,0,0,72,4.545,65.3,161.089244,P-GPS,,49.1
398300,2026-01-11 15:36:44,0.0,5,7.499,0.0,0.0,0.0,40.8,11.8,-3.5,1024,1024,1024,1024,0,0,0,0,72,4.545,65.3,161.089244,P-GPS,,49.1
398400,2026-01-11 15:36:44,0.0,5,7.499,0.0,0.0,0.0,40.9,11.6,-3.4,1024,1024,1024,1024,0,0,0,0,72,4.545,65.3,161.089244,P-GPS,,49.1
398500,2026-01-11 15:36:44,0.0,5,7.499,0.0,0.0,0.0,40.9,11.1,-3.4,1024,1024,1024,1024,0,0,0,0,72,4.545,65.3,161.089244,P-GPS,,49.1
398600,2026-01-11 15:36:44,0.0,5,7.499,0.0,0.0,0.0,40.9,11.1,-3.6,1024,1024,1024,1024,0,0,0,0,72,4.545,65.3,160.76116,P-GPS,,49.0
398700,2026-01-11 15:36:44,0.0,5,7.499,0.0,0.0,0.0,40.8,12.2,-3.4,1024,1024,1024,1024,0,0,0,0,72,4.545,65.3,160.76116,P-GPS,,49.0
398800,2026-01-11 15:36:44,0.0,5,7.499,0.0,0.0,0.223694,40.9,12.3,-3.1,1024,1024,1024,1024,0,0,0,0,72,4.545,65.3,160.76116,P-GPS,,49.0
398900,2026-01-11 15:36:44,0.0,5,7.499,0.0,0.0,0.0,40.9,12.4,-3.1,1024,1024,1024,1024,0,0,0,0,72,4.545,65.3,160.76116,P-GPS,,49.0
399000,2026-01-11 15:36:45,0.0,5,7.499,0.0,0.0,0.0,40.9,12.3,-3.0,1024,1024,1024,1024,0,0,0,0,72,4.545,65.3,160.76116,P-GPS,,49.0
399100,2026-01-11 15:36:45,0.0,5,7.499,0.0,0.0,0.0,41.0,12.3,-2.4,1024,1024,1024,1024,0,0,0,0,72,4.545,65.3,161.089244,P-GPS,,49.1
399200,2026-01-11 15:36:45,0.0,5,7.499,0.0,0.0,0.0,41.0,11.8,-2.0,1024,1024,1024,1024,0,0,0,0,72,4.545,65.3,161.089244,P-GPS,,49.1
399300,2026-01-11 15:36:45,0.0,5,7.522,0.0,0.0,0.0,41.0,11.7,-1.9,1024,1024,1024,1024,0,0,0,0,72,4.253,65.12,161.089244,P-GPS,,49.1
399400,2026-01-11 15:36:45,0.0,5,7.522,0.0,0.0,0.0,41.0,11.3,-2.4,1024,1024,1024,1024,0,0,0,0,72,4.253,65.12,161.089244,P-GPS,,49.1
399500,2026-01-11 15:36:45,0.0,5,7.522,0.0,0.0,0.0,40.9,11.2,-3.2,1024,1024,1024,1024,0,0,0,0,72,4.253,65.12,161.417328,P-GPS,,49.2
399600,2026-01-11 15:36:45,0.0,5,7.522,0.0,0.0,0.0,41.0,10.6,-3.0,1024,1024,1024,1024,0,0,0,0,72,4.253,65.12,161.417328,P-GPS,,49.2
399700,2026-01-11 15:36:45,0.0,5,7.522,0.0,0.0,0.0,41.0,10.3,-3.2,1024,1024,1024,1024,0,0,0,0,72,4.253,65.12,161.417328,P-GPS,,49.2
399800,2026-01-11 15:36:45,0.0,5,7.522,0.0,0.0,0.0,40.9,10.5,-3.7,1024,1024,1024,1024,0,0,0,0,72,4.253,65.12,161.417328,P-GPS,,49.2
399900,2026-01-11 15:36:45,0.0,5,7.522,0.0,0.0,0.0,40.9,10.8,-3.8,1024,1024,1024,1024,0,0,0,0,72,4.253,65.12,161.417328,P-GPS,,49.2
400000,2026-01-11 15:36:46,0.0,5,7.522,0.0,0.0,0.0,40.9,10.8,-3.6,1024,1024,1024,1024,0,0,0,0,72,4.253,65.12,161.417328,P-GPS,,49.2
400100,2026-01-11 15:36:46,0.0,5,7.522,0.0,0.0,0.0,41.1,10.4,-3.2,1024,1024,1024,1024,0,0,0,0,72,4.253,65.12,161.417328,P-GPS,,49.2
400200,2026-01-11 15:36:46,0.0,5,7.522,0.0,0.0,0.0,41.1,10.8,-2.9,1024,1024,1024,1024,0,0,0,0,72,4.253,65.12,161.417328,P-GPS,,49.2
400300,2026-01-11 15:36:46,0.0,5,7.522,0.0,0.0,0.0,41.0,11.0,-3.2,1024,1024,1024,1024,0,0,0,0,72,4.253,65.12,161.417328,P-GPS,,49.2
400400,2026-01-11 15:36:46,0.0,5,7.515,0.0,0.0,0.0,41.0,10.8,-3.4,1024,1024,1024,1024,0,0,0,0,72,4.263,65.12,161.417328,P-GPS,,49.2
400500,2026-01-11 15:36:46,0.0,5,7.515,0.0,0.0,0.0,41.0,10.5,-3.6,1024,1024,1024,1024,0,0,0,0,72,4.263,65.12,161.417328,P-GPS,,49.2
400600,2026-01-11 15:36:46,0.0,5,7.515,0.0,0.0,0.0,40.8,10.5,-3.6,1024,1024,1024,1024,0,0,0,0,72,4.263,65.12,161.417328,P-GPS,,49.2
400700,2026-01-11 15:36:46,0.0,5,7.515,0.0,0.0,0.0,40.9,10.2,-3.2,1024,1024,1024,1024,0,0,0,0,72,4.263,65.12,161.417328,P-GPS,,49.2
400800,2026-01-11 15:36:46,0.0,5,7.515,0.0,0.0,0.0,41.1,10.0,-3.1,1024,1024,1024,1024,0,0,0,0,72,4.263,65.12,161.417328,P-GPS,,49.2
400900,2026-01-11 15:36:46,0.0,5,7.515,0.0,0.0,0.0,41.0,9.5,-3.8,1024,1024,1024,1024,0,0,0,0,72,4.263,65.12,161.417328,P-GPS,,49.2
401000,2026-01-11 15:36:47,0.0,5,7.515,0.0,0.0,0.0,41.1,9.7,-3.4,1024,1024,1024,1024,0,0,0,0,72,4.263,65.12,161.417328,P-GPS,,49.2
401100,2026-01-11 15:36:47,0.0,5,7.515,0.0,0.0,0.0,40.9,9.5,-3.2,1024,1024,1024,1024,0,0,0,0,72,4.263,65.12,161.089244,P-GPS,,49.1
401200,2026-01-11 15:36:47,0.0,5,7.515,0.0,0.0,0.0,40.9,9.8,-3.4,1024,1024,1024,1024,0,0,0,0,72,4.263,65.12,161.089244,P-GPS,,49.1
401300,2026-01-11 15:36:47,0.0,5,7.515,0.0,0.0,0.0,40.9,10.2,-3.5,1024,1024,1024,1024,0,0,0,0,72,4.263,65.12,161.089244,P-GPS,,49.1
401400,2026-01-11 15:36:47,0.0,5,7.515,0.0,0.0,0.0,41.0,9.8,-3.0,1024,1024,1024,1024,0,0,0,0,72,4.263,65.12,161.089244,P-GPS,,49.1
401500,2026-01-11 15:36:47,0.0,5,7.525,0.0,0.0,0.0,41.0,9.4,-2.7,1024,1024,1024,1024,0,0,0,0,72,3.96,65.12,161.089244,P-GPS,,49.1
401600,2026-01-11 15:36:47,0.0,5,7.525,0.0,0.0,0.0,41.1,9.1,-3.0,1024,1024,1024,1024,0,0,0,0,72,3.96,65.12,161.089244,P-GPS,,49.1
401700,2026-01-11 15:36:47,0.0,5,7.525,0.0,0.0,0.0,41.0,9.9,-3.0,1024,1024,1024,1024,0,0,0,0,72,3.96,65.12,160.76116,P-GPS,,49.0
401800,2026-01-11 15:36:47,0.0,5,7.525,0.0,0.0,0.0,41.0,9.5,-3.1,1024,1024,1024,1024,0,0,0,0,72,3.96,65.12,160.76116,P-GPS,,49.0
401900,2026-01-11 15:36:47,0.0,5,7.525,0.0,0.0,0.0,41.1,11.4,-3.2,1024,1024,1024,1024,0,0,0,0,72,3.96,65.12,160.76116,P-GPS,,49.0
402000,2026-01-11 15:36:48,0.0,5,7.525,0.0,0.0,0.0,41.0,11.2,-3.3,1024,1024,1024,1024,0,0,0,0,72,3.96,65.12,161.089244,P-GPS,,49.1
402100,2026-01-11 15:36:48,0.0,5,7.525,0.0,0.0,0.0,41.1,10.3,-3.7,1024,1024,1024,1024,0,0,0,0,72,3.96,65.12,161.089244,P-GPS,,49.1
402200,2026-01-11 15:36:48,0.0,5,7.525,0.0,0.0,0.0,41.0,10.3,-4.9,1024,1024,1024,1024,0,0,0,0,72,3.96,65.12,161.089244,P-GPS,,49.1
402300,2026-01-11 15:36:48,0.0,5,7.525,0.0,0.0,0.0,41.0,10.4,-5.8,1024,1024,1024,1024,0,0,0,0,72,3.96,65.12,161.417328,P-GPS,,49.2
402400,2026-01-11 15:36:48,0.0,5,7.525,0.0,0.0,0.0,40.9,10.5,-6.3,1024,1024,1024,1024,0,0,0,0,72,3.96,65.12,161.417328,P-GPS,,49.2
402500,2026-01-11 15:36:48,0.0,5,7.525,0.0,0.0,0.0,40.8,10.4,-6.6,1024,1024,1024,1024,0,0,0,0,72,3.96,65.12,161.417328,P-GPS,,49.2
402600,2026-01-11 15:36:48,0.0,5,7.54,0.0,0.0,0.0,40.8,9.6,-6.5,1024,1024,1024,1024,0,0,0,0,72,3.752,65.12,161.745412,P-GPS,,49.3
402700,2026-01-11 15:36:48,0.0,5,7.54,0.0,0.0,0.0,40.7,9.3,-6.4,1024,1024,1024,1024,0,0,0,0,72,3.752,65.12,161.745412,P-GPS,,49.3
402800,2026-01-11 15:36:48,0.0,5,7.54,0.0,0.0,0.0,40.6,9.2,-6.6,1024,1024,1024,1024,0,0,0,0,72,3.752,65.12,161.745412,P-GPS,,49.3
402900,2026-01-11 15:36:48,0.0,5,7.54,0.0,0.0,0.0,40.7,8.7,-6.4,1024,1024,1024,1024,0,0,0,0,72,3.752,65.12,161.745412,P-GPS,,49.3
403000,2026-01-11 15:36:49,0.0,5,7.54,0.0,0.0,0.0,40.7,7.9,-6.1,1024,1024,1024,1024,0,0,0,0,72,3.752,65.12,161.745412,P-GPS,,49.3
403100,2026-01-11 15:36:49,0.0,5,7.54,0.0,0.0,0.0,40.8,7.9,-5.8,1024,1024,1024,1024,0,0,0,0,72,3.752,65.12,161.745412,P-GPS,,49.3
403200,2026-01-11 15:36:49,0.0,5,7.54,0.0,0.0,0.0,40.8,8.3,-5.8,1024,1024,1024,1024,0,0,0,0,72,3.752,65.12,161.745412,P-GPS,,49.3
403300,2026-01-11 15:36:49,0.0,5,7.54,0.0,0.0,0.0,40.7,8.3,-5.5,1024,1024,1024,1024,0,0,0,0,72,3.752,65.12,161.745412,P-GPS,,49.3
403400,2026-01-11 15:36:49,0.0,5,7.54,0.0,0.0,0.0,40.9,7.8,-5.3,1024,1024,1024,1024,0,0,0,0,72,3.752,65.12,161.417328,P-GPS,,49.2
403500,2026-01-11 15:36:49,0.0,5,7.54,0.0,0.0,0.0,41.0,7.2,-5.2,1024,1024,1024,1024,0,0,0,0,72,3.752,65.12,161.417328,P-GPS,,49.2
403600,2026-01-11 15:36:49,0.0,5,7.54,0.0,0.0,0.0,41.1,7.4,-5.3,1024,1024,1024,1024,0,0,0,0,72,3.752,65.12,161.417328,P-GPS,,49.2
403700,2026-01-11 15:36:49,0.0,5,7.54,0.0,0.0,0.0,41.0,8.0,-5.4,1024,1024,1024,1024,0,0,0,0,72,3.752,65.12,161.417328,P-GPS,,49.2
403800,2026-01-11 15:36:49,0.0,5,7.54,0.0,0.0,0.0,41.1,7.9,-5.1,1024,1024,1024,1024,0,0,0,0,72,3.592,65.12,161.417328,P-GPS,,49.2
403900,2026-01-11 15:36:49,0.0,5,7.54,0.0,0.0,0.0,41.0,8.1,-5.1,1024,1024,1024,1024,0,0,0,0,72,3.592,65.12,161.089244,P-GPS,,49.1
404000,2026-01-11 15:36:50,0.0,5,7.54,0.0,0.0,0.0,40.9,7.5,-5.2,1024,1024,1024,1024,0,0,0,0,72,3.592,65.12,161.089244,P-GPS,,49.1
404100,2026-01-11 15:36:50,0.0,5,7.54,0.0,0.0,0.0,40.9,7.0,-5.5,1024,1024,1024,1024,0,0,0,0,72,3.592,65.12,161.089244,P-GPS,,49.1
404200,2026-01-11 15:36:50,0.0,5,7.54,0.0,0.0,0.0,40.9,6.9,-5.0,1024,1024,1024,1024,0,0,0,0,72,3.592,65.12,161.089244,P-GPS,,49.1
404300,2026-01-11 15:36:50,0.0,5,7.54,0.0,0.0,0.0,40.9,6.9,-4.8,1024,1024,1024,1024,0,0,0,0,72,3.592,65.12,161.089244,P-GPS,,49.1
404400,2026-01-11 15:36:50,0.0,5,7.54,0.0,0.0,0.0,41.0,6.5,-5.0,1024,1024,1024,1024,0,0,0,0,72,3.592,65.12,161.089244,P-GPS,,49.1
404500,2026-01-11 15:36:50,0.0,5,7.54,0.0,0.0,0.0,41.1,6.6,-4.6,1024,1024,1024,1024,0,0,0,0,72,3.592,65.12,161.089244,P-GPS,,49.1
404600,2026-01-11 15:36:50,0.0,5,7.54,0.0,0.0,0.0,41.0,6.4,-4.2,1024,1024,1024,1024,0,0,0,0,72,3.592,65.12,161.089244,P-GPS,,49.1
404700,2026-01-11 15:36:50,0.0,5,7.54,0.0,0.0,0.0,40.9,6.5,-4.3,1024,1024,1024,1024,0,0,0,0,72,3.592,65.12,161.089244,P-GPS,,49.1
404800,2026-01-11 15:36:50,0.0,5,7.54,0.0,0.0,0.0,41.0,6.2,-4.6,1024,1024,1024,1024,0,0,0,0,72,3.592,65.12,161.089244,P-GPS,,49.1
404900,2026-01-11 15:36:51,0.0,5,7.537,0.0,0.0,0.0,41.0,6.2,-4.4,1024,1024,1024,1024,0,0,0,0,72,3.674,65.12,161.089244,P-GPS,,49.1
405000,2026-01-11 15:36:51,0.0,5,7.537,0.0,0.0,0.0,41.0,6.1,-4.6,1024,1024,1024,1024,0,0,0,0,72,3.674,65.12,161.089244,P-GPS,,49.1
405100,2026-01-11 15:36:51,0.0,5,7.537,0.0,0.0,0.0,41.1,7.0,-4.6,1024,1024,621,1024,0,0,-61,0,72,3.674,65.12,161.089244,P-GPS,,49.1
405200,2026-01-11 15:36:51,0.0,5,7.537,0.0,0.0,0.0,41.0,7.1,-4.3,1024,1024,364,1024,0,0,-100,0,72,3.674,65.12,161.089244,P-GPS,,49.1
405300,2026-01-11 15:36:51,0.0,5,7.537,0.0,0.0,0.0,41.1,6.9,-4.6,1024,1024,364,1024,0,0,-100,0,72,3.674,65.12,161.089244,P-GPS,,49.1
405400,2026-01-11 15:36:51,0.0,5,7.537,0.0,0.0,0.0,40.9,8.0,-5.5,1024,1024,364,1024,0,0,-100,0,72,3.674,65.12,161.089244,P-GPS,,49.1
405500,2026-01-11 15:36:51,0.0,5,7.537,0.0,0.0,0.894776,40.8,9.1,-5.7,1024,1024,364,1024,0,0,-100,0,72,3.674,65.12,161.089244,P-GPS,,49.1
405600,2026-01-11 15:36:51,0.0,5,7.537,0.0,0.0,1.565858,40.7,9.2,-5.4,1024,1024,364,1024,0,0,-100,0,72,3.674,65.12,160.76116,P-GPS,,49.0
405700,2026-01-11 15:36:51,0.0,5,7.537,0.0,0.0,2.460634,40.9,8.7,-4.7,1024,1024,364,1024,0,0,-100,0,72,3.674,65.12,160.433076,P-GPS,,48.9
405800,2026-01-11 15:36:51,0.0,5,7.537,0.0,0.0,2.908022,40.7,9.1,-4.3,1024,1024,364,1024,0,0,-100,0,72,3.674,65.12,159.776908,P-GPS,,48.7
405900,2026-01-11 15:36:51,0.0,5,7.537,0.0,0.0,3.579104,41.0,8.1,-4.0,1024,1024,364,1024,0,0,-100,0,72,3.674,65.12,159.448824,P-GPS,,48.6
406000,2026-01-11 15:36:52,0.0,5,7.607,0.0,0.0,3.802798,41.2,7.0,-3.3,1024,1024,364,1024,0,0,-100,0,72,2.998,65.12,158.792656,P-GPS,,48.4
406100,2026-01-11 15:36:52,0.0,5,7.607,0.0,0.0,3.802798,41.3,7.1,-2.9,1024,1024,364,1024,0,0,-100,0,72,2.998,65.12,158.136488,P-GPS,,48.2
