index,time(millisecond),timestamp,speed(mph),gpslevel,voltage(v),xSpeed(mph),ySpeed(mph),zSpeed(mph),compass_heading(degrees),pitch(degrees),roll(degrees),rc_elevator,rc_aileron,rc_throttle,rc_rudder,rc_elevator(percent),rc_aileron(percent),rc_throttle(percent),rc_rudder(percent),battery_percent,current(A),battery_temperature(f),ascent(feet),flycState,message,height_above_takeoff(meters)
85,448800,2026-01-11 15:37:40,0.0,5,7.492,0.0,0.0,0.0,12.5,1.8,-3.2,1024,1024,1024,1024,0,0,0,0,70,4.693,65.12,35.761156,P-GPS,,10.9
86,448900,2026-01-11 15:37:41,0.0,5,7.492,0.0,0.0,0.0,12.6,1.7,-3.7,1024,1024,1024,1024,0,0,0,0,70,4.693,65.12,35.761156,P-GPS,,10.9
87,449000,2026-01-11 15:37:41,0.0,5,7.492,0.0,0.0,0.0,12.7,1.5,-4.0,1024,1024,1024,1024,0,0,0,0,70,4.693,65.12,35.761156,P-GPS,,10.9
88,449100,2026-01-11 15:37:41,0.0,5,7.492,0.0,0.0,0.0,12.6,1.9,-4.1,1024,1024,1024,1024,0,0,0,0,70,4.693,65.12,36.08924,P-GPS,,11.0
89,449200,2026-01-11 15:37:41,0.0,5,7.492,0.0,0.0,0.0,12.5,2.4,-3.5,1024,1024,1024,1024,0,0,0,0,70,4.693,65.12,36.08924,P-GPS,,11.0
90,449300,2026-01-11 15:37:41,0.0,5,7.492,0.0,0.0,0.0,12.6,2.2,-3.3,1024,1024,1024,1024,0,0,0,0,70,4.693,65.12,36.08924,P-GPS,,11.0
91,449400,2026-01-11 15:37:41,0.0,5,7.492,0.0,0.0,0.0,12.6,1.7,-3.3,1024,1024,1024,1024,0,0,0,0,70,4.693,65.12,36.08924,P-GPS,,11.0
92,449500,2026-01-11 15:37:41,0.0,5,7.492,0.0,0.0,0.0,12.5,1.2,-3.1,1024,1024,1024,1024,0,0,0,0,70,4.693,65.12,36.08924,P-GPS,,11.0
93,449600,2026-01-11 15:37:41,0.0,5,7.446,0.0,0.0,0.0,12.4,1.6,-3.2,1024,1024,1024,1024,0,0,0,0,70,4.819,65.12,36.08924,P-GPS,,11.0
94,449700,2026-01-11 15:37:41,0.0,5,7.446,0.0,0.0,0.0,12.4,1.3,-3.2,1024,1024,1024,1024,0,0,0,0,70,4.819,65.12,36.417324,P-GPS,,11.1
95,449800,2026-01-11 15:37:41,0.0,5,7.446,0.0,0.0,0.0,12.3,0.1,-2.9,1024,1024,1024,1024,0,0,0,0,70,4.819,65.12,36.417324,P-GPS,,11.1
96,449900,2026-01-11 15:37:42,0.0,5,7.446,0.0,0.0,0.0,12.4,0.0,-2.2,1024,1024,1024,1024,0,0,0,0,70,4.819,65.12,36.417324,P-GPS,,11.1
97,450000,2026-01-11 15:37:42,0.0,5,7.446,0.0,0.0,0.0,12.5,0.0,-2.1,1024,1024,1024,1024,0,0,0,0,70,4.819,65.12,36.417324,P-GPS,,11.1
98,450100,2026-01-11 15:37:42,0.0,5,7.446,0.0,0.0,0.0,12.6,-0.3,-2.1,1024,1024,1024,1024,0,0,0,0,70,4.819,65.12,36.417324,P-GPS,,11.1
99,450200,2026-01-11 15:37:42,0.0,5,7.446,0.0,0.0,0.0,12.6,-1.0,-2.1,1024,1024,1024,1024,0,0,0,0,70,4.819,65.12,36.417324,P-GPS,,11.1
100,450300,2026-01-11 15:37:42,0.0,5,7.446,0.0,0.0,0.0,12.5,-0.9,-2.0,1024,1024,1024,1024,0,0,0,0,70,4.819,65.12,36.417324,P-GPS,,11.1
101,450400,2026-01-11 15:37:42,0.0,5,7.446,0.0,0.0,0.0,12.5,-0.7,-2.1,1024,1024,1024,1024,0,0,0,0,70,4.819,65.12,36.745408,P-GPS,,11.2
102,450500,2026-01-11 15:37:42,0.0,5,7.446,0.0,0.0,0.0,12.5,-0.7,-2.1,1024,1024,1024,1024,0,0,0,0,70,4.819,65.12,36.745408,P-GPS,,11.2
103,450600,2026-01-11 15:37:42,0.0,5,7.446,0.0,0.0,0.0,12.5,-0.5,-1.8,1024,1024,1024,1024,0,0,0,0,70,4.819,65.12,36.745408,P-GPS,,11.2
104,450700,2026-01-11 15:37:42,0.0,5,7.445,0.0,0.0,0.0,12.6,-0.4,-1.7,1024,1024,1024,1024,0,0,0,0,70,4.974,65.12,36.745408,P-GPS,,11.2
105,450800,2026-01-11 15:37:42,0.0,5,7.445,0.0,0.0,0.0,12.6,-0.3,-1.7,1024,1024,1024,1024,0,0,0,0,70,4.974,65.12,36.745408,P-GPS,,11.2
106,450900,2026-01-11 15:37:43,0.0,5,7.445,0.0,0.0,0.0,12.6,0.0,-1.6,1024,1024,1024,1024,0,0,0,0,70,4.974,65.12,36.745408,P-GPS,,11.2
107,451000,2026-01-11 15:37:43,0.0,5,7.445,0.0,0.0,0.0,12.5,-0.5,-1.6,1024,1024,1024,1024,0,0,0,0,70,4.974,65.12,36.745408,P-GPS,,11.2
108,451100,2026-01-11 15:37:43,0.0,5,7.445,0.0,0.0,0.0,12.4,-0.4,-1.7,1024,1024,1024,1024,0,0,0,0,70,4.974,65.12,36.745408,P-GPS,,11.2
109,451200,2026-01-11 15:37:43,0.0,5,7.445,0.0,0.0,0.0,12.4,0.0,-1.7,1024,1024,1024,1024,0,0,0,0,70,4.974,65.12,36.745408,P-GPS,,11.2
110,451300,2026-01-11 15:37:43,0.0,5,7.445,0.0,0.0,0.0,12.4,0.4,-1.4,1024,1024,1024,1024,0,0,0,0,70,4.974,65.12,36.745408,P-GPS,,11.2
111,451400,2026-01-11 15:37:43,0.0,5,7.445,0.0,0.0,0.0,12.5,0.1,-1.2,1024,1024,1024,1024,0,0,0,0,70,4.974,65.12,36.745408,P-GPS,,11.2
112,451500,2026-01-11 15:37:43,0.0,5,7.445,0.0,0.0,0.0,12.6,0.0,-0.9,1024,1024,1024,1024,0,0,0,0,70,4.974,65.12,36.745408,P-GPS,,11.2
113,451600,2026-01-11 15:37:43,0.0,5,7.445,0.0,0.0,0.0,12.7,-0.2,-1.2,1024,1024,1024,1024,0,0,0,0,70,4.974,65.12,36.745408,P-GPS,,11.2
114,451700,2026-01-11 15:37:43,0.0,5,7.445,0.0,0.0,0.0,12.7,-0.4,-1.4,1024,1024,1024,1024,0,0,0,0,70,4.974,65.12,37.073492,P-GPS,,11.3
115,451800,2026-01-11 15:37:43,0.0,5,7.451,0.0,0.0,0.0,12.7,-0.7,-1.8,1024,1024,1024,1024,0,0,0,0,70,4.817,65.12,37.073492,P-GPS,,11.3
116,451900,2026-01-11 15:37:44,0.0,5,7.451,0.0,0.0,0.0,13.0,-1.0,-1.6,1024,1024,1024,1024,0,0,0,0,70,4.817,65.12,37.073492,P-GPS,,11.3
117,452000,2026-01-11 15:37:44,0.0,5,7.451,0.0,0.0,0.0,12.7,0.0,-2.8,1024,1024,1024,1024,0,0,0,0,70,4.817,65.12,37.073492,P-GPS,,11.3
118,452100,2026-01-11 15:37:44,0.0,5,7.451,0.0,0.0,0.0,12.5,0.1,-2.5,1024,1024,1024,1024,0,0,0,0,70,4.817,65.12,37.401576,P-GPS,,11.4
119,452200,2026-01-11 15:37:44,0.0,5,7.451,0.0,0.0,0.0,12.5,1.4,-2.1,1024,1024,1024,1024,0,0,0,0,70,4.817,65.12,37.401576,P-GPS,,11.4
120,452300,2026-01-11 15:37:44,0.0,5,7.451,0.0,0.0,0.0,12.6,0.8,-2.2,1024,1024,1024,1024,0,0,0,0,70,4.817,65.12,37.401576,P-GPS,,11.4
121,452400,2026-01-11 15:37:44,0.0,5,7.451,0.0,0.0,0.0,12.6,0.4,-2.7,1024,1024,1024,1024,0,0,0,0,70,4.817,65.12,37.401576,P-GPS,,11.4
122,452500,2026-01-11 15:37:44,0.0,5,7.451,0.0,0.0,0.0,12.6,0.7,-2.6,1024,1024,1024,1024,0,0,0,0,70,4.817,65.12,37.401576,P-GPS,,11.4
123,452600,2026-01-11 15:37:44,0.0,5,7.451,0.0,0.0,0.0,12.6,1.1,-2.3,1024,1024,1024,1024,0,0,0,0,70,4.817,65.12,37.401576,P-GPS,,11.4
124,452700,2026-01-11 15:37:44,0.0,5,7.451,0.0,0.0,0.0,12.6,1.0,-1.8,1024,1024,1024,1024,0,0,0,0,70,4.817,65.12,37.401576,P-GPS,,11.4
125,452800,2026-01-11 15:37:44,0.0,5,7.451,0.0,0.0,0.0,12.6,1.1,-1.8,1024,1024,1024,1024,0,0,0,0,70,4.817,65.12,37.401576,P-GPS,,11.4
126,452900,2026-01-11 15:37:45,0.0,5,7.438,0.0,0.0,0.0,12.6,1.0,-1.7,1024,1024,1024,1024,0,0,0,0,69,4.94,65.12,37.401576,P-GPS,,11.4
127,453000,2026-01-11 15:37:45,0.0,5,7.438,0.0,0.0,0.0,12.6,0.9,-2.0,1024,1024,1024,1024,0,0,0,0,69,4.94,65.12,37.401576,P-GPS,,11.4
128,453100,2026-01-11 15:37:45,0.0,5,7.438,0.0,0.0,0.0,12.6,0.8,-1.9,1024,1024,1024,1024,0,0,0,0,69,4.94,65.12,37.401576,P-GPS,,11.4
129,453200,2026-01-11 15:37:45,0.0,5,7.438,0.0,0.0,0.0,12.8,0.7,-1.8,1024,1024,1024,1024,0,0,0,0,69,4.94,65.12,37.401576,P-GPS,,11.4
130,453300,2026-01-11 15:37:45,0.0,5,7.438,0.0,0.0,0.0,12.8,0.6,-1.6,1024,1024,1024,1024,0,0,0,0,69,4.94,65.12,37.401576,P-GPS,,11.4
131,453400,2026-01-11 15:37:45,0.0,5,7.438,0.0,0.0,0.0,12.7,0.8,-1.3,1024,1024,1024,1024,0,0,0,0,69,4.94,65.12,37.073492,P-GPS,,11.3
132,453500,2026-01-11 15:37:45,0.0,5,7.438,0.0,0.0,0.0,12.5,0.8,-1.4,1024,1024,1024,1024,0,0,0,0,69,4.94,65.12,37.073492,P-GPS,,11.3
133,453600,2026-01-11 15:37:45,0.0,5,7.438,0.0,0.0,0.0,12.6,0.9,-1.3,1024,1024,1024,1024,0,0,0,0,69,4.94,65.12,37.073492,P-GPS,,11.3
134,453700,2026-01-11 15:37:45,0.0,5,7.438,0.0,0.0,0.0,12.6,1.2,-0.9,1024,1024,1024,1024,0,0,0,0,69,4.94,65.12,37.073492,P-GPS,,11.3
135,453800,2026-01-11 15:37:45,0.0,5,7.438,0.0,0.0,0.0,12.6,1.2,-0.6,1024,1024,1024,1024,0,0,0,0,69,4.94,65.12,36.745408,P-GPS,,11.2
136,453900,2026-01-11 15:37:46,0.0,5,7.438,0.0,0.0,0.0,12.6,1.2,-1.6,1024,1024,1024,1024,0,0,0,0,69,4.94,65.12,36.745408,P-GPS,,11.2
137,454000,2026-01-11 15:37:46,0.0,5,7.437,0.0,0.0,0.0,12.7,0.9,-2.8,1024,1024,1024,1024,0,0,0,0,69,4.943,65.12,36.745408,P-GPS,,11.2
138,454100,2026-01-11 15:37:46,0.0,5,7.437,0.0,0.0,0.0,12.7,0.9,-2.9,1024,1024,1024,1024,0,0,0,0,69,4.943,65.12,36.745408,P-GPS,,11.2
139,454200,2026-01-11 15:37:46,0.223694,5,7.437,0.0,0.223694,0.0,12.3,1.2,-3.3,1024,1024,1024,1024,0,0,0,0,69,4.943,65.12,36.745408,P-GPS,,11.2
140,454300,2026-01-11 15:37:46,0.223694,5,7.437,0.0,0.223694,0.0,12.3,1.7,-3.5,1024,1024,1024,1024,0,0,0,0,69,4.943,65.12,36.745408,P-GPS,,11.2
141,454400,2026-01-11 15:37:46,0.0,5,7.437,0.0,0.0,0.0,12.4,1.5,-3.6,1024,1024,1024,1024,0,0,0,0,69,4.943,65.12,36.745408,P-GPS,,11.2
142,454500,2026-01-11 15:37:46,0.0,5,7.437,0.0,0.0,0.0,12.6,1.4,-3.7,1024,1024,1024,1024,0,0,0,0,69,4.943,65.12,36.745408,P-GPS,,11.2
143,454600,2026-01-11 15:37:46,0.0,5,7.437,0.0,0.0,0.0,12.5,1.5,-4.4,1024,1024,1024,1024,0,0,0,0,69,4.943,65.12,36.745408,P-GPS,,11.2
144,454700,2026-01-11 15:37:46,0.0,5,7.437,0.0,0.0,0.0,12.6,1.1,-4.3,1024,1024,1024,1024,0,0,0,0,69,4.943,65.12,36.745408,P-GPS,,11.2
145,454800,2026-01-11 15:37:46,0.0,5,7.437,0.0,0.0,0.0,12.7,1.2,-4.1,1024,1024,1024,1024,0,0,0,0,69,4.943,65.12,36.745408,P-GPS,,11.2
146,454900,2026-01-11 15:37:47,0.0,5,7.437,0.0,0.0,0.0,12.7,1.4,-3.6,1024,1024,1024,1024,0,0,0,0,69,4.943,65.12,36.745408,P-GPS,,11.2
147,455000,2026-01-11 15:37:47,0.0,5,7.437,0.0,0.0,0.0,12.7,0.9,-3.3,1024,1024,1024,1024,0,0,0,0,69,4.943,65.12,36.417324,P-GPS,,11.1
148,455100,2026-01-11 15:37:47,0.0,5,7.437,0.0,0.0,0.0,12.6,0.7,-2.7,1024,1024,1024,1024,0,0,0,0,69,4.943,65.12,36.417324,P-GPS,,11.1
149,455200,2026-01-11 15:37:47,0.0,5,7.437,0.0,0.0,0.0,12.6,0.6,-1.9,1024,1024,1024,1024,0,0,0,0,69,4.943,65.12,36.417324,P-GPS,,11.1
150,455300,2026-01-11 15:37:47,0.0,5,7.437,0.0,0.0,0.0,12.6,0.4,-1.8,1024,1024,1024,1024,0,0,0,0,69,4.943,65.12,36.417324,P-GPS,,11.1
151,455400,2026-01-11 15:37:47,0.0,5,7.437,0.0,0.0,0.0,12.5,0.4,-1.9,1024,1024,1024,1024,0,0,0,0,69,4.943,65.12,36.08924,P-GPS,,11.0
152,455500,2026-01-11 15:37:47,0.0,5,7.437,0.0,0.0,0.0,12.5,0.2,-2.2,1024,1024,1024,1024,0,0,0,0,69,4.943,65.12,36.417324,P-GPS,,11.1
153,455600,2026-01-11 15:37:47,0.0,5,7.437,0.0,0.0,0.0,12.6,0.0,-3.1,1024,1024,1024,1024,0,0,0,0,69,4.943,65.12,36.417324,P-GPS,,11.1
154,455700,2026-01-11 15:37:47,0.223694,5,7.437,0.0,0.223694,0.0,12.6,0.5,-3.8,1024,1024,1024,1024,0,0,0,0,69,4.943,65.12,36.417324,P-GPS,,11.1
155,455800,2026-01-11 15:37:47,0.223694,5,7.437,0.0,0.223694,0.0,12.5,0.1,-5.1,1024,1024,1024,1024,0,0,0,0,69,4.943,65.12,36.417324,P-GPS,,11.1
156,455900,2026-01-11 15:37:48,0.223694,5,7.437,0.0,0.223694,0.0,12.4,0.5,-5.5,1024,1024,1024,1024,0,0,0,0,69,4.943,65.12,36.745408,P-GPS,,11.2
157,456000,2026-01-11 15:37:48,0.223694,5,7.437,0.0,0.223694,0.0,12.4,1.1,-5.8,1024,1024,1024,1024,0,0,0,0,69,4.943,65.12,36.745408,P-GPS,,11.2
158,456100,2026-01-11 15:37:48,0.223694,5,7.437,0.0,0.0,0.0,12.4,1.5,-5.7,1024,1024,1024,1024,0,0,0,0,69,4.943,65.12,36.745408,P-GPS,,11.2
159,456200,2026-01-11 15:37:48,0.0,5,7.425,0.0,0.0,0.0,12.6,0.7,-5.6,1024,1024,1024,1024,0,0,0,0,69,5.093,65.3,36.745408,P-GPS,,11.2
160,456300,2026-01-11 15:37:48,0.0,5,7.425,0.0,0.0,0.0,12.6,1.1,-5.4,1024,1024,1024,1024,0,0,0,0,69,5.093,65.3,36.745408,P-GPS,,11.2
161,456400,2026-01-11 15:37:48,0.0,5,7.425,0.0,0.0,0.0,12.5,1.2,-5.4,1024,1024,1024,1024,0,0,0,0,69,5.093,65.3,37.073492,P-GPS,,11.3
162,456500,2026-01-11 15:37:48,0.0,5,7.425,0.0,0.0,0.0,12.7,1.3,-5.6,1024,1024,1024,1024,0,0,0,0,69,5.093,65.3,37.073492,P-GPS,,11.3
163,456600,2026-01-11 15:37:48,0.0,5,7.425,0.0,0.0,0.0,13.1,-0.3,-5.0,1024,1024,1024,1024,0,0,0,0,69,5.093,65.3,37.073492,P-GPS,,11.3
164,456700,2026-01-11 15:37:48,0.0,5,7.425,0.0,0.0,0.0,12.8,0.7,-4.6,1024,1024,1024,1024,0,0,0,0,69,5.093,65.3,37.073492,P-GPS,,11.3
165,456800,2026-01-11 15:37:48,0.0,5,7.425,0.0,0.0,0.0,12.2,3.0,-4.9,1024,1024,1024,1024,0,0,0,0,69,5.093,65.3,37.073492,P-GPS,,11.3
166,456900,2026-01-11 15:37:49,0.0,5,7.425,0.0,0.0,0.0,12.3,3.1,-4.6,1024,1024,1024,1024,0,0,0,0,69,5.093,65.3,37.073492,P-GPS,,11.3
167,457000,2026-01-11 15:37:49,0.0,5,7.425,0.0,0.0,0.0,12.4,2.0,-4.8,1024,1024,1024,1024,0,0,0,0,69,5.093,65.3,37.073492,P-GPS,,11.3
168,457100,2026-01-11 15:37:49,0.0,5,7.425,0.0,0.0,0.0,12.5,1.2,-4.9,1024,1024,1024,1024,0,0,0,0,69,5.093,65.3,37.073492,P-GPS,,11.3
169,457200,2026-01-11 15:37:49,0.0,5,7.425,0.0,0.0,0.0,12.5,0.0,-4.9,1024,1024,1024,1024,0,0,0,0,69,5.093,65.3,37.073492,P-GPS,,11.3
170,457300,2026-01-11 15:37:49,0.223694,5,7.435,-0.223694,0.0,0.0,12.6,-0.9,-4.8,1024,1024,1024,1024,0,0,0,0,69,4.926,65.48,37.073492,P-GPS,,11.3
171,457400,2026-01-11 15:37:49,0.223694,5,7.435,-0.223694,0.0,0.0,12.6,-1.2,-4.8,1024,1024,1024,1024,0,0,0,0,69,4.926,65.48,37.073492,P-GPS,,11.3
172,457500,2026-01-11 15:37:49,0.0,5,7.435,0.0,0.0,0.0,12.7,-0.9,-4.6,1024,1024,1024,1024,0,0,0,0,69,4.926,65.48,37.073492,P-GPS,,11.3
173,457600,2026-01-11 15:37:49,0.0,5,7.435,0.0,0.0,0.0,12.7,-1.1,-4.6,1024,1024,1024,1024,0,0,0,0,69,4.926,65.48,37.073492,P-GPS,,11.3
174,457700,2026-01-11 15:37:49,0.0,5,7.435,0.0,0.0,0.0,12.7,-1.9,-3.9,1024,1024,1024,1024,0,0,0,0,69,4.926,65.48,37.073492,P-GPS,,11.3
175,457800,2026-01-11 15:37:49,0.0,5,7.435,0.0,0.0,0.0,12.7,-1.9,-4.1,1024,1024,1024,1024,0,0,0,0,69,4.926,65.48,37.073492,P-GPS,,11.3
176,457900,2026-01-11 15:37:50,0.0,5,7.435,0.0,0.0,0.0,12.6,-0.7,-4.6,1024,1024,1024,1024,0,0,0,0,69,4.926,65.48,37.073492,P-GPS,,11.3
177,458000,2026-01-11 15:37:50,0.0,5,7.435,0.0,0.0,0.0,12.7,-1.1,-5.3,1024,1024,1024,1024,0,0,0,0,69,4.926,65.48,37.073492,P-GPS,,11.3
178,458100,2026-01-11 15:37:50,0.0,5,7.435,0.0,0.0,0.0,12.5,-1.1,-5.4,1024,1024,1024,1024,0,0,0,0,69,4.926,65.48,37.073492,P-GPS,,11.3
179,458200,2026-01-11 15:37:50,0.223694,5,7.435,0.223694,0.0,0.0,12.4,1.3,-5.6,1024,1024,1024,1024,0,0,0,0,69,4.926,65.48,37.073492,P-GPS,,11.3
180,458300,2026-01-11 15:37:50,0.223694,5,7.435,0.223694,0.0,0.0,12.2,2.7,-5.7,1024,1024,1024,1024,0,0,0,0,69,4.926,65.48,37.073492,P-GPS,,11.3
181,458400,2026-01-11 15:37:50,0.0,5,7.433,0.0,0.0,0.0,12.8,2.0,-5.9,1024,1024,1024,1024,0,0,0,0,69,4.879,65.48,37.073492,P-GPS,,11.3
182,458500,2026-01-11 15:37:50,0.0,5,7.433,0.0,0.0,0.0,12.7,1.2,-5.8,1024,1024,1024,1024,0,0,0,0,69,4.879,65.48,37.401576,P-GPS,,11.4
183,458600,2026-01-11 15:37:50,0.0,5,7.433,0.0,0.0,0.0,12.4,2.3,-6.7,1024,1024,1024,1024,0,0,0,0,69,4.879,65.48,37.401576,P-GPS,,11.4
184,458700,2026-01-11 15:37:50,0.0,5,7.433,0.0,0.0,0.0,12.4,3.0,-5.9,1024,1024,1024,1024,0,0,0,0,69,4.879,65.48,37.401576,P-GPS,,11.4
185,458800,2026-01-11 15:37:50,0.0,5,7.433,0.0,0.0,0.0,12.7,1.2,-6.3,1024,1024,1024,1024,0,0,0,0,69,4.879,65.48,37.401576,P-GPS,,11.4
186,458900,2026-01-11 15:37:51,0.0,5,7.433,0.0,0.0,0.0,12.9,0.1,-6.0,1024,1024,1024,1024,0,0,0,0,69,4.879,65.48,37.401576,P-GPS,,11.4
187,459000,2026-01-11 15:37:51,0.223694,5,7.433,0.223694,0.0,0.0,12.6,0.2,-5.9,1024,1024,1024,1024,0,0,0,0,69,4.879,65.48,37.073492,P-GPS,,11.3
188,459100,2026-01-11 15:37:51,0.223694,5,7.433,0.223694,0.0,0.0,12.2,2.5,-5.8,1024,1024,1024,1024,0,0,0,0,69,4.879,65.48,37.073492,P-GPS,,11.3
189,459200,2026-01-11 15:37:51,0.223694,5,7.433,0.223694,0.0,0.0,12.1,3.6,-5.7,1024,1024,1024,1024,0,0,0,0,69,4.879,65.48,37.073492,P-GPS,,11.3
190,459300,2026-01-11 15:37:51,0.223694,5,7.433,0.223694,0.0,0.0,12.2,3.0,-5.4,1024,1024,1024,1024,0,0,0,0,69,4.879,65.48,37.073492,P-GPS,,11.3
191,459400,2026-01-11 15:37:51,0.223694,5,7.433,0.223694,0.0,0.0,12.2,3.6,-4.8,1024,1024,1024,1024,0,0,0,0,69,4.879,65.48,36.745408,P-GPS,,11.2
192,459500,2026-01-11 15:37:51,0.0,5,7.443,0.0,0.0,0.0,12.1,4.5,-4.7,1024,1024,1024,1024,0,0,0,0,69,4.667,65.48,36.745408,P-GPS,,11.2
193,459600,2026-01-11 15:37:51,0.0,5,7.443,0.0,0.0,0.0,12.3,3.7,-5.5,1024,1024,1024,1024,0,0,0,0,69,4.667,65.48,36.745408,P-GPS,,11.2
194,459700,2026-01-11 15:37:51,0.0,5,7.443,0.0,0.0,0.0,12.4,3.9,-5.9,1024,1024,1024,1024,0,0,0,0,69,4.667,65.48,36.745408,P-GPS,,11.2
195,459800,2026-01-11 15:37:52,0.0,5,7.443,0.0,0.0,0.0,12.5,2.9,-5.6,1024,1024,1024,1024,0,0,0,0,69,4.667,65.48,36.417324,P-GPS,,11.1
196,459900,2026-01-11 15:37:52,0.0,5,7.443,0.0,0.0,0.0,12.4,2.9,-6.0,1024,1024,1024,1024,0,0,0,0,69,4.667,65.48,36.417324,P-GPS,,11.1
197,460000,2026-01-11 15:37:52,0.0,5,7.443,0.0,0.0,0.0,12.7,1.2,-6.1,1024,1024,1024,1024,0,0,0,0,69,4.667,65.48,36.417324,P-GPS,,11.1
198,460100,2026-01-11 15:37:52,0.0,5,7.443,0.0,0.0,0.0,12.6,0.9,-5.8,1024,1024,1024,1024,0,0,0,0,69,4.667,65.48,36.417324,P-GPS,,11.1
199,460200,2026-01-11 15:37:52,0.0,5,7.443,0.0,0.0,0.0,12.6,2.9,-5.3,1024,1024,1024,1024,0,0,0,0,69,4.667,65.48,36.417324,P-GPS,,11.1
200,460300,2026-01-11 15:37:52,0.0,5,7.443,0.0,0.0,0.0,12.8,1.7,-5.0,1024,1024,1024,1024,0,0,0,0,69,4.667,65.48,36.08924,P-GPS,,11.0
201,460400,2026-01-11 15:37:52,0.0,5,7.443,0.0,0.0,0.0,12.8,1.3,-5.4,1024,1024,1024,1024,0,0,0,0,69,4.667,65.48,36.08924,P-GPS,,11.0
202,460500,2026-01-11 15:37:52,0.223694,5,7.443,0.223694,0.0,0.0,12.7,3.3,-4.8,1024,1024,1024,1024,0,0,0,0,69,4.667,65.48,36.08924,P-GPS,,11.0
203,460600,2026-01-11 15:37:52,0.223694,5,7.442,0.223694,0.0,0.0,12.6,4.8,-4.3,1024,1024,1024,1024,0,0,0,0,69,4.778,65.48,35.761156,P-GPS,,10.9
204,460700,2026-01-11 15:37:52,0.223694,5,7.442,0.223694,0.0,0.0,12.6,5.0,-3.0,1024,1024,1024,1024,0,0,0,0,69,4.778,65.48,35.761156,P-GPS,,10.9
205,460800,2026-01-11 15:37:52,0.0,5,7.442,0.0,0.0,0.0,12.4,5.9,-3.3,1024,1024,1024,1024,0,0,0,0,69,4.778,65.48,35.433072,P-GPS,,10.8
206,460900,2026-01-11 15:37:53,0.0,5,7.442,0.0,0.0,0.0,12.3,3.7,-4.3,1024,1024,1024,1024,0,0,0,0,69,4.778,65.48,35.433072,P-GPS,,10.8
207,461000,2026-01-11 15:37:53,0.0,5,7.442,0.0,0.0,0.0,12.3,3.8,-4.6,1024,1024,1024,1024,0,0,0,0,69,4.778,65.48,35.433072,P-GPS,,10.8
208,461100,2026-01-11 15:37:53,0.0,5,7.442,0.0,0.0,0.0,12.8,1.9,-4.7,1024,1024,1024,1024,0,0,0,0,69,4.778,65.48,35.433072,P-GPS,,10.8
209,461200,2026-01-11 15:37:53,0.0,5,7.442,0.0,0.0,0.0,12.8,2.0,-5.0,1024,1024,1024,1024,0,0,0,0,69,4.778,65.48,35.104988,P-GPS,,10.7
210,461300,2026-01-11 15:37:53,0.0,5,7.442,0.0,0.0,0.0,12.8,2.4,-4.1,1024,1024,1024,1024,0,0,0,0,69,4.778,65.48,35.104988,P-GPS,,10.7
211,461400,2026-01-11 15:37:53,0.0,5,7.442,0.0,0.0,0.0,12.7,2.9,-3.4,1024,1024,1024,1024,0,0,0,0,69,4.778,65.48,35.104988,P-GPS,,10.7
212,461500,2026-01-11 15:37:53,0.0,5,7.442,0.0,0.0,0.0,12.7,2.9,-2.9,1024,1024,1024,1024,0,0,0,0,69,4.778,65.48,35.104988,P-GPS,,10.7
213,461600,2026-01-11 15:37:53,0.0,5,7.442,0.0,0.0,0.0,12.4,4.9,-3.0,1024,1024,1024,1024,0,0,0,0,69,4.778,65.48,34.776904,P-GPS,,10.6
214,461700,2026-01-11 15:37:53,0.0,5,7.454,0.0,0.0,0.0,12.3,5.7,-2.7,1024,1024,1024,1024,0,0,0,0,69,4.557,65.48,34.776904,P-GPS,,10.6
215,461800,2026-01-11 15:37:53,0.0,5,7.454,-0.223694,0.0,0.0,12.3,3.5,-3.0,1024,1024,1024,1024,0,0,0,0,69,4.557,65.48,34.776904,P-GPS,,10.6
216,461900,2026-01-11 15:37:54,0.223694,5,7.454,-0.223694,0.0,0.0,12.5,0.7,-2.9,1024,1024,1024,1024,0,0,0,0,69,4.557,65.48,34.776904,P-GPS,,10.6
217,462000,2026-01-11 15:37:54,0.223694,5,7.454,-0.223694,0.0,0.0,12.7,-0.3,-2.9,1024,1024,1024,1024,0,0,0,0,69,4.557,65.48,34.776904,P-GPS,,10.6
218,462100,2026-01-11 15:37:54,0.223694,5,7.454,-0.223694,0.0,0.0,12.8,-0.3,-2.7,1024,1024,1024,1024,0,0,0,0,69,4.557,65.48,34.776904,P-GPS,,10.6
219,462200,2026-01-11 15:37:54,0.0,5,7.454,0.0,0.0,0.0,12.7,1.5,-3.3,1024,1024,1024,1024,0,0,0,0,69,4.557,65.48,34.44882,P-GPS,,10.5
220,462300,2026-01-11 15:37:54,0.0,5,7.454,0.0,0.0,0.0,12.7,1.9,-3.3,1024,1024,1024,1024,0,0,0,0,69,4.557,65.48,34.44882,P-GPS,,10.5
221,462400,2026-01-11 15:37:54,0.0,5,7.454,0.0,0.0,0.0,12.6,2.5,-4.1,1024,1024,1024,1024,0,0,0,0,69,4.557,65.48,34.44882,P-GPS,,10.5
222,462500,2026-01-11 15:37:54,0.0,5,7.454,0.0,0.0,0.0,12.4,2.0,-4.5,1024,1024,1024,1024,0,0,0,0,69,4.557,65.48,34.44882,P-GPS,,10.5
223,462600,2026-01-11 15:37:54,0.0,5,7.454,0.0,0.0,0.0,12.6,0.9,-4.5,1024,1024,1024,1024,0,0,0,0,69,4.557,65.48,34.44882,P-GPS,,10.5
224,462700,2026-01-11 15:37:54,0.0,5,7.454,0.0,0.0,0.0,13.2,-0.5,-4.7,1024,1024,1024,1024,0,0,0,0,69,4.557,65.48,34.44882,P-GPS,,10.5
225,462800,2026-01-11 15:37:54,0.0,5,7.436,0.0,0.0,0.0,13.1,1.1,-4.5,1024,1024,1024,1024,0,0,0,0,69,4.803,65.48,34.44882,P-GPS,,10.5
226,462900,2026-01-11 15:37:55,0.0,5,7.436,0.0,0.0,0.0,13.2,2.4,-3.6,1024,1024,1024,1024,0,0,0,0,69,4.803,65.48,34.44882,P-GPS,,10.5
227,463000,2026-01-11 15:37:55,0.0,5,7.436,0.0,0.0,0.0,13.1,3.4,-3.4,1024,1024,1024,1024,0,0,0,0,69,4.803,65.48,34.44882,P-GPS,,10.5
228,463100,2026-01-11 15:37:55,0.0,5,7.436,0.0,0.0,0.0,12.6,4.9,-3.4,1024,1024,1024,1024,0,0,0,0,69,4.803,65.48,34.44882,P-GPS,,10.5
229,463200,2026-01-11 15:37:55,0.0,5,7.436,0.0,0.0,0.0,12.5,3.8,-2.9,1024,1024,1024,1024,0,0,0,0,69,4.803,65.48,34.44882,P-GPS,,10.5
230,463300,2026-01-11 15:37:55,0.0,5,7.436,0.0,0.0,0.0,12.7,1.6,-2.4,1024,1024,1024,1024,0,0,0,0,69,4.803,65.48,34.120736,P-GPS,,10.4
231,463400,2026-01-11 15:37:55,0.0,5,7.436,0.0,0.0,0.0,12.8,0.4,-1.4,1024,1024,1024,1024,0,0,0,0,69,4.803,65.48,34.120736,P-GPS,,10.4
232,463500,2026-01-11 15:37:55,0.0,5,7.436,0.0,0.0,0.0,12.5,1.1,-1.7,1024,1024,1024,1024,0,0,0,0,69,4.803,65.48,34.120736,P-GPS,,10.4
233,463600,2026-01-11 15:37:55,0.0,5,7.436,0.0,0.0,0.0,12.5,2.1,-2.2,1024,1024,1024,1024,0,0,0,0,69,4.803,65.48,34.120736,P-GPS,,10.4
234,463700,2026-01-11 15:37:55,0.0,5,7.436,0.0,0.0,0.0,12.5,1.6,-2.5,1024,1024,1024,1024,0,0,0,0,69,4.803,65.48,34.120736,P-GPS,,10.4
235,463800,2026-01-11 15:37:55,0.0,5,7.436,0.0,0.0,0.0,12.9,-0.4,-3.8,1024,1024,1024,1024,0,0,0,0,69,4.803,65.48,34.120736,P-GPS,,10.4
236,463900,2026-01-11 15:37:56,0.0,5,7.433,0.0,0.0,0.0,12.9,0.7,-5.1,1024,1024,1024,1024,0,0,0,0,69,4.836,65.48,34.120736,P-GPS,,10.4
237,464000,2026-01-11 15:37:56,0.0,5,7.433,0.0,0.0,0.0,12.7,1.8,-4.5,1024,1024,1024,1024,0,0,0,0,69,4.836,65.48,34.120736,P-GPS,,10.4
238,464100,2026-01-11 15:37:56,0.0,5,7.433,0.0,0.0,0.0,12.6,2.6,-3.7,1024,1024,1024,1024,0,0,0,0,69,4.836,65.48,34.120736,P-GPS,,10.4
239,464200,2026-01-11 15:37:56,0.0,5,7.433,0.0,0.0,0.0,12.7,1.7,-3.4,1024,1024,1024,1024,0,0,0,0,69,4.836,65.48,34.120736,P-GPS,,10.4
240,464300,2026-01-11 15:37:56,0.0,5,7.433,0.0,0.0,0.0,12.5,2.6,-3.6,1024,1024,1024,1024,0,0,0,0,69,4.836,65.48,34.120736,P-GPS,,10.4
241,464400,2026-01-11 15:37:56,0.0,5,7.433,0.0,0.0,0.0,12.4,4.0,-3.2,1024,1024,1024,1024,0,0,0,0,69,4.836,65.48,34.120736,P-GPS,,10.4
242,464500,2026-01-11 15:37:56,0.0,5,7.433,0.0,0.0,0.0,12.1,4.0,-3.3,1024,1024,1024,1024,0,0,0,0,69,4.836,65.48,34.120736,P-GPS,,10.4
243,464600,2026-01-11 15:37:56,0.0,5,7.433,0.0,0.0,0.0,12.3,3.2,-3.9,1024,1024,1024,1024,0,0,0,0,69,4.836,65.48,34.44882,P-GPS,,10.5
244,464700,2026-01-11 15:37:56,0.0,5,7.433,0.0,0.0,0.0,12.4,2.7,-3.4,1024,1024,1024,1024,0,0,0,0,69,4.836,65.48,34.44882,P-GPS,,10.5
245,464800,2026-01-11 15:37:56,0.0,5,7.433,0.0,0.0,0.0,12.3,3.2,-3.8,1024,1024,1024,1024,0,0,0,0,69,4.836,65.48,34.44882,P-GPS,,10.5
246,464900,2026-01-11 15:37:57,0.223694,5,7.433,-0.223694,0.0,0.0,12.3,2.1,-4.1,1024,1024,1024,1024,0,0,0,0,69,4.836,65.48,34.44882,P-GPS,,10.5
247,465000,2026-01-11 15:37:57,0.223694,5,7.42,-0.223694,0.0,0.0,12.4,1.1,-4.2,1024,1024,1024,1024,0,0,0,0,69,4.901,65.48,34.776904,P-GPS,,10.6
248,465100,2026-01-11 15:37:57,0.223694,5,7.42,-0.223694,0.0,0.0,12.6,-0.9,-4.8,1024,1024,1024,1024,0,0,0,0,69,4.901,65.48,34.776904,P-GPS,,10.6
249,465200,2026-01-11 15:37:57,0.0,5,7.42,0.0,0.0,0.0,12.6,-0.2,-4.9,1024,1024,1024,1024,0,0,0,0,69,4.901,65.48,34.776904,P-GPS,,10.6
250,465300,2026-01-11 15:37:57,0.0,5,7.42,0.0,0.0,0.0,12.7,0.7,-5.1,1024,1024,1024,1024,0,0,0,0,69,4.901,65.48,34.776904,P-GPS,,10.6
251,465400,2026-01-11 15:37:57,0.0,5,7.42,0.0,0.0,0.0,12.5,1.2,-4.7,1024,1024,1024,1024,0,0,0,0,69,4.901,65.48,34.776904,P-GPS,,10.6
252,465500,2026-01-11 15:37:57,0.0,5,7.42,0.0,0.0,0.0,12.7,-0.1,-4.3,1024,1024,1024,1024,0,0,0,0,69,4.901,65.48,35.104988,P-GPS,,10.7
253,465600,2026-01-11 15:37:57,0.0,5,7.42,0.0,0.0,0.0,13.0,-0.5,-3.6,1024,1024,1024,1024,0,0,0,0,69,4.901,65.48,35.104988,P-GPS,,10.7
254,465700,2026-01-11 15:37:57,0.0,5,7.42,0.0,0.0,0.0,12.9,0.0,-4.1,1024,1024,1024,1024,0,0,0,0,69,4.901,65.48,34.776904,P-GPS,,10.6
255,465800,2026-01-11 15:37:57,0.0,5,7.42,0.0,0.0,0.0,12.9,0.4,-3.6,1024,1024,1024,1024,0,0,0,0,69,4.901,65.48,34.776904,P-GPS,,10.6
256,465900,2026-01-11 15:37:58,0.223694,5,7.42,0.223694,0.0,0.0,12.8,1.8,-2.4,1024,1024,1024,1024,0,0,0,0,69,4.901,65.48,34.776904,P-GPS,,10.6
257,466000,2026-01-11 15:37:58,0.223694,5,7.42,0.223694,0.0,0.0,12.7,2.3,-2.3,1024,1024,1024,1024,0,0,0,0,69,4.901,65.48,34.776904,P-GPS,,10.6
258,466100,2026-01-11 15:37:58,0.223694,5,7.42,0.223694,0.0,0.0,12.7,2.7,-2.1,1024,1024,1024,1024,0,0,0,0,69,4.901,65.48,34.776904,P-GPS,,10.6
259,466200,2026-01-11 15:37:58,0.223694,5,7.42,0.223694,0.0,0.0,12.9,3.1,-1.9,1024,1024,1024,1024,0,0,0,0,69,4.901,65.48,34.44882,P-GPS,,10.5
260,466300,2026-01-11 15:37:58,0.223694,5,7.42,0.223694,0.0,0.0,13.1,3.2,-1.1,1024,1024,1024,1024,0,0,0,0,69,4.901,65.48,34.44882,P-GPS,,10.5
261,466400,2026-01-11 15:37:58,0.223694,5,7.42,0.223694,0.0,0.0,13.0,3.9,-2.0,1024,1024,1024,1024,0,0,0,0,69,4.901,65.48,34.44882,P-GPS,,10.5
262,466500,2026-01-11 15:37:58,0.223694,5,7.42,0.223694,0.0,0.0,12.9,4.4,-2.3,1024,1024,1024,1024,0,0,0,0,69,4.901,65.48,34.44882,P-GPS,,10.5
263,466600,2026-01-11 15:37:58,0.223694,5,7.42,0.223694,0.0,0.0,12.9,4.7,-2.9,1024,1024,1024,1024,0,0,0,0,69,4.901,65.48,34.44882,P-GPS,,10.5
264,466700,2026-01-11 15:37:58,0.0,5,7.42,0.0,0.0,0.0,12.9,4.8,-3.2,1024,1024,1024,1024,0,0,0,0,69,4.901,65.48,34.44882,P-GPS,,10.5
265,466800,2026-01-11 15:37:58,0.0,5,7.42,0.0,0.0,0.0,12.9,4.7,-2.9,1024,1024,1024,1024,0,0,0,0,69,4.901,65.48,34.44882,P-GPS,,10.5
266,466900,2026-01-11 15:37:59,0.0,5,7.42,0.0,0.0,0.0,12.8,4.5,-3.6,1024,1024,1024,1024,0,0,0,0,69,4.901,65.48,34.44882,P-GPS,,10.5
267,467000,2026-01-11 15:37:59,0.0,5,7.42,0.0,0.0,0.0,12.7,4.9,-3.9,1024,1024,1024,1024,0,0,0,0,69,4.901,65.48,34.44882,P-GPS,,10.5
268,467100,2026-01-11 15:37:59,0.0,5,7.42,0.0,0.0,0.0,12.7,4.8,-3.6,1024,1024,1024,1024,0,0,0,0,69,4.901,65.48,34.44882,P-GPS,,10.5
269,467200,2026-01-11 15:37:59,0.0,5,7.428,0.0,0.0,0.0,12.8,4.7,-3.6,1024,1024,1024,1024,0,0,0,0,69,4.946,65.66,34.44882,P-GPS,,10.5
270,467300,2026-01-11 15:37:59,0.0,5,7.428,0.0,0.0,0.0,12.6,4.8,-3.7,1024,1024,1024,1024,0,0,0,0,69,4.946,65.66,34.44882,P-GPS,,10.5
271,467400,2026-01-11 15:37:59,0.0,5,7.428,0.0,0.0,0.0,12.7,4.2,-4.3,1024,1024,1024,1024,0,0,0,0,69,4.946,65.66,34.44882,P-GPS,,10.5
272,467500,2026-01-11 15:37:59,0.0,5,7.428,0.0,0.0,0.0,12.7,4.4,-4.6,1024,1024,1024,1024,0,0,0,0,69,4.946,65.66,34.44882,P-GPS,,10.5
273,467600,2026-01-11 15:37:59,0.0,5,7.428,0.0,0.0,0.0,12.6,4.5,-5.0,1024,1024,1024,1024,0,0,0,0,69,4.946,65.66,34.44882,P-GPS,,10.5
274,467700,2026-01-11 15:37:59,0.0,5,7.428,0.0,0.0,0.0,12.5,4.8,-4.9,1024,1024,1024,1024,0,0,0,0,69,4.946,65.66,34.44882,P-GPS,,10.5
275,467800,2026-01-11 15:37:59,0.0,5,7.428,0.0,0.0,0.0,12.9,3.6,-4.8,1024,1024,1024,1024,0,0,0,0,69,4.946,65.66,34.776904,P-GPS,,10.6
276,467900,2026-01-11 15:38:00,0.0,5,7.428,0.0,0.0,0.0,12.7,4.1,-4.6,1024,1024,1024,1024,0,0,0,0,69,4.946,65.66,34.44882,P-GPS,,10.5
277,468000,2026-01-11 15:38:00,0.0,5,7.428,0.0,0.0,0.0,12.6,4.6,-4.2,1024,1024,1024,1024,0,0,0,0,69,4.946,65.66,34.44882,P-GPS,,10.5
278,468100,2026-01-11 15:38:00,0.0,5,7.428,0.0,0.0,0.0,12.5,4.6,-4.4,1024,1024,1024,1024,0,0,0,0,69,4.946,65.66,34.44882,P-GPS,,10.5
279,468200,2026-01-11 15:38:00,0.0,5,7.428,0.0,0.0,0.0,12.7,4.8,-3.5,1024,1024,1024,1024,0,0,0,0,69,4.946,65.66,34.44882,P-GPS,,10.5
280,468300,2026-01-11 15:38:00,0.0,5,7.415,0.0,0.0,0.0,12.6,4.7,-3.4,1024,1024,1024,1024,0,0,0,0,69,5.112,65.66,34.44882,P-GPS,,10.5
281,468400,2026-01-11 15:38:00,0.0,5,7.415,0.0,0.0,0.0,12.6,4.5,-3.0,1024,1024,1024,1024,0,0,0,0,69,5.112,65.66,34.44882,P-GPS,,10.5
282,468500,2026-01-11 15:38:00,0.0,5,7.415,0.0,0.0,0.0,12.5,3.3,-4.6,1024,1024,1024,1024,0,0,0,0,69,5.112,65.66,34.776904,P-GPS,,10.6
283,468600,2026-01-11 15:38:00,0.0,5,7.415,0.0,0.0,0.0,12.2,3.9,-5.8,1024,1024,1024,1024,0,0,0,0,69,5.112,65.66,34.776904,P-GPS,,10.6
284,468700,2026-01-11 15:38:00,0.0,5,7.415,0.0,0.0,0.0,12.2,3.7,-6.2,1024,1024,1024,1024,0,0,0,0,69,5.112,65.66,34.776904,P-GPS,,10.6
285,468800,2026-01-11 15:38:00,0.0,5,7.415,0.0,0.0,0.0,12.3,3.6,-6.1,1024,1024,1024,1024,0,0,0,0,69,5.112,65.66,34.776904,P-GPS,,10.6
286,468900,2026-01-11 15:38:01,0.0,5,7.415,0.0,0.0,0.0,12.3,3.2,-5.9,1024,1024,1024,1024,0,0,0,0,69,5.112,65.66,34.776904,P-GPS,,10.6
287,469000,2026-01-11 15:38:01,0.0,5,7.415,0.0,0.0,0.0,12.4,3.2,-5.3,1024,1024,1024,1024,0,0,0,0,69,5.112,65.66,34.776904,P-GPS,,10.6
288,469100,2026-01-11 15:38:01,0.0,5,7.415,0.0,0.0,0.0,12.5,2.9,-4.8,1024,1024,1024,1024,0,0,0,0,69,5.112,65.66,34.776904,P-GPS,,10.6
289,469200,2026-01-11 15:38:01,0.0,5,7.415,0.0,0.0,0.0,12.7,2.3,-4.7,1024,1024,1024,1024,0,0,0,0,69,5.112,65.66,34.776904,P-GPS,,10.6
290,469300,2026-01-11 15:38:01,0.0,5,7.415,0.0,0.0,0.0,12.6,2.2,-4.7,1024,1024,1024,1024,0,0,0,0,69,5.112,65.66,34.776904,P-GPS,,10.6
291,469400,2026-01-11 15:38:01,0.0,5,7.4,0.0,0.0,0.0,12.3,2.8,-5.0,1024,1024,1024,1024,0,0,0,0,68,5.146,65.66,34.776904,P-GPS,,10.6
292,469500,2026-01-11 15:38:01,0.0,5,7.4,0.0,0.0,0.0,12.2,3.0,-5.0,1024,1024,1024,1024,0,0,0,0,68,5.146,65.66,35.104988,P-GPS,,10.7
293,469600,2026-01-11 15:38:01,0.0,5,7.4,0.0,0.0,0.0,12.1,2.8,-4.8,1024,1024,1024,1024,0,0,0,0,68,5.146,65.66,35.104988,P-GPS,,10.7
294,469700,2026-01-11 15:38:01,0.0,5,7.4,0.0,0.0,0.0,11.9,3.6,-4.8,1024,1024,1024,1024,0,0,0,0,68,5.146,65.66,35.104988,P-GPS,,10.7
295,469800,2026-01-11 15:38:01,0.0,5,7.4,0.0,0.0,0.0,11.9,3.6,-5.2,1024,1024,1024,1024,0,0,0,0,68,5.146,65.66,35.104988,P-GPS,,10.7
296,469900,2026-01-11 15:38:01,0.0,5,7.4,0.0,0.0,0.0,12.2,2.9,-5.1,1024,1024,1024,1024,0,0,0,0,68,5.146,65.66,35.104988,P-GPS,,10.7
297,470000,2026-01-11 15:38:02,0.0,5,7.4,0.0,0.0,0.0,12.5,2.9,-4.6,1024,1024,1024,1024,0,0,0,0,68,5.146,65.66,35.104988,P-GPS,,10.7
298,470100,2026-01-11 15:38:02,0.0,5,7.4,0.0,0.0,0.0,12.5,3.1,-4.6,1024,1024,1024,1024,0,0,0,0,68,5.146,65.66,35.104988,P-GPS,,10.7
299,470200,2026-01-11 15:38:02,0.0,5,7.4,0.0,0.0,0.0,12.5,3.8,-3.9,1024,1024,1024,1024,0,0,0,0,68,5.146,65.66,34.776904,P-GPS,,10.6
300,470300,2026-01-11 15:38:02,0.0,5,7.4,0.0,0.0,0.0,12.6,4.0,-3.7,1024,1024,1024,1024,0,0,0,0,68,5.146,65.66,34.776904,P-GPS,,10.6
301,470400,2026-01-11 15:38:02,0.0,5,7.4,0.0,0.0,0.0,12.8,3.5,-3.0,1024,1024,1024,1024,0,0,0,0,68,5.146,65.66,34.776904,P-GPS,,10.6
302,470500,2026-01-11 15:38:02,0.0,5,7.434,0.0,0.0,0.0,12.8,3.8,-2.9,1024,1024,1024,1024,0,0,0,0,68,4.504,65.84,34.776904,P-GPS,,10.6
303,470600,2026-01-11 15:38:02,0.0,5,7.434,0.0,0.0,0.0,12.8,4.3,-2.9,1024,1024,1024,1024,0,0,0,0,68,4.504,65.84,34.776904,P-GPS,,10.6
304,470700,2026-01-11 15:38:02,0.0,5,7.434,0.0,0.0,0.0,12.8,5.0,-2.0,1024,1024,1024,1024,0,0,0,0,68,4.504,65.84,34.776904,P-GPS,,10.6
305,470800,2026-01-11 15:38:02,0.0,5,7.434,0.0,0.0,0.0,12.9,3.7,-2.6,1024,1024,1024,1024,0,0,0,0,68,4.504,65.84,34.776904,P-GPS,,10.6
306,470900,2026-01-11 15:38:03,0.0,5,7.434,0.0,0.0,0.0,12.8,3.8,-3.2,1024,1024,1024,1024,0,0,0,0,68,4.504,65.84,34.776904,P-GPS,,10.6
307,471000,2026-01-11 15:38:03,0.0,5,7.434,0.0,0.0,0.0,12.8,4.0,-3.1,1024,1024,1024,1024,0,0,0,0,68,4.504,65.84,34.776904,P-GPS,,10.6
308,471100,2026-01-11 15:38:03,0.0,5,7.434,0.0,0.0,0.0,12.6,4.3,-3.4,1024,1024,1024,1024,0,0,0,0,68,4.504,65.84,34.776904,P-GPS,,10.6
309,471200,2026-01-11 15:38:03,0.0,5,7.434,0.0,0.0,0.0,12.5,5.2,-3.1,1024,1024,1024,1024,0,0,0,0,68,4.504,65.84,34.776904,P-GPS,,10.6
310,471300,2026-01-11 15:38:03,0.0,5,7.434,0.0,0.0,0.0,12.5,5.2,-3.3,1024,1024,1024,1024,0,0,0,0,68,4.504,65.84,34.776904,P-GPS,,10.6
311,471400,2026-01-11 15:38:03,0.0,5,7.434,0.0,0.0,0.0,12.5,4.6,-3.9,1024,1024,1024,1024,0,0,0,0,68,4.504,65.84,34.44882,P-GPS,,10.5
312,471500,2026-01-11 15:38:03,0.0,5,7.434,0.0,0.0,0.0,12.2,4.8,-3.4,1024,1024,1024,1024,0,0,0,0,68,4.504,65.84,34.44882,P-GPS,,10.5
313,471600,2026-01-11 15:38:03,0.223694,5,7.414,-0.223694,0.0,0.0,12.1,3.6,-3.8,1024,1024,1024,1024,0,0,0,0,68,4.728,65.84,34.44882,P-GPS,,10.5
314,471700,2026-01-11 15:38:03,0.223694,5,7.414,-0.223694,0.0,0.0,12.2,2.4,-4.1,1024,1024,1024,1024,0,0,0,0,68,4.728,65.84,34.44882,P-GPS,,10.5
315,471800,2026-01-11 15:38:04,0.223694,5,7.414,-0.223694,0.0,0.0,12.3,1.0,-3.9,1024,1024,1024,1024,0,0,0,0,68,4.728,65.84,34.44882,P-GPS,,10.5
316,471900,2026-01-11 15:38:04,0.223694,5,7.414,-0.223694,0.0,0.0,12.2,0.3,-4.5,1024,1024,1024,1024,0,0,0,0,68,4.728,65.84,34.44882,P-GPS,,10.5
317,472000,2026-01-11 15:38:04,0.223694,5,7.414,-0.223694,0.0,0.0,12.1,0.7,-5.1,1024,1024,1024,1024,0,0,0,0,68,4.728,65.84,34.44882,P-GPS,,10.5
318,472100,2026-01-11 15:38:04,0.223694,5,7.414,-0.223694,0.0,0.0,12.2,0.1,-5.7,1024,1024,1024,1024,0,0,0,0,68,4.728,65.84,34.44882,P-GPS,,10.5
319,472200,2026-01-11 15:38:04,0.223694,5,7.414,-0.223694,0.0,0.0,12.4,-0.5,-5.8,1024,1024,1024,1024,0,0,0,0,68,4.728,65.84,34.44882,P-GPS,,10.5
320,472300,2026-01-11 15:38:04,0.223694,5,7.414,-0.223694,0.0,0.0,12.3,-0.6,-6.1,1024,1024,1024,1024,0,0,0,0,68,4.728,65.84,34.776904,P-GPS,,10.6
321,472400,2026-01-11 15:38:04,0.0,5,7.414,0.0,0.0,0.0,12.4,-0.4,-6.0,1024,1024,1024,1024,0,0,0,0,68,4.728,65.84,34.776904,P-GPS,,10.6
322,472500,2026-01-11 15:38:04,0.0,5,7.414,0.0,0.0,0.0,12.3,-0.1,-6.3,1024,1024,1024,1024,0,0,0,0,68,4.728,65.84,34.776904,P-GPS,,10.6
323,472600,2026-01-11 15:38:04,0.0,5,7.414,0.0,0.0,0.0,12.4,-0.1,-6.5,1024,1024,1024,1024,0,0,0,0,68,4.728,65.84,34.776904,P-GPS,,10.6
324,472700,2026-01-11 15:38:04,0.0,5,7.413,0.0,0.0,0.0,12.5,0.0,-6.8,1024,1024,1024,1024,0,0,0,0,68,4.99,65.84,34.776904,P-GPS,,10.6
325,472800,2026-01-11 15:38:04,0.0,5,7.413,0.0,0.0,0.0,12.4,0.4,-6.8,1024,1024,1024,1024,0,0,0,0,68,4.99,65.84,35.104988,P-GPS,,10.7
326,472900,2026-01-11 15:38:05,0.0,5,7.413,0.0,0.0,0.0,12.2,1.6,-6.9,1024,1024,1024,1024,0,0,0,0,68,4.99,65.84,35.104988,P-GPS,,10.7
327,473000,2026-01-11 15:38:05,0.0,5,7.413,0.0,0.0,0.0,12.5,1.3,-7.0,1024,1024,1024,1024,0,0,0,0,68,4.99,65.84,35.104988,P-GPS,,10.7
