index,time(millisecond),timestamp,speed(mph),gpslevel,voltage(v),xSpeed(mph),ySpeed(mph),zSpeed(mph),compass_heading(degrees),pitch(degrees),roll(degrees),rc_elevator,rc_aileron,rc_throttle,rc_rudder,rc_elevator(percent),rc_aileron(percent),rc_throttle(percent),rc_rudder(percent),battery_percent,current(A),battery_temperature(f),ascent(feet),flycState,message,height_above_takeoff(meters)
809,221600,2026-01-13 12:23:18,0.0,5,7.753,0.0,0.0,0.0,6.4,4.0,-9.9,1024,1024,1024,1024,0,0,0,0,84,3.677,70.88,164.370084,P-GPS,,50.1
810,221700,2026-01-13 12:23:18,0.0,5,7.753,0.0,0.0,0.0,6.4,4.2,-9.8,1024,1024,1024,1024,0,0,0,0,84,3.677,70.88,164.698168,P-GPS,,50.2
811,221800,2026-01-13 12:23:18,0.0,5,7.753,0.0,0.0,0.0,6.4,4.0,-10.0,1024,1024,1024,1024,0,0,0,0,84,3.677,70.88,164.698168,P-GPS,,50.2
812,221900,2026-01-13 12:23:18,0.0,5,7.753,0.0,0.0,0.0,6.4,3.7,-10.0,1024,1024,1024,1024,0,0,0,0,84,3.677,70.88,164.698168,P-GPS,,50.2
813,222000,2026-01-13 12:23:18,0.0,5,7.753,0.0,0.0,0.0,6.4,4.0,-9.4,1024,1024,1024,1024,0,0,0,0,84,3.677,70.88,164.698168,P-GPS,,50.2
814,222100,2026-01-13 12:23:18,0.0,5,7.753,0.0,0.0,0.0,6.5,4.1,-9.0,1024,1024,1024,1024,0,0,0,0,84,3.677,70.88,164.698168,P-GPS,,50.2
815,222200,2026-01-13 12:23:18,0.0,5,7.753,0.0,0.0,0.0,6.5,4.2,-8.7,1024,1024,1024,1024,0,0,0,0,84,3.677,70.88,164.698168,P-GPS,,50.2
816,222300,2026-01-13 12:23:18,0.0,5,7.753,0.0,0.0,0.0,6.4,4.1,-8.1,1024,1024,1024,1024,0,0,0,0,84,3.677,70.88,164.698168,P-GPS,,50.2
817,222400,2026-01-13 12:23:18,0.0,5,7.753,0.0,0.0,0.0,6.3,3.9,-9.0,1024,1024,1024,1024,0,0,0,0,84,3.677,70.88,164.698168,P-GPS,,50.2
818,222500,2026-01-13 12:23:19,0.0,5,7.753,0.0,0.0,0.0,6.3,4.5,-9.1,1024,1024,1024,1024,0,0,0,0,84,3.677,70.88,164.698168,P-GPS,,50.2
819,222600,2026-01-13 12:23:19,0.0,5,7.753,0.0,0.0,0.0,6.3,4.2,-8.6,1024,1024,1024,1024,0,0,0,0,84,3.677,70.88,164.698168,P-GPS,,50.2
820,222700,2026-01-13 12:23:19,0.0,5,7.722,0.0,0.0,0.0,6.3,3.7,-8.4,1024,1024,1024,1024,0,0,0,0,84,4.091,70.88,164.698168,P-GPS,SD card speed low SD card speed low. Normal use may be affected. Replace SD card (Code: 10028). Gimbal stuck. Make sure gimbal cover is removed and manually check whether gimbal can rotate freely (Code: 40002),50.2
821,222800,2026-01-13 12:23:19,0.0,5,7.722,0.0,0.0,0.0,6.4,3.7,-8.3,1024,1024,1024,1024,0,0,0,0,84,4.091,70.88,164.698168,P-GPS,,50.2
822,222900,2026-01-13 12:23:19,0.0,5,7.722,0.0,0.0,0.0,6.4,3.9,-8.3,1024,1024,1024,1024,0,0,0,0,84,4.091,70.88,164.698168,P-GPS,,50.2
823,223000,2026-01-13 12:23:19,0.0,5,7.722,0.0,0.0,0.0,6.5,3.6,-8.5,1024,1024,1024,1024,0,0,0,0,84,4.091,70.88,164.698168,P-GPS,,50.2
824,223100,2026-01-13 12:23:19,0.0,5,7.722,0.0,0.0,0.0,6.7,2.3,-8.3,1024,1024,1024,1024,0,0,0,0,84,4.091,70.88,164.698168,P-GPS,,50.2
825,223200,2026-01-13 12:23:19,0.0,5,7.722,0.0,0.0,0.0,6.4,3.8,-8.3,1024,1024,1024,1024,0,0,0,0,84,4.091,70.88,164.698168,P-GPS,,50.2
826,223300,2026-01-13 12:23:19,0.0,5,7.722,0.0,0.0,0.0,6.5,3.9,-7.8,1024,1024,1024,1024,0,0,0,0,84,4.091,70.88,164.698168,P-GPS,,50.2
827,223400,2026-01-13 12:23:19,0.0,5,7.722,0.0,0.0,0.0,6.4,3.9,-8.1,1024,1024,1024,1024,0,0,0,0,84,4.091,70.88,164.698168,P-GPS,,50.2
828,223500,2026-01-13 12:23:20,0.0,5,7.722,0.0,0.0,0.0,6.4,4.1,-8.2,1024,1024,1024,1024,0,0,0,0,84,4.091,70.88,164.698168,P-GPS,,50.2
829,223600,2026-01-13 12:23:20,0.0,5,7.722,0.0,0.0,0.0,6.4,4.3,-8.5,1024,1024,1024,1024,0,0,0,0,84,4.091,70.88,164.698168,P-GPS,,50.2
830,223700,2026-01-13 12:23:20,0.0,5,7.722,0.0,0.0,0.0,6.4,4.7,-8.6,1024,1024,1024,1024,0,0,0,0,84,4.091,70.88,164.698168,P-GPS,,50.2
831,223800,2026-01-13 12:23:20,0.0,5,7.732,0.0,0.0,0.0,6.3,5.0,-8.6,1024,1024,1024,1024,0,0,0,0,84,3.995,70.88,164.698168,P-GPS,,50.2
832,223900,2026-01-13 12:23:20,0.0,5,7.732,0.0,0.0,0.0,6.4,5.0,-8.2,1024,1024,1024,1024,0,0,0,0,84,3.995,70.88,164.698168,P-GPS,,50.2
833,224000,2026-01-13 12:23:20,0.0,5,7.732,0.0,0.0,0.0,6.3,5.3,-8.2,1024,1024,1024,1024,0,0,0,0,84,3.995,70.88,164.698168,P-GPS,,50.2
834,224100,2026-01-13 12:23:20,0.0,5,7.732,0.0,0.0,0.0,6.3,5.3,-8.1,1024,1024,1024,1024,0,0,0,0,84,3.995,70.88,164.698168,P-GPS,,50.2
835,224200,2026-01-13 12:23:20,0.0,5,7.732,0.0,0.0,0.0,6.4,5.2,-8.1,1024,1024,1024,1024,0,0,0,0,84,3.995,70.88,164.698168,P-GPS,,50.2
836,224300,2026-01-13 12:23:20,0.0,5,7.732,0.0,0.0,0.0,6.4,5.0,-7.9,1024,1024,1024,1024,0,0,0,0,84,3.995,70.88,164.698168,P-GPS,,50.2
837,224400,2026-01-13 12:23:20,0.0,5,7.732,0.0,0.0,0.0,6.4,5.0,-7.8,1024,1024,1024,1024,0,0,0,0,84,3.995,70.88,164.698168,P-GPS,,50.2
838,224500,2026-01-13 12:23:21,0.0,5,7.732,0.0,0.0,0.0,6.4,4.8,-7.8,1024,1024,1024,1024,0,0,0,0,84,3.995,70.88,164.698168,P-GPS,,50.2
839,224600,2026-01-13 12:23:21,0.0,5,7.732,0.0,0.0,0.0,6.4,4.9,-7.7,1024,1024,1024,1024,0,0,0,0,84,3.995,70.88,164.698168,P-GPS,,50.2
840,224700,2026-01-13 12:23:21,0.0,5,7.732,0.0,0.0,0.0,6.4,4.8,-7.8,1024,1024,1024,1024,0,0,0,0,84,3.995,70.88,164.698168,P-GPS,,50.2
841,224800,2026-01-13 12:23:21,0.0,5,7.732,0.0,0.0,0.0,6.3,5.0,-8.4,1024,1024,1024,1024,0,0,0,0,84,3.995,70.88,164.698168,P-GPS,,50.2
842,224900,2026-01-13 12:23:21,0.0,5,7.734,0.0,0.0,0.0,6.3,5.2,-8.4,1024,1024,1024,1024,0,0,0,0,84,4.01,71.06,164.698168,P-GPS,,50.2
843,225000,2026-01-13 12:23:21,0.0,5,7.734,0.0,0.0,0.0,6.4,4.9,-8.2,1024,1024,1024,1024,0,0,0,0,84,4.01,71.06,164.698168,P-GPS,,50.2
844,225100,2026-01-13 12:23:21,0.0,5,7.734,0.0,0.0,0.0,6.4,4.6,-8.2,1024,1024,1024,1024,0,0,0,0,84,4.01,71.06,164.698168,P-GPS,,50.2
845,225200,2026-01-13 12:23:21,0.0,5,7.734,0.0,0.0,0.0,6.3,5.4,-8.3,1024,1024,1024,1024,0,0,0,0,84,4.01,71.06,164.698168,P-GPS,,50.2
846,225300,2026-01-13 12:23:21,0.0,5,7.734,0.0,0.0,0.0,6.3,5.6,-8.1,1024,1024,1024,1024,0,0,0,0,84,4.01,71.06,164.370084,P-GPS,,50.1
847,225400,2026-01-13 12:23:21,0.0,5,7.734,0.0,0.0,0.0,6.4,5.2,-8.3,1024,1024,1024,1024,0,0,0,0,84,4.01,71.06,164.370084,P-GPS,,50.1
848,225500,2026-01-13 12:23:22,0.0,5,7.734,0.0,0.0,0.0,6.3,5.4,-8.6,1024,1024,1024,1024,0,0,0,0,84,4.01,71.06,164.370084,P-GPS,,50.1
849,225600,2026-01-13 12:23:22,0.0,5,7.734,0.0,0.0,0.0,6.4,4.4,-8.2,1024,1024,1024,1024,0,0,0,0,84,4.01,71.06,164.370084,P-GPS,,50.1
850,225700,2026-01-13 12:23:22,0.0,5,7.734,0.0,0.0,0.0,6.5,4.4,-8.6,1024,1024,1024,1024,0,0,0,0,84,4.01,71.06,164.370084,P-GPS,,50.1
851,225800,2026-01-13 12:23:22,0.0,5,7.734,0.0,0.0,0.0,6.5,4.2,-8.9,1024,1024,1024,1024,0,0,0,0,84,4.01,71.06,164.370084,P-GPS,,50.1
852,225900,2026-01-13 12:23:22,0.0,5,7.734,0.0,0.0,0.0,6.5,4.2,-8.9,1024,1024,1024,1024,0,0,0,0,84,4.01,71.06,164.370084,P-GPS,,50.1
853,226000,2026-01-13 12:23:22,0.0,5,7.726,0.0,0.0,0.0,6.4,4.3,-8.8,1024,1024,1024,1024,0,0,0,0,84,4.198,71.06,164.370084,P-GPS,,50.1
854,226100,2026-01-13 12:23:22,0.0,5,7.726,0.0,0.0,0.0,6.5,4.1,-8.6,1024,1024,1024,1024,0,0,0,0,84,4.198,71.06,164.370084,P-GPS,,50.1
855,226200,2026-01-13 12:23:22,0.0,5,7.726,0.0,0.0,0.0,6.5,4.2,-8.1,1024,1024,1024,1024,0,0,0,0,84,4.198,71.06,164.370084,P-GPS,,50.1
856,226300,2026-01-13 12:23:22,0.0,5,7.726,0.0,0.0,0.0,6.5,4.2,-7.9,1024,1024,1024,1024,0,0,0,0,84,4.198,71.06,164.370084,P-GPS,,50.1
857,226400,2026-01-13 12:23:22,0.0,5,7.726,0.0,0.0,0.0,6.5,4.4,-7.7,1024,1024,1024,1024,0,0,0,0,84,4.198,71.06,164.042,P-GPS,,50.0
858,226500,2026-01-13 12:23:22,0.0,5,7.726,0.0,0.0,0.0,6.5,4.2,-7.5,1024,1024,1024,1024,0,0,0,0,84,4.198,71.06,164.042,P-GPS,,50.0
859,226600,2026-01-13 12:23:23,0.0,5,7.726,0.0,0.0,0.0,6.4,4.7,-7.1,1024,1024,1024,1024,0,0,0,0,84,4.198,71.06,164.042,P-GPS,,50.0
860,226700,2026-01-13 12:23:23,0.0,5,7.726,0.0,0.0,0.0,6.5,4.5,-7.1,1024,1024,1024,1024,0,0,0,0,84,4.198,71.06,164.042,P-GPS,,50.0
861,226800,2026-01-13 12:23:23,0.0,5,7.726,0.0,0.0,0.0,6.5,4.4,-7.1,1024,1024,1024,1024,0,0,0,0,84,4.198,71.06,164.042,P-GPS,,50.0
862,226900,2026-01-13 12:23:23,0.0,5,7.726,0.0,0.0,0.0,6.4,4.7,-6.9,1024,1024,1024,1024,0,0,0,0,84,4.198,71.06,164.042,P-GPS,,50.0
863,227000,2026-01-13 12:23:23,0.0,5,7.726,0.0,0.0,0.0,6.4,4.4,-6.9,1024,1024,1024,1024,0,0,0,0,84,4.198,71.06,164.042,P-GPS,,50.0
864,227100,2026-01-13 12:23:23,0.0,5,7.715,0.0,0.0,0.0,6.2,4.9,-7.4,1024,1024,1024,1024,0,0,0,0,84,4.362,71.06,164.042,P-GPS,,50.0
865,227200,2026-01-13 12:23:23,0.0,5,7.715,0.0,0.0,0.0,6.3,4.3,-8.0,1024,1024,1024,1024,0,0,0,0,84,4.362,71.06,164.042,P-GPS,,50.0
866,227300,2026-01-13 12:23:23,0.0,5,7.715,0.0,0.0,0.0,6.2,4.3,-8.7,1024,1024,1024,1024,0,0,0,0,84,4.362,71.06,164.042,P-GPS,,50.0
867,227400,2026-01-13 12:23:23,0.0,5,7.715,0.0,0.0,0.0,6.2,3.9,-9.7,1024,1024,1024,1024,0,0,0,0,84,4.362,71.06,164.370084,P-GPS,,50.1
868,227500,2026-01-13 12:23:24,0.3131716,5,7.715,-0.223694,0.223694,0.0,6.5,2.2,-10.2,1024,1024,1024,1024,0,0,0,0,84,4.362,71.06,164.370084,P-GPS,,50.1
869,227600,2026-01-13 12:23:24,0.0,5,7.715,0.0,0.0,0.0,6.5,2.5,-10.6,1024,1024,1024,1024,0,0,0,0,84,4.362,71.06,164.370084,P-GPS,,50.1
870,227700,2026-01-13 12:23:24,0.0,5,7.715,0.0,0.0,0.0,6.4,3.0,-10.1,1024,1024,1024,1024,0,0,0,0,84,4.362,71.06,164.370084,P-GPS,,50.1
871,227800,2026-01-13 12:23:24,0.0,5,7.715,0.0,0.0,0.0,6.5,3.4,-9.9,1024,1024,1024,1024,0,0,0,0,84,4.362,71.06,164.370084,P-GPS,,50.1
872,227900,2026-01-13 12:23:24,0.0,5,7.715,0.0,0.0,0.0,6.5,3.9,-9.1,1024,1024,1024,1024,0,0,0,0,84,4.362,71.06,164.370084,P-GPS,,50.1
873,228000,2026-01-13 12:23:24,0.0,5,7.715,0.0,0.0,0.0,6.6,3.7,-8.2,1024,1024,1024,1024,0,0,0,0,84,4.362,71.06,164.370084,P-GPS,,50.1
874,228100,2026-01-13 12:23:24,0.0,5,7.715,0.0,0.0,0.0,6.4,4.4,-8.3,1024,1024,1024,1024,0,0,0,0,84,4.362,71.06,164.370084,P-GPS,,50.1
875,228200,2026-01-13 12:23:24,0.223694,5,7.725,0.223694,0.0,0.0,6.2,5.3,-8.0,1024,1024,1024,1024,0,0,0,0,84,4.291,71.06,164.370084,P-GPS,,50.1
876,228300,2026-01-13 12:23:24,0.223694,5,7.725,0.0,0.0,0.0,6.3,6.0,-7.2,1024,1024,1024,1024,0,0,0,0,84,4.291,71.06,164.370084,P-GPS,,50.1
877,228400,2026-01-13 12:23:24,0.0,5,7.725,0.0,0.0,0.0,6.4,5.5,-6.9,1024,1024,1024,1024,0,0,0,0,84,4.291,71.06,164.370084,P-GPS,,50.1
878,228500,2026-01-13 12:23:25,0.0,5,7.725,0.0,0.0,0.0,6.4,5.7,-6.9,1024,1024,1024,1024,0,0,0,0,84,4.291,71.06,164.370084,P-GPS,,50.1
879,228600,2026-01-13 12:23:25,0.0,5,7.725,0.0,0.0,0.0,6.4,5.5,-7.0,1024,1024,1024,1024,0,0,0,0,84,4.291,71.06,164.370084,P-GPS,,50.1
880,228700,2026-01-13 12:23:25,0.0,5,7.725,0.0,0.0,0.0,6.4,5.1,-7.1,1024,1024,1024,1024,0,0,0,0,84,4.291,71.06,164.370084,P-GPS,,50.1
881,228800,2026-01-13 12:23:25,0.0,5,7.725,0.0,0.0,0.0,6.5,4.4,-6.6,1024,1024,1024,1024,0,0,0,0,84,4.291,71.06,164.042,P-GPS,,50.0
882,228900,2026-01-13 12:23:25,0.0,5,7.725,0.0,0.0,0.0,6.5,3.8,-6.8,1024,1024,1024,1024,0,0,0,0,84,4.291,71.06,164.042,P-GPS,,50.0
883,229000,2026-01-13 12:23:25,0.0,5,7.725,0.0,0.0,0.0,6.3,3.8,-7.1,1024,1024,1024,1024,0,0,0,0,84,4.291,71.06,164.042,P-GPS,,50.0
884,229100,2026-01-13 12:23:25,0.0,5,7.725,0.0,0.0,0.0,6.3,4.2,-7.2,1024,1024,1024,1024,0,0,0,0,84,4.291,71.06,164.042,P-GPS,,50.0
885,229200,2026-01-13 12:23:25,0.0,5,7.725,0.0,0.0,0.0,6.3,4.6,-6.7,1024,1024,1024,1024,0,0,0,0,84,4.291,71.06,164.042,P-GPS,,50.0
886,229300,2026-01-13 12:23:25,0.0,5,7.736,0.0,0.0,0.0,6.4,4.2,-6.1,1024,1024,1024,1024,0,0,0,0,84,4.108,71.24,164.042,P-GPS,,50.0
887,229400,2026-01-13 12:23:25,0.0,5,7.736,0.0,0.0,0.0,6.4,4.3,-6.6,1024,1024,1024,1024,0,0,0,0,84,4.108,71.24,164.042,P-GPS,,50.0
888,229500,2026-01-13 12:23:26,0.0,5,7.736,0.0,0.0,0.0,6.5,4.3,-7.1,1024,1024,1024,1024,0,0,0,0,84,4.108,71.24,164.042,P-GPS,,50.0
889,229600,2026-01-13 12:23:26,0.0,5,7.736,0.0,0.0,0.0,6.5,3.8,-7.6,1024,1024,1024,1024,0,0,0,0,84,4.108,71.24,164.042,P-GPS,,50.0
890,229700,2026-01-13 12:23:26,0.0,5,7.736,0.0,0.0,0.0,6.5,3.8,-7.9,1024,1024,1024,1024,0,0,0,0,84,4.108,71.24,164.042,P-GPS,,50.0
891,229800,2026-01-13 12:23:26,0.0,5,7.736,0.0,0.0,0.0,6.5,4.2,-7.6,1024,1024,1024,1024,0,0,0,0,84,4.108,71.24,164.042,P-GPS,,50.0
892,229900,2026-01-13 12:23:26,0.0,5,7.736,0.0,0.0,0.0,6.5,4.7,-7.8,1024,1024,1024,1024,0,0,0,0,84,4.108,71.24,164.370084,P-GPS,,50.1
893,230000,2026-01-13 12:23:26,0.0,5,7.736,0.0,0.0,0.0,6.6,5.1,-7.8,1024,1024,1024,1024,0,0,0,0,84,4.108,71.24,164.370084,P-GPS,,50.1
894,230100,2026-01-13 12:23:26,0.0,5,7.736,0.0,0.0,0.0,6.4,6.1,-8.0,1024,1024,1024,1024,0,0,0,0,84,4.108,71.24,164.370084,P-GPS,,50.1
895,230200,2026-01-13 12:23:26,0.0,5,7.736,0.0,0.0,0.0,6.4,6.0,-8.0,1024,1024,1024,1024,0,0,0,0,84,4.108,71.24,164.370084,P-GPS,,50.1
896,230300,2026-01-13 12:23:26,0.0,5,7.736,0.0,0.0,0.0,6.3,6.8,-7.7,1024,1024,1024,1024,0,0,0,0,84,4.108,71.24,164.698168,P-GPS,,50.2
897,230400,2026-01-13 12:23:26,0.0,5,7.736,0.0,0.0,0.0,6.3,6.3,-7.8,1024,1024,1024,1024,0,0,0,0,84,4.108,71.24,164.698168,P-GPS,,50.2
898,230500,2026-01-13 12:23:27,0.0,5,7.736,0.0,0.0,0.0,6.4,6.0,-7.5,1024,1024,1024,1024,0,0,0,0,84,4.108,71.24,164.698168,P-GPS,,50.2
899,230600,2026-01-13 12:23:27,0.0,5,7.736,0.0,0.0,0.0,6.3,7.3,-7.6,1024,1024,1024,1024,0,0,0,0,84,4.108,71.24,164.698168,P-GPS,,50.2
900,230700,2026-01-13 12:23:27,0.0,5,7.736,0.0,0.0,0.0,6.2,7.8,-7.5,1024,1024,1024,1024,0,0,0,0,84,4.108,71.24,164.698168,P-GPS,,50.2
901,230800,2026-01-13 12:23:27,0.0,5,7.736,0.0,0.0,0.0,6.3,7.1,-7.7,1024,1024,1024,1024,0,0,0,0,84,4.108,71.24,164.698168,P-GPS,,50.2
902,230900,2026-01-13 12:23:27,0.0,5,7.736,0.0,0.0,0.0,6.3,7.0,-7.8,1024,1024,1024,1024,0,0,0,0,84,4.108,71.24,164.698168,P-GPS,,50.2
903,231000,2026-01-13 12:23:27,0.0,5,7.736,0.0,0.0,0.0,6.4,6.5,-7.9,1024,1024,1024,1024,0,0,0,0,84,4.108,71.24,164.698168,P-GPS,,50.2
904,231100,2026-01-13 12:23:27,0.0,5,7.736,0.0,0.0,0.0,6.3,7.1,-8.2,1024,1024,1024,1024,0,0,0,0,84,4.108,71.24,164.698168,P-GPS,,50.2
905,231200,2026-01-13 12:23:27,0.0,5,7.736,0.0,0.0,0.0,6.2,7.6,-8.4,1024,1024,1024,1024,0,0,0,0,84,4.108,71.24,164.698168,P-GPS,,50.2
906,231300,2026-01-13 12:23:27,0.0,5,7.736,0.0,0.0,0.0,6.2,8.0,-8.5,1024,1024,1024,1024,0,0,0,0,84,4.108,71.24,164.698168,P-GPS,,50.2
907,231400,2026-01-13 12:23:27,0.0,5,7.736,0.0,0.0,0.0,6.1,8.4,-8.1,1024,1024,1024,1024,0,0,0,0,84,4.108,71.24,164.698168,P-GPS,,50.2
908,231500,2026-01-13 12:23:28,0.0,5,7.689,0.0,0.0,0.0,6.3,7.3,-7.9,1024,1024,1024,1024,0,0,0,0,84,4.845,71.06,165.026252,P-GPS,,50.3
909,231600,2026-01-13 12:23:28,0.0,5,7.689,0.0,0.0,0.0,6.2,8.1,-7.8,1024,1024,1024,1024,0,0,0,0,84,4.845,71.06,165.026252,P-GPS,,50.3
910,231700,2026-01-13 12:23:28,0.0,5,7.689,0.0,0.0,0.0,6.1,8.8,-8.1,1024,1024,1024,1024,0,0,0,0,84,4.845,71.06,165.026252,P-GPS,,50.3
911,231800,2026-01-13 12:23:28,0.0,5,7.689,0.0,0.0,0.0,6.0,9.0,-8.9,1024,1024,1024,1024,0,0,0,0,84,4.845,71.06,165.026252,P-GPS,,50.3
912,231900,2026-01-13 12:23:28,0.0,5,7.689,0.0,0.0,0.0,6.3,8.1,-8.9,1024,1024,1024,1024,0,0,0,0,84,4.845,71.06,165.026252,P-GPS,,50.3
913,232000,2026-01-13 12:23:28,0.0,5,7.689,0.0,0.0,0.0,6.2,8.3,-9.3,1024,1024,1024,1024,0,0,0,0,84,4.845,71.06,165.026252,P-GPS,,50.3
914,232100,2026-01-13 12:23:28,0.0,5,7.689,0.0,0.0,0.0,6.2,8.3,-8.9,1024,1024,1024,1024,0,0,0,0,84,4.845,71.06,165.026252,P-GPS,,50.3
915,232200,2026-01-13 12:23:28,0.0,5,7.689,0.0,0.0,0.0,6.2,8.3,-8.7,1024,1024,1024,1024,0,0,0,0,84,4.845,71.06,165.026252,P-GPS,,50.3
916,232300,2026-01-13 12:23:28,0.0,5,7.689,0.0,0.0,0.0,6.2,8.7,-8.8,1024,1024,1024,1024,0,0,0,0,84,4.845,71.06,165.026252,P-GPS,,50.3
917,232400,2026-01-13 12:23:28,0.223694,5,7.689,0.223694,0.0,0.0,6.0,10.9,-8.9,1024,1024,1024,1024,0,0,0,0,84,4.845,71.06,165.026252,P-GPS,,50.3
918,232500,2026-01-13 12:23:29,0.0,5,7.689,0.0,0.0,0.223694,6.0,11.5,-9.0,1024,1024,1024,1024,0,0,0,0,84,4.845,71.06,165.026252,P-GPS,,50.3
919,232600,2026-01-13 12:23:29,0.0,5,7.744,0.0,0.0,0.223694,6.1,11.4,-8.3,1024,1024,1024,1024,0,0,0,0,84,4.238,71.06,165.026252,P-GPS,,50.3
920,232700,2026-01-13 12:23:29,0.0,5,7.744,0.0,0.0,0.0,5.8,10.2,-9.6,1024,1024,1024,1024,0,0,0,0,84,4.238,71.06,165.354336,P-GPS,,50.4
921,232800,2026-01-13 12:23:29,0.223694,5,7.744,0.0,0.223694,0.0,5.8,9.0,-10.2,1024,1024,1024,1024,0,0,0,0,84,4.238,71.06,165.354336,P-GPS,,50.4
922,232900,2026-01-13 12:23:29,0.0,5,7.744,0.0,0.0,0.0,5.9,8.5,-10.6,1024,1024,1024,1024,0,0,0,0,84,4.238,71.06,165.354336,P-GPS,,50.4
923,233000,2026-01-13 12:23:29,0.223694,5,7.744,-0.223694,0.0,0.0,5.9,7.8,-10.5,1024,1024,1024,1024,0,0,0,0,84,4.238,71.06,165.354336,P-GPS,,50.4
924,233100,2026-01-13 12:23:29,0.223694,5,7.744,-0.223694,0.0,0.0,6.0,7.1,-9.3,1024,1024,1024,1024,0,0,0,0,84,4.238,71.06,165.026252,P-GPS,,50.3
925,233200,2026-01-13 12:23:29,0.223694,5,7.744,-0.223694,0.0,0.0,6.4,5.5,-8.8,1024,1024,1024,1024,0,0,0,0,84,4.238,71.06,165.026252,P-GPS,,50.3
926,233300,2026-01-13 12:23:29,0.223694,5,7.744,-0.223694,0.0,0.0,6.2,5.2,-8.4,1024,1024,1024,1024,0,0,0,0,84,4.238,71.06,165.026252,P-GPS,,50.3
927,233400,2026-01-13 12:23:29,0.223694,5,7.744,-0.223694,0.0,0.0,6.4,4.2,-8.1,1024,1024,1024,1024,0,0,0,0,84,4.238,71.06,165.026252,P-GPS,,50.3
928,233500,2026-01-13 12:23:30,0.223694,5,7.744,-0.223694,0.0,0.0,6.2,5.1,-8.4,1024,1024,1024,1024,0,0,0,0,84,4.238,71.06,164.698168,P-GPS,,50.2
929,233600,2026-01-13 12:23:30,0.223694,5,7.744,-0.223694,0.0,0.0,6.3,4.4,-8.9,1024,1024,1024,1024,0,0,0,0,84,4.238,71.06,164.698168,P-GPS,,50.2
930,233700,2026-01-13 12:23:30,0.223694,5,7.725,-0.223694,0.0,0.0,6.3,4.8,-9.1,1024,1024,1024,1024,0,0,0,0,84,4.716,71.06,164.698168,P-GPS,,50.2
931,233800,2026-01-13 12:23:30,0.0,5,7.725,0.0,0.0,0.0,6.3,4.8,-9.2,1024,1024,1024,1024,0,0,0,0,84,4.716,71.06,164.698168,P-GPS,,50.2
932,233900,2026-01-13 12:23:30,0.0,5,7.725,0.0,0.0,0.0,6.2,5.3,-9.7,1024,1024,1024,1024,0,0,0,0,84,4.716,71.06,164.698168,P-GPS,,50.2
933,234000,2026-01-13 12:23:30,0.0,5,7.725,0.0,0.0,0.0,6.2,5.1,-10.1,1024,1024,1024,1024,0,0,0,0,84,4.716,71.06,164.370084,P-GPS,,50.1
934,234100,2026-01-13 12:23:30,0.0,5,7.725,0.0,0.0,0.0,6.1,5.6,-9.6,1024,1024,1024,1024,0,0,0,0,84,4.716,71.06,164.370084,P-GPS,,50.1
935,234200,2026-01-13 12:23:30,0.0,5,7.725,0.0,0.0,0.0,6.4,4.2,-8.8,1024,1024,1024,1024,0,0,0,0,84,4.716,71.06,164.370084,P-GPS,,50.1
936,234300,2026-01-13 12:23:30,0.0,5,7.725,0.0,0.0,0.0,6.4,4.6,-8.9,1024,1024,1024,1024,0,0,0,0,84,4.716,71.06,164.370084,P-GPS,,50.1
937,234400,2026-01-13 12:23:30,0.0,5,7.725,0.0,0.0,0.0,6.3,4.8,-8.9,1024,1024,1024,1024,0,0,0,0,84,4.716,71.06,164.370084,P-GPS,,50.1
938,234500,2026-01-13 12:23:31,0.0,5,7.725,0.0,0.0,0.0,6.3,5.3,-8.9,1024,1024,1024,1024,0,0,0,0,84,4.716,71.06,164.370084,P-GPS,,50.1
939,234600,2026-01-13 12:23:31,0.0,5,7.725,0.0,0.0,0.0,6.3,4.9,-8.9,1024,1024,1024,1024,0,0,0,0,84,4.716,71.06,164.370084,P-GPS,,50.1
940,234700,2026-01-13 12:23:31,0.0,5,7.725,0.0,0.0,0.0,6.3,5.0,-9.0,1024,1024,1024,1024,0,0,0,0,84,4.716,71.06,164.370084,P-GPS,,50.1
941,234800,2026-01-13 12:23:31,0.0,5,7.724,0.0,0.0,0.0,6.2,4.9,-9.2,1024,1024,1024,1024,0,0,0,0,84,4.279,71.24,164.370084,P-GPS,,50.1
942,234900,2026-01-13 12:23:31,0.0,5,7.724,0.0,0.0,0.0,6.3,5.1,-9.2,1024,1024,1024,1024,0,0,0,0,84,4.279,71.24,164.370084,P-GPS,,50.1
943,235000,2026-01-13 12:23:31,0.0,5,7.724,0.0,0.0,0.0,6.4,4.4,-9.2,1024,1024,1024,1024,0,0,0,0,84,4.279,71.24,164.370084,P-GPS,,50.1
944,235100,2026-01-13 12:23:31,0.0,5,7.724,0.0,0.0,0.0,6.4,4.8,-9.1,1024,1024,1024,1024,0,0,0,0,84,4.279,71.24,164.370084,P-GPS,,50.1
945,235200,2026-01-13 12:23:31,0.0,5,7.724,0.0,0.0,0.0,6.3,5.3,-8.6,1024,1024,1024,1024,0,0,0,0,84,4.279,71.24,164.042,P-GPS,,50.0
946,235300,2026-01-13 12:23:31,0.0,5,7.724,0.0,0.0,0.0,6.3,5.5,-8.3,1024,1024,1024,1024,0,0,0,0,84,4.279,71.24,164.042,P-GPS,,50.0
947,235400,2026-01-13 12:23:31,0.0,5,7.724,0.0,0.0,0.0,6.3,5.3,-8.0,1024,1024,1024,1024,0,0,0,0,84,4.279,71.24,164.042,P-GPS,,50.0
948,235500,2026-01-13 12:23:32,0.0,5,7.724,0.0,0.0,0.0,6.3,5.4,-7.9,1024,1024,1024,1024,0,0,0,0,84,4.279,71.24,164.042,P-GPS,,50.0
949,235600,2026-01-13 12:23:32,0.0,5,7.724,0.0,0.0,0.0,6.4,5.1,-8.0,1024,1024,1024,1024,0,0,0,0,84,4.279,71.24,164.042,P-GPS,,50.0
950,235700,2026-01-13 12:23:32,0.0,5,7.724,0.0,0.0,0.0,6.3,6.2,-7.3,1024,1024,1024,1024,0,0,0,0,84,4.279,71.24,164.042,P-GPS,,50.0
951,235800,2026-01-13 12:23:32,0.0,5,7.724,0.0,0.0,0.0,6.3,5.7,-7.3,1024,1024,1024,1024,0,0,0,0,84,4.279,71.24,164.042,P-GPS,,50.0
952,235900,2026-01-13 12:23:32,0.0,5,7.711,0.0,0.0,0.0,6.4,5.6,-6.7,1024,1024,1024,1024,0,0,0,0,84,4.198,71.24,164.042,P-GPS,,50.0
953,236000,2026-01-13 12:23:32,0.0,5,7.711,0.0,0.0,0.0,6.4,5.6,-7.4,1024,1024,1024,1024,0,0,0,0,84,4.198,71.24,164.042,P-GPS,,50.0
954,236100,2026-01-13 12:23:32,0.0,5,7.711,0.0,0.0,0.0,6.2,6.1,-7.5,1024,1024,1024,1024,0,0,0,0,84,4.198,71.24,164.042,P-GPS,,50.0
955,236200,2026-01-13 12:23:32,0.0,5,7.711,0.0,0.0,0.0,6.3,5.6,-7.3,1024,1024,1024,1024,0,0,0,0,84,4.198,71.24,164.042,P-GPS,,50.0
956,236300,2026-01-13 12:23:32,0.0,5,7.711,0.0,0.0,0.0,6.3,5.5,-6.8,1024,1024,1024,1024,0,0,0,0,84,4.198,71.24,164.042,P-GPS,,50.0
957,236400,2026-01-13 12:23:32,0.0,5,7.711,0.0,0.0,0.0,6.4,5.2,-6.8,1024,1024,1024,1024,0,0,0,0,84,4.198,71.24,164.042,P-GPS,,50.0
958,236500,2026-01-13 12:23:33,0.0,5,7.711,0.0,0.0,0.0,6.4,5.8,-6.9,1024,1024,1024,1024,0,0,0,0,84,4.198,71.24,164.370084,P-GPS,,50.1
959,236600,2026-01-13 12:23:33,0.0,5,7.711,0.0,0.0,0.0,6.4,5.4,-6.9,1024,1024,1024,1024,0,0,0,0,84,4.198,71.24,164.370084,P-GPS,,50.1
960,236700,2026-01-13 12:23:33,0.0,5,7.711,0.0,0.0,0.0,6.4,5.8,-7.0,1024,1024,1024,1024,0,0,0,0,84,4.198,71.24,164.370084,P-GPS,,50.1
961,236800,2026-01-13 12:23:33,0.0,5,7.711,0.0,0.0,0.0,6.3,5.4,-7.3,1024,1024,1024,1024,0,0,0,0,84,4.198,71.24,164.370084,P-GPS,,50.1
962,236900,2026-01-13 12:23:33,0.0,5,7.711,0.0,0.0,0.0,6.2,5.5,-8.5,1024,1024,1024,1024,0,0,0,0,84,4.198,71.24,164.370084,P-GPS,,50.1
963,237000,2026-01-13 12:23:33,0.0,5,7.73,0.0,0.0,0.0,6.1,6.1,-8.9,1024,1024,1024,1024,0,0,0,0,84,4.261,71.42,164.370084,P-GPS,,50.1
964,237100,2026-01-13 12:23:33,0.0,5,7.73,0.0,0.0,0.0,6.2,6.5,-9.0,1024,1024,1024,1024,0,0,0,0,84,4.261,71.42,164.370084,P-GPS,,50.1
965,237200,2026-01-13 12:23:33,0.0,5,7.73,0.0,0.0,0.0,6.2,7.1,-8.4,1024,1024,1024,1024,0,0,0,0,84,4.261,71.42,164.370084,P-GPS,,50.1
966,237300,2026-01-13 12:23:33,0.0,5,7.73,0.0,0.0,0.0,6.3,6.8,-8.2,1024,1024,1024,1024,0,0,0,0,84,4.261,71.42,164.370084,P-GPS,,50.1
967,237400,2026-01-13 12:23:33,0.0,5,7.73,0.0,0.0,0.223694,6.3,6.9,-8.8,1024,1024,1024,1024,0,0,0,0,84,4.261,71.42,164.698168,P-GPS,,50.2
968,237500,2026-01-13 12:23:34,0.0,5,7.73,0.0,0.0,0.223694,6.3,7.0,-9.2,1024,1024,1024,1024,0,0,0,0,84,4.261,71.42,164.698168,P-GPS,,50.2
969,237600,2026-01-13 12:23:34,0.0,5,7.73,0.0,0.0,0.223694,6.2,7.4,-9.1,1024,1024,1024,1024,0,0,0,0,84,4.261,71.42,164.698168,P-GPS,,50.2
970,237700,2026-01-13 12:23:34,0.0,5,7.73,0.0,0.0,0.0,6.2,7.2,-8.8,1024,1024,1024,1024,0,0,0,0,84,4.261,71.42,164.698168,P-GPS,,50.2
971,237800,2026-01-13 12:23:34,0.0,5,7.73,0.0,0.0,0.0,6.2,7.4,-9.3,1024,1024,1024,1024,0,0,0,0,84,4.261,71.42,164.698168,P-GPS,,50.2
972,237900,2026-01-13 12:23:34,0.0,5,7.73,0.0,0.0,0.0,6.2,7.1,-9.6,1024,1024,1024,1024,0,0,0,0,84,4.261,71.42,164.698168,P-GPS,,50.2
973,238000,2026-01-13 12:23:34,0.0,5,7.73,0.0,0.0,0.0,6.2,7.4,-9.5,1024,1024,1024,1024,0,0,0,0,84,4.261,71.42,164.698168,P-GPS,,50.2
974,238100,2026-01-13 12:23:34,0.0,5,7.684,0.0,0.0,0.0,6.2,7.5,-9.3,1024,1024,1024,1024,0,0,0,0,83,4.791,71.42,164.698168,P-GPS,,50.2
975,238200,2026-01-13 12:23:34,0.0,5,7.684,0.0,0.0,0.0,6.1,8.0,-9.4,1024,1024,1024,1024,0,0,0,0,83,4.791,71.42,164.698168,P-GPS,,50.2
976,238300,2026-01-13 12:23:34,0.0,5,7.684,0.0,0.0,0.0,6.1,7.8,-9.5,1024,1024,1024,1024,0,0,0,0,83,4.791,71.42,164.698168,P-GPS,,50.2
977,238400,2026-01-13 12:23:34,0.0,5,7.684,0.0,0.0,0.0,6.1,7.7,-9.4,1024,1024,1024,1024,0,0,0,0,83,4.791,71.42,164.698168,P-GPS,,50.2
978,238500,2026-01-13 12:23:35,0.0,5,7.684,0.0,0.0,0.0,6.2,7.5,-9.2,1024,1024,1024,1024,0,0,0,0,83,4.791,71.42,164.698168,P-GPS,,50.2
979,238600,2026-01-13 12:23:35,0.0,5,7.684,0.0,0.0,0.0,6.2,7.1,-9.3,1024,1024,1024,1024,0,0,0,0,83,4.791,71.42,164.698168,P-GPS,,50.2
980,238700,2026-01-13 12:23:35,0.0,5,7.684,0.0,0.0,0.0,6.2,6.7,-9.5,1024,1024,1024,1024,0,0,0,0,83,4.791,71.42,164.698168,P-GPS,,50.2
981,238800,2026-01-13 12:23:35,0.0,5,7.684,0.0,0.0,0.0,6.2,6.8,-9.7,1024,1024,1024,1024,0,0,0,0,83,4.791,71.42,164.698168,P-GPS,,50.2
982,238900,2026-01-13 12:23:35,0.0,5,7.684,0.0,0.0,0.0,6.1,6.6,-10.1,1024,1024,1024,1024,0,0,0,0,83,4.791,71.42,164.698168,P-GPS,,50.2
983,239000,2026-01-13 12:23:35,0.0,5,7.684,0.0,0.0,0.0,6.1,6.7,-10.7,1024,1024,1024,1024,0,0,0,0,83,4.791,71.42,164.698168,P-GPS,,50.2
984,239100,2026-01-13 12:23:35,0.0,5,7.684,0.0,0.0,0.0,6.1,6.7,-10.6,1024,1024,1024,1024,0,0,0,0,83,4.791,71.42,164.698168,P-GPS,,50.2
985,239200,2026-01-13 12:23:35,0.0,5,7.66,0.0,0.0,0.0,6.1,6.7,-10.6,1024,1024,1024,1024,0,0,0,0,83,5.336,71.42,165.026252,P-GPS,,50.3
986,239300,2026-01-13 12:23:35,0.0,5,7.66,0.0,0.0,0.0,6.0,6.8,-10.9,1024,1024,1024,1024,0,0,0,0,83,5.336,71.42,165.026252,P-GPS,,50.3
987,239400,2026-01-13 12:23:35,0.0,5,7.66,0.0,0.0,0.0,6.0,6.7,-11.2,1024,1024,1024,1024,0,0,0,0,83,5.336,71.42,165.026252,P-GPS,,50.3
988,239500,2026-01-13 12:23:36,0.0,5,7.66,0.0,0.0,0.0,6.0,6.7,-11.1,1024,1024,1024,1024,0,0,0,0,83,5.336,71.42,165.026252,P-GPS,,50.3
989,239600,2026-01-13 12:23:36,0.0,5,7.66,0.0,0.0,0.0,6.1,7.0,-10.9,1024,1024,1024,1024,0,0,0,0,83,5.336,71.42,165.026252,P-GPS,,50.3
990,239700,2026-01-13 12:23:36,0.0,5,7.66,0.0,0.0,0.0,6.1,7.5,-10.9,1024,1024,1024,1024,0,0,0,0,83,5.336,71.42,165.026252,P-GPS,,50.3
991,239800,2026-01-13 12:23:36,0.0,5,7.66,0.0,0.0,0.0,6.2,7.7,-11.0,1024,1024,1024,1024,0,0,0,0,83,5.336,71.42,165.026252,P-GPS,,50.3
992,239900,2026-01-13 12:23:36,0.0,5,7.66,0.0,0.0,0.0,6.0,8.6,-10.7,1024,1024,1024,1024,0,0,0,0,83,5.336,71.42,165.026252,P-GPS,,50.3
993,240000,2026-01-13 12:23:36,0.0,5,7.66,0.0,0.0,0.0,6.0,8.6,-11.2,1024,1024,1024,1024,0,0,0,0,83,5.336,71.42,165.026252,P-GPS,,50.3
994,240100,2026-01-13 12:23:36,0.0,5,7.66,0.0,0.0,0.0,5.9,8.8,-11.0,1024,1024,1024,1024,0,0,0,0,83,5.336,71.42,165.026252,P-GPS,,50.3
995,240200,2026-01-13 12:23:36,0.0,5,7.66,0.0,0.0,0.0,6.0,8.6,-10.6,1024,1024,1024,1024,0,0,0,0,83,5.336,71.42,165.026252,P-GPS,,50.3
996,240300,2026-01-13 12:23:36,0.0,5,7.66,0.0,0.0,0.0,6.1,8.5,-10.5,1024,1024,1024,1024,0,0,0,0,83,5.336,71.42,165.026252,P-GPS,,50.3
997,240400,2026-01-13 12:23:36,0.0,5,7.66,0.0,0.0,0.0,6.0,8.7,-10.7,1024,1024,1024,1024,0,0,0,0,83,5.336,71.42,165.026252,P-GPS,,50.3
998,240500,2026-01-13 12:23:37,0.0,5,7.66,0.0,0.0,0.0,6.0,8.5,-10.4,1024,1024,1024,1024,0,0,0,0,83,5.336,71.42,165.026252,P-GPS,,50.3
999,240600,2026-01-13 12:23:37,0.0,5,7.66,0.0,0.0,0.0,6.0,8.3,-10.5,1024,1024,1024,1024,0,0,0,0,83,5.336,71.42,165.026252,P-GPS,,50.3
1000,240700,2026-01-13 12:23:37,0.0,5,7.66,0.0,0.0,0.0,6.2,7.5,-10.4,1024,1024,1024,1024,0,0,0,0,83,5.336,71.42,165.026252,P-GPS,,50.3
1001,240800,2026-01-13 12:23:37,0.0,5,7.66,0.0,0.0,0.0,6.1,8.1,-10.7,1024,1024,1024,1024,0,0,0,0,83,5.336,71.42,165.026252,P-GPS,,50.3
1002,240900,2026-01-13 12:23:37,0.0,5,7.66,0.0,0.0,0.0,6.0,8.5,-10.7,1024,1024,1024,1024,0,0,0,0,83,5.336,71.42,165.026252,P-GPS,,50.3
1003,241000,2026-01-13 12:23:37,0.0,5,7.66,0.0,0.0,0.0,5.9,8.8,-11.0,1024,1024,1024,1024,0,0,0,0,83,5.336,71.42,165.026252,P-GPS,,50.3
1004,241100,2026-01-13 12:23:37,0.0,5,7.66,0.0,0.0,0.0,5.9,8.7,-10.5,1024,1024,1024,1024,0,0,0,0,83,5.336,71.42,165.026252,P-GPS,,50.3
1005,241200,2026-01-13 12:23:37,0.0,5,7.66,0.0,0.0,0.0,5.9,8.4,-11.3,1024,1024,1024,1024,0,0,0,0,83,5.336,71.42,165.026252,P-GPS,,50.3
1006,241300,2026-01-13 12:23:37,0.0,5,7.666,0.0,0.0,0.0,5.7,8.5,-11.6,1024,1024,1024,1024,0,0,0,0,83,5.255,71.42,165.026252,P-GPS,,50.3
1007,241400,2026-01-13 12:23:38,0.0,5,7.666,0.0,0.0,0.0,5.8,7.3,-12.3,1024,1024,1024,1024,0,0,0,0,83,5.255,71.42,165.026252,P-GPS,,50.3
1008,241500,2026-01-13 12:23:38,0.0,5,7.666,0.0,0.0,0.0,5.9,7.2,-12.3,1024,1024,1024,1024,0,0,0,0,83,5.255,71.42,165.026252,P-GPS,,50.3
1009,241600,2026-01-13 12:23:38,0.0,5,7.666,0.0,0.0,0.0,6.0,6.7,-12.0,1024,1024,1024,1024,0,0,0,0,83,5.255,71.42,165.026252,P-GPS,,50.3
1010,241700,2026-01-13 12:23:38,0.0,5,7.666,0.0,0.0,0.0,6.0,7.2,-12.0,1024,1024,1024,1024,0,0,0,0,83,5.255,71.42,165.026252,P-GPS,,50.3
1011,241800,2026-01-13 12:23:38,0.0,5,7.666,0.0,0.0,0.0,6.0,7.2,-11.8,1024,1024,1024,1024,0,0,0,0,83,5.255,71.42,165.026252,P-GPS,,50.3
1012,241900,2026-01-13 12:23:38,0.0,5,7.666,0.0,0.0,0.0,6.0,7.6,-11.9,1024,1024,1024,1024,0,0,0,0,83,5.255,71.42,165.026252,P-GPS,,50.3
1013,242000,2026-01-13 12:23:38,0.0,5,7.666,0.0,0.0,0.0,5.9,8.2,-11.8,1024,1024,1024,1024,0,0,0,0,83,5.255,71.42,165.026252,P-GPS,,50.3
1014,242100,2026-01-13 12:23:38,0.0,5,7.666,0.0,0.0,0.0,5.7,8.7,-11.7,1024,1024,1024,1024,0,0,0,0,83,5.255,71.42,165.026252,P-GPS,,50.3
1015,242200,2026-01-13 12:23:38,0.0,5,7.666,0.0,0.0,0.0,5.7,8.7,-11.8,1024,1024,1024,1024,0,0,0,0,83,5.255,71.42,165.026252,P-GPS,,50.3
1016,242300,2026-01-13 12:23:38,0.0,5,7.666,0.0,0.0,0.0,5.9,7.9,-11.6,1024,1024,1024,1024,0,0,0,0,83,5.255,71.42,165.026252,P-GPS,,50.3
1017,242400,2026-01-13 12:23:38,0.0,5,7.666,0.0,0.0,0.0,6.0,7.7,-11.4,1024,1024,1024,1024,0,0,0,0,83,5.255,71.42,165.026252,P-GPS,,50.3
1018,242500,2026-01-13 12:23:38,0.0,5,7.634,0.0,0.0,0.0,6.1,7.6,-11.2,1024,1024,1024,1024,0,0,0,0,83,5.772,71.42,165.026252,P-GPS,,50.3
1019,242600,2026-01-13 12:23:39,0.0,5,7.634,0.0,0.0,0.0,6.1,8.0,-11.0,1024,1024,1024,1024,0,0,0,0,83,5.772,71.42,165.026252,P-GPS,,50.3
1020,242700,2026-01-13 12:23:39,0.0,5,7.634,0.0,0.0,0.0,6.0,8.4,-11.0,1024,1024,1024,1024,0,0,0,0,83,5.772,71.42,165.026252,P-GPS,,50.3
1021,242800,2026-01-13 12:23:39,0.0,5,7.634,0.0,0.0,0.0,5.9,8.7,-10.8,1024,1024,1024,1024,0,0,0,0,83,5.772,71.42,164.698168,P-GPS,,50.2
1022,242900,2026-01-13 12:23:39,0.0,5,7.634,0.0,0.0,0.0,6.0,8.5,-10.7,1024,1024,1024,1024,0,0,0,0,83,5.772,71.42,164.698168,P-GPS,,50.2
1023,243000,2026-01-13 12:23:39,0.0,5,7.634,0.0,0.0,0.0,6.0,8.6,-10.8,1024,1024,1024,1024,0,0,0,0,83,5.772,71.42,164.698168,P-GPS,,50.2
1024,243100,2026-01-13 12:23:39,0.0,5,7.634,0.0,0.0,0.0,5.9,9.4,-11.0,1024,1024,1024,1024,0,0,0,0,83,5.772,71.42,164.698168,P-GPS,,50.2
1025,243200,2026-01-13 12:23:39,0.0,5,7.634,0.0,0.0,0.223694,5.8,9.8,-11.0,1024,1024,1024,1024,0,0,0,0,83,5.772,71.42,164.698168,P-GPS,,50.2
1026,243300,2026-01-13 12:23:39,0.0,5,7.634,0.0,0.0,0.0,5.8,9.9,-10.6,1024,1024,1024,1024,0,0,0,0,83,5.772,71.42,164.698168,P-GPS,,50.2
1027,243400,2026-01-13 12:23:39,0.0,5,7.634,0.0,0.0,0.0,5.8,9.0,-11.1,1024,1024,1024,1024,0,0,0,0,83,5.772,71.42,164.698168,P-GPS,,50.2
1028,243500,2026-01-13 12:23:40,0.0,5,7.634,0.0,0.0,0.0,5.9,8.0,-11.0,1024,1024,1024,1024,0,0,0,0,83,5.772,71.42,164.698168,P-GPS,,50.2
1029,243600,2026-01-13 12:23:40,0.0,5,7.594,0.0,0.0,0.0,5.9,7.6,-11.0,1024,1024,1024,1024,0,0,0,0,83,5.75,71.42,164.698168,P-GPS,,50.2
1030,243700,2026-01-13 12:23:40,0.0,5,7.594,0.0,0.0,0.0,6.0,7.2,-10.7,1024,1024,1024,1024,0,0,0,0,83,5.75,71.42,164.698168,P-GPS,,50.2
1031,243800,2026-01-13 12:23:40,0.0,5,7.594,0.0,0.0,0.0,6.1,7.0,-10.6,1024,1024,1024,1024,0,0,0,0,83,5.75,71.42,164.698168,P-GPS,,50.2
1032,243900,2026-01-13 12:23:40,0.0,5,7.594,0.0,0.0,0.0,6.1,7.3,-10.4,1024,1024,1024,1024,0,0,0,0,83,5.75,71.42,164.698168,P-GPS,,50.2
1033,244000,2026-01-13 12:23:40,0.0,5,7.594,0.0,0.0,0.0,6.1,7.4,-10.6,1024,1024,1024,1024,0,0,0,0,83,5.75,71.42,164.370084,P-GPS,,50.1
1034,244100,2026-01-13 12:23:40,0.0,5,7.594,0.0,0.0,0.0,6.1,7.4,-10.9,1024,1024,1024,1024,0,0,0,0,83,5.75,71.42,164.370084,P-GPS,,50.1
1035,244200,2026-01-13 12:23:40,0.0,5,7.594,0.0,0.0,0.0,5.9,8.1,-11.1,1024,1024,1024,1024,0,0,0,0,83,5.75,71.42,164.370084,P-GPS,,50.1
1036,244300,2026-01-13 12:23:40,0.0,5,7.594,0.0,0.0,0.0,5.9,7.8,-11.2,1024,1024,1024,1024,0,0,0,0,83,5.75,71.42,164.370084,P-GPS,,50.1
1037,244400,2026-01-13 12:23:40,0.0,5,7.594,0.0,0.0,0.0,6.0,7.6,-11.2,1024,1024,1024,1024,0,0,0,0,83,5.75,71.42,164.370084,P-GPS,,50.1
1038,244500,2026-01-13 12:23:41,0.0,5,7.594,0.0,0.0,0.0,6.0,7.6,-11.2,1024,1024,1024,1024,0,0,0,0,83,5.75,71.42,164.370084,P-GPS,,50.1
1039,244600,2026-01-13 12:23:41,0.0,5,7.594,0.0,0.0,0.0,5.9,7.7,-11.5,1024,1024,1024,1024,0,0,0,0,83,5.75,71.42,164.042,P-GPS,,50.0
1040,244700,2026-01-13 12:23:41,0.0,5,7.665,0.0,0.0,0.0,6.0,7.4,-11.3,1024,1024,1024,1024,0,0,0,0,83,4.861,71.6,164.042,P-GPS,Strong wind warning Strong wind warning. Aircraft unable to return to home automatically. Lower altitude immediately and return to home manually (Code: 30149). SD card speed low. Normal use may be affected. Replace SD card (Code: 10028). Gimbal stuck. Make sure gimbal c,50.0
1041,244800,2026-01-13 12:23:41,0.0,5,7.665,0.0,0.0,0.0,6.1,7.3,-10.9,1024,1024,1024,1024,0,0,0,0,83,4.861,71.6,164.042,P-GPS,,50.0
1042,244900,2026-01-13 12:23:41,0.0,5,7.665,0.0,0.0,0.0,6.2,7.0,-11.1,1024,1024,1024,1024,0,0,0,0,83,4.861,71.6,164.042,P-GPS,,50.0
1043,245000,2026-01-13 12:23:41,0.0,5,7.665,0.0,0.0,0.0,6.0,7.3,-11.2,1024,1024,1024,1024,0,0,0,0,83,4.861,71.6,164.042,P-GPS,,50.0
1044,245100,2026-01-13 12:23:41,0.0,5,7.665,0.0,0.0,0.0,5.9,7.5,-11.1,1024,1024,1024,1024,0,0,0,0,83,4.861,71.6,164.042,P-GPS,,50.0
1045,245200,2026-01-13 12:23:41,0.0,5,7.665,0.0,0.0,0.0,6.0,6.9,-11.2,1024,1024,1024,1024,0,0,0,0,83,4.861,71.6,164.042,P-GPS,,50.0
1046,245300,2026-01-13 12:23:41,0.0,5,7.665,0.0,0.0,0.0,6.0,6.8,-11.5,1024,1024,1024,1024,0,0,0,0,83,4.861,71.6,164.042,P-GPS,,50.0
1047,245400,2026-01-13 12:23:41,0.0,5,7.665,0.0,0.0,0.0,5.9,7.6,-11.6,1024,1024,1024,1024,0,0,0,0,83,4.861,71.6,164.042,P-GPS,,50.0
1048,245500,2026-01-13 12:23:42,0.0,5,7.665,0.0,0.0,0.0,6.0,7.1,-11.5,1024,1024,1024,1024,0,0,0,0,83,4.861,71.6,164.042,P-GPS,,50.0
1049,245600,2026-01-13 12:23:42,0.0,5,7.665,0.0,0.0,0.0,6.1,7.0,-11.7,1024,1024,1024,1024,0,0,0,0,83,4.861,71.6,164.042,P-GPS,,50.0
1050,245700,2026-01-13 12:23:42,0.0,5,7.665,0.0,0.0,0.0,6.1,6.7,-11.5,1024,1024,1024,1024,0,0,0,0,83,4.861,71.6,164.042,P-GPS,,50.0
1051,245800,2026-01-13 12:23:42,0.0,5,7.663,0.0,0.0,0.0,6.2,6.2,-11.7,1024,1024,1024,1024,0,0,0,0,83,5.073,71.6,164.042,P-GPS,,50.0
1052,245900,2026-01-13 12:23:42,0.0,5,7.663,0.0,0.0,0.0,6.0,7.2,-11.4,1024,1024,1024,1024,0,0,0,0,83,5.073,71.6,164.042,P-GPS,,50.0
1053,246000,2026-01-13 12:23:42,0.0,5,7.663,0.0,0.0,0.0,5.9,7.2,-11.5,1024,1024,1024,1024,0,0,0,0,83,5.073,71.6,163.713916,P-GPS,,49.9
1054,246100,2026-01-13 12:23:42,0.0,5,7.663,0.0,0.0,0.0,6.0,6.9,-10.6,1024,1024,1024,1024,0,0,0,0,83,5.073,71.6,163.713916,P-GPS,,49.9
1055,246200,2026-01-13 12:23:42,0.0,5,7.663,0.0,0.0,0.0,6.1,6.6,-10.1,1024,1024,1024,1024,0,0,0,0,83,5.073,71.6,163.713916,P-GPS,,49.9
