time(millisecond),timestamp,speed(mph),gpslevel,voltage(v),xSpeed(mph),ySpeed(mph),zSpeed(mph),compass_heading(degrees),pitch(degrees),roll(degrees),rc_elevator,rc_aileron,rc_throttle,rc_rudder,rc_elevator(percent),rc_aileron(percent),rc_throttle(percent),rc_rudder(percent),battery_percent,current(A),battery_temperature(f),ascent(feet),flycState,message,height_above_takeoff(meters)
77200,2026-01-11 17:19:00,0.0,5,7.562,0.0,0.0,-4.47388,16.1,9.7,-12.4,1024,1024,1684,1024,0,0,100,0,93,6.67,58.1,157.808404,P-GPS,,48.1
77300,2026-01-11 17:19:00,0.0,5,7.562,0.0,0.0,-4.47388,16.2,9.2,-12.1,1024,1024,1684,1024,0,0,100,0,93,6.67,58.1,158.464572,P-GPS,,48.3
77400,2026-01-11 17:19:00,0.0,5,7.562,0.0,0.0,-4.47388,16.3,8.7,-11.8,1024,1024,1684,1024,0,0,100,0,93,6.67,58.1,159.12074,P-GPS,,48.5
77500,2026-01-11 17:19:00,0.0,5,7.537,0.0,0.0,-4.47388,16.3,8.5,-11.8,1024,1024,1684,1024,0,0,100,0,93,7.016,58.28,159.448824,P-GPS,,48.6
77600,2026-01-11 17:19:01,0.0,5,7.537,0.0,0.0,-4.250186,16.3,9.1,-11.3,1024,1024,1684,1024,0,0,100,0,93,7.016,58.28,160.104992,P-GPS,,48.8
77700,2026-01-11 17:19:01,0.0,5,7.537,0.0,0.0,-4.250186,16.2,9.1,-11.3,1024,1024,1684,1024,0,0,100,0,93,7.016,58.28,160.76116,P-GPS,,49.0
77800,2026-01-11 17:19:01,0.0,5,7.537,0.0,0.0,-4.250186,16.2,9.0,-11.1,1024,1024,1684,1024,0,0,100,0,93,7.016,58.28,161.417328,P-GPS,,49.2
77900,2026-01-11 17:19:01,0.0,5,7.537,0.0,0.0,-4.250186,16.3,8.3,-10.7,1024,1024,1024,1024,0,0,0,0,93,7.016,58.28,162.073496,P-GPS,,49.4
78000,2026-01-11 17:19:01,0.0,5,7.537,0.0,0.0,-4.250186,16.4,7.7,-10.2,1024,1024,1024,1024,0,0,0,0,93,7.016,58.28,162.40158,P-GPS,,49.5
78100,2026-01-11 17:19:01,0.0,5,7.537,0.0,0.0,-4.250186,16.4,7.1,-10.6,1024,1024,1024,1024,0,0,0,0,93,7.016,58.28,163.057748,P-GPS,,49.7
78200,2026-01-11 17:19:01,0.0,5,7.537,0.0,0.0,-3.802798,16.2,7.9,-11.2,1024,1024,1024,1024,0,0,0,0,93,7.016,58.28,163.713916,P-GPS,,49.9
78300,2026-01-11 17:19:01,0.0,5,7.537,0.0,0.0,-3.131716,16.1,8.1,-12.0,1024,1024,1024,1024,0,0,0,0,93,7.016,58.28,164.042,P-GPS,,50.0
78400,2026-01-11 17:19:01,0.0,5,7.537,0.0,0.0,-2.23694,16.0,8.9,-12.5,1024,1024,1024,1024,0,0,0,0,93,7.016,58.28,164.698168,P-GPS,,50.2
78500,2026-01-11 17:19:01,0.0,5,7.533,0.0,0.0,-1.565858,15.9,9.3,-12.8,1024,1024,1024,1024,0,0,0,0,93,7.288,58.28,164.698168,P-GPS,,50.2
78600,2026-01-11 17:19:02,0.223694,5,7.533,0.0,0.223694,-0.894776,16.1,9.0,-12.9,1024,1024,1024,1024,0,0,0,0,93,7.288,58.28,165.026252,P-GPS,,50.3
78700,2026-01-11 17:19:02,0.223694,5,7.533,0.0,0.223694,-0.447388,16.1,9.4,-12.9,1024,1024,1024,1024,0,0,0,0,93,7.288,58.28,165.026252,P-GPS,,50.3
78800,2026-01-11 17:19:02,0.223694,5,7.533,0.0,0.223694,-0.223694,16.0,9.9,-12.9,1024,1024,1024,1024,0,0,0,0,93,7.288,58.28,165.354336,P-GPS,,50.4
78900,2026-01-11 17:19:02,0.0,5,7.533,0.0,0.0,0.0,16.0,10.2,-12.9,1024,1024,1024,1024,0,0,0,0,93,7.288,58.28,165.354336,P-GPS,,50.4
79000,2026-01-11 17:19:02,0.0,5,7.533,0.0,0.0,0.0,16.1,10.0,-12.6,1024,1024,1024,1024,0,0,0,0,93,7.288,58.28,165.354336,P-GPS,,50.4
79100,2026-01-11 17:19:02,0.0,5,7.533,0.0,0.0,0.0,16.2,9.8,-12.5,1024,1024,1024,1024,0,0,0,0,93,7.288,58.28,165.68242,P-GPS,,50.5
79200,2026-01-11 17:19:02,0.0,5,7.533,0.0,0.0,0.0,16.1,10.2,-12.9,1024,1024,1024,1024,0,0,0,0,93,7.288,58.28,165.68242,P-GPS,,50.5
79300,2026-01-11 17:19:02,0.0,5,7.533,0.0,0.0,0.0,16.0,10.4,-12.8,1024,1024,1024,1024,0,0,0,0,93,7.288,58.28,165.68242,P-GPS,,50.5
79400,2026-01-11 17:19:02,0.0,5,7.533,0.0,0.0,0.0,15.9,10.8,-12.7,1024,1024,1024,1024,0,0,0,0,93,7.288,58.28,165.68242,P-GPS,,50.5
79500,2026-01-11 17:19:02,0.0,5,7.692,0.0,0.0,0.0,15.9,10.5,-12.1,1024,1024,1024,1024,0,0,0,0,93,5.256,58.46,165.68242,P-GPS,,50.5
79600,2026-01-11 17:19:03,0.0,5,7.692,0.0,0.0,0.0,16.1,9.7,-11.9,1024,1024,1024,1024,0,0,0,0,93,5.256,58.46,165.68242,P-GPS,,50.5
79700,2026-01-11 17:19:03,0.0,5,7.692,0.0,0.0,0.0,16.2,9.4,-12.1,1024,1024,1024,1024,0,0,0,0,93,5.256,58.46,165.68242,P-GPS,,50.5
79800,2026-01-11 17:19:03,0.0,5,7.692,0.0,0.0,0.0,16.2,9.2,-11.7,1024,1024,1024,1024,0,0,0,0,93,5.256,58.46,165.68242,P-GPS,,50.5
79900,2026-01-11 17:19:03,0.0,5,7.692,0.0,0.0,0.0,16.2,9.0,-11.2,1024,1024,1024,1024,0,0,0,0,93,5.256,58.46,165.68242,P-GPS,,50.5
80000,2026-01-11 17:19:03,0.0,5,7.692,0.0,0.0,0.0,16.3,8.8,-11.1,1024,1024,1024,1024,0,0,0,0,93,5.256,58.46,165.68242,P-GPS,,50.5
80100,2026-01-11 17:19:03,0.0,5,7.692,0.0,0.0,0.0,16.3,8.8,-11.0,1024,1024,1024,1024,0,0,0,0,93,5.256,58.46,165.354336,P-GPS,,50.4
80200,2026-01-11 17:19:03,0.0,5,7.692,0.0,0.0,0.0,16.2,9.0,-10.8,1024,1024,1024,1024,0,0,0,0,93,5.256,58.46,165.354336,P-GPS,,50.4
80300,2026-01-11 17:19:03,0.0,5,7.692,0.0,0.0,0.0,16.2,9.1,-10.6,1024,1024,1024,1024,0,0,0,0,93,5.256,58.46,165.354336,P-GPS,,50.4
80400,2026-01-11 17:19:03,0.0,5,7.692,0.0,0.0,0.0,16.3,8.6,-10.4,1024,1024,1024,1024,0,0,0,0,93,5.256,58.46,165.354336,P-GPS,,50.4
80500,2026-01-11 17:19:03,0.0,5,7.651,0.0,0.0,0.0,16.4,7.9,-10.3,1024,1024,1024,1024,0,0,0,0,93,5.409,58.46,165.026252,P-GPS,,50.3
80600,2026-01-11 17:19:04,0.0,5,7.651,0.0,0.0,0.0,16.3,8.0,-10.1,1024,1024,1024,1024,0,0,0,0,93,5.409,58.46,165.026252,P-GPS,,50.3
80700,2026-01-11 17:19:04,0.0,5,7.651,0.0,0.0,0.0,16.2,8.1,-9.5,1024,1024,1024,1024,0,0,0,0,93,5.409,58.46,165.026252,P-GPS,,50.3
80800,2026-01-11 17:19:04,0.0,5,7.651,0.0,0.0,0.0,16.3,7.8,-8.8,1024,1024,1024,1024,0,0,0,0,93,5.409,58.46,164.698168,P-GPS,,50.2
80900,2026-01-11 17:19:04,0.223694,5,7.651,0.0,-0.223694,0.0,16.4,7.4,-8.7,1024,1024,1024,1024,0,0,0,0,93,5.409,58.46,164.698168,P-GPS,,50.2
81000,2026-01-11 17:19:04,0.223694,5,7.651,0.0,-0.223694,0.0,16.3,7.6,-8.5,1024,1024,1024,1024,0,0,0,0,93,5.409,58.46,164.698168,P-GPS,,50.2
81100,2026-01-11 17:19:04,0.223694,5,7.651,0.0,-0.223694,0.0,16.4,7.2,-8.2,1024,1024,1024,1024,0,0,0,0,93,5.409,58.46,164.698168,P-GPS,,50.2
81200,2026-01-11 17:19:04,0.0,5,7.651,0.0,0.0,0.0,16.6,6.2,-7.5,1024,1024,1024,1024,0,0,0,0,93,5.409,58.46,164.370084,P-GPS,,50.1
81300,2026-01-11 17:19:04,0.0,5,7.651,0.0,0.0,0.0,16.6,6.0,-8.0,1024,1024,1024,1024,0,0,0,0,93,5.409,58.46,164.370084,P-GPS,,50.1
81400,2026-01-11 17:19:04,0.0,5,7.651,0.0,0.0,0.0,16.5,6.3,-8.3,1024,1024,1024,1024,0,0,0,0,93,5.409,58.46,164.370084,P-GPS,,50.1
81500,2026-01-11 17:19:04,0.0,5,7.709,0.0,0.0,0.0,16.4,6.6,-8.3,1024,1024,1024,1024,0,0,0,0,93,4.664,58.46,164.370084,P-GPS,,50.1
81600,2026-01-11 17:19:05,0.0,5,7.709,0.0,0.0,0.0,16.5,6.4,-8.2,1024,1024,1024,1024,0,0,0,0,93,4.664,58.46,164.370084,P-GPS,,50.1
81700,2026-01-11 17:19:05,0.0,5,7.709,0.0,0.0,0.0,16.6,6.4,-8.2,1024,1024,1024,1024,0,0,0,0,93,4.664,58.46,164.370084,P-GPS,,50.1
81800,2026-01-11 17:19:05,0.0,5,7.709,0.0,0.0,0.0,16.6,6.8,-7.9,1024,1024,1024,1024,0,0,0,0,93,4.664,58.46,164.370084,P-GPS,,50.1
81900,2026-01-11 17:19:05,0.0,5,7.709,0.0,0.0,0.0,16.6,7.1,-8.0,1024,1024,1024,1024,0,0,0,0,93,4.664,58.46,164.370084,P-GPS,,50.1
82000,2026-01-11 17:19:05,0.0,5,7.709,0.0,0.0,0.0,16.5,7.6,-7.8,1024,1024,1024,1024,0,0,0,0,93,4.664,58.46,164.370084,P-GPS,,50.1
82100,2026-01-11 17:19:05,0.0,5,7.709,0.0,0.0,0.0,16.4,8.6,-7.8,1024,1024,1024,1024,0,0,0,0,93,4.664,58.46,164.698168,P-GPS,,50.2
82200,2026-01-11 17:19:05,0.0,5,7.709,0.0,0.0,0.0,16.7,7.7,-7.4,1024,1024,1024,1024,0,0,0,0,93,4.664,58.46,164.698168,P-GPS,,50.2
82300,2026-01-11 17:19:05,0.0,5,7.709,0.0,0.0,0.0,16.6,8.4,-7.6,1024,1024,1024,1024,0,0,0,0,93,4.664,58.46,164.698168,P-GPS,,50.2
82400,2026-01-11 17:19:05,0.0,5,7.709,0.0,0.0,0.0,16.5,8.7,-8.1,1024,1024,1024,1024,0,0,0,0,93,4.664,58.46,164.698168,P-GPS,,50.2
82500,2026-01-11 17:19:05,0.0,5,7.727,0.0,0.0,0.0,16.5,8.7,-8.6,1024,1024,1024,1024,0,0,0,0,93,4.449,58.46,165.026252,P-GPS,,50.3
82600,2026-01-11 17:19:06,0.0,5,7.727,0.0,0.0,0.0,16.4,9.0,-8.7,1024,1024,1024,1024,0,0,0,0,93,4.449,58.46,165.026252,P-GPS,,50.3
82700,2026-01-11 17:19:06,0.0,5,7.727,0.0,0.0,0.0,16.2,9.7,-8.7,1024,1024,1024,1024,0,0,0,0,93,4.449,58.46,165.026252,P-GPS,,50.3
82800,2026-01-11 17:19:06,0.0,5,7.727,0.0,0.0,0.0,16.3,8.7,-8.8,1024,1024,1024,1024,0,0,0,0,93,4.449,58.46,165.026252,P-GPS,,50.3
82900,2026-01-11 17:19:06,0.0,5,7.727,0.0,0.0,0.0,16.3,7.8,-8.8,1024,1024,1024,1024,0,0,0,0,93,4.449,58.46,165.026252,P-GPS,,50.3
83000,2026-01-11 17:19:06,0.0,5,7.727,0.0,0.0,0.0,16.5,7.2,-8.4,1024,1024,1024,1024,0,0,0,0,93,4.449,58.46,165.026252,P-GPS,,50.3
83100,2026-01-11 17:19:06,0.0,5,7.727,0.0,0.0,0.0,16.5,6.7,-8.4,1024,1024,1024,1024,0,0,0,0,93,4.449,58.46,165.026252,P-GPS,,50.3
83200,2026-01-11 17:19:06,0.0,5,7.727,0.0,0.0,0.0,16.5,6.5,-8.2,1024,1024,1024,1024,0,0,0,0,93,4.449,58.46,164.698168,P-GPS,,50.2
83300,2026-01-11 17:19:06,0.0,5,7.727,0.0,0.0,0.0,16.4,7.1,-8.0,1024,1024,1024,1024,0,0,0,0,93,4.449,58.46,164.698168,P-GPS,,50.2
83400,2026-01-11 17:19:06,0.0,5,7.662,0.0,0.0,0.0,16.5,6.9,-8.3,1024,1024,1024,1024,0,0,0,0,93,5.094,58.46,164.698168,P-GPS,,50.2
83500,2026-01-11 17:19:06,0.0,5,7.662,0.0,0.0,0.0,16.6,6.5,-8.6,1024,1024,1024,1024,0,0,0,0,93,5.094,58.46,164.698168,P-GPS,,50.2
83600,2026-01-11 17:19:07,0.0,5,7.662,0.0,0.0,0.0,16.7,6.6,-8.3,1024,1024,1024,1024,0,0,0,0,93,5.094,58.46,164.698168,P-GPS,,50.2
83700,2026-01-11 17:19:07,0.0,5,7.662,0.0,0.0,0.0,16.6,7.1,-8.1,1024,1024,1024,1024,0,0,0,0,93,5.094,58.46,164.698168,P-GPS,,50.2
83800,2026-01-11 17:19:07,0.0,5,7.662,0.0,0.0,0.0,16.5,7.2,-8.1,1024,1024,1024,1024,0,0,0,0,93,5.094,58.46,164.698168,P-GPS,,50.2
83900,2026-01-11 17:19:07,0.0,5,7.662,0.0,0.0,0.0,16.7,6.5,-8.3,1024,1024,1024,1024,0,0,0,0,93,5.094,58.46,164.698168,P-GPS,,50.2
84000,2026-01-11 17:19:07,0.0,5,7.662,0.0,0.0,0.0,16.8,7.0,-8.0,1024,1024,1024,1024,0,0,0,0,93,5.094,58.46,164.698168,P-GPS,,50.2
84100,2026-01-11 17:19:07,0.0,5,7.662,0.0,0.0,0.0,16.6,8.1,-8.4,1024,1024,1024,1024,0,0,0,0,93,5.094,58.46,165.026252,P-GPS,,50.3
84200,2026-01-11 17:19:07,0.223694,5,7.662,0.0,0.223694,0.0,16.4,9.1,-8.7,1024,1024,1024,1024,0,0,0,0,93,5.094,58.46,165.026252,P-GPS,,50.3
84300,2026-01-11 17:19:07,0.223694,5,7.662,0.0,0.223694,0.0,16.4,9.3,-8.7,1024,1024,1024,1024,0,0,0,0,93,5.094,58.46,165.026252,P-GPS,,50.3
84400,2026-01-11 17:19:07,0.223694,5,7.662,0.0,0.223694,0.0,16.4,8.6,-9.0,1024,1024,1024,1024,0,0,0,0,93,5.094,58.46,165.026252,P-GPS,,50.3
84500,2026-01-11 17:19:07,0.223694,5,7.662,0.0,0.223694,0.0,16.5,9.0,-8.9,1024,1024,1024,1024,0,0,0,0,93,5.094,58.46,165.026252,P-GPS,,50.3
84600,2026-01-11 17:19:08,0.223694,5,7.662,0.0,0.223694,0.0,16.4,8.9,-9.1,1024,1024,1024,1024,0,0,0,0,93,5.094,58.46,165.026252,P-GPS,,50.3
84700,2026-01-11 17:19:08,0.223694,5,7.662,0.0,0.223694,0.0,16.4,8.7,-9.0,1024,1024,1024,1024,0,0,0,0,93,5.094,58.46,165.026252,P-GPS,,50.3
84800,2026-01-11 17:19:08,0.223694,5,7.662,0.0,0.223694,0.0,16.5,8.6,-9.3,1024,1024,1024,1024,0,0,0,0,93,5.094,58.46,165.354336,P-GPS,,50.4
84900,2026-01-11 17:19:08,0.223694,5,7.662,0.0,0.223694,0.0,16.5,8.8,-9.5,1024,1024,1024,1024,0,0,0,0,93,5.094,58.46,165.354336,P-GPS,,50.4
85000,2026-01-11 17:19:08,0.223694,5,7.662,0.0,0.223694,0.0,16.5,8.7,-9.5,1024,1024,1024,1024,0,0,0,0,93,5.094,58.46,165.354336,P-GPS,,50.4
85100,2026-01-11 17:19:08,0.223694,5,7.662,0.0,0.223694,0.0,16.5,9.0,-8.7,1024,1024,1024,1024,0,0,0,0,93,5.094,58.46,165.354336,P-GPS,,50.4
85200,2026-01-11 17:19:08,0.223694,5,7.662,0.0,0.0,0.0,16.5,9.0,-9.5,1024,1024,1024,1024,0,0,0,0,93,5.094,58.46,165.354336,P-GPS,,50.4
85300,2026-01-11 17:19:08,0.0,5,7.662,0.0,0.0,0.0,16.4,9.3,-9.5,1024,1024,1024,1024,0,0,0,0,93,5.094,58.46,165.354336,P-GPS,,50.4
85400,2026-01-11 17:19:08,0.0,5,7.662,0.0,0.0,0.223694,16.4,9.2,-9.4,1024,1024,1024,1024,0,0,0,0,93,5.094,58.46,165.354336,P-GPS,,50.4
85500,2026-01-11 17:19:08,0.0,5,7.662,0.0,0.0,0.223694,16.3,9.6,-9.2,1024,1024,1024,1024,0,0,0,0,93,5.094,58.46,165.354336,P-GPS,,50.4
85600,2026-01-11 17:19:09,0.0,5,7.661,0.0,0.0,0.0,16.5,8.3,-8.2,1024,1024,1024,1024,0,0,0,0,93,5.498,58.64,165.026252,P-GPS,,50.3
85700,2026-01-11 17:19:09,0.0,5,7.661,0.0,0.0,0.0,16.5,7.3,-8.0,1024,1024,1024,1024,0,0,0,0,93,5.498,58.64,165.026252,P-GPS,,50.3
85800,2026-01-11 17:19:09,0.0,5,7.661,0.0,0.0,0.0,16.5,7.0,-7.8,1024,1024,1024,1024,0,0,0,0,93,5.498,58.64,165.026252,P-GPS,,50.3
85900,2026-01-11 17:19:09,0.0,5,7.661,0.0,0.0,0.0,16.5,7.4,-7.9,1024,1024,1024,1024,0,0,0,0,93,5.498,58.64,165.026252,P-GPS,,50.3
86000,2026-01-11 17:19:09,0.0,5,7.661,0.0,0.0,0.0,16.4,8.1,-7.7,1024,1024,1024,1024,0,0,0,0,93,5.498,58.64,165.026252,P-GPS,,50.3
86100,2026-01-11 17:19:09,0.0,5,7.661,0.0,0.0,0.0,16.4,7.5,-7.7,1024,1024,1024,1024,0,0,0,0,93,5.498,58.64,164.698168,P-GPS,,50.2
86200,2026-01-11 17:19:09,0.0,5,7.661,0.0,0.0,0.0,16.6,7.0,-7.8,1024,1024,1024,1024,0,0,0,0,93,5.498,58.64,164.698168,P-GPS,,50.2
86300,2026-01-11 17:19:09,0.0,5,7.661,0.0,0.0,0.223694,16.5,7.4,-8.1,1024,1024,1024,1024,0,0,0,0,93,5.498,58.64,164.698168,P-GPS,,50.2
86400,2026-01-11 17:19:09,0.0,5,7.661,0.0,0.0,0.223694,16.5,7.1,-8.0,1024,1024,1024,1024,0,0,0,0,93,5.498,58.64,164.698168,P-GPS,,50.2
86500,2026-01-11 17:19:09,0.0,5,7.661,0.0,0.0,0.223694,16.5,6.9,-8.1,1024,1024,1024,1024,0,0,0,0,93,5.498,58.64,164.698168,P-GPS,,50.2
86600,2026-01-11 17:19:10,0.0,5,7.661,0.0,0.0,0.0,16.7,5.9,-7.7,1024,1024,1024,1024,0,0,0,0,93,5.498,58.64,164.370084,P-GPS,,50.1
86700,2026-01-11 17:19:10,0.0,5,7.668,0.0,0.0,0.0,16.7,6.1,-8.1,1024,1024,1024,1024,0,0,0,0,93,4.657,58.64,164.698168,P-GPS,,50.2
86800,2026-01-11 17:19:10,0.0,5,7.668,0.0,0.0,0.0,16.7,6.6,-8.7,1024,1024,1024,1024,0,0,0,0,93,4.657,58.64,164.698168,P-GPS,,50.2
86900,2026-01-11 17:19:10,0.0,5,7.668,0.0,0.0,0.0,16.6,7.4,-9.2,1024,1024,1024,1024,0,0,0,0,93,4.657,58.64,164.698168,P-GPS,,50.2
87000,2026-01-11 17:19:10,0.0,5,7.668,0.0,0.223694,0.0,16.4,8.4,-9.5,1024,1024,1024,1024,0,0,0,0,93,4.657,58.64,164.698168,P-GPS,,50.2
87100,2026-01-11 17:19:10,0.223694,5,7.668,0.0,0.223694,0.0,16.3,8.5,-9.5,1024,1024,1024,1024,0,0,0,0,93,4.657,58.64,164.698168,P-GPS,,50.2
87200,2026-01-11 17:19:10,0.223694,5,7.668,0.0,0.223694,0.0,16.4,8.3,-9.6,1024,1024,1024,1024,0,0,0,0,93,4.657,58.64,164.698168,P-GPS,,50.2
87300,2026-01-11 17:19:10,0.223694,5,7.668,0.0,0.223694,0.0,16.5,7.9,-9.7,1024,1024,1024,1024,0,0,0,0,93,4.657,58.64,164.698168,P-GPS,,50.2
87400,2026-01-11 17:19:10,0.0,5,7.668,0.0,0.0,0.0,16.6,7.7,-9.6,1024,1024,1024,1024,0,0,0,0,93,4.657,58.64,164.698168,P-GPS,,50.2
87500,2026-01-11 17:19:10,0.0,5,7.668,0.0,0.0,0.0,16.5,7.8,-9.4,1024,1024,1024,1024,0,0,0,0,93,4.657,58.64,164.698168,P-GPS,,50.2
87600,2026-01-11 17:19:11,0.0,5,7.668,0.0,0.0,0.0,16.6,7.3,-8.9,1024,1024,1024,1024,0,0,0,0,93,4.657,58.64,164.698168,P-GPS,,50.2
87700,2026-01-11 17:19:11,0.0,5,7.668,0.0,0.0,0.0,16.7,7.4,-8.7,1024,1024,1024,1024,0,0,0,0,93,4.657,58.64,164.698168,P-GPS,,50.2
87800,2026-01-11 17:19:11,0.0,5,7.63,0.0,0.0,0.0,16.7,7.6,-8.9,1024,1024,1024,1024,0,0,0,0,93,5.697,58.64,164.698168,P-GPS,,50.2
87900,2026-01-11 17:19:11,0.0,5,7.63,0.0,0.0,0.0,16.6,7.9,-9.0,1024,1024,1024,1024,0,0,0,0,93,5.697,58.64,164.698168,P-GPS,,50.2
88000,2026-01-11 17:19:11,0.0,5,7.63,0.0,0.0,0.0,16.6,8.0,-9.0,1024,1024,1024,1024,0,0,0,0,93,5.697,58.64,164.698168,P-GPS,,50.2
88100,2026-01-11 17:19:11,0.0,5,7.63,0.0,0.0,0.0,16.6,8.2,-9.3,1024,1024,1024,1024,0,0,0,0,93,5.697,58.64,165.026252,P-GPS,,50.3
88200,2026-01-11 17:19:11,0.0,5,7.63,0.0,0.0,0.0,16.7,7.8,-9.1,1024,1024,1024,1024,0,0,0,0,93,5.697,58.64,165.026252,P-GPS,,50.3
88300,2026-01-11 17:19:11,0.0,5,7.63,0.0,0.0,0.0,16.5,8.3,-9.5,1024,1024,1024,1024,0,0,0,0,93,5.697,58.64,165.026252,P-GPS,,50.3
88400,2026-01-11 17:19:11,0.0,5,7.63,0.0,0.0,0.0,16.6,8.2,-9.9,1024,1024,1024,1024,0,0,0,0,93,5.697,58.64,165.026252,P-GPS,,50.3
88500,2026-01-11 17:19:11,0.0,5,7.63,0.0,0.0,0.0,16.6,8.5,-9.5,1024,1024,1024,1024,0,0,0,0,93,5.697,58.64,164.698168,P-GPS,,50.2
88600,2026-01-11 17:19:12,0.0,5,7.63,0.0,0.0,0.0,16.5,8.9,-9.1,1024,1024,1024,1024,0,0,0,0,93,5.697,58.64,164.698168,P-GPS,,50.2
88700,2026-01-11 17:19:12,0.0,5,7.63,0.0,0.0,0.0,16.5,8.8,-8.8,1024,1024,1024,1024,0,0,0,0,93,5.697,58.64,164.698168,P-GPS,,50.2
88800,2026-01-11 17:19:12,0.0,5,7.63,0.0,0.0,0.0,16.6,8.2,-8.5,1024,1024,1024,1024,0,0,0,0,93,5.697,58.64,164.698168,P-GPS,,50.2
88900,2026-01-11 17:19:12,0.0,5,7.665,0.0,0.0,0.0,16.6,7.8,-8.4,1024,1024,1024,1024,0,0,0,0,93,5.201,58.64,164.698168,P-GPS,,50.2
89000,2026-01-11 17:19:12,0.0,5,7.665,0.0,0.0,0.0,16.5,7.8,-8.5,1024,1024,1024,1024,0,0,0,0,93,5.201,58.64,164.698168,P-GPS,,50.2
89100,2026-01-11 17:19:12,0.0,5,7.665,0.0,0.0,0.0,16.5,8.0,-8.9,1024,1024,1024,1024,0,0,0,0,93,5.201,58.64,164.698168,P-GPS,,50.2
89200,2026-01-11 17:19:12,0.0,5,7.665,0.0,0.0,0.0,16.6,7.6,-8.9,1024,1024,1024,1024,0,0,0,0,93,5.201,58.64,164.698168,P-GPS,,50.2
89300,2026-01-11 17:19:12,0.0,5,7.665,0.0,0.0,0.0,16.7,7.5,-8.8,1024,1024,1024,1024,0,0,0,0,93,5.201,58.64,164.698168,P-GPS,,50.2
89400,2026-01-11 17:19:12,0.0,5,7.665,0.0,0.0,0.0,16.6,7.5,-9.0,1024,1024,1024,1024,0,0,0,0,93,5.201,58.64,164.698168,P-GPS,,50.2
89500,2026-01-11 17:19:12,0.0,5,7.665,0.0,0.0,0.0,16.6,7.8,-9.1,1024,1024,1024,1024,0,0,0,0,93,5.201,58.64,164.698168,P-GPS,,50.2
89600,2026-01-11 17:19:13,0.0,5,7.665,0.0,0.0,0.0,16.6,7.8,-9.1,1024,1024,1024,1024,0,0,0,0,93,5.201,58.64,164.698168,P-GPS,,50.2
89700,2026-01-11 17:19:13,0.0,5,7.665,0.0,0.0,0.0,16.6,7.9,-9.2,1024,1024,1024,1024,0,0,0,0,93,5.201,58.64,164.698168,P-GPS,,50.2
89800,2026-01-11 17:19:13,0.0,5,7.665,0.0,0.0,0.0,16.6,7.8,-9.2,1024,1024,1024,1024,0,0,0,0,93,5.201,58.64,164.698168,P-GPS,,50.2
89900,2026-01-11 17:19:13,0.0,5,7.665,0.0,0.0,0.0,16.6,7.6,-9.0,1024,1024,1024,1024,0,0,0,0,93,5.201,58.64,164.698168,P-GPS,,50.2
90000,2026-01-11 17:19:13,0.0,5,7.689,0.0,0.0,0.0,16.6,7.4,-9.2,1024,1024,1024,1024,0,0,0,0,92,4.905,58.82,164.698168,P-GPS,,50.2
90100,2026-01-11 17:19:13,0.0,5,7.689,0.0,0.0,0.0,16.6,7.5,-9.0,1024,1024,1024,1024,0,0,0,0,92,4.905,58.82,164.698168,P-GPS,,50.2
90200,2026-01-11 17:19:13,0.0,5,7.689,0.0,0.0,0.0,16.5,7.7,-9.3,1024,1024,1024,1024,0,0,0,0,92,4.905,58.82,164.698168,P-GPS,,50.2
90300,2026-01-11 17:19:13,0.0,5,7.689,0.0,0.0,0.0,16.6,7.8,-9.7,1024,1024,1024,1024,0,0,0,0,92,4.905,58.82,164.698168,P-GPS,,50.2
90400,2026-01-11 17:19:13,0.0,5,7.689,0.0,0.0,0.0,16.7,7.7,-9.8,1024,1024,1024,1024,0,0,0,0,92,4.905,58.82,164.698168,P-GPS,,50.2
90500,2026-01-11 17:19:13,0.0,5,7.689,0.0,0.0,0.0,16.6,8.3,-10.1,1024,1024,1024,1024,0,0,0,0,92,4.905,58.82,164.698168,P-GPS,,50.2
90600,2026-01-11 17:19:14,0.0,5,7.689,0.0,0.0,0.0,16.6,8.2,-10.3,1024,1024,1024,1024,0,0,0,0,92,4.905,58.82,164.698168,P-GPS,,50.2
90700,2026-01-11 17:19:14,0.0,5,7.689,0.0,0.0,0.0,16.6,8.7,-10.4,1024,1024,1024,1024,0,0,0,0,92,4.905,58.82,164.698168,P-GPS,,50.2
90800,2026-01-11 17:19:14,0.0,5,7.689,0.0,0.0,0.0,16.5,9.3,-10.3,1024,1024,1024,1024,0,0,0,0,92,4.905,58.82,164.698168,P-GPS,,50.2
90900,2026-01-11 17:19:14,0.0,5,7.689,0.0,0.0,0.0,16.4,9.5,-10.1,1024,1024,1024,1024,0,0,0,0,92,4.905,58.82,164.698168,P-GPS,,50.2
91000,2026-01-11 17:19:14,0.0,5,7.689,0.0,0.0,0.0,16.4,9.1,-9.5,1024,1024,1024,1024,0,0,0,0,92,4.905,58.82,164.698168,P-GPS,,50.2
91100,2026-01-11 17:19:14,0.0,5,7.715,0.0,0.0,0.0,16.3,9.3,-9.2,1024,1024,1024,1024,0,0,0,0,92,4.615,58.82,164.698168,P-GPS,,50.2
91200,2026-01-11 17:19:14,0.0,5,7.715,0.0,0.0,0.0,16.3,8.9,-8.9,1024,1024,1024,1024,0,0,0,0,92,4.615,58.82,164.698168,P-GPS,,50.2
91300,2026-01-11 17:19:14,0.0,5,7.715,0.0,0.0,0.0,16.4,8.6,-8.7,1024,1024,1024,1024,0,0,0,0,92,4.615,58.82,164.698168,P-GPS,,50.2
91400,2026-01-11 17:19:14,0.0,5,7.715,0.0,0.0,0.0,16.5,8.2,-8.7,1024,1024,1024,1024,0,0,0,0,92,4.615,58.82,164.698168,P-GPS,,50.2
91500,2026-01-11 17:19:14,0.0,5,7.715,0.0,0.0,0.0,16.4,8.2,-8.8,1024,1024,1024,1024,0,0,0,0,92,4.615,58.82,164.698168,P-GPS,,50.2
91600,2026-01-11 17:19:15,0.0,5,7.715,0.0,0.0,0.0,16.5,7.8,-8.8,1024,1024,1024,1024,0,0,0,0,92,4.615,58.82,164.370084,P-GPS,,50.1
91700,2026-01-11 17:19:15,0.0,5,7.715,0.0,0.0,0.0,16.5,7.8,-8.9,1024,1024,1024,1024,0,0,0,0,92,4.615,58.82,164.370084,P-GPS,,50.1
91800,2026-01-11 17:19:15,0.0,5,7.715,0.0,0.0,0.0,16.6,7.3,-9.0,1024,1024,1024,1024,0,0,0,0,92,4.615,58.82,164.370084,P-GPS,,50.1
91900,2026-01-11 17:19:15,0.0,5,7.715,0.0,0.0,0.0,16.6,6.9,-8.7,1024,1024,1024,1024,0,0,0,0,92,4.615,58.82,164.370084,P-GPS,,50.1
92000,2026-01-11 17:19:15,0.0,5,7.715,0.0,0.0,0.0,16.6,6.8,-9.0,1024,1024,1024,1024,0,0,0,0,92,4.615,58.82,164.370084,P-GPS,,50.1
92100,2026-01-11 17:19:15,0.0,5,7.715,0.0,0.0,0.0,16.6,6.8,-8.7,1024,1024,1024,1024,0,0,0,0,92,4.615,58.82,164.370084,P-GPS,,50.1
92200,2026-01-11 17:19:15,0.0,5,7.709,0.0,0.0,0.0,16.6,6.9,-8.4,1024,1024,1024,1024,0,0,0,0,92,4.707,58.82,164.370084,P-GPS,,50.1
92300,2026-01-11 17:19:15,0.0,5,7.709,0.0,0.0,0.0,16.6,7.1,-8.5,1024,1024,1024,1024,0,0,0,0,92,4.707,58.82,164.370084,P-GPS,,50.1
92400,2026-01-11 17:19:15,0.0,5,7.709,0.0,0.0,0.0,16.6,7.3,-8.5,1024,1024,1024,1024,0,0,0,0,92,4.707,58.82,164.370084,P-GPS,,50.1
92500,2026-01-11 17:19:16,0.0,5,7.709,0.0,0.0,0.0,16.5,7.6,-8.5,1024,1024,1024,1024,0,0,0,0,92,4.707,58.82,164.370084,P-GPS,,50.1
92600,2026-01-11 17:19:16,0.0,5,7.709,0.0,0.0,0.0,16.6,7.3,-8.5,1024,1024,1024,1024,0,0,0,0,92,4.707,58.82,164.370084,P-GPS,,50.1
92700,2026-01-11 17:19:16,0.0,5,7.709,0.0,0.0,0.0,16.5,7.8,-8.5,1024,1024,1024,1024,0,0,0,0,92,4.707,58.82,164.370084,P-GPS,,50.1
92800,2026-01-11 17:19:16,0.0,5,7.709,0.0,0.0,0.0,16.6,7.5,-8.6,1024,1024,1024,1024,0,0,0,0,92,4.707,58.82,164.370084,P-GPS,,50.1
92900,2026-01-11 17:19:16,0.0,5,7.709,0.0,0.0,0.0,16.6,8.0,-8.7,1024,1024,1024,1024,0,0,0,0,92,4.707,58.82,164.370084,P-GPS,,50.1
93000,2026-01-11 17:19:16,0.0,5,7.709,0.0,0.0,0.0,16.7,7.7,-8.5,1024,1024,1024,1024,0,0,0,0,92,4.707,58.82,164.370084,P-GPS,,50.1
93100,2026-01-11 17:19:16,0.0,5,7.709,0.0,0.0,0.0,16.6,8.0,-8.4,1024,1024,1024,1024,0,0,0,0,92,4.707,58.82,164.370084,P-GPS,,50.1
93200,2026-01-11 17:19:16,0.0,5,7.709,0.0,0.0,0.0,16.6,7.9,-8.0,1024,1024,1024,1024,0,0,0,0,92,4.707,58.82,164.370084,P-GPS,,50.1
93300,2026-01-11 17:19:16,0.0,5,7.684,0.0,0.0,0.0,16.5,7.8,-8.2,1024,1024,1024,1024,0,0,0,0,92,4.824,58.82,164.370084,P-GPS,,50.1
93400,2026-01-11 17:19:16,0.0,5,7.684,0.0,0.0,0.0,16.4,7.9,-8.1,1024,1024,1024,1024,0,0,0,0,92,4.824,58.82,164.370084,P-GPS,,50.1
93500,2026-01-11 17:19:16,0.0,5,7.684,0.0,0.0,0.0,16.4,7.9,-8.0,1024,1024,1024,1024,0,0,0,0,92,4.824,58.82,164.370084,P-GPS,,50.1
93600,2026-01-11 17:19:17,0.0,5,7.684,0.0,0.0,0.0,16.5,7.6,-7.9,1024,1024,1024,1024,0,0,0,0,92,4.824,58.82,164.042,P-GPS,,50.0
93700,2026-01-11 17:19:17,0.0,5,7.684,0.0,0.0,0.0,16.5,7.4,-7.8,1024,1024,1024,1024,0,0,0,0,92,4.824,58.82,164.042,P-GPS,,50.0
93800,2026-01-11 17:19:17,0.0,5,7.684,0.0,0.0,0.0,16.6,7.3,-7.7,1024,1024,1024,1024,0,0,0,0,92,4.824,58.82,164.042,P-GPS,,50.0
93900,2026-01-11 17:19:17,0.0,5,7.684,0.0,0.0,0.0,16.5,7.4,-7.6,1024,1024,1024,1024,0,0,0,0,92,4.824,58.82,164.042,P-GPS,,50.0
94000,2026-01-11 17:19:17,0.0,5,7.684,0.0,0.0,0.0,16.5,7.4,-7.8,1024,1024,1024,1024,0,0,0,0,92,4.824,58.82,164.042,P-GPS,,50.0
94100,2026-01-11 17:19:17,0.0,5,7.684,0.0,0.0,0.0,16.5,7.5,-8.0,1024,1024,1024,1024,0,0,0,0,92,4.824,58.82,164.042,P-GPS,,50.0
94200,2026-01-11 17:19:17,0.0,5,7.684,0.0,0.0,0.0,16.5,7.4,-7.8,1024,1024,1024,1024,0,0,0,0,92,4.824,58.82,164.042,P-GPS,,50.0
94300,2026-01-11 17:19:17,0.0,5,7.684,0.0,0.0,0.0,16.5,7.8,-7.9,1024,1024,1024,1024,0,0,0,0,92,4.824,58.82,164.042,P-GPS,,50.0
94400,2026-01-11 17:19:17,0.0,5,7.71,0.0,0.0,0.0,16.5,7.9,-8.1,1024,1024,1024,1024,0,0,0,0,92,4.631,58.82,164.370084,P-GPS,,50.1
94500,2026-01-11 17:19:18,0.0,5,7.71,0.0,0.0,0.0,16.5,8.1,-7.9,1024,1024,1024,1024,0,0,0,0,92,4.631,58.82,164.370084,P-GPS,,50.1
94600,2026-01-11 17:19:18,0.0,5,7.71,0.0,0.0,0.0,16.4,8.2,-8.1,1024,1024,1024,1024,0,0,0,0,92,4.631,58.82,164.370084,P-GPS,,50.1
94700,2026-01-11 17:19:18,0.0,5,7.71,0.0,0.0,0.0,16.5,7.9,-7.8,1024,1024,1024,1024,0,0,0,0,92,4.631,58.82,164.370084,P-GPS,,50.1
94800,2026-01-11 17:19:18,0.0,5,7.71,0.0,0.0,0.0,16.6,7.4,-7.7,1024,1024,1024,1024,0,0,0,0,92,4.631,58.82,164.042,P-GPS,,50.0
94900,2026-01-11 17:19:18,0.0,5,7.71,0.0,0.0,0.0,16.6,7.2,-8.1,1024,1024,1024,1024,0,0,0,0,92,4.631,58.82,164.370084,P-GPS,,50.1
95000,2026-01-11 17:19:18,0.0,5,7.71,0.0,0.0,0.0,16.6,7.4,-8.3,1024,1024,1024,1024,0,0,0,0,92,4.631,58.82,164.370084,P-GPS,,50.1
95100,2026-01-11 17:19:18,0.0,5,7.71,0.0,0.0,0.0,16.5,7.7,-8.4,1024,1024,1024,1024,0,0,0,0,92,4.631,58.82,164.370084,P-GPS,,50.1
95200,2026-01-11 17:19:18,0.0,5,7.71,0.0,0.0,0.0,16.4,7.9,-8.2,1024,1024,1024,1024,0,0,0,0,92,4.631,58.82,164.370084,P-GPS,,50.1
95300,2026-01-11 17:19:18,0.0,5,7.71,0.0,0.0,0.0,16.5,7.6,-8.0,1024,1024,1024,1024,0,0,0,0,92,4.631,58.82,164.042,P-GPS,,50.0
95400,2026-01-11 17:19:18,0.0,5,7.71,0.0,0.0,0.0,16.6,7.3,-7.9,1024,1024,1024,1024,0,0,0,0,92,4.631,58.82,164.042,P-GPS,,50.0
95500,2026-01-11 17:19:18,0.0,5,7.71,0.0,0.0,0.0,16.6,7.2,-7.7,1024,1024,1024,1024,0,0,0,0,92,4.631,58.82,164.042,P-GPS,,50.0
95600,2026-01-11 17:19:19,0.0,5,7.71,0.0,0.0,0.0,16.6,7.1,-7.7,1024,1024,1024,1024,0,0,0,0,92,4.631,58.82,164.042,P-GPS,,50.0
95700,2026-01-11 17:19:19,0.0,5,7.71,0.0,0.0,0.0,16.6,7.0,-7.9,1024,1024,1024,1024,0,0,0,0,92,4.631,58.82,164.042,P-GPS,,50.0
95800,2026-01-11 17:19:19,0.0,5,7.71,0.0,0.0,0.0,16.6,7.1,-8.1,1024,1024,1024,1024,0,0,0,0,92,4.631,58.82,164.370084,P-GPS,,50.1
95900,2026-01-11 17:19:19,0.0,5,7.71,0.0,0.0,0.0,16.6,7.0,-8.2,1024,1024,1024,1024,0,0,0,0,92,4.631,58.82,164.370084,P-GPS,,50.1
96000,2026-01-11 17:19:19,0.0,5,7.71,0.0,0.0,0.0,16.6,6.9,-8.2,1024,1024,1024,1024,0,0,0,0,92,4.631,58.82,164.370084,P-GPS,SD card speed low SD card speed low. Normal use may be affected. Replace SD card (Code: 10028). Gimbal stuck. Make sure gimbal cover is removed and manually check whether gimbal can rotate freely (Code: 40002),50.1
96100,2026-01-11 17:19:19,0.0,5,7.71,0.0,0.0,0.0,16.7,6.3,-8.6,1024,1024,1024,1024,0,0,0,0,92,4.631,58.82,164.370084,P-GPS,,50.1
96200,2026-01-11 17:19:19,0.0,5,7.71,0.0,0.0,0.0,16.7,6.4,-8.7,1024,1024,1024,1024,0,0,0,0,92,4.631,58.82,164.370084,P-GPS,,50.1
96300,2026-01-11 17:19:19,0.0,5,7.71,0.0,0.0,0.0,16.6,6.6,-8.7,1024,1024,1024,1024,0,0,0,0,92,4.631,58.82,164.370084,P-GPS,,50.1
96400,2026-01-11 17:19:19,0.0,5,7.71,0.0,0.0,0.0,16.7,6.7,-8.6,1024,1024,1024,1024,0,0,0,0,92,4.631,58.82,164.370084,P-GPS,,50.1
96500,2026-01-11 17:19:20,0.0,5,7.71,0.0,0.0,0.0,16.7,6.6,-8.6,1024,1024,1024,1024,0,0,0,0,92,4.631,58.82,164.370084,P-GPS,,50.1
96600,2026-01-11 17:19:20,0.0,5,7.722,0.0,0.0,0.0,16.6,6.9,-8.9,1024,1024,1024,1024,0,0,0,0,92,4.411,58.82,164.370084,P-GPS,,50.1
96700,2026-01-11 17:19:20,0.0,5,7.722,0.0,0.0,0.0,16.6,7.0,-8.7,1024,1024,1024,1024,0,0,0,0,92,4.411,58.82,164.370084,P-GPS,,50.1
96800,2026-01-11 17:19:20,0.0,5,7.722,0.0,0.0,0.0,16.7,6.9,-8.7,1024,1024,1024,1024,0,0,0,0,92,4.411,58.82,164.370084,P-GPS,,50.1
96900,2026-01-11 17:19:20,0.0,5,7.722,0.0,0.0,0.0,16.6,7.0,-8.3,1024,1024,1024,1024,0,0,0,0,92,4.411,58.82,164.370084,P-GPS,,50.1
97000,2026-01-11 17:19:20,0.0,5,7.722,0.0,0.0,0.0,16.7,6.7,-8.5,1024,1024,1024,1024,0,0,0,0,92,4.411,58.82,164.370084,P-GPS,,50.1
97100,2026-01-11 17:19:20,0.0,5,7.722,0.0,0.0,0.0,16.9,5.7,-8.5,1024,1024,1024,1024,0,0,0,0,92,4.411,58.82,164.370084,P-GPS,,50.1
97200,2026-01-11 17:19:20,0.0,5,7.722,0.0,0.0,0.0,16.8,6.2,-8.7,1024,1024,1024,1024,0,0,0,0,92,4.411,58.82,164.370084,P-GPS,,50.1
97300,2026-01-11 17:19:20,0.0,5,7.722,0.0,0.0,0.0,16.7,6.7,-8.6,1024,1024,1024,1024,0,0,0,0,92,4.411,58.82,164.698168,P-GPS,,50.2
97400,2026-01-11 17:19:20,0.0,5,7.722,0.0,0.0,0.0,16.7,6.9,-8.4,1024,1024,1024,1024,0,0,0,0,92,4.411,58.82,164.698168,P-GPS,,50.2
97500,2026-01-11 17:19:20,0.0,5,7.722,0.0,0.0,0.0,16.6,7.3,-8.6,1024,1024,1024,1024,0,0,0,0,92,4.411,58.82,164.698168,P-GPS,,50.2
97600,2026-01-11 17:19:21,0.0,5,7.722,0.0,0.0,0.0,16.6,7.5,-8.5,1024,1024,1024,1024,0,0,0,0,92,4.411,58.82,164.698168,P-GPS,,50.2
97700,2026-01-11 17:19:21,0.0,5,7.722,0.0,0.0,0.0,16.6,7.4,-8.5,1024,1024,1024,1024,0,0,0,0,92,4.411,58.82,164.698168,P-GPS,,50.2
97800,2026-01-11 17:19:21,0.0,5,7.722,0.0,0.0,0.0,16.7,7.5,-8.7,1024,1024,1024,1024,0,0,0,0,92,4.411,58.82,164.698168,P-GPS,,50.2
97900,2026-01-11 17:19:21,0.0,5,7.722,0.0,0.0,0.0,16.7,7.5,-9.3,1024,1024,1024,1024,0,0,0,0,92,4.411,58.82,164.698168,P-GPS,,50.2
98000,2026-01-11 17:19:21,0.0,5,7.722,0.0,0.0,0.0,16.6,7.9,-9.2,1024,1024,1024,1024,0,0,0,0,92,4.411,58.82,165.026252,P-GPS,,50.3
98100,2026-01-11 17:19:21,0.0,5,7.722,0.0,0.0,0.0,16.7,7.7,-8.9,1024,1024,1024,1024,0,0,0,0,92,4.411,58.82,165.026252,P-GPS,,50.3
98200,2026-01-11 17:19:21,0.0,5,7.722,0.0,0.0,0.0,16.7,7.7,-8.8,1024,1024,1024,1024,0,0,0,0,92,4.411,58.82,165.026252,P-GPS,,50.3
98300,2026-01-11 17:19:21,0.0,5,7.722,0.0,0.0,0.0,16.7,7.4,-8.4,1024,1024,1024,1024,0,0,0,0,92,4.411,58.82,165.026252,P-GPS,,50.3
98400,2026-01-11 17:19:21,0.0,5,7.722,0.0,0.0,0.0,16.7,7.6,-8.4,1024,1024,1024,1024,0,0,0,0,92,4.411,58.82,165.026252,P-GPS,,50.3
98500,2026-01-11 17:19:21,0.0,5,7.723,0.0,0.0,0.0,16.6,8.1,-8.2,1024,1024,1024,1024,0,0,0,0,92,4.61,58.82,165.026252,P-GPS,,50.3
98600,2026-01-11 17:19:22,0.0,5,7.723,0.0,0.0,0.0,16.6,7.9,-8.5,1024,1024,1024,1024,0,0,0,0,92,4.61,58.82,165.026252,P-GPS,,50.3
98700,2026-01-11 17:19:22,0.0,5,7.723,0.0,0.0,0.0,16.6,7.9,-8.3,1024,1024,1024,1024,0,0,0,0,92,4.61,58.82,165.026252,P-GPS,,50.3
98800,2026-01-11 17:19:22,0.0,5,7.723,0.0,0.0,0.0,16.7,8.3,-8.4,1024,1024,1024,1024,0,0,0,0,92,4.61,58.82,165.026252,P-GPS,,50.3
98900,2026-01-11 17:19:22,0.0,5,7.723,0.0,0.0,0.0,16.6,8.3,-8.2,1024,1024,1024,1024,0,0,0,0,92,4.61,58.82,165.026252,P-GPS,,50.3
99000,2026-01-11 17:19:22,0.0,5,7.723,0.0,0.0,0.0,16.7,7.4,-8.3,1024,1024,1024,1024,0,0,0,0,92,4.61,58.82,165.026252,P-GPS,,50.3
99100,2026-01-11 17:19:22,0.0,5,7.723,0.0,0.0,0.0,16.7,7.6,-8.4,1024,1024,1024,1024,0,0,0,0,92,4.61,58.82,165.026252,P-GPS,,50.3
99200,2026-01-11 17:19:22,0.0,5,7.723,0.0,0.0,0.0,16.7,7.3,-8.2,1024,1024,1024,1024,0,0,0,0,92,4.61,58.82,165.026252,P-GPS,,50.3
99300,2026-01-11 17:19:22,0.0,5,7.723,0.0,0.0,0.0,16.7,7.5,-8.0,1024,1024,1024,1024,0,0,0,0,92,4.61,58.82,165.026252,P-GPS,,50.3
99400,2026-01-11 17:19:22,0.0,5,7.723,0.0,0.0,0.0,16.6,8.0,-7.6,1024,1024,1024,1024,0,0,0,0,92,4.61,58.82,165.026252,P-GPS,,50.3
99500,2026-01-11 17:19:22,0.0,5,7.739,0.0,0.0,0.0,16.5,8.0,-7.7,1024,1024,1024,1024,0,0,0,0,92,4.488,58.82,165.026252,P-GPS,,50.3
99600,2026-01-11 17:19:23,0.0,5,7.739,0.0,0.0,0.0,16.7,7.2,-7.6,1024,1024,1024,1024,0,0,0,0,92,4.488,58.82,164.698168,P-GPS,,50.2
99700,2026-01-11 17:19:23,0.0,5,7.739,0.0,0.0,0.0,16.8,6.7,-7.4,1024,1024,1024,1024,0,0,0,0,92,4.488,58.82,164.698168,P-GPS,,50.2
99800,2026-01-11 17:19:23,0.0,5,7.739,0.0,0.0,0.0,16.7,6.5,-7.6,1024,1024,1024,1024,0,0,0,0,92,4.488,58.82,165.026252,P-GPS,,50.3
99900,2026-01-11 17:19:23,0.0,5,7.739,0.0,0.0,0.0,16.6,7.6,-8.5,1024,1024,1024,1024,0,0,0,0,92,4.488,58.82,165.026252,P-GPS,,50.3
100000,2026-01-11 17:19:23,0.0,5,7.739,0.0,0.0,0.0,16.5,7.4,-9.0,1024,1024,1024,1024,0,0,0,0,92,4.488,58.82,165.026252,P-GPS,,50.3
100100,2026-01-11 17:19:23,0.0,5,7.739,0.0,0.0,0.0,16.5,6.6,-9.5,1024,1024,1024,1024,0,0,0,0,92,4.488,58.82,164.698168,P-GPS,,50.2
100200,2026-01-11 17:19:23,0.0,5,7.739,0.0,0.0,0.0,16.6,5.4,-9.7,1024,1024,1024,1024,0,0,0,0,92,4.488,58.82,164.698168,P-GPS,,50.2
100300,2026-01-11 17:19:23,0.0,5,7.739,0.0,0.0,0.0,16.6,5.4,-10.2,1024,1024,1024,1024,0,0,0,0,92,4.488,58.82,164.698168,P-GPS,,50.2
100400,2026-01-11 17:19:23,0.0,5,7.739,0.0,0.0,0.0,16.5,6.2,-9.8,1024,1024,1024,1024,0,0,0,0,92,4.488,58.82,164.698168,P-GPS,,50.2
100500,2026-01-11 17:19:24,0.0,5,7.733,0.0,0.0,0.0,16.5,6.3,-9.1,1024,1024,1024,1024,0,0,0,0,92,4.379,58.82,164.370084,P-GPS,,50.1
100600,2026-01-11 17:19:24,0.0,5,7.733,0.0,0.0,0.0,16.6,5.9,-9.1,1024,1024,1024,1024,0,0,0,0,92,4.379,58.82,164.370084,P-GPS,,50.1
100700,2026-01-11 17:19:24,0.0,5,7.733,0.0,0.0,0.0,16.6,5.6,-9.8,1024,1024,1024,1024,0,0,0,0,92,4.379,58.82,164.370084,P-GPS,,50.1
100800,2026-01-11 17:19:24,0.0,5,7.733,0.0,0.0,0.0,16.8,4.9,-10.1,1024,1024,1024,1024,0,0,0,0,92,4.379,58.82,164.370084,P-GPS,,50.1
100900,2026-01-11 17:19:24,0.0,5,7.733,0.0,0.0,0.0,16.8,4.8,-10.7,1024,1024,1024,1024,0,0,0,0,92,4.379,58.82,164.698168,P-GPS,,50.2
101000,2026-01-11 17:19:24,0.0,5,7.733,0.0,0.0,0.0,16.8,4.9,-11.0,1024,1024,1024,1024,0,0,0,0,92,4.379,58.82,164.698168,P-GPS,,50.2
101100,2026-01-11 17:19:24,0.0,5,7.733,0.0,0.0,0.0,16.8,4.9,-11.1,1024,1024,1024,1024,0,0,0,0,92,4.379,58.82,164.698168,P-GPS,,50.2
101200,2026-01-11 17:19:24,0.0,5,7.733,0.0,0.0,0.0,16.7,5.7,-11.0,1024,1024,1024,1024,0,0,0,0,92,4.379,58.82,164.698168,P-GPS,,50.2
101300,2026-01-11 17:19:24,0.0,5,7.733,0.0,0.0,0.0,16.5,7.1,-9.9,1024,1024,1024,1024,0,0,0,0,92,4.379,58.82,164.698168,P-GPS,,50.2
101400,2026-01-11 17:19:24,0.0,5,7.733,0.0,0.0,0.0,16.5,7.1,-9.3,1024,1024,1024,1024,0,0,0,0,92,4.379,58.82,164.698168,P-GPS,,50.2
101500,2026-01-11 17:19:24,0.0,5,7.721,0.0,0.0,0.0,16.8,6.4,-8.5,1024,1024,446,1024,0,0,-88,0,92,4.247,58.82,164.698168,P-GPS,,50.2
101600,2026-01-11 17:19:25,0.0,5,7.721,0.0,0.0,0.0,16.9,5.9,-8.4,1024,1024,364,1024,0,0,-100,0,92,4.247,58.82,164.698168,P-GPS,,50.2
101700,2026-01-11 17:19:25,0.0,5,7.721,0.0,0.0,0.223694,17.1,6.2,-9.4,1024,1024,364,1024,0,0,-100,0,92,4.247,58.82,164.698168,P-GPS,,50.2
101800,2026-01-11 17:19:25,0.0,5,7.721,0.0,0.0,0.671082,17.4,5.7,-9.8,1024,1024,364,1157,0,0,-100,20,92,4.247,58.82,164.370084,P-GPS,,50.1
101900,2026-01-11 17:19:25,0.0,5,7.721,0.0,0.0,1.342164,17.6,5.4,-9.9,1024,1024,364,1227,0,0,-100,31,92,4.247,58.82,164.042,P-GPS,,50.0
102000,2026-01-11 17:19:25,0.0,5,7.721,0.0,0.0,2.23694,18.1,4.8,-10.1,1024,1024,364,1028,0,0,-100,1,92,4.247,58.82,163.385832,P-GPS,,49.8
102100,2026-01-11 17:19:25,0.0,5,7.721,0.0,0.0,2.908022,19.6,4.3,-9.0,1024,1024,364,1024,0,0,-100,0,92,4.247,58.82,163.057748,P-GPS,,49.7
102200,2026-01-11 17:19:25,0.0,5,7.721,0.0,0.0,3.579104,20.1,3.8,-8.1,1024,1024,364,1024,0,0,-100,0,92,4.247,58.82,162.40158,P-GPS,,49.5
102300,2026-01-11 17:19:25,0.0,5,7.721,0.0,0.0,3.802798,20.1,3.9,-7.3,1024,1024,364,1024,0,0,-100,0,92,4.247,58.82,161.417328,P-GPS,,49.2
102400,2026-01-11 17:19:25,0.0,5,7.721,0.0,0.0,3.802798,20.0,3.9,-6.9,1024,1024,364,1024,0,0,-100,0,92,4.247,58.82,160.76116,P-GPS,,49.0
102500,2026-01-11 17:19:25,0.0,5,7.875,0.0,0.0,4.026492,19.8,4.3,-7.2,1024,1024,364,1024,0,0,-100,0,92,3.056,58.82,160.104992,P-GPS,,48.8
102600,2026-01-11 17:19:26,0.0,5,7.875,0.0,0.0,4.026492,19.7,4.6,-7.5,1024,1024,364,1024,0,0,-100,0,92,3.056,58.82,159.776908,P-GPS,,48.7
102700,2026-01-11 17:19:26,0.0,5,7.875,0.0,0.0,4.026492,19.6,4.5,-8.1,1024,1024,364,1024,0,0,-100,0,92,3.056,58.82,159.12074,P-GPS,,48.5
102800,2026-01-11 17:19:26,0.0,5,7.875,0.0,0.0,4.026492,19.5,4.6,-8.7,1024,1024,364,1024,0,0,-100,0,92,3.056,58.82,158.464572,P-GPS,,48.3
102900,2026-01-11 17:19:26,0.0,5,7.875,0.0,0.0,4.026492,19.4,4.8,-9.0,1024,1024,364,1024,0,0,-100,0,92,3.056,58.82,158.136488,P-GPS,,48.2
