index,time(millisecond),timestamp,speed(mph),gpslevel,voltage(v),xSpeed(mph),ySpeed(mph),zSpeed(mph),compass_heading(degrees),pitch(degrees),roll(degrees),rc_elevator,rc_aileron,rc_throttle,rc_rudder,rc_elevator(percent),rc_aileron(percent),rc_throttle(percent),rc_rudder(percent),battery_percent,current(A),battery_temperature(f),ascent(feet),flycState,message,height_above_takeoff(meters)
78,278200,2026-01-11 17:22:30,0.0,5,7.568,0.0,0.0,-4.250186,30.6,3.6,-2.6,1024,1024,1024,1024,0,0,0,0,81,5.549,60.62,36.08924,P-GPS,,11.0
79,278300,2026-01-11 17:22:31,0.0,5,7.568,0.0,0.0,-4.250186,30.4,4.2,-2.5,1024,1024,1024,1024,0,0,0,0,81,5.549,60.62,36.745408,P-GPS,,11.2
80,278400,2026-01-11 17:22:31,0.223694,5,7.568,0.0,0.223694,-4.250186,30.3,3.4,-2.9,1024,1024,1024,1024,0,0,0,0,81,5.549,60.62,37.401576,P-GPS,,11.4
81,278500,2026-01-11 17:22:31,0.223694,5,7.568,0.0,0.223694,-3.802798,30.1,4.6,-3.5,1024,1024,1024,1024,0,0,0,0,81,5.549,60.62,38.057744,P-GPS,,11.6
82,278600,2026-01-11 17:22:31,0.223694,5,7.568,0.0,0.223694,-3.131716,29.9,5.0,-4.0,1024,1024,1024,1024,0,0,0,0,81,5.549,60.62,38.713912,P-GPS,,11.8
92,279600,2026-01-11 17:22:32,0.0,5,7.568,0.0,0.0,2.684328,29.4,3.0,-4.7,1024,1024,1024,1024,0,0,0,0,81,5.549,60.62,38.385828,P-GPS,,11.7
93,279700,2026-01-11 17:22:32,0.0,5,7.568,0.0,0.0,2.908022,29.5,2.9,-4.2,1024,1024,1024,1024,0,0,0,0,81,5.549,60.62,37.72966,P-GPS,,11.5
94,279800,2026-01-11 17:22:32,0.0,5,7.568,0.0,0.0,3.131716,29.4,4.8,-4.4,1024,1024,1024,1024,0,0,0,0,81,5.549,60.62,37.073492,P-GPS,,11.3
95,279900,2026-01-11 17:22:32,0.0,5,7.568,0.0,0.0,2.684328,29.5,0.9,-3.8,1024,1024,1024,1024,0,0,0,0,81,5.549,60.62,36.745408,P-GPS,,11.2
96,280000,2026-01-11 17:22:32,0.0,5,7.568,0.0,0.0,2.013246,29.4,2.2,-3.9,1024,1024,1024,1024,0,0,0,0,81,5.549,60.62,36.417324,P-GPS,,11.1
97,280100,2026-01-11 17:22:32,0.0,5,7.568,0.0,0.0,1.342164,29.3,4.7,-4.4,1024,1024,1024,1024,0,0,0,0,81,5.549,60.62,36.417324,P-GPS,,11.1
98,280200,2026-01-11 17:22:33,0.223694,5,7.568,-0.223694,0.0,0.894776,29.3,5.0,-4.4,1024,1024,1024,1024,0,0,0,0,81,5.549,60.62,36.417324,P-GPS,,11.1
99,280300,2026-01-11 17:22:33,0.223694,5,7.703,-0.223694,0.0,0.447388,29.4,1.3,-5.2,1024,1024,1024,1024,0,0,0,0,81,4.29,60.62,36.417324,P-GPS,,11.1
100,280400,2026-01-11 17:22:33,0.223694,5,7.703,-0.223694,0.0,0.0,29.4,1.2,-6.9,1024,1024,1024,1024,0,0,0,0,81,4.29,60.62,36.417324,P-GPS,,11.1
101,280500,2026-01-11 17:22:33,0.223694,5,7.703,-0.223694,0.0,0.0,29.7,0.0,-7.2,1024,1024,1024,1024,0,0,0,0,81,4.29,60.62,36.417324,P-GPS,,11.1
102,280600,2026-01-11 17:22:33,0.0,5,7.703,0.0,0.0,0.0,29.8,1.1,-6.9,1024,1024,1024,1024,0,0,0,0,81,4.29,60.62,36.417324,P-GPS,,11.1
103,280700,2026-01-11 17:22:33,0.0,5,7.703,0.0,0.0,0.0,29.6,2.9,-7.2,1024,1024,1024,1024,0,0,0,0,81,4.29,60.62,36.417324,P-GPS,,11.1
104,280800,2026-01-11 17:22:33,0.0,5,7.703,0.0,0.0,0.0,29.6,3.8,-6.8,1024,1024,1024,1024,0,0,0,0,81,4.29,60.62,36.417324,P-GPS,,11.1
105,280900,2026-01-11 17:22:33,0.0,5,7.703,0.0,0.0,0.0,29.6,3.8,-6.4,1024,1024,1024,1024,0,0,0,0,81,4.29,60.62,36.417324,P-GPS,,11.1
106,281000,2026-01-11 17:22:33,0.0,5,7.703,0.0,0.0,0.0,29.8,3.0,-5.9,1024,1024,1024,1024,0,0,0,0,81,4.29,60.62,36.417324,P-GPS,,11.1
107,281100,2026-01-11 17:22:33,0.0,5,7.703,0.0,0.0,0.0,29.8,3.8,-6.1,1024,1024,1024,1024,0,0,0,0,81,4.29,60.62,36.417324,P-GPS,,11.1
108,281200,2026-01-11 17:22:33,0.0,5,7.703,0.0,0.0,0.0,29.8,3.7,-5.5,1024,1024,1024,1024,0,0,0,0,81,4.29,60.62,36.417324,P-GPS,,11.1
109,281300,2026-01-11 17:22:34,0.0,5,7.703,0.0,0.0,0.0,29.8,4.1,-5.2,1024,1024,1024,1024,0,0,0,0,81,4.29,60.62,36.08924,P-GPS,,11.0
110,281400,2026-01-11 17:22:34,0.0,5,7.627,0.0,0.0,0.0,29.7,4.4,-4.9,1024,1024,1024,1024,0,0,0,0,81,4.614,60.8,36.08924,P-GPS,,11.0
111,281500,2026-01-11 17:22:34,0.223694,5,7.627,0.0,-0.223694,0.0,29.8,4.6,-5.0,1024,1024,1024,1024,0,0,0,0,81,4.614,60.8,36.08924,P-GPS,,11.0
112,281600,2026-01-11 17:22:34,0.223694,5,7.627,0.0,-0.223694,0.0,29.9,5.0,-4.7,1024,1024,1024,1024,0,0,0,0,81,4.614,60.8,35.761156,P-GPS,,10.9
113,281700,2026-01-11 17:22:34,0.3131716,5,7.627,0.223694,-0.223694,0.0,30.0,5.3,-4.1,1024,1024,1024,1024,0,0,0,0,81,4.614,60.8,35.761156,P-GPS,,10.9
114,281800,2026-01-11 17:22:34,0.223694,5,7.627,0.0,-0.223694,0.0,30.0,4.8,-3.8,1024,1024,1024,1024,0,0,0,0,81,4.614,60.8,35.761156,P-GPS,,10.9
115,281900,2026-01-11 17:22:34,0.3131716,5,7.627,0.223694,-0.223694,0.0,29.8,5.8,-3.1,1024,1024,1024,1024,0,0,0,0,81,4.614,60.8,35.433072,P-GPS,,10.8
116,282000,2026-01-11 17:22:34,0.3131716,5,7.627,0.0,-0.223694,0.0,29.9,5.1,-2.7,1024,1024,1024,1024,0,0,0,0,81,4.614,60.8,35.433072,P-GPS,,10.8
117,282100,2026-01-11 17:22:34,0.223694,5,7.627,0.0,-0.223694,0.0,29.9,5.0,-2.4,1024,1024,1024,1024,0,0,0,0,81,4.614,60.8,35.433072,P-GPS,,10.8
118,282200,2026-01-11 17:22:34,0.223694,5,7.627,0.0,-0.223694,0.0,29.9,5.3,-2.2,1024,1024,1024,1024,0,0,0,0,81,4.614,60.8,35.104988,P-GPS,,10.7
119,282300,2026-01-11 17:22:35,0.223694,5,7.627,0.0,-0.223694,0.0,29.8,5.1,-2.1,1024,1024,1024,1024,0,0,0,0,81,4.614,60.8,35.104988,P-GPS,,10.7
120,282400,2026-01-11 17:22:35,0.223694,5,7.627,0.0,-0.223694,0.0,29.8,4.5,-1.6,1024,1024,1024,1024,0,0,0,0,81,4.614,60.8,35.104988,P-GPS,,10.7
121,282500,2026-01-11 17:22:35,0.223694,5,7.606,0.0,-0.223694,0.0,29.9,4.1,-1.6,1024,1024,1024,1024,0,0,0,0,81,4.719,60.8,34.776904,P-GPS,,10.6
122,282600,2026-01-11 17:22:35,0.0,5,7.606,0.0,0.0,0.0,29.7,4.2,-2.1,1024,1024,1024,1024,0,0,0,0,81,4.719,60.8,34.776904,P-GPS,,10.6
123,282700,2026-01-11 17:22:35,0.0,5,7.606,0.0,0.0,0.0,29.6,5.1,-2.7,1024,1024,1024,1024,0,0,0,0,81,4.719,60.8,34.776904,P-GPS,,10.6
124,282800,2026-01-11 17:22:35,0.0,5,7.606,0.0,0.0,0.0,29.7,5.4,-2.4,1024,1024,1024,1024,0,0,0,0,81,4.719,60.8,34.776904,P-GPS,,10.6
125,282900,2026-01-11 17:22:35,0.0,5,7.606,0.0,0.0,0.0,29.8,5.3,-2.2,1024,1024,1024,1024,0,0,0,0,81,4.719,60.8,34.776904,P-GPS,,10.6
126,283000,2026-01-11 17:22:35,0.0,5,7.606,0.0,0.0,0.0,29.6,5.4,-2.6,1024,1024,1024,1024,0,0,0,0,81,4.719,60.8,34.776904,P-GPS,,10.6
127,283100,2026-01-11 17:22:35,0.0,5,7.606,0.0,0.0,0.0,29.5,5.4,-2.7,1024,1024,1024,1024,0,0,0,0,81,4.719,60.8,34.776904,P-GPS,,10.6
128,283200,2026-01-11 17:22:35,0.0,5,7.606,0.0,0.0,0.0,29.5,4.8,-2.7,1024,1024,1024,1024,0,0,0,0,81,4.719,60.8,34.776904,P-GPS,,10.6
129,283300,2026-01-11 17:22:36,0.0,5,7.606,0.0,0.0,0.0,29.6,4.9,-3.2,1024,1024,1024,1024,0,0,0,0,81,4.719,60.8,34.776904,P-GPS,,10.6
130,283400,2026-01-11 17:22:36,0.0,5,7.606,0.0,0.0,0.0,29.6,4.9,-3.1,1024,1024,1024,1024,0,0,0,0,81,4.719,60.8,34.776904,P-GPS,,10.6
131,283500,2026-01-11 17:22:36,0.0,5,7.606,0.0,0.0,0.0,29.7,4.7,-3.0,1024,1024,1024,1024,0,0,0,0,81,4.719,60.8,34.776904,P-GPS,,10.6
132,283600,2026-01-11 17:22:36,0.0,5,7.632,0.0,0.0,0.0,29.7,5.0,-2.4,1024,1024,1024,1024,0,0,0,0,81,4.619,60.8,34.776904,P-GPS,,10.6
133,283700,2026-01-11 17:22:36,0.0,5,7.632,0.0,0.0,0.0,29.7,4.4,-1.6,1024,1024,1024,1024,0,0,0,0,81,4.619,60.8,34.776904,P-GPS,,10.6
134,283800,2026-01-11 17:22:36,0.0,5,7.632,0.0,0.0,0.0,29.7,3.5,-2.3,1024,1024,1024,1024,0,0,0,0,81,4.619,60.8,34.776904,P-GPS,,10.6
135,283900,2026-01-11 17:22:36,0.0,5,7.632,0.0,0.0,0.0,29.6,3.9,-2.4,1024,1024,1024,1024,0,0,0,0,81,4.619,60.8,34.776904,P-GPS,,10.6
136,284000,2026-01-11 17:22:36,0.0,5,7.632,0.0,0.0,0.0,29.7,3.4,-2.3,1024,1024,1024,1024,0,0,0,0,81,4.619,60.8,34.776904,P-GPS,,10.6
137,284100,2026-01-11 17:22:36,0.0,5,7.632,0.0,0.0,0.0,29.6,3.5,-2.5,1024,1024,1024,1024,0,0,0,0,81,4.619,60.8,34.776904,P-GPS,,10.6
138,284200,2026-01-11 17:22:36,0.0,5,7.632,0.0,0.0,0.0,29.5,2.8,-2.6,1024,1024,1024,1024,0,0,0,0,81,4.619,60.8,34.776904,P-GPS,,10.6
139,284300,2026-01-11 17:22:37,0.0,5,7.632,0.0,0.0,0.0,29.8,2.8,-2.7,1024,1024,1024,1024,0,0,0,0,81,4.619,60.8,34.776904,P-GPS,,10.6
140,284400,2026-01-11 17:22:37,0.0,5,7.632,0.0,0.0,0.0,29.6,2.9,-2.8,1024,1024,1024,1024,0,0,0,0,81,4.619,60.8,34.44882,P-GPS,,10.5
141,284500,2026-01-11 17:22:37,0.0,5,7.632,0.0,0.0,0.0,29.5,4.3,-2.7,1024,1024,1024,1024,0,0,0,0,81,4.619,60.8,34.44882,P-GPS,,10.5
142,284600,2026-01-11 17:22:37,0.0,5,7.632,0.0,0.0,0.0,29.5,3.7,-2.6,1024,1024,1024,1024,0,0,0,0,81,4.619,60.8,34.44882,P-GPS,,10.5
143,284700,2026-01-11 17:22:37,0.0,5,7.625,0.0,0.0,0.0,29.5,3.0,-2.7,1024,1024,1024,1024,0,0,0,0,81,4.597,60.8,34.44882,P-GPS,,10.5
144,284800,2026-01-11 17:22:37,0.0,5,7.625,0.0,0.0,0.0,29.6,2.7,-2.6,1024,1024,1024,1024,0,0,0,0,81,4.597,60.8,34.44882,P-GPS,,10.5
145,284900,2026-01-11 17:22:37,0.0,5,7.625,0.0,0.0,0.0,29.6,3.1,-2.8,1024,1024,1024,1024,0,0,0,0,81,4.597,60.8,34.44882,P-GPS,,10.5
146,285000,2026-01-11 17:22:37,0.0,5,7.625,0.0,0.0,0.0,29.6,3.3,-2.3,1024,1024,1024,1024,0,0,0,0,81,4.597,60.8,34.44882,P-GPS,,10.5
147,285100,2026-01-11 17:22:37,0.0,5,7.625,0.0,0.0,0.0,29.6,3.8,-1.1,1024,1024,1024,1024,0,0,0,0,81,4.597,60.8,34.44882,P-GPS,,10.5
148,285200,2026-01-11 17:22:37,0.0,5,7.625,0.0,0.0,0.0,29.4,4.2,-0.6,1024,1024,1024,1024,0,0,0,0,81,4.597,60.8,34.44882,P-GPS,,10.5
149,285300,2026-01-11 17:22:37,0.0,5,7.625,0.0,0.0,0.0,29.4,4.1,-0.6,1024,1024,1024,1024,0,0,0,0,81,4.597,60.8,34.44882,P-GPS,,10.5
150,285400,2026-01-11 17:22:38,0.0,5,7.625,0.0,0.0,0.0,29.4,3.7,-0.6,1024,1024,1024,1024,0,0,0,0,81,4.597,60.8,34.44882,P-GPS,,10.5
151,285500,2026-01-11 17:22:38,0.0,5,7.625,0.0,0.0,0.0,29.5,3.3,-0.5,1024,1024,1024,1024,0,0,0,0,81,4.597,60.8,34.44882,P-GPS,,10.5
152,285600,2026-01-11 17:22:38,0.0,5,7.625,0.0,0.0,0.0,29.6,3.1,-1.2,1024,1024,1024,1024,0,0,0,0,81,4.597,60.8,34.44882,P-GPS,,10.5
153,285700,2026-01-11 17:22:38,0.223694,5,7.625,-0.223694,0.0,0.0,29.6,2.8,-2.3,1024,1024,1024,1024,0,0,0,0,81,4.597,60.8,34.44882,P-GPS,,10.5
154,285800,2026-01-11 17:22:38,0.223694,5,7.627,-0.223694,0.0,0.0,29.4,3.5,-3.1,1024,1024,1024,1024,0,0,0,0,81,4.458,60.8,34.44882,P-GPS,,10.5
155,285900,2026-01-11 17:22:38,0.223694,5,7.627,-0.223694,0.0,0.0,29.0,3.2,-3.6,1024,1024,1024,1024,0,0,0,0,81,4.458,60.8,34.776904,P-GPS,,10.6
156,286000,2026-01-11 17:22:38,0.223694,5,7.627,-0.223694,0.0,0.0,29.1,2.7,-4.0,1024,1024,1024,1024,0,0,0,0,81,4.458,60.8,34.776904,P-GPS,,10.6
157,286100,2026-01-11 17:22:38,0.223694,5,7.627,-0.223694,0.0,0.0,28.9,2.8,-5.1,1024,1024,1024,1024,0,0,0,0,81,4.458,60.8,34.776904,P-GPS,,10.6
158,286200,2026-01-11 17:22:38,0.223694,5,7.627,-0.223694,0.0,0.0,28.9,2.3,-5.5,1024,1024,1024,1024,0,0,0,0,81,4.458,60.8,35.104988,P-GPS,,10.7
159,286300,2026-01-11 17:22:39,0.223694,5,7.627,-0.223694,0.0,0.0,29.1,1.1,-5.5,1024,1024,1024,1024,0,0,0,0,81,4.458,60.8,35.104988,P-GPS,,10.7
160,286400,2026-01-11 17:22:39,0.223694,5,7.627,-0.223694,0.0,0.0,29.1,0.1,-5.3,1024,1024,1024,1024,0,0,0,0,81,4.458,60.8,35.104988,P-GPS,,10.7
161,286500,2026-01-11 17:22:39,0.223694,5,7.627,-0.223694,0.0,0.0,29.2,-0.5,-5.2,1024,1024,1024,1024,0,0,0,0,81,4.458,60.8,35.433072,P-GPS,,10.8
162,286600,2026-01-11 17:22:39,0.223694,5,7.627,-0.223694,0.0,0.0,29.4,-1.4,-4.9,1024,1024,1024,1024,0,0,0,0,81,4.458,60.8,35.433072,P-GPS,,10.8
163,286700,2026-01-11 17:22:39,0.223694,5,7.627,-0.223694,0.0,0.0,29.5,-2.0,-5.1,1024,1024,1024,1024,0,0,0,0,81,4.458,60.8,35.433072,P-GPS,,10.8
164,286800,2026-01-11 17:22:39,0.223694,5,7.627,-0.223694,0.0,0.0,29.5,-1.7,-5.4,1024,1024,1024,1024,0,0,0,0,81,4.458,60.8,35.761156,P-GPS,,10.9
165,286900,2026-01-11 17:22:39,0.223694,5,7.603,-0.223694,0.0,0.0,29.6,-1.0,-5.7,1024,1024,1024,1024,0,0,0,0,81,4.897,60.8,35.761156,P-GPS,,10.9
166,287000,2026-01-11 17:22:39,0.223694,5,7.603,-0.223694,0.0,0.0,29.5,-0.7,-6.3,1024,1024,1024,1024,0,0,0,0,81,4.897,60.8,35.761156,P-GPS,,10.9
167,287100,2026-01-11 17:22:39,0.223694,5,7.603,-0.223694,0.0,0.0,29.8,-0.6,-6.6,1024,1024,1024,1024,0,0,0,0,81,4.897,60.8,36.08924,P-GPS,,11.0
168,287200,2026-01-11 17:22:39,0.0,5,7.603,0.0,0.0,0.223694,29.7,-1.1,-6.5,1024,1024,1024,1024,0,0,0,0,81,4.897,60.8,36.08924,P-GPS,,11.0
169,287300,2026-01-11 17:22:40,0.0,5,7.603,0.0,0.0,0.223694,29.7,-0.9,-7.0,1024,1024,1024,1024,0,0,0,0,81,4.897,60.8,36.08924,P-GPS,,11.0
170,287400,2026-01-11 17:22:40,0.0,5,7.603,0.0,0.0,0.0,29.6,-0.7,-6.5,1024,1024,1024,1024,0,0,0,0,81,4.897,60.8,36.08924,P-GPS,,11.0
171,287500,2026-01-11 17:22:40,0.0,5,7.603,0.0,0.0,0.0,29.8,-1.2,-6.2,1024,1024,1024,1024,0,0,0,0,81,4.897,60.8,36.08924,P-GPS,,11.0
172,287600,2026-01-11 17:22:40,0.0,5,7.603,0.0,0.0,0.0,29.9,-2.0,-5.7,1024,1024,1024,1024,0,0,0,0,81,4.897,60.8,36.08924,P-GPS,,11.0
173,287700,2026-01-11 17:22:40,0.0,5,7.603,0.0,0.0,0.0,29.8,-1.0,-5.5,1024,1024,1024,1024,0,0,0,0,81,4.897,60.8,36.08924,P-GPS,,11.0
174,287800,2026-01-11 17:22:40,0.223694,5,7.603,0.223694,0.0,0.0,30.0,-0.3,-5.4,1024,1024,1024,1024,0,0,0,0,81,4.897,60.8,36.08924,P-GPS,,11.0
175,287900,2026-01-11 17:22:40,0.223694,5,7.603,0.223694,0.0,0.0,29.9,2.0,-4.8,1024,1024,1024,1024,0,0,0,0,81,4.897,60.8,35.761156,P-GPS,,10.9
176,288000,2026-01-11 17:22:40,0.447388,5,7.594,0.447388,0.0,0.0,29.7,3.7,-3.9,1024,1024,1024,1024,0,0,0,0,80,5.086,60.8,35.761156,P-GPS,,10.9
177,288100,2026-01-11 17:22:40,0.223694,5,7.594,0.223694,0.0,0.223694,29.5,4.4,-3.6,1024,1024,1024,1024,0,0,0,0,80,5.086,60.8,35.433072,P-GPS,,10.8
178,288200,2026-01-11 17:22:40,0.223694,5,7.594,0.223694,0.0,0.223694,29.2,4.1,-3.1,1024,1024,1024,1024,0,0,0,0,80,5.086,60.8,35.433072,P-GPS,,10.8
179,288300,2026-01-11 17:22:41,0.0,5,7.594,0.0,0.0,0.223694,29.2,3.6,-3.6,1024,1024,1024,1024,0,0,0,0,80,5.086,60.8,35.433072,P-GPS,,10.8
180,288400,2026-01-11 17:22:41,0.223694,5,7.594,0.0,-0.223694,0.223694,29.5,2.1,-3.3,1024,1024,1024,1024,0,0,0,0,80,5.086,60.8,35.433072,P-GPS,,10.8
181,288500,2026-01-11 17:22:41,0.223694,5,7.594,0.0,-0.223694,0.223694,29.6,1.6,-3.0,1024,1024,1024,1024,0,0,0,0,80,5.086,60.8,35.104988,P-GPS,,10.7
182,288600,2026-01-11 17:22:41,0.223694,5,7.594,0.0,-0.223694,0.0,29.7,0.6,-2.5,1024,1024,1024,1024,0,0,0,0,80,5.086,60.8,35.104988,P-GPS,,10.7
183,288700,2026-01-11 17:22:41,0.223694,5,7.594,0.0,-0.223694,0.0,29.6,1.5,-2.5,1024,1024,1024,1024,0,0,0,0,80,5.086,60.8,35.104988,P-GPS,,10.7
184,288800,2026-01-11 17:22:41,0.0,5,7.594,0.0,0.0,0.0,29.8,1.6,-2.3,1024,1024,1024,1024,0,0,0,0,80,5.086,60.8,35.104988,P-GPS,,10.7
185,288900,2026-01-11 17:22:41,0.0,5,7.594,0.0,0.0,0.0,30.2,1.5,-1.7,1024,1024,1024,1024,0,0,0,0,80,5.086,60.8,34.776904,P-GPS,,10.6
186,289000,2026-01-11 17:22:41,0.0,5,7.594,0.0,0.0,0.0,30.2,2.1,-2.0,1024,1024,1024,1024,0,0,0,0,80,5.086,60.8,34.776904,P-GPS,,10.6
187,289100,2026-01-11 17:22:41,0.0,5,7.572,0.0,0.0,0.0,30.0,2.9,-2.7,1024,1024,1024,1024,0,0,0,0,80,5.261,60.8,34.776904,P-GPS,,10.6
188,289200,2026-01-11 17:22:41,0.0,5,7.572,0.0,0.0,0.0,29.9,3.4,-3.1,1024,1024,1024,1024,0,0,0,0,80,5.261,60.8,34.776904,P-GPS,,10.6
189,289300,2026-01-11 17:22:42,0.0,5,7.572,0.0,0.0,0.0,29.8,3.6,-3.3,1024,1024,1024,1024,0,0,0,0,80,5.261,60.8,34.776904,P-GPS,,10.6
190,289400,2026-01-11 17:22:42,0.0,5,7.572,0.0,0.0,0.0,29.9,3.4,-2.7,1024,1024,1024,1024,0,0,0,0,80,5.261,60.8,34.776904,P-GPS,,10.6
191,289500,2026-01-11 17:22:42,0.0,5,7.572,0.0,0.0,0.0,30.0,3.7,-2.6,1024,1024,1024,1024,0,0,0,0,80,5.261,60.8,34.44882,P-GPS,,10.5
192,289600,2026-01-11 17:22:42,0.223694,5,7.572,0.223694,0.0,0.0,29.9,4.0,-2.3,1024,1024,1024,1024,0,0,0,0,80,5.261,60.8,34.44882,P-GPS,,10.5
193,289700,2026-01-11 17:22:42,0.0,5,7.572,0.0,0.0,0.0,30.0,4.4,-1.6,1024,1024,1024,1024,0,0,0,0,80,5.261,60.8,34.44882,P-GPS,,10.5
194,289800,2026-01-11 17:22:42,0.0,5,7.572,0.0,0.0,0.0,30.2,3.4,-1.6,1024,1024,1024,1024,0,0,0,0,80,5.261,60.8,34.44882,P-GPS,,10.5
195,289900,2026-01-11 17:22:42,0.0,5,7.572,0.0,0.0,0.0,30.2,4.2,-1.8,1024,1024,1024,1024,0,0,0,0,80,5.261,60.8,34.44882,P-GPS,,10.5
196,290000,2026-01-11 17:22:42,0.0,5,7.572,0.0,0.0,0.0,30.0,5.1,-2.4,1024,1024,1024,1024,0,0,0,0,80,5.261,60.8,34.44882,P-GPS,,10.5
197,290100,2026-01-11 17:22:42,0.223694,5,7.572,0.0,0.223694,0.0,30.0,5.2,-3.2,1024,1024,1024,1024,0,0,0,0,80,5.261,60.8,34.44882,P-GPS,,10.5
198,290200,2026-01-11 17:22:42,0.223694,5,7.572,0.0,0.223694,0.0,29.8,5.4,-4.1,1024,1024,1024,1024,0,0,0,0,80,5.261,60.8,34.44882,P-GPS,,10.5
199,290300,2026-01-11 17:22:43,0.223694,5,7.572,0.0,0.223694,0.0,29.7,5.8,-4.3,1024,1024,1024,1024,0,0,0,0,80,5.261,60.8,34.44882,P-GPS,,10.5
200,290400,2026-01-11 17:22:43,0.223694,5,7.572,0.0,0.223694,0.0,29.6,6.1,-4.4,1024,1024,1024,1024,0,0,0,0,80,5.261,60.8,34.44882,P-GPS,,10.5
201,290500,2026-01-11 17:22:43,0.0,5,7.572,0.0,0.0,0.0,29.4,5.8,-4.6,1024,1024,1024,1024,0,0,0,0,80,5.261,60.8,34.44882,P-GPS,,10.5
202,290600,2026-01-11 17:22:43,0.0,5,7.572,0.0,0.0,0.0,29.4,5.4,-5.0,1024,1024,1024,1024,0,0,0,0,80,5.261,60.8,34.44882,P-GPS,,10.5
203,290700,2026-01-11 17:22:43,0.0,5,7.572,0.0,0.0,0.0,29.5,4.9,-5.3,1024,1024,1024,1024,0,0,0,0,80,5.261,60.8,34.776904,P-GPS,,10.6
204,290800,2026-01-11 17:22:43,0.0,5,7.572,0.0,0.0,0.0,29.5,5.1,-5.2,1024,1024,1024,1024,0,0,0,0,80,5.261,60.8,34.776904,P-GPS,,10.6
205,290900,2026-01-11 17:22:43,0.0,5,7.572,0.0,0.0,0.0,29.4,5.6,-5.1,1024,1024,1024,1024,0,0,0,0,80,5.261,60.8,34.776904,P-GPS,,10.6
206,291000,2026-01-11 17:22:43,0.0,5,7.572,0.0,0.0,0.0,29.5,5.3,-5.5,1024,1024,1024,1024,0,0,0,0,80,5.261,60.8,34.776904,P-GPS,,10.6
207,291100,2026-01-11 17:22:43,0.0,5,7.572,0.0,0.0,0.0,29.4,5.9,-5.3,1024,1024,1024,1024,0,0,0,0,80,5.261,60.8,34.776904,P-GPS,,10.6
208,291200,2026-01-11 17:22:43,0.0,5,7.572,0.0,0.0,0.223694,29.5,6.1,-4.9,1024,1024,1024,1024,0,0,0,0,80,5.261,60.8,34.44882,P-GPS,,10.5
209,291300,2026-01-11 17:22:44,0.0,5,7.607,0.0,0.0,0.223694,29.6,6.4,-5.2,1024,1024,1024,1024,0,0,0,0,80,4.68,60.98,34.44882,P-GPS,,10.5
210,291400,2026-01-11 17:22:44,0.0,5,7.607,0.0,0.0,0.223694,29.6,6.0,-4.9,1024,1024,1024,1024,0,0,0,0,80,4.68,60.98,34.44882,P-GPS,,10.5
211,291500,2026-01-11 17:22:44,0.0,5,7.607,0.0,0.0,0.223694,29.6,6.1,-4.4,1024,1024,1024,1024,0,0,0,0,80,4.68,60.98,34.120736,P-GPS,,10.4
212,291600,2026-01-11 17:22:44,0.0,5,7.607,0.0,0.0,0.223694,29.5,6.2,-3.8,1024,1024,1024,1024,0,0,0,0,80,4.68,60.98,34.120736,P-GPS,,10.4
213,291700,2026-01-11 17:22:44,0.223694,5,7.607,0.0,-0.223694,0.223694,29.5,6.3,-3.1,1024,1024,1024,1024,0,0,0,0,80,4.68,60.98,34.120736,P-GPS,,10.4
214,291800,2026-01-11 17:22:44,0.223694,5,7.607,0.0,-0.223694,0.0,29.8,4.8,-2.2,1024,1024,1024,1024,0,0,0,0,80,4.68,60.98,33.792652,P-GPS,,10.3
215,291900,2026-01-11 17:22:44,0.223694,5,7.607,0.0,-0.223694,0.0,29.8,4.3,-2.4,1024,1024,1024,1024,0,0,0,0,80,4.68,60.98,33.792652,P-GPS,,10.3
216,292000,2026-01-11 17:22:44,0.223694,5,7.607,0.0,0.0,0.0,29.8,4.3,-3.4,1024,1024,1024,1024,0,0,0,0,80,4.68,60.98,33.792652,P-GPS,,10.3
217,292100,2026-01-11 17:22:44,0.0,5,7.607,0.0,0.0,0.0,29.6,5.5,-3.0,1024,1024,1024,1024,0,0,0,0,80,4.68,60.98,33.464568,P-GPS,,10.2
218,292200,2026-01-11 17:22:44,0.0,5,7.607,0.0,0.0,0.0,29.7,5.6,-2.3,1024,1024,1024,1024,0,0,0,0,80,4.68,60.98,33.464568,P-GPS,,10.2
219,292300,2026-01-11 17:22:45,0.0,5,7.607,0.0,0.0,0.0,29.7,4.8,-2.5,1024,1024,1024,1024,0,0,0,0,80,4.68,60.98,33.464568,P-GPS,,10.2
220,292400,2026-01-11 17:22:45,0.0,5,7.607,0.0,0.0,0.0,29.6,4.5,-3.0,1024,1024,1024,1024,0,0,0,0,80,4.68,60.98,33.464568,P-GPS,,10.2
221,292500,2026-01-11 17:22:45,0.0,5,7.607,0.0,0.0,0.0,29.3,4.8,-3.7,1024,1024,1024,1024,0,0,0,0,80,4.68,60.98,33.464568,P-GPS,,10.2
222,292600,2026-01-11 17:22:45,0.223694,5,7.607,-0.223694,0.0,0.0,29.3,4.2,-3.7,1024,1024,1024,1024,0,0,0,0,80,4.68,60.98,33.464568,P-GPS,,10.2
223,292700,2026-01-11 17:22:45,0.223694,5,7.607,-0.223694,0.0,0.0,29.3,3.2,-3.9,1024,1024,1024,1024,0,0,0,0,80,4.68,60.98,33.464568,P-GPS,,10.2
224,292800,2026-01-11 17:22:45,0.223694,5,7.607,-0.223694,0.0,0.0,29.4,2.9,-4.5,1024,1024,1024,1024,0,0,0,0,80,4.68,60.98,33.464568,P-GPS,,10.2
225,292900,2026-01-11 17:22:45,0.223694,5,7.607,-0.223694,0.0,0.0,29.4,2.4,-4.9,1024,1024,1024,1024,0,0,0,0,80,4.68,60.98,33.464568,P-GPS,,10.2
226,293000,2026-01-11 17:22:45,0.0,5,7.607,0.0,0.0,0.0,29.6,2.3,-4.6,1024,1024,1024,1024,0,0,0,0,80,4.68,60.98,33.464568,P-GPS,,10.2
227,293100,2026-01-11 17:22:45,0.0,5,7.607,0.0,0.0,0.0,29.4,2.7,-4.9,1024,1024,1024,1024,0,0,0,0,80,4.68,60.98,33.792652,P-GPS,,10.3
228,293200,2026-01-11 17:22:45,0.0,5,7.568,0.0,0.0,0.0,28.9,3.7,-5.5,1024,1024,1024,1024,0,0,0,0,80,5.454,60.98,33.792652,P-GPS,,10.3
229,293300,2026-01-11 17:22:46,0.0,5,7.568,0.0,0.0,0.0,28.8,3.6,-6.0,1024,1024,1024,1024,0,0,0,0,80,5.454,60.98,33.792652,P-GPS,,10.3
230,293400,2026-01-11 17:22:46,0.0,5,7.568,0.0,0.0,0.0,29.3,2.6,-5.8,1024,1024,1024,1024,0,0,0,0,80,5.454,60.98,34.120736,P-GPS,,10.4
231,293500,2026-01-11 17:22:46,0.0,5,7.568,0.0,0.0,0.0,29.6,2.1,-5.6,1024,1024,1024,1024,0,0,0,0,80,5.454,60.98,34.120736,P-GPS,,10.4
232,293600,2026-01-11 17:22:46,0.0,5,7.568,0.0,0.0,0.0,29.5,1.8,-5.7,1024,1024,1024,1024,0,0,0,0,80,5.454,60.98,34.120736,P-GPS,,10.4
233,293700,2026-01-11 17:22:46,0.0,5,7.568,0.0,0.0,0.0,29.5,2.1,-5.6,1024,1024,1024,1024,0,0,0,0,80,5.454,60.98,34.120736,P-GPS,,10.4
234,293800,2026-01-11 17:22:46,0.0,5,7.568,0.0,0.0,0.0,29.4,2.8,-5.2,1024,1024,1024,1024,0,0,0,0,80,5.454,60.98,34.44882,P-GPS,,10.5
235,293900,2026-01-11 17:22:46,0.0,5,7.568,0.0,0.0,0.0,29.3,2.3,-4.9,1024,1024,1024,1024,0,0,0,0,80,5.454,60.98,34.44882,P-GPS,,10.5
236,294000,2026-01-11 17:22:46,0.0,5,7.568,0.0,0.0,0.0,29.1,2.3,-4.6,1024,1024,1024,1024,0,0,0,0,80,5.454,60.98,34.44882,P-GPS,,10.5
237,294100,2026-01-11 17:22:46,0.0,5,7.568,0.0,0.0,0.0,28.9,4.0,-4.6,1024,1024,1024,1024,0,0,0,0,80,5.454,60.98,34.44882,P-GPS,,10.5
238,294200,2026-01-11 17:22:46,0.0,5,7.597,0.0,0.0,0.223694,28.8,4.9,-4.3,1024,1024,1024,1024,0,0,0,0,80,4.798,60.98,34.44882,P-GPS,,10.5
239,294300,2026-01-11 17:22:47,0.0,5,7.597,0.0,0.0,0.223694,28.8,2.3,-4.3,1024,1024,1024,1024,0,0,0,0,80,4.798,60.98,34.44882,P-GPS,,10.5
240,294400,2026-01-11 17:22:47,0.0,5,7.597,0.0,0.0,0.0,28.9,1.3,-4.5,1024,1024,1024,1024,0,0,0,0,80,4.798,60.98,34.44882,P-GPS,,10.5
241,294500,2026-01-11 17:22:47,0.0,5,7.597,0.0,0.0,0.0,29.1,1.4,-4.6,1024,1024,1024,1024,0,0,0,0,80,4.798,60.98,34.44882,P-GPS,,10.5
242,294600,2026-01-11 17:22:47,0.0,5,7.597,0.0,0.0,0.0,29.2,1.1,-4.6,1024,1024,1024,1024,0,0,0,0,80,4.798,60.98,34.44882,P-GPS,,10.5
243,294700,2026-01-11 17:22:47,0.0,5,7.597,0.0,0.0,0.0,29.2,1.4,-5.7,1024,1024,1024,1024,0,0,0,0,80,4.798,60.98,34.44882,P-GPS,,10.5
244,294800,2026-01-11 17:22:47,0.0,5,7.597,0.0,0.0,0.0,29.5,0.8,-5.1,1024,1024,1024,1024,0,0,0,0,80,4.798,60.98,34.44882,P-GPS,,10.5
245,294900,2026-01-11 17:22:47,0.0,5,7.597,0.0,0.0,0.0,29.6,2.0,-4.8,1024,1024,1024,1024,0,0,0,0,80,4.798,60.98,34.44882,P-GPS,,10.5
246,295000,2026-01-11 17:22:47,0.0,5,7.597,0.0,0.0,0.0,29.7,3.1,-4.4,1024,1024,1024,1024,0,0,0,0,80,4.798,60.98,34.44882,P-GPS,,10.5
247,295100,2026-01-11 17:22:47,0.223694,5,7.597,0.223694,0.0,0.0,29.7,4.2,-3.8,1024,1024,1024,1024,0,0,0,0,80,4.798,60.98,34.44882,P-GPS,,10.5
248,295200,2026-01-11 17:22:47,0.223694,5,7.592,0.223694,0.0,0.0,29.7,4.2,-3.3,1024,1024,1024,1024,0,0,0,0,80,4.529,60.98,34.120736,P-GPS,,10.4
249,295300,2026-01-11 17:22:48,0.223694,5,7.592,0.223694,0.0,0.0,29.8,4.2,-2.7,1024,1024,1024,1024,0,0,0,0,80,4.529,60.98,34.120736,P-GPS,,10.4
250,295400,2026-01-11 17:22:48,0.223694,5,7.592,0.223694,0.0,0.0,29.7,4.6,-2.3,1024,1024,1024,1024,0,0,0,0,80,4.529,60.98,34.120736,P-GPS,,10.4
251,295500,2026-01-11 17:22:48,0.0,5,7.592,0.0,0.0,0.0,29.7,4.6,-2.2,1024,1024,1024,1024,0,0,0,0,80,4.529,60.98,34.120736,P-GPS,,10.4
252,295600,2026-01-11 17:22:48,0.0,5,7.592,0.0,0.0,0.0,29.8,4.2,-2.3,1024,1024,1024,1024,0,0,0,0,80,4.529,60.98,33.792652,P-GPS,,10.3
253,295700,2026-01-11 17:22:48,0.0,5,7.592,0.0,0.0,0.0,29.8,4.0,-2.4,1024,1024,1024,1024,0,0,0,0,80,4.529,60.98,33.792652,P-GPS,,10.3
254,295800,2026-01-11 17:22:48,0.0,5,7.592,0.0,0.0,0.0,29.9,3.8,-2.3,1024,1024,1024,1024,0,0,0,0,80,4.529,60.98,33.792652,P-GPS,,10.3
255,295900,2026-01-11 17:22:48,0.0,5,7.592,0.0,0.0,0.0,30.0,3.4,-2.4,1024,1024,1024,1024,0,0,0,0,80,4.529,60.98,33.792652,P-GPS,,10.3
256,296000,2026-01-11 17:22:48,0.0,5,7.592,0.0,0.0,0.0,29.9,3.3,-2.4,1024,1024,1024,1024,0,0,0,0,80,4.529,60.98,33.792652,P-GPS,,10.3
257,296100,2026-01-11 17:22:48,0.0,5,7.592,0.0,0.0,0.0,30.0,3.4,-2.5,1024,1024,1024,1024,0,0,0,0,80,4.529,60.98,33.792652,P-GPS,,10.3
258,296200,2026-01-11 17:22:48,0.0,5,7.585,0.0,0.0,0.0,30.0,4.4,-2.7,1024,1024,1024,1024,0,0,0,0,80,4.885,60.98,33.792652,P-GPS,,10.3
259,296300,2026-01-11 17:22:49,0.0,5,7.585,0.0,0.0,0.0,29.9,5.0,-2.9,1024,1024,1024,1024,0,0,0,0,80,4.885,60.98,33.792652,P-GPS,,10.3
260,296400,2026-01-11 17:22:49,0.0,5,7.585,0.0,0.0,0.0,29.9,5.7,-2.7,1024,1024,1024,1024,0,0,0,0,80,4.885,60.98,33.792652,P-GPS,,10.3
261,296500,2026-01-11 17:22:49,0.0,5,7.585,0.0,0.0,0.0,29.8,5.9,-3.1,1024,1024,1024,1024,0,0,0,0,80,4.885,60.98,34.120736,P-GPS,,10.4
262,296600,2026-01-11 17:22:49,0.0,5,7.585,0.0,0.0,0.0,29.7,5.9,-3.6,1024,1024,1024,1024,0,0,0,0,80,4.885,60.98,34.120736,P-GPS,,10.4
263,296700,2026-01-11 17:22:49,0.0,5,7.585,0.0,0.0,0.0,29.7,6.1,-3.5,1024,1024,1024,1024,0,0,0,0,80,4.885,60.98,34.120736,P-GPS,,10.4
264,296800,2026-01-11 17:22:49,0.0,5,7.585,0.0,0.0,0.0,29.7,6.1,-3.2,1024,1024,1024,1024,0,0,0,0,80,4.885,60.98,34.120736,P-GPS,,10.4
265,296900,2026-01-11 17:22:49,0.0,5,7.585,0.0,0.0,0.0,29.7,6.0,-3.1,1024,1024,1024,1024,0,0,0,0,80,4.885,60.98,34.120736,P-GPS,,10.4
266,297000,2026-01-11 17:22:49,0.0,5,7.585,0.0,0.0,0.0,29.7,5.9,-3.6,1024,1024,1024,1024,0,0,0,0,80,4.885,60.98,34.120736,P-GPS,,10.4
267,297100,2026-01-11 17:22:49,0.0,5,7.585,0.0,0.0,0.0,29.7,5.9,-3.5,1024,1024,1024,1024,0,0,0,0,80,4.885,60.98,34.120736,P-GPS,,10.4
268,297200,2026-01-11 17:22:49,0.0,5,7.581,0.0,0.0,0.0,29.6,5.4,-3.3,1024,1024,1024,1024,0,0,0,0,80,4.97,60.98,34.120736,P-GPS,,10.4
269,297300,2026-01-11 17:22:50,0.0,5,7.581,0.0,0.0,0.0,29.5,5.1,-3.5,1024,1024,1024,1024,0,0,0,0,80,4.97,60.98,34.120736,P-GPS,,10.4
270,297400,2026-01-11 17:22:50,0.0,5,7.581,0.0,0.0,0.0,29.4,5.0,-3.8,1024,1024,1024,1024,0,0,0,0,80,4.97,60.98,34.120736,P-GPS,,10.4
271,297500,2026-01-11 17:22:50,0.0,5,7.581,0.0,0.0,0.0,29.3,4.6,-4.7,1024,1024,1024,1024,0,0,0,0,80,4.97,60.98,34.120736,P-GPS,,10.4
272,297600,2026-01-11 17:22:50,0.0,5,7.581,0.0,0.0,0.0,29.1,5.1,-5.2,1024,1024,1024,1024,0,0,0,0,80,4.97,60.98,34.120736,P-GPS,,10.4
273,297700,2026-01-11 17:22:50,0.0,5,7.581,0.0,0.0,0.0,29.1,5.3,-5.5,1024,1024,1024,1024,0,0,0,0,80,4.97,60.98,34.120736,P-GPS,,10.4
274,297800,2026-01-11 17:22:50,0.0,5,7.581,0.0,0.0,0.0,29.1,5.3,-5.5,1024,1024,1024,1024,0,0,0,0,80,4.97,60.98,34.120736,P-GPS,,10.4
275,297900,2026-01-11 17:22:50,0.0,5,7.581,0.0,0.0,0.0,29.1,5.0,-5.7,1024,1024,1024,1024,0,0,0,0,80,4.97,60.98,34.120736,P-GPS,,10.4
276,298000,2026-01-11 17:22:50,0.0,5,7.581,0.0,0.0,0.0,29.1,4.9,-5.6,1024,1024,1024,1024,0,0,0,0,80,4.97,60.98,34.120736,P-GPS,,10.4
277,298100,2026-01-11 17:22:50,0.0,5,7.581,0.0,0.0,0.0,29.1,5.2,-5.6,1024,1024,1024,1024,0,0,0,0,80,4.97,60.98,34.120736,P-GPS,,10.4
278,298200,2026-01-11 17:22:50,0.0,5,7.594,0.0,0.0,0.0,29.1,5.3,-5.3,1024,1024,1024,1024,0,0,0,0,80,4.838,60.98,34.120736,P-GPS,,10.4
279,298300,2026-01-11 17:22:51,0.0,5,7.594,0.0,0.0,0.0,29.2,5.1,-5.0,1024,1024,1024,1024,0,0,0,0,80,4.838,60.98,34.120736,P-GPS,,10.4
280,298400,2026-01-11 17:22:51,0.0,5,7.594,0.0,0.0,0.0,29.3,4.8,-4.9,1024,1024,1024,1024,0,0,0,0,80,4.838,60.98,34.120736,P-GPS,,10.4
281,298500,2026-01-11 17:22:51,0.0,5,7.594,0.0,0.0,0.0,29.3,4.8,-5.2,1024,1024,1024,1024,0,0,0,0,80,4.838,60.98,34.120736,P-GPS,,10.4
282,298600,2026-01-11 17:22:51,0.0,5,7.594,0.0,0.0,0.0,29.3,5.0,-5.1,1024,1024,1024,1024,0,0,0,0,80,4.838,60.98,34.120736,P-GPS,,10.4
283,298700,2026-01-11 17:22:51,0.0,5,7.594,0.0,0.0,0.0,29.3,5.1,-4.9,1024,1024,1024,1024,0,0,0,0,80,4.838,60.98,34.120736,P-GPS,,10.4
284,298800,2026-01-11 17:22:51,0.0,5,7.594,0.0,0.0,0.0,29.3,5.0,-4.5,1024,1024,1024,1024,0,0,0,0,80,4.838,60.98,34.120736,P-GPS,,10.4
285,298900,2026-01-11 17:22:51,0.0,5,7.594,0.0,0.0,0.0,29.2,5.7,-4.6,1024,1024,1024,1024,0,0,0,0,80,4.838,60.98,34.120736,P-GPS,,10.4
286,299000,2026-01-11 17:22:51,0.0,5,7.594,0.0,0.0,0.0,29.3,5.2,-4.4,1024,1024,1024,1024,0,0,0,0,80,4.838,60.98,34.120736,P-GPS,,10.4
287,299100,2026-01-11 17:22:51,0.0,5,7.594,0.0,0.0,0.0,29.3,5.4,-4.3,1024,1024,1024,1024,0,0,0,0,80,4.838,60.98,34.120736,P-GPS,,10.4
288,299200,2026-01-11 17:22:51,0.0,5,7.595,0.0,0.0,0.0,29.3,5.3,-4.2,1024,1024,1024,1024,0,0,0,0,80,4.626,61.16,33.792652,P-GPS,,10.3
289,299300,2026-01-11 17:22:52,0.0,5,7.595,0.0,0.0,0.0,29.4,5.1,-3.9,1024,1024,1024,1024,0,0,0,0,80,4.626,61.16,33.792652,P-GPS,,10.3
290,299400,2026-01-11 17:22:52,0.0,5,7.595,0.0,0.0,0.0,29.3,5.1,-4.1,1024,1024,1024,1024,0,0,0,0,80,4.626,61.16,33.792652,P-GPS,,10.3
291,299500,2026-01-11 17:22:52,0.0,5,7.595,0.0,0.0,0.0,29.4,5.0,-4.6,1024,1024,1024,1024,0,0,0,0,80,4.626,61.16,33.792652,P-GPS,,10.3
292,299600,2026-01-11 17:22:52,0.0,5,7.595,0.0,0.0,0.0,29.6,4.9,-4.5,1024,1024,1024,1024,0,0,0,0,80,4.626,61.16,33.792652,P-GPS,,10.3
293,299700,2026-01-11 17:22:52,0.0,5,7.595,0.0,0.0,0.0,29.6,5.0,-4.5,1024,1024,1024,1024,0,0,0,0,80,4.626,61.16,33.464568,P-GPS,,10.2
294,299800,2026-01-11 17:22:52,0.0,5,7.595,0.0,0.0,0.0,29.6,5.1,-4.3,1024,1024,1024,1024,0,0,0,0,80,4.626,61.16,33.464568,P-GPS,,10.2
295,299900,2026-01-11 17:22:52,0.0,5,7.595,0.0,0.0,0.0,29.6,4.9,-4.0,1024,1024,1024,1024,0,0,0,0,80,4.626,61.16,33.464568,P-GPS,,10.2
296,300000,2026-01-11 17:22:52,0.0,5,7.595,0.0,0.0,0.0,29.6,4.7,-3.9,1024,1024,1024,1024,0,0,0,0,80,4.626,61.16,33.464568,P-GPS,,10.2
297,300100,2026-01-11 17:22:52,0.0,5,7.565,0.0,0.0,0.0,29.5,5.5,-4.0,1024,1024,1024,1024,0,0,0,0,80,4.991,61.16,33.464568,P-GPS,,10.2
298,300200,2026-01-11 17:22:52,0.0,5,7.565,0.0,0.0,0.0,29.5,4.7,-4.2,1024,1024,1024,1024,0,0,0,0,80,4.991,61.16,33.464568,P-GPS,,10.2
299,300300,2026-01-11 17:22:53,0.0,5,7.565,0.0,0.0,0.0,29.6,4.5,-4.1,1024,1024,1024,1024,0,0,0,0,80,4.991,61.16,33.464568,P-GPS,,10.2
300,300400,2026-01-11 17:22:53,0.0,5,7.565,0.0,0.0,0.0,29.5,4.7,-3.9,1024,1024,1024,1024,0,0,0,0,80,4.991,61.16,33.136484,P-GPS,,10.1
301,300500,2026-01-11 17:22:53,0.0,5,7.565,0.0,0.0,0.0,29.5,4.8,-4.1,1024,1024,1024,1024,0,0,0,0,80,4.991,61.16,33.136484,P-GPS,,10.1
302,300600,2026-01-11 17:22:53,0.0,5,7.565,0.0,0.0,-0.223694,29.5,4.5,-4.1,1024,1024,1024,1024,0,0,0,0,80,4.991,61.16,33.136484,P-GPS,,10.1
303,300700,2026-01-11 17:22:53,0.0,5,7.565,0.0,0.0,-0.223694,29.5,4.5,-4.1,1024,1024,1024,1024,0,0,0,0,80,4.991,61.16,33.136484,P-GPS,,10.1
304,300800,2026-01-11 17:22:53,0.0,5,7.565,0.0,0.0,0.0,29.5,4.2,-4.6,1024,1024,1024,1024,0,0,0,0,80,4.991,61.16,33.464568,P-GPS,,10.2
305,300900,2026-01-11 17:22:53,0.0,5,7.565,0.0,0.0,0.0,29.4,5.0,-4.8,1024,1024,1024,1024,0,0,0,0,80,4.991,61.16,33.464568,P-GPS,,10.2
306,301000,2026-01-11 17:22:53,0.0,5,7.565,0.0,0.0,0.0,29.4,5.3,-4.6,1024,1024,1024,1024,0,0,0,0,80,4.991,61.16,33.136484,P-GPS,,10.1
307,301100,2026-01-11 17:22:53,0.0,5,7.565,0.0,0.0,0.0,29.4,5.0,-4.3,1024,1024,1024,1024,0,0,0,0,80,4.991,61.16,33.136484,P-GPS,,10.1
308,301200,2026-01-11 17:22:53,0.0,5,7.565,0.0,0.0,0.0,29.3,4.8,-4.7,1024,1024,1024,1024,0,0,0,0,80,4.991,61.16,33.464568,P-GPS,,10.2
309,301300,2026-01-11 17:22:54,0.0,5,7.565,0.0,0.0,0.0,29.3,4.6,-4.9,1024,1024,1024,1024,0,0,0,0,80,4.991,61.16,33.464568,P-GPS,,10.2
310,301400,2026-01-11 17:22:54,0.0,5,7.565,0.0,0.0,0.0,29.2,4.8,-5.4,1024,1024,1024,1024,0,0,0,0,80,4.991,61.16,33.464568,P-GPS,,10.2
311,301500,2026-01-11 17:22:54,0.0,5,7.565,0.0,0.0,0.0,29.1,5.2,-5.1,1024,1024,1024,1024,0,0,0,0,80,4.991,61.16,33.464568,P-GPS,,10.2
312,301600,2026-01-11 17:22:54,0.0,5,7.565,0.0,0.0,0.0,29.1,5.4,-5.4,1024,1024,1024,1024,0,0,0,0,80,4.991,61.16,33.464568,P-GPS,,10.2
313,301700,2026-01-11 17:22:54,0.0,5,7.565,0.0,0.0,0.0,29.2,4.9,-5.4,1024,1024,1024,1024,0,0,0,0,80,4.991,61.16,33.464568,P-GPS,,10.2
314,301800,2026-01-11 17:22:54,0.0,5,7.565,0.0,0.0,0.0,29.2,4.8,-5.4,1024,1024,1024,1024,0,0,0,0,80,4.991,61.16,33.792652,P-GPS,,10.3
315,301900,2026-01-11 17:22:54,0.0,5,7.565,0.0,0.0,0.0,29.0,5.5,-6.0,1024,1024,1024,1024,0,0,0,0,80,4.991,61.16,33.792652,P-GPS,,10.3
316,302000,2026-01-11 17:22:54,0.0,5,7.565,0.0,0.0,0.0,29.0,5.0,-6.6,1024,1024,1024,1024,0,0,0,0,80,4.991,61.16,33.792652,P-GPS,,10.3
317,302100,2026-01-11 17:22:54,0.0,5,7.565,0.0,0.0,0.0,29.1,4.4,-6.5,1024,1024,1024,1024,0,0,0,0,80,4.991,61.16,33.792652,P-GPS,,10.3
318,302200,2026-01-11 17:22:54,0.0,5,7.565,0.0,0.0,0.0,29.2,3.9,-6.4,1024,1024,1024,1024,0,0,0,0,80,4.991,61.16,33.792652,P-GPS,,10.3
319,302300,2026-01-11 17:22:55,0.0,5,7.561,0.0,0.0,0.0,29.3,3.5,-6.1,1024,1024,1024,1024,0,0,0,0,80,5.013,61.16,33.792652,P-GPS,,10.3
320,302400,2026-01-11 17:22:55,0.0,5,7.561,0.0,0.0,0.0,29.2,3.9,-6.1,1024,1024,1024,1024,0,0,0,0,80,5.013,61.16,33.792652,P-GPS,,10.3
321,302500,2026-01-11 17:22:55,0.0,5,7.561,0.0,0.0,0.0,29.2,3.8,-6.4,1024,1024,1024,1024,0,0,0,0,80,5.013,61.16,34.120736,P-GPS,,10.4
322,302600,2026-01-11 17:22:55,0.0,5,7.561,0.0,0.0,0.0,29.2,4.0,-6.8,1024,1024,1024,1024,0,0,0,0,80,5.013,61.16,34.120736,P-GPS,,10.4
323,302700,2026-01-11 17:22:55,0.0,5,7.561,0.0,0.0,0.0,29.1,4.4,-7.1,1024,1024,1024,1024,0,0,0,0,80,5.013,61.16,34.120736,P-GPS,,10.4
324,302800,2026-01-11 17:22:55,0.0,5,7.561,0.0,0.0,0.0,29.1,4.3,-7.1,1024,1024,1024,1024,0,0,0,0,80,5.013,61.16,34.120736,P-GPS,,10.4
325,302900,2026-01-11 17:22:55,0.0,5,7.561,0.0,0.0,0.0,29.2,3.8,-7.0,1024,1024,1024,1024,0,0,0,0,80,5.013,61.16,34.120736,P-GPS,,10.4
326,303000,2026-01-11 17:22:55,0.0,5,7.561,0.0,0.0,0.0,29.2,3.9,-7.3,1024,1024,1024,1024,0,0,0,0,80,5.013,61.16,34.120736,P-GPS,,10.4
327,303100,2026-01-11 17:22:55,0.0,5,7.561,0.0,0.0,0.0,29.3,3.8,-7.4,1024,1024,1024,1024,0,0,0,0,80,5.013,61.16,34.120736,P-GPS,,10.4
328,303200,2026-01-11 17:22:55,0.0,5,7.561,0.0,0.0,0.0,29.2,4.1,-7.1,1024,1024,1024,1024,0,0,0,0,80,5.013,61.16,33.792652,P-GPS,,10.3
329,303300,2026-01-11 17:22:56,0.0,5,7.561,0.0,0.0,0.0,29.2,3.8,-6.5,1024,1024,1024,1024,0,0,0,0,80,5.013,61.16,33.792652,P-GPS,,10.3
330,303400,2026-01-11 17:22:56,0.0,5,7.561,0.0,0.0,0.0,29.1,4.0,-6.8,1024,1024,1024,1024,0,0,0,0,80,5.013,61.16,33.792652,P-GPS,,10.3
331,303500,2026-01-11 17:22:56,0.0,5,7.561,0.0,0.0,0.0,29.0,4.5,-6.8,1024,1024,1024,1024,0,0,0,0,80,5.013,61.16,33.792652,P-GPS,,10.3
332,303600,2026-01-11 17:22:56,0.0,5,7.561,0.0,0.0,0.0,29.1,3.9,-6.3,1024,1024,1024,1024,0,0,0,0,80,5.013,61.16,33.792652,P-GPS,,10.3
333,303700,2026-01-11 17:22:56,0.0,5,7.561,0.0,0.0,0.0,29.1,3.8,-5.3,1024,1024,1024,1024,0,0,0,0,79,5.013,61.16,33.792652,P-GPS,,10.3
334,303800,2026-01-11 17:22:56,0.0,5,7.561,0.0,0.0,0.0,29.2,3.2,-6.4,1024,1024,1024,1024,0,0,0,0,79,5.013,61.16,33.792652,P-GPS,,10.3
335,303900,2026-01-11 17:22:56,0.0,5,7.561,0.0,0.0,0.0,29.4,2.8,-6.9,1024,1024,1024,1024,0,0,0,0,79,5.013,61.16,34.120736,P-GPS,,10.4
336,304000,2026-01-11 17:22:56,0.0,5,7.561,0.0,0.0,0.0,29.4,2.9,-7.2,1024,1024,1024,1024,0,0,0,0,79,5.013,61.16,34.120736,P-GPS,,10.4
337,304100,2026-01-11 17:22:56,0.0,5,7.561,0.0,0.0,0.0,29.5,4.0,-6.6,1024,1024,1024,1024,0,0,0,0,79,5.013,61.16,34.120736,P-GPS,,10.4
338,304200,2026-01-11 17:22:56,0.223694,5,7.587,0.223694,0.0,0.0,29.5,4.7,-5.8,1024,1024,1024,1024,0,0,0,0,79,4.774,61.16,33.792652,P-GPS,,10.3
339,304300,2026-01-11 17:22:57,0.223694,5,7.587,0.223694,0.0,0.0,29.3,6.8,-5.5,1024,1024,1024,1024,0,0,0,0,79,4.774,61.16,33.792652,P-GPS,,10.3
340,304400,2026-01-11 17:22:57,0.223694,5,7.587,0.223694,0.0,0.0,29.3,6.7,-5.4,1024,1024,1024,1024,0,0,0,0,79,4.774,61.16,33.792652,P-GPS,,10.3
341,304500,2026-01-11 17:22:57,0.223694,5,7.587,0.223694,0.0,0.0,29.2,7.6,-5.6,1024,1024,1024,1024,0,0,0,0,79,4.774,61.16,33.792652,P-GPS,,10.3
342,304600,2026-01-11 17:22:57,0.223694,5,7.587,0.223694,0.0,0.0,29.4,7.3,-6.4,1024,1024,1024,1024,0,0,0,0,79,4.774,61.16,33.792652,P-GPS,,10.3
343,304700,2026-01-11 17:22:57,0.0,5,7.587,0.0,0.0,0.0,29.5,8.4,-4.1,1024,1024,1024,1024,0,0,0,0,79,4.774,61.16,33.464568,P-GPS,,10.2
344,304800,2026-01-11 17:22:57,0.0,5,7.587,0.0,0.0,0.0,29.8,5.7,-5.0,1024,1024,1024,1024,0,0,0,0,79,4.774,61.16,33.464568,P-GPS,,10.2
345,304900,2026-01-11 17:22:57,0.0,5,7.587,0.0,0.0,-0.223694,29.5,4.2,-5.7,1024,1024,1024,1024,0,0,0,0,79,4.774,61.16,33.792652,P-GPS,,10.3
346,305000,2026-01-11 17:22:57,0.0,5,7.587,0.0,0.0,-0.223694,29.3,5.0,-7.4,1024,1024,1024,1024,0,0,0,0,79,4.774,61.16,33.792652,P-GPS,,10.3
347,305100,2026-01-11 17:22:57,0.0,5,7.587,0.0,0.0,-0.223694,29.2,5.3,-8.9,1024,1024,1024,1024,0,0,0,0,79,4.774,61.16,33.792652,P-GPS,,10.3
348,305200,2026-01-11 17:22:57,0.0,5,7.604,0.0,0.0,0.0,29.3,5.9,-9.4,1024,1024,1024,1024,0,0,0,0,79,4.777,61.16,33.792652,P-GPS,,10.3
