index,time(millisecond),timestamp,speed(mph),gpslevel,voltage(v),xSpeed(mph),ySpeed(mph),zSpeed(mph),compass_heading(degrees),pitch(degrees),roll(degrees),rc_elevator,rc_aileron,rc_throttle,rc_rudder,rc_elevator(percent),rc_aileron(percent),rc_throttle(percent),rc_rudder(percent),battery_percent,current(A),battery_temperature(f),ascent(feet),flycState,message,height_above_takeoff(meters)
73,7300,2026-01-11 15:30:03,0.223694,5,7.709,0.0,0.223694,-4.47388,33.7,4.0,-6.1,1024,1024,1024,1024,0,0,0,0,97,6.362,59.36,35.761156,P-GPS,,10.9
74,7400,2026-01-11 15:30:03,0.0,5,7.709,0.0,0.0,-4.47388,33.7,4.7,-6.7,1024,1024,1024,1024,0,0,0,0,97,6.362,59.36,36.417324,P-GPS,,11.1
89,8900,2026-01-11 15:30:04,0.0,5,7.891,0.0,0.0,3.802798,32.2,4.1,-4.6,1024,1024,1024,1024,0,0,0,0,97,4.031,59.36,36.745408,P-GPS,,11.2
90,9000,2026-01-11 15:30:04,0.3131716,5,7.891,-0.223694,-0.223694,3.802798,32.1,2.7,-4.3,1024,1024,1024,1024,0,0,0,0,97,4.031,59.36,36.08924,P-GPS,,11.0
91,9100,2026-01-11 15:30:05,0.3131716,5,7.891,-0.223694,-0.223694,3.802798,32.2,2.0,-4.0,1024,1024,1024,1024,0,0,0,0,97,4.031,59.36,35.761156,P-GPS,,10.9
92,9200,2026-01-11 15:30:05,0.3131716,5,7.891,-0.223694,-0.223694,3.35541,32.3,1.8,-4.0,1024,1024,1024,1024,0,0,0,0,97,4.031,59.36,35.104988,P-GPS,,10.7
93,9300,2026-01-11 15:30:05,0.3131716,5,7.891,-0.223694,-0.223694,2.684328,32.4,0.7,-4.3,1024,1024,1024,1024,0,0,0,0,97,4.031,59.36,35.104988,P-GPS,,10.7
94,9400,2026-01-11 15:30:05,0.3131716,5,7.891,-0.223694,-0.223694,1.789552,32.5,-0.4,-4.5,1024,1024,1024,1024,0,0,0,0,97,4.031,59.36,34.776904,P-GPS,,10.6
95,9500,2026-01-11 15:30:05,0.223694,5,7.891,0.0,-0.223694,1.11847,32.7,-0.7,-5.0,1024,1024,1024,1024,0,0,0,0,97,4.031,59.36,34.44882,P-GPS,,10.5
96,9600,2026-01-11 15:30:05,0.223694,5,7.891,0.0,-0.223694,0.447388,32.4,-0.3,-4.7,1024,1024,1024,1024,0,0,0,0,97,4.031,59.36,34.44882,P-GPS,,10.5
97,9700,2026-01-11 15:30:05,0.223694,5,7.891,0.0,-0.223694,0.0,32.2,0.7,-3.7,1024,1024,1024,1024,0,0,0,0,97,4.031,59.36,34.120736,P-GPS,,10.4
98,9800,2026-01-11 15:30:05,0.0,5,7.891,0.0,0.0,-0.447388,32.4,0.7,-3.5,1024,1024,1024,1024,0,0,0,0,97,4.031,59.36,34.120736,P-GPS,,10.4
99,9900,2026-01-11 15:30:05,0.0,5,7.891,0.0,0.0,-0.223694,32.3,1.3,-3.8,1024,1024,1024,1024,0,0,0,0,97,4.031,59.36,34.120736,P-GPS,,10.4
100,10000,2026-01-11 15:30:05,0.0,5,7.891,0.0,0.0,0.0,32.4,1.4,-3.7,1024,1024,1024,1024,0,0,0,0,97,4.031,59.36,34.120736,P-GPS,,10.4
101,10100,2026-01-11 15:30:06,0.0,5,7.891,0.0,0.0,0.0,32.4,1.9,-3.7,1024,1024,1024,1024,0,0,0,0,97,4.031,59.36,33.792652,P-GPS,,10.3
102,10200,2026-01-11 15:30:06,0.0,5,7.891,0.0,0.0,0.0,32.4,1.6,-3.4,1024,1024,1024,1024,0,0,0,0,97,4.031,59.36,33.792652,P-GPS,,10.3
103,10300,2026-01-11 15:30:06,0.0,5,7.891,0.0,0.0,0.0,32.1,2.9,-4.1,1024,1024,1024,1024,0,0,0,0,97,4.031,59.36,33.792652,P-GPS,,10.3
104,10400,2026-01-11 15:30:06,0.0,5,7.891,0.0,0.0,0.0,32.1,2.6,-4.0,1024,1024,1024,1024,0,0,0,0,97,4.031,59.36,33.792652,P-GPS,,10.3
105,10500,2026-01-11 15:30:06,0.0,5,7.891,0.0,0.0,0.0,31.8,4.2,-4.1,1024,1024,1024,1024,0,0,0,0,97,4.031,59.36,33.792652,P-GPS,,10.3
106,10600,2026-01-11 15:30:06,0.0,5,7.779,0.0,0.0,0.0,31.7,3.2,-4.2,1024,1024,1024,1024,0,0,0,0,97,5.226,59.54,33.792652,P-GPS,,10.3
107,10700,2026-01-11 15:30:06,0.0,5,7.779,0.0,0.0,0.0,31.9,2.2,-4.6,1024,1024,1024,1024,0,0,0,0,97,5.226,59.54,33.792652,P-GPS,SD card speed low. Normal use may be affected. Replace SD card (Code: 10028). Gimbal stuck. Make sure gimbal cover is removed and manually check whether gimbal can rotate freely (Code: 40002),10.3
108,10800,2026-01-11 15:30:06,0.0,5,7.779,0.0,0.0,0.0,32.1,1.5,-4.8,1024,1024,1024,1024,0,0,0,0,97,5.226,59.54,33.792652,P-GPS,,10.3
109,10900,2026-01-11 15:30:06,0.0,5,7.779,0.0,0.0,0.0,32.1,2.0,-4.3,1024,1024,1024,1024,0,0,0,0,97,5.226,59.54,33.792652,P-GPS,,10.3
110,11000,2026-01-11 15:30:06,0.0,5,7.779,0.0,0.0,0.0,32.2,1.9,-3.9,1024,1024,1024,1024,0,0,0,0,97,5.226,59.54,33.792652,P-GPS,,10.3
111,11100,2026-01-11 15:30:07,0.0,5,7.779,0.0,0.0,0.0,32.3,0.8,-3.4,1024,1024,1024,1024,0,0,0,0,97,5.226,59.54,33.792652,P-GPS,,10.3
112,11200,2026-01-11 15:30:07,0.0,5,7.779,0.0,0.0,0.0,32.3,0.4,-3.4,1024,1024,1024,1024,0,0,0,0,97,5.226,59.54,33.792652,P-GPS,,10.3
113,11300,2026-01-11 15:30:07,0.0,5,7.779,0.0,0.0,0.0,32.3,0.3,-3.5,1024,1024,1024,1024,0,0,0,0,97,5.226,59.54,33.792652,P-GPS,,10.3
114,11400,2026-01-11 15:30:07,0.0,5,7.779,0.0,0.0,0.0,32.5,-1.1,-3.2,1024,1024,1024,1024,0,0,0,0,97,5.226,59.54,33.792652,P-GPS,,10.3
115,11500,2026-01-11 15:30:07,0.0,5,7.779,0.0,0.0,0.0,32.4,-0.3,-3.5,1024,1024,1024,1024,0,0,0,0,97,5.226,59.54,33.792652,P-GPS,,10.3
116,11600,2026-01-11 15:30:07,0.0,5,7.779,0.0,0.0,0.0,32.2,1.0,-3.6,1024,1024,1024,1024,0,0,0,0,97,5.226,59.54,33.792652,P-GPS,,10.3
117,11700,2026-01-11 15:30:07,0.0,5,7.775,0.0,0.0,0.0,32.2,2.1,-3.8,1024,1024,1024,1024,0,0,0,0,97,4.926,59.54,33.792652,P-GPS,,10.3
118,11800,2026-01-11 15:30:07,0.0,5,7.775,0.0,0.0,0.0,32.3,1.9,-3.6,1024,1024,1024,1024,0,0,0,0,97,4.926,59.54,33.792652,P-GPS,,10.3
119,11900,2026-01-11 15:30:07,0.0,5,7.775,0.0,0.0,0.0,32.4,1.6,-3.7,1024,1024,1024,1024,0,0,0,0,97,4.926,59.54,33.464568,P-GPS,,10.2
120,12000,2026-01-11 15:30:08,0.0,5,7.775,0.0,0.0,0.0,32.5,1.6,-3.7,1024,1024,1024,1024,0,0,0,0,97,4.926,59.54,33.464568,P-GPS,,10.2
121,12100,2026-01-11 15:30:08,0.0,5,7.775,0.0,0.0,0.0,32.5,1.5,-3.7,1024,1024,1024,1024,0,0,0,0,97,4.926,59.54,33.464568,P-GPS,,10.2
122,12200,2026-01-11 15:30:08,0.0,5,7.775,0.0,0.0,0.0,32.5,2.2,-3.7,1024,1024,1024,1024,0,0,0,0,97,4.926,59.54,33.136484,P-GPS,,10.1
123,12300,2026-01-11 15:30:08,0.0,5,7.775,0.0,0.0,0.0,32.5,2.1,-3.4,1024,1024,1024,1024,0,0,0,0,97,4.926,59.54,33.136484,P-GPS,,10.1
124,12400,2026-01-11 15:30:08,0.0,5,7.775,0.0,0.0,0.0,32.4,2.5,-3.2,1024,1024,1024,1024,0,0,0,0,97,4.926,59.54,33.136484,P-GPS,,10.1
125,12500,2026-01-11 15:30:08,0.0,5,7.775,0.0,0.0,0.0,32.5,2.2,-2.9,1024,1024,1024,1024,0,0,0,0,97,4.926,59.54,32.8084,P-GPS,,10.0
126,12600,2026-01-11 15:30:08,0.0,5,7.775,0.0,0.0,0.0,32.5,2.1,-2.8,1024,1024,1024,1024,0,0,0,0,97,4.926,59.54,32.8084,P-GPS,,10.0
127,12700,2026-01-11 15:30:08,0.0,5,7.775,0.0,0.0,0.0,32.5,2.0,-2.9,1024,1024,1024,1024,0,0,0,0,97,4.926,59.54,32.8084,P-GPS,,10.0
128,12800,2026-01-11 15:30:08,0.0,5,7.775,0.0,0.0,0.0,32.4,3.2,-3.4,1024,1024,1024,1024,0,0,0,0,97,4.926,59.54,32.8084,P-GPS,,10.0
129,12900,2026-01-11 15:30:08,0.0,5,7.775,0.0,0.0,0.0,32.3,3.5,-3.9,1024,1024,1024,1024,0,0,0,0,97,4.926,59.54,32.480316,P-GPS,,9.9
130,13000,2026-01-11 15:30:08,0.0,5,7.775,0.0,0.0,0.0,32.2,1.4,-4.9,1024,1024,1024,1024,0,0,0,0,97,4.926,59.54,32.480316,P-GPS,,9.9
131,13100,2026-01-11 15:30:09,0.0,5,7.781,0.0,0.0,0.0,32.0,3.3,-4.3,1024,1024,1024,1024,0,0,0,0,96,4.844,59.54,32.480316,P-GPS,,9.9
132,13200,2026-01-11 15:30:09,0.0,5,7.781,0.0,0.0,0.0,32.0,3.2,-2.7,1024,1024,1024,1024,0,0,0,0,96,4.844,59.54,32.480316,P-GPS,,9.9
133,13300,2026-01-11 15:30:09,0.223694,5,7.781,0.0,-0.223694,0.0,31.9,2.5,-1.3,1024,1024,1024,1024,0,0,0,0,96,4.844,59.54,32.480316,P-GPS,,9.9
134,13400,2026-01-11 15:30:09,0.223694,5,7.781,0.0,-0.223694,0.0,32.0,3.0,-0.2,1024,1024,1024,1024,0,0,0,0,96,4.844,59.54,32.480316,P-GPS,,9.9
135,13500,2026-01-11 15:30:09,0.223694,5,7.781,0.0,-0.223694,0.0,32.5,2.0,0.0,1024,1024,1024,1024,0,0,0,0,96,4.844,59.54,32.152232,P-GPS,,9.8
136,13600,2026-01-11 15:30:09,0.0,5,7.781,0.0,0.0,0.0,32.8,1.2,-0.9,1024,1024,1024,1024,0,0,0,0,96,4.844,59.54,32.152232,P-GPS,,9.8
137,13700,2026-01-11 15:30:09,0.0,5,7.781,0.0,0.0,0.0,33.0,1.7,-1.3,1024,1024,1024,1024,0,0,0,0,96,4.844,59.54,32.152232,P-GPS,,9.8
138,13800,2026-01-11 15:30:09,0.0,5,7.781,0.0,0.0,0.0,33.0,2.7,-1.9,1024,1024,1024,1024,0,0,0,0,96,4.844,59.54,32.152232,P-GPS,,9.8
139,13900,2026-01-11 15:30:09,0.0,5,7.781,0.0,0.223694,0.0,32.8,3.7,-2.9,1024,1024,1024,1024,0,0,0,0,96,4.844,59.54,32.152232,P-GPS,,9.8
140,14000,2026-01-11 15:30:09,0.223694,5,7.781,0.0,0.223694,0.0,32.6,3.8,-4.5,1024,1024,1024,1024,0,0,0,0,96,4.844,59.54,32.480316,P-GPS,,9.9
141,14100,2026-01-11 15:30:10,0.223694,5,7.781,0.0,0.223694,0.0,32.4,4.1,-5.3,1024,1024,1024,1024,0,0,0,0,96,4.844,59.54,32.480316,P-GPS,,9.9
142,14200,2026-01-11 15:30:10,0.223694,5,7.759,0.0,0.223694,0.0,32.2,3.9,-5.7,1024,1024,1024,1024,0,0,0,0,96,5.193,59.54,32.480316,P-GPS,,9.9
143,14300,2026-01-11 15:30:10,0.0,5,7.759,0.0,0.0,0.0,32.3,2.3,-5.6,1024,1024,1024,1024,0,0,0,0,96,5.193,59.54,32.480316,P-GPS,,9.9
144,14400,2026-01-11 15:30:10,0.0,5,7.759,0.0,0.0,0.0,32.5,1.7,-5.2,1024,1024,1024,1024,0,0,0,0,96,5.193,59.54,32.480316,P-GPS,,9.9
145,14500,2026-01-11 15:30:10,0.0,5,7.759,0.0,0.0,0.0,32.6,2.1,-4.5,1024,1024,1024,1024,0,0,0,0,96,5.193,59.54,32.480316,P-GPS,,9.9
146,14600,2026-01-11 15:30:10,0.0,5,7.759,0.0,0.0,0.0,32.5,2.3,-4.6,1024,1024,1024,1024,0,0,0,0,96,5.193,59.54,32.8084,P-GPS,,10.0
147,14700,2026-01-11 15:30:10,0.0,5,7.759,0.0,0.0,0.0,32.5,2.3,-5.0,1024,1024,1024,1024,0,0,0,0,96,5.193,59.54,32.8084,P-GPS,,10.0
148,14800,2026-01-11 15:30:10,0.0,5,7.759,0.0,0.0,0.0,32.4,3.0,-5.2,1024,1024,1024,1024,0,0,0,0,96,5.193,59.54,32.8084,P-GPS,,10.0
149,14900,2026-01-11 15:30:10,0.0,5,7.759,0.0,0.0,0.0,32.2,3.2,-5.7,1024,1024,1024,1024,0,0,0,0,96,5.193,59.54,32.8084,P-GPS,,10.0
150,15000,2026-01-11 15:30:10,0.0,5,7.759,0.0,0.0,0.0,32.3,3.1,-5.9,1024,1024,1024,1024,0,0,0,0,96,5.193,59.54,33.136484,P-GPS,,10.1
151,15100,2026-01-11 15:30:11,0.0,5,7.759,0.0,0.0,0.0,32.3,3.0,-6.1,1024,1024,1024,1024,0,0,0,0,96,5.193,59.54,33.136484,P-GPS,,10.1
152,15200,2026-01-11 15:30:11,0.0,5,7.759,0.0,0.0,0.0,32.6,2.6,-5.9,1024,1024,1024,1024,0,0,0,0,96,5.193,59.54,33.136484,P-GPS,,10.1
153,15300,2026-01-11 15:30:11,0.0,5,7.78,0.0,0.0,0.0,32.7,2.9,-6.0,1024,1024,1024,1024,0,0,0,0,96,4.818,59.54,33.136484,P-GPS,,10.1
154,15400,2026-01-11 15:30:11,0.0,5,7.78,0.0,0.0,0.0,32.8,3.2,-5.5,1024,1024,1024,1024,0,0,0,0,96,4.818,59.54,33.136484,P-GPS,,10.1
155,15500,2026-01-11 15:30:11,0.0,5,7.78,0.0,0.0,0.0,32.8,3.8,-5.1,1024,1024,1024,1024,0,0,0,0,96,4.818,59.54,33.136484,P-GPS,,10.1
156,15600,2026-01-11 15:30:11,0.0,5,7.78,0.0,0.0,0.0,32.7,3.5,-4.9,1024,1024,1024,1024,0,0,0,0,96,4.818,59.54,33.136484,P-GPS,,10.1
157,15700,2026-01-11 15:30:11,0.0,5,7.78,0.0,0.0,0.0,32.7,2.8,-4.5,1024,1024,1024,1024,0,0,0,0,96,4.818,59.54,32.8084,P-GPS,,10.0
158,15800,2026-01-11 15:30:11,0.0,5,7.78,0.0,0.0,0.0,32.7,2.1,-4.1,1024,1024,1024,1024,0,0,0,0,96,4.818,59.54,32.8084,P-GPS,,10.0
159,15900,2026-01-11 15:30:11,0.0,5,7.78,0.0,0.0,0.0,32.7,1.9,-4.1,1024,1024,1024,1024,0,0,0,0,96,4.818,59.54,32.8084,P-GPS,,10.0
160,16000,2026-01-11 15:30:11,0.0,5,7.78,0.0,0.0,0.0,32.6,2.3,-4.6,1024,1024,1024,1024,0,0,0,0,96,4.818,59.54,32.8084,P-GPS,,10.0
161,16100,2026-01-11 15:30:12,0.0,5,7.78,0.0,0.0,0.0,32.8,2.5,-4.8,1024,1024,1024,1024,0,0,0,0,96,4.818,59.54,32.8084,P-GPS,,10.0
162,16200,2026-01-11 15:30:12,0.0,5,7.78,0.0,0.0,0.0,33.0,2.7,-4.6,1024,1024,1024,1024,0,0,0,0,96,4.818,59.54,32.8084,P-GPS,,10.0
163,16300,2026-01-11 15:30:12,0.0,5,7.78,0.0,0.0,0.0,33.2,3.6,-4.6,1024,1024,1024,1024,0,0,0,0,96,4.818,59.54,32.8084,P-GPS,,10.0
164,16400,2026-01-11 15:30:12,0.223694,5,7.78,0.223694,0.0,0.0,33.0,3.9,-4.0,1024,1024,1024,1024,0,0,0,0,96,4.818,59.54,32.8084,P-GPS,,10.0
165,16500,2026-01-11 15:30:12,0.223694,5,7.78,0.223694,0.0,0.0,32.7,4.8,-4.0,1024,1024,1024,1024,0,0,0,0,96,4.818,59.54,32.8084,P-GPS,,10.0
166,16600,2026-01-11 15:30:12,0.0,5,7.78,0.0,0.0,0.0,32.6,5.4,-4.2,1024,1024,1024,1024,0,0,0,0,96,4.818,59.54,32.8084,P-GPS,,10.0
167,16700,2026-01-11 15:30:12,0.0,5,7.78,0.0,0.0,0.0,32.6,5.7,-4.3,1024,1024,1024,1024,0,0,0,0,96,4.818,59.54,32.8084,P-GPS,,10.0
168,16800,2026-01-11 15:30:12,0.0,5,7.78,0.0,0.0,0.0,32.7,5.8,-4.3,1024,1024,1024,1024,0,0,0,0,96,4.818,59.54,32.8084,P-GPS,,10.0
169,16900,2026-01-11 15:30:12,0.0,5,7.78,0.0,0.0,0.0,32.7,5.5,-4.6,1024,1024,1024,1024,0,0,0,0,96,4.818,59.54,32.8084,P-GPS,,10.0
170,17000,2026-01-11 15:30:12,0.0,5,7.78,0.0,0.0,0.0,32.5,6.1,-4.9,1024,1024,1024,1024,0,0,0,0,96,4.818,59.54,32.8084,P-GPS,,10.0
171,17100,2026-01-11 15:30:13,0.0,5,7.78,0.0,0.0,0.0,32.6,5.9,-5.0,1024,1024,1024,1024,0,0,0,0,96,4.818,59.54,32.8084,P-GPS,,10.0
172,17200,2026-01-11 15:30:13,0.0,5,7.78,0.0,0.0,0.0,32.6,5.3,-5.1,1024,1024,1024,1024,0,0,0,0,96,4.818,59.54,32.8084,P-GPS,,10.0
173,17300,2026-01-11 15:30:13,0.0,5,7.78,0.0,0.0,0.0,32.6,4.6,-5.2,1024,1024,1024,1024,0,0,0,0,96,4.818,59.54,32.8084,P-GPS,,10.0
174,17400,2026-01-11 15:30:13,0.0,5,7.778,0.0,0.0,0.0,32.6,4.2,-5.2,1024,1024,1024,1024,0,0,0,0,96,4.809,59.54,32.8084,P-GPS,,10.0
175,17500,2026-01-11 15:30:13,0.0,5,7.778,0.0,0.0,0.0,32.7,4.1,-5.2,1024,1024,1024,1024,0,0,0,0,96,4.809,59.54,32.8084,P-GPS,,10.0
176,17600,2026-01-11 15:30:13,0.0,5,7.778,0.0,0.0,0.0,32.7,3.9,-5.3,1024,1024,1024,1024,0,0,0,0,96,4.809,59.54,32.480316,P-GPS,,9.9
177,17700,2026-01-11 15:30:13,0.0,5,7.778,0.0,0.0,0.0,32.8,3.7,-5.4,1024,1024,1024,1024,0,0,0,0,96,4.809,59.54,32.480316,P-GPS,,9.9
178,17800,2026-01-11 15:30:13,0.0,5,7.778,0.0,0.0,0.0,32.8,4.0,-5.6,1024,1024,1024,1024,0,0,0,0,96,4.809,59.54,32.480316,P-GPS,,9.9
179,17900,2026-01-11 15:30:13,0.0,5,7.778,0.0,0.0,0.0,32.8,4.2,-5.3,1024,1024,1024,1024,0,0,0,0,96,4.809,59.54,32.480316,P-GPS,,9.9
180,18000,2026-01-11 15:30:13,0.0,5,7.778,0.0,0.0,0.0,32.9,3.8,-5.2,1024,1024,1024,1024,0,0,0,0,96,4.809,59.54,32.480316,P-GPS,,9.9
181,18100,2026-01-11 15:30:14,0.0,5,7.778,0.0,0.0,0.0,32.7,4.6,-5.3,1024,1024,1024,1024,0,0,0,0,96,4.809,59.54,32.480316,P-GPS,,9.9
182,18200,2026-01-11 15:30:14,0.0,5,7.778,0.0,0.0,0.0,32.7,4.5,-5.7,1024,1024,1024,1024,0,0,0,0,96,4.809,59.54,32.480316,P-GPS,,9.9
183,18300,2026-01-11 15:30:14,0.0,5,7.778,0.0,0.0,0.0,32.7,4.6,-5.3,1024,1024,1024,1024,0,0,0,0,96,4.809,59.54,32.480316,P-GPS,,9.9
184,18400,2026-01-11 15:30:14,0.0,5,7.778,0.0,0.0,0.0,32.9,4.0,-4.9,1024,1024,1024,1024,0,0,0,0,96,4.809,59.54,32.480316,P-GPS,,9.9
185,18500,2026-01-11 15:30:14,0.0,5,7.778,0.0,0.0,0.0,32.9,4.4,-4.8,1024,1024,1024,1024,0,0,0,0,96,4.809,59.54,32.152232,P-GPS,,9.8
186,18600,2026-01-11 15:30:14,0.0,5,7.761,0.0,0.0,0.0,32.8,5.2,-4.3,1024,1024,1024,1024,0,0,0,0,96,4.907,59.72,32.152232,P-GPS,,9.8
187,18700,2026-01-11 15:30:14,0.0,5,7.761,0.0,0.0,0.0,32.8,5.4,-4.2,1024,1024,1024,1024,0,0,0,0,96,4.907,59.72,32.152232,P-GPS,,9.8
188,18800,2026-01-11 15:30:14,0.0,5,7.761,0.0,0.0,0.0,32.9,5.4,-4.0,1024,1024,1024,1024,0,0,0,0,96,4.907,59.72,32.152232,P-GPS,,9.8
189,18900,2026-01-11 15:30:14,0.0,5,7.761,0.0,0.0,0.0,32.9,5.2,-4.1,1024,1024,1024,1024,0,0,0,0,96,4.907,59.72,32.152232,P-GPS,,9.8
190,19000,2026-01-11 15:30:14,0.0,5,7.761,0.0,0.0,0.0,32.9,4.6,-3.9,1024,1024,1024,1024,0,0,0,0,96,4.907,59.72,32.152232,P-GPS,,9.8
191,19100,2026-01-11 15:30:14,0.0,5,7.761,0.0,0.0,0.0,32.9,4.1,-3.9,1024,1024,1024,1024,0,0,0,0,96,4.907,59.72,32.152232,P-GPS,,9.8
192,19200,2026-01-11 15:30:15,0.0,5,7.761,0.0,0.0,0.0,32.9,4.1,-3.9,1024,1024,1024,1024,0,0,0,0,96,4.907,59.72,32.152232,P-GPS,,9.8
193,19300,2026-01-11 15:30:15,0.0,5,7.761,0.0,0.0,0.0,32.8,4.2,-4.0,1024,1024,1024,1024,0,0,0,0,96,4.907,59.72,32.152232,P-GPS,,9.8
194,19400,2026-01-11 15:30:15,0.0,5,7.761,0.0,0.0,0.0,32.7,4.5,-4.0,1024,1024,1024,1024,0,0,0,0,96,4.907,59.72,32.152232,P-GPS,,9.8
195,19500,2026-01-11 15:30:15,0.0,5,7.761,0.0,0.0,0.0,32.8,4.3,-3.8,1024,1024,1024,1024,0,0,0,0,96,4.907,59.72,32.152232,P-GPS,,9.8
196,19600,2026-01-11 15:30:15,0.0,5,7.761,0.0,0.0,0.0,32.9,3.8,-4.0,1024,1024,1024,1024,0,0,0,0,96,4.907,59.72,32.152232,P-GPS,,9.8
197,19700,2026-01-11 15:30:15,0.0,5,7.78,0.0,0.0,0.0,32.8,4.2,-3.8,1024,1024,1024,1024,0,0,0,0,96,4.685,59.72,32.152232,P-GPS,,9.8
198,19800,2026-01-11 15:30:15,0.0,5,7.78,0.0,0.0,0.0,32.8,4.5,-3.4,1024,1024,1024,1024,0,0,0,0,96,4.685,59.72,32.152232,P-GPS,,9.8
199,19900,2026-01-11 15:30:15,0.0,5,7.78,0.0,0.0,0.0,32.8,4.2,-3.4,1024,1024,1024,1024,0,0,0,0,96,4.685,59.72,32.152232,P-GPS,,9.8
200,20000,2026-01-11 15:30:15,0.0,5,7.78,0.0,0.0,0.0,32.8,3.5,-3.9,1024,1024,1024,1024,0,0,0,0,96,4.685,59.72,31.824148,P-GPS,,9.7
201,20100,2026-01-11 15:30:16,0.0,5,7.78,0.0,0.0,0.0,32.8,3.3,-3.8,1024,1024,1024,1024,0,0,0,0,96,4.685,59.72,31.824148,P-GPS,,9.7
202,20200,2026-01-11 15:30:16,0.0,5,7.78,0.0,0.0,0.0,32.9,3.3,-3.1,1024,1024,1024,1024,0,0,0,0,96,4.685,59.72,31.824148,P-GPS,,9.7
203,20300,2026-01-11 15:30:16,0.0,5,7.78,0.0,0.0,0.0,32.9,3.5,-2.5,1024,1024,1024,1024,0,0,0,0,96,4.685,59.72,31.824148,P-GPS,,9.7
204,20400,2026-01-11 15:30:16,0.0,5,7.78,0.0,0.0,0.0,32.9,3.5,-2.3,1024,1024,1024,1024,0,0,0,0,96,4.685,59.72,31.824148,P-GPS,,9.7
205,20500,2026-01-11 15:30:16,0.0,5,7.78,0.0,0.0,0.0,32.9,3.4,-2.6,1024,1024,1024,1024,0,0,0,0,96,4.685,59.72,31.824148,P-GPS,,9.7
206,20600,2026-01-11 15:30:16,0.0,5,7.78,0.0,0.0,0.0,32.8,4.0,-2.8,1024,1024,1024,1024,0,0,0,0,96,4.685,59.72,31.824148,P-GPS,,9.7
207,20700,2026-01-11 15:30:16,0.0,5,7.78,0.0,0.0,0.0,32.8,4.2,-3.0,1024,1024,1024,1024,0,0,0,0,96,4.685,59.72,31.824148,P-GPS,,9.7
208,20800,2026-01-11 15:30:16,0.0,5,7.783,0.0,0.0,0.0,32.8,4.4,-3.2,1024,1024,1024,1024,0,0,0,0,96,4.695,59.72,31.824148,P-GPS,,9.7
209,20900,2026-01-11 15:30:16,0.0,5,7.783,0.0,0.0,0.0,32.8,4.3,-3.4,1024,1024,1024,1024,0,0,0,0,96,4.695,59.72,31.824148,P-GPS,,9.7
210,21000,2026-01-11 15:30:16,0.0,5,7.783,0.0,0.0,0.0,32.8,3.9,-3.4,1024,1024,1024,1024,0,0,0,0,96,4.695,59.72,31.824148,P-GPS,,9.7
211,21100,2026-01-11 15:30:16,0.0,5,7.783,0.0,0.0,0.0,32.7,3.7,-3.7,1024,1024,1024,1024,0,0,0,0,96,4.695,59.72,32.152232,P-GPS,,9.8
212,21200,2026-01-11 15:30:17,0.0,5,7.783,0.0,0.0,0.0,32.6,4.1,-3.9,1024,1024,1024,1024,0,0,0,0,96,4.695,59.72,32.152232,P-GPS,,9.8
213,21300,2026-01-11 15:30:17,0.0,5,7.783,0.0,0.0,0.0,32.6,4.3,-3.5,1024,1024,1024,1024,0,0,0,0,96,4.695,59.72,32.152232,P-GPS,,9.8
214,21400,2026-01-11 15:30:17,0.0,5,7.783,0.0,0.0,0.0,32.6,4.5,-3.4,1024,1024,1024,1024,0,0,0,0,96,4.695,59.72,32.152232,P-GPS,,9.8
215,21500,2026-01-11 15:30:17,0.0,5,7.783,0.0,0.0,0.0,32.5,4.8,-3.4,1024,1024,1024,1024,0,0,0,0,96,4.695,59.72,32.480316,P-GPS,,9.9
216,21600,2026-01-11 15:30:17,0.0,5,7.783,0.0,0.0,0.0,32.5,4.7,-3.4,1024,1024,1024,1024,0,0,0,0,96,4.695,59.72,32.480316,P-GPS,,9.9
217,21700,2026-01-11 15:30:17,0.0,5,7.783,0.0,0.0,0.0,32.5,5.0,-3.5,1024,1024,1024,1024,0,0,0,0,96,4.695,59.72,32.480316,P-GPS,,9.9
218,21800,2026-01-11 15:30:17,0.0,5,7.783,0.0,0.0,0.0,32.4,5.2,-3.5,1024,1024,1024,1024,0,0,0,0,96,4.695,59.72,32.480316,P-GPS,,9.9
219,21900,2026-01-11 15:30:17,0.0,5,7.783,0.0,0.0,0.0,32.4,5.1,-4.0,1024,1024,1024,1024,0,0,0,0,96,4.424,59.72,32.480316,P-GPS,,9.9
220,22000,2026-01-11 15:30:17,0.0,5,7.783,0.0,0.0,0.0,32.5,5.4,-4.0,1024,1024,1024,1024,0,0,0,0,96,4.424,59.72,32.8084,P-GPS,,10.0
221,22100,2026-01-11 15:30:18,0.0,5,7.783,0.0,0.0,0.0,32.6,5.0,-4.0,1024,1024,1024,1024,0,0,0,0,96,4.424,59.72,32.8084,P-GPS,,10.0
222,22200,2026-01-11 15:30:18,0.0,5,7.783,0.0,0.0,0.0,32.6,4.8,-4.0,1024,1024,1024,1024,0,0,0,0,96,4.424,59.72,32.8084,P-GPS,,10.0
223,22300,2026-01-11 15:30:18,0.0,5,7.783,0.0,0.0,0.0,32.6,4.5,-3.8,1024,1024,1024,1024,0,0,0,0,96,4.424,59.72,32.8084,P-GPS,,10.0
224,22400,2026-01-11 15:30:18,0.0,5,7.783,0.0,0.0,0.0,32.6,4.6,-3.8,1024,1024,1024,1024,0,0,0,0,96,4.424,59.72,32.8084,P-GPS,,10.0
225,22500,2026-01-11 15:30:18,0.0,5,7.783,0.0,0.0,0.0,32.5,4.9,-3.8,1024,1024,1024,1024,0,0,0,0,96,4.424,59.72,32.8084,P-GPS,,10.0
226,22600,2026-01-11 15:30:18,0.0,5,7.783,0.0,0.0,0.0,32.5,4.3,-3.9,1024,1024,1024,1024,0,0,0,0,96,4.424,59.72,33.136484,P-GPS,,10.1
227,22700,2026-01-11 15:30:18,0.0,5,7.783,0.0,0.0,0.0,32.6,3.9,-3.9,1024,1024,1024,1024,0,0,0,0,96,4.424,59.72,33.136484,P-GPS,,10.1
228,22800,2026-01-11 15:30:18,0.0,5,7.783,0.0,0.0,0.0,32.7,3.4,-4.1,1024,1024,1024,1024,0,0,0,0,96,4.424,59.72,33.136484,P-GPS,,10.1
229,22900,2026-01-11 15:30:18,0.0,5,7.783,0.0,0.0,0.0,32.7,3.4,-4.0,1024,1024,1024,1024,0,0,0,0,96,4.424,59.72,33.136484,P-GPS,,10.1
230,23000,2026-01-11 15:30:18,0.0,5,7.783,0.0,0.0,0.0,32.6,3.8,-3.9,1024,1024,1024,1024,0,0,0,0,96,4.424,59.72,33.136484,P-GPS,,10.1
231,23100,2026-01-11 15:30:18,0.0,5,7.802,0.0,0.0,0.0,32.5,4.4,-3.7,1024,1024,1024,1024,0,0,0,0,96,4.479,59.72,33.136484,P-GPS,,10.1
232,23200,2026-01-11 15:30:19,0.0,5,7.802,0.0,0.0,0.0,32.3,4.0,-3.6,1024,1024,1024,1024,0,0,0,0,96,4.479,59.72,33.136484,P-GPS,,10.1
233,23300,2026-01-11 15:30:19,0.223694,5,7.802,-0.223694,0.0,0.0,32.1,3.8,-3.4,1024,1024,1024,1024,0,0,0,0,96,4.479,59.72,33.136484,P-GPS,,10.1
234,23400,2026-01-11 15:30:19,0.223694,5,7.802,-0.223694,0.0,0.0,32.0,3.0,-3.9,1024,1024,1024,1024,0,0,0,0,96,4.479,59.72,33.136484,P-GPS,,10.1
235,23500,2026-01-11 15:30:19,0.223694,5,7.802,-0.223694,0.0,0.0,32.1,1.5,-4.5,1024,1024,1024,1024,0,0,0,0,96,4.479,59.72,33.136484,P-GPS,,10.1
236,23600,2026-01-11 15:30:19,0.223694,5,7.802,-0.223694,0.0,0.0,32.2,1.0,-5.1,1024,1024,1024,1024,0,0,0,0,96,4.479,59.72,33.136484,P-GPS,,10.1
237,23700,2026-01-11 15:30:19,0.223694,5,7.802,-0.223694,0.0,0.0,32.3,0.8,-5.5,1024,1024,1024,1024,0,0,0,0,96,4.479,59.72,33.136484,P-GPS,,10.1
238,23800,2026-01-11 15:30:19,0.223694,5,7.802,-0.223694,0.0,0.0,32.5,1.0,-5.2,1024,1024,1024,1024,0,0,0,0,96,4.479,59.72,33.136484,P-GPS,,10.1
239,23900,2026-01-11 15:30:19,0.0,5,7.802,0.0,0.0,0.0,32.6,1.3,-5.3,1024,1024,1024,1024,0,0,0,0,96,4.479,59.72,33.136484,P-GPS,,10.1
240,24000,2026-01-11 15:30:19,0.0,5,7.802,0.0,0.0,0.0,32.6,1.4,-5.1,1024,1024,1024,1024,0,0,0,0,96,4.479,59.72,33.136484,P-GPS,,10.1
241,24100,2026-01-11 15:30:20,0.0,5,7.802,0.0,0.0,0.0,32.6,1.8,-5.1,1024,1024,1024,1024,0,0,0,0,96,4.479,59.72,33.136484,P-GPS,,10.1
242,24200,2026-01-11 15:30:20,0.0,5,7.773,0.0,0.0,0.0,32.6,2.4,-4.6,1024,1024,1024,1024,0,0,0,0,96,4.65,59.72,33.136484,P-GPS,,10.1
243,24300,2026-01-11 15:30:20,0.0,5,7.773,0.0,0.0,0.0,32.5,3.3,-4.4,1024,1024,1024,1024,0,0,0,0,96,4.65,59.72,33.136484,P-GPS,,10.1
244,24400,2026-01-11 15:30:20,0.0,5,7.773,0.0,0.0,0.0,32.7,2.0,-4.0,1024,1024,1024,1024,0,0,0,0,96,4.65,59.72,32.8084,P-GPS,,10.0
245,24500,2026-01-11 15:30:20,0.0,5,7.773,0.0,0.0,0.0,32.6,2.3,-4.1,1024,1024,1024,1024,0,0,0,0,96,4.65,59.72,32.8084,P-GPS,,10.0
246,24600,2026-01-11 15:30:20,0.0,5,7.773,0.0,0.0,0.0,32.7,1.3,-3.6,1024,1024,1024,1024,0,0,0,0,96,4.65,59.72,32.8084,P-GPS,,10.0
247,24700,2026-01-11 15:30:20,0.0,5,7.773,0.0,0.0,0.0,32.8,1.7,-4.0,1024,1024,1024,1024,0,0,0,0,96,4.65,59.72,32.8084,P-GPS,,10.0
248,24800,2026-01-11 15:30:20,0.0,5,7.773,0.0,0.0,0.0,32.6,2.8,-3.4,1024,1024,1024,1024,0,0,0,0,96,4.65,59.72,32.480316,P-GPS,,9.9
249,24900,2026-01-11 15:30:20,0.0,5,7.773,0.0,0.0,0.0,32.7,2.2,-3.2,1024,1024,1024,1024,0,0,0,0,96,4.65,59.72,32.480316,P-GPS,,9.9
250,25000,2026-01-11 15:30:20,0.0,5,7.773,0.0,0.0,0.0,32.7,1.8,-3.3,1024,1024,1024,1024,0,0,0,0,96,4.65,59.72,32.480316,P-GPS,,9.9
251,25100,2026-01-11 15:30:20,0.0,5,7.773,0.0,0.0,0.0,32.6,1.9,-3.2,1024,1024,1024,1024,0,0,0,0,96,4.65,59.72,32.480316,P-GPS,,9.9
252,25200,2026-01-11 15:30:21,0.0,5,7.773,0.0,0.0,0.0,32.6,1.4,-3.6,1024,1024,1024,1024,0,0,0,0,96,4.65,59.72,32.480316,P-GPS,,9.9
253,25300,2026-01-11 15:30:21,0.0,5,7.773,0.0,0.0,0.0,32.8,0.6,-3.6,1024,1024,1024,1024,0,0,0,0,96,4.65,59.72,32.480316,P-GPS,,9.9
254,25400,2026-01-11 15:30:21,0.0,5,7.773,0.0,0.0,0.0,32.7,1.2,-4.0,1024,1024,1024,1024,0,0,0,0,96,4.65,59.72,32.480316,P-GPS,,9.9
255,25500,2026-01-11 15:30:21,0.0,5,7.773,0.0,0.0,0.0,32.7,1.3,-4.0,1024,1024,1024,1024,0,0,0,0,96,4.65,59.72,32.480316,P-GPS,,9.9
256,25600,2026-01-11 15:30:21,0.0,5,7.773,0.0,0.0,0.0,32.7,1.3,-4.2,1024,1024,1024,1024,0,0,0,0,96,4.65,59.72,32.480316,P-GPS,,9.9
257,25700,2026-01-11 15:30:21,0.0,5,7.773,0.0,0.0,0.0,32.9,1.3,-4.3,1024,1024,1024,1024,0,0,0,0,96,4.65,59.72,32.480316,P-GPS,,9.9
258,25800,2026-01-11 15:30:21,0.0,5,7.773,0.0,0.0,0.0,32.9,2.0,-4.3,1024,1024,1024,1024,0,0,0,0,96,4.65,59.72,32.480316,P-GPS,,9.9
259,25900,2026-01-11 15:30:21,0.0,5,7.773,0.0,0.0,0.0,32.8,2.9,-4.5,1024,1024,1024,1024,0,0,0,0,96,4.65,59.72,32.480316,P-GPS,,9.9
260,26000,2026-01-11 15:30:21,0.0,5,7.773,0.0,0.0,0.0,32.8,3.6,-4.4,1024,1024,1024,1024,0,0,0,0,96,4.65,59.72,32.480316,P-GPS,,9.9
261,26100,2026-01-11 15:30:22,0.0,5,7.773,0.0,0.0,0.0,32.8,3.8,-4.1,1024,1024,1024,1024,0,0,0,0,96,4.65,59.72,32.480316,P-GPS,,9.9
262,26200,2026-01-11 15:30:22,0.0,5,7.773,0.0,0.0,0.0,32.8,3.5,-4.3,1024,1024,1024,1024,0,0,0,0,96,4.65,59.72,32.152232,P-GPS,,9.8
263,26300,2026-01-11 15:30:22,0.0,5,7.773,0.0,0.0,0.0,32.7,3.6,-4.3,1024,1024,1024,1024,0,0,0,0,96,4.65,59.72,32.152232,P-GPS,,9.8
264,26400,2026-01-11 15:30:22,0.0,5,7.773,0.0,0.0,0.0,32.6,3.5,-4.1,1024,1024,1024,1024,0,0,0,0,96,4.745,59.72,32.152232,P-GPS,,9.8
265,26500,2026-01-11 15:30:22,0.0,5,7.773,0.0,0.0,0.0,32.7,2.9,-4.0,1024,1024,1024,1024,0,0,0,0,96,4.745,59.72,32.152232,P-GPS,,9.8
266,26600,2026-01-11 15:30:22,0.0,5,7.773,0.0,0.0,0.0,32.7,2.8,-4.0,1024,1024,1024,1024,0,0,0,0,96,4.745,59.72,32.152232,P-GPS,,9.8
267,26700,2026-01-11 15:30:22,0.0,5,7.773,0.0,0.0,0.0,32.8,3.4,-4.5,1024,1024,1024,1024,0,0,0,0,96,4.745,59.72,32.152232,P-GPS,,9.8
268,26800,2026-01-11 15:30:22,0.0,5,7.773,0.0,0.0,0.0,32.8,4.0,-4.6,1024,1024,1024,1024,0,0,0,0,96,4.745,59.72,32.152232,P-GPS,,9.8
269,26900,2026-01-11 15:30:22,0.0,5,7.773,0.0,0.0,0.0,32.9,4.0,-4.6,1024,1024,1024,1024,0,0,0,0,96,4.745,59.72,32.152232,P-GPS,,9.8
270,27000,2026-01-11 15:30:23,0.0,5,7.773,0.0,0.0,0.0,32.9,3.8,-4.7,1024,1024,1024,1024,0,0,0,0,96,4.745,59.72,32.152232,P-GPS,,9.8
271,27100,2026-01-11 15:30:23,0.0,5,7.773,0.0,0.0,0.0,32.8,3.5,-4.6,1024,1024,1024,1024,0,0,0,0,96,4.745,59.72,32.152232,P-GPS,,9.8
272,27200,2026-01-11 15:30:23,0.0,5,7.773,0.0,0.0,0.0,32.5,3.9,-4.7,1024,1024,1024,1024,0,0,0,0,96,4.745,59.72,32.152232,P-GPS,,9.8
273,27300,2026-01-11 15:30:23,0.0,5,7.773,0.0,0.0,0.0,32.6,3.9,-5.1,1024,1024,1024,1024,0,0,0,0,96,4.745,59.72,32.152232,P-GPS,,9.8
274,27400,2026-01-11 15:30:23,0.0,5,7.773,0.0,0.0,0.0,32.7,3.7,-5.2,1024,1024,1024,1024,0,0,0,0,96,4.745,59.72,32.152232,P-GPS,,9.8
275,27500,2026-01-11 15:30:23,0.0,5,7.773,0.0,0.0,0.0,32.8,3.8,-5.0,1024,1024,1024,1024,0,0,0,0,96,4.745,59.72,32.152232,P-GPS,,9.8
276,27600,2026-01-11 15:30:23,0.0,5,7.778,0.0,0.0,0.0,32.7,4.6,-5.1,1024,1024,1024,1024,0,0,0,0,95,4.628,59.9,32.152232,P-GPS,,9.8
277,27700,2026-01-11 15:30:23,0.0,5,7.778,0.0,0.0,0.0,32.6,5.0,-4.8,1024,1024,1024,1024,0,0,0,0,95,4.628,59.9,32.152232,P-GPS,,9.8
278,27800,2026-01-11 15:30:23,0.0,5,7.778,0.0,0.0,0.0,32.7,4.6,-5.3,1024,1024,1024,1024,0,0,0,0,95,4.628,59.9,32.152232,P-GPS,,9.8
279,27900,2026-01-11 15:30:23,0.0,5,7.778,0.0,0.0,0.0,32.9,3.7,-5.1,1024,1024,1024,1024,0,0,0,0,95,4.628,59.9,32.152232,P-GPS,,9.8
280,28000,2026-01-11 15:30:23,0.0,5,7.778,0.0,0.0,0.0,33.0,4.1,-4.6,1024,1024,1024,1024,0,0,0,0,95,4.628,59.9,32.152232,P-GPS,,9.8
281,28100,2026-01-11 15:30:24,0.0,5,7.778,0.0,0.0,0.0,32.9,4.7,-4.8,1024,1024,1024,1024,0,0,0,0,95,4.628,59.9,32.152232,P-GPS,,9.8
282,28200,2026-01-11 15:30:24,0.0,5,7.778,0.0,0.0,0.0,32.9,4.8,-4.7,1024,1024,1024,1024,0,0,0,0,95,4.628,59.9,32.152232,P-GPS,,9.8
283,28300,2026-01-11 15:30:24,0.0,5,7.778,0.0,0.0,0.0,32.6,4.2,-5.0,1024,1024,1024,1024,0,0,0,0,95,4.628,59.9,32.152232,P-GPS,,9.8
284,28400,2026-01-11 15:30:24,0.0,5,7.778,0.0,0.0,0.0,32.7,4.7,-5.2,1024,1024,1024,1024,0,0,0,0,95,4.628,59.9,32.152232,P-GPS,,9.8
285,28500,2026-01-11 15:30:24,0.0,5,7.778,0.0,0.0,0.0,32.6,6.4,-4.7,1024,1024,1024,1024,0,0,0,0,95,4.628,59.9,32.152232,P-GPS,,9.8
286,28600,2026-01-11 15:30:24,0.0,5,7.778,0.0,0.0,0.0,32.6,6.5,-4.2,1024,1024,1024,1024,0,0,0,0,95,4.628,59.9,32.152232,P-GPS,,9.8
287,28700,2026-01-11 15:30:24,0.0,5,7.782,0.0,0.0,0.0,32.7,5.8,-4.5,1024,1024,1024,1024,0,0,0,0,95,4.602,59.9,32.152232,P-GPS,,9.8
288,28800,2026-01-11 15:30:24,0.0,5,7.782,0.0,0.0,0.0,32.6,6.0,-5.0,1024,1024,1024,1024,0,0,0,0,95,4.602,59.9,32.152232,P-GPS,,9.8
289,28900,2026-01-11 15:30:24,0.0,5,7.782,0.0,0.0,0.0,32.5,6.4,-5.3,1024,1024,1024,1024,0,0,0,0,95,4.602,59.9,32.152232,P-GPS,,9.8
290,29000,2026-01-11 15:30:24,0.0,5,7.782,0.0,0.0,0.0,32.5,6.7,-4.8,1024,1024,1024,1024,0,0,0,0,95,4.602,59.9,31.824148,P-GPS,,9.7
291,29100,2026-01-11 15:30:25,0.0,5,7.782,0.0,0.0,0.0,32.5,6.2,-4.9,1024,1024,1024,1024,0,0,0,0,95,4.602,59.9,31.824148,P-GPS,,9.7
292,29200,2026-01-11 15:30:25,0.0,5,7.782,0.0,0.0,0.0,32.4,6.4,-5.3,1024,1024,1024,1024,0,0,0,0,95,4.602,59.9,31.824148,P-GPS,,9.7
293,29300,2026-01-11 15:30:25,0.0,5,7.782,0.0,0.0,0.0,32.5,6.5,-4.9,1024,1024,1024,1024,0,0,0,0,95,4.602,59.9,31.824148,P-GPS,,9.7
294,29400,2026-01-11 15:30:25,0.0,5,7.782,0.0,0.0,0.0,32.6,5.3,-5.1,1024,1024,1024,1024,0,0,0,0,95,4.602,59.9,31.824148,P-GPS,,9.7
295,29500,2026-01-11 15:30:25,0.0,5,7.782,0.0,0.0,0.0,32.6,4.6,-5.3,1024,1024,1024,1024,0,0,0,0,95,4.602,59.9,31.824148,P-GPS,,9.7
296,29600,2026-01-11 15:30:25,0.0,5,7.782,0.0,0.0,0.0,32.6,4.7,-5.5,1024,1024,1024,1024,0,0,0,0,95,4.602,59.9,31.824148,P-GPS,,9.7
297,29700,2026-01-11 15:30:25,0.0,5,7.782,0.0,0.0,0.0,32.5,4.7,-5.6,1024,1024,1024,1024,0,0,0,0,95,4.602,59.9,31.496064,P-GPS,,9.6
298,29800,2026-01-11 15:30:25,0.0,5,7.765,0.0,0.0,0.0,32.6,4.9,-5.2,1024,1024,1024,1024,0,0,0,0,95,4.674,59.9,31.496064,P-GPS,,9.6
299,29900,2026-01-11 15:30:25,0.0,5,7.765,0.0,0.0,0.0,32.6,4.7,-5.2,1024,1024,1024,1024,0,0,0,0,95,4.674,59.9,31.496064,P-GPS,,9.6
300,30000,2026-01-11 15:30:25,0.0,5,7.765,0.0,0.0,0.0,32.7,4.2,-5.2,1024,1024,1024,1024,0,0,0,0,95,4.674,59.9,31.496064,P-GPS,,9.6
301,30100,2026-01-11 15:30:26,0.0,5,7.765,0.0,0.0,0.0,32.7,4.4,-5.2,1024,1024,1024,1024,0,0,0,0,95,4.674,59.9,31.496064,P-GPS,,9.6
302,30200,2026-01-11 15:30:26,0.0,5,7.765,0.0,0.0,0.0,32.6,4.8,-5.5,1024,1024,1024,1024,0,0,0,0,95,4.674,59.9,31.496064,P-GPS,,9.6
303,30300,2026-01-11 15:30:26,0.0,5,7.765,0.0,0.0,0.0,32.6,4.8,-5.5,1024,1024,1024,1024,0,0,0,0,95,4.674,59.9,31.496064,P-GPS,,9.6
304,30400,2026-01-11 15:30:26,0.0,5,7.765,0.0,0.0,0.0,32.6,4.7,-5.6,1024,1024,1024,1024,0,0,0,0,95,4.674,59.9,31.496064,P-GPS,,9.6
305,30500,2026-01-11 15:30:26,0.0,5,7.765,0.0,0.0,0.0,32.7,4.4,-5.5,1024,1024,1024,1024,0,0,0,0,95,4.674,59.9,31.496064,P-GPS,,9.6
306,30600,2026-01-11 15:30:26,0.0,5,7.765,0.0,0.0,0.0,32.7,4.6,-5.6,1024,1024,1024,1024,0,0,0,0,95,4.674,59.9,31.496064,P-GPS,,9.6
307,30700,2026-01-11 15:30:26,0.0,5,7.765,0.0,0.0,0.0,32.7,4.8,-5.5,1024,1024,1024,1024,0,0,0,0,95,4.674,59.9,31.496064,P-GPS,,9.6
308,30800,2026-01-11 15:30:26,0.0,5,7.765,0.0,0.0,0.0,32.7,5.2,-5.0,1024,1024,1024,1024,0,0,0,0,95,4.674,59.9,31.16798,P-GPS,,9.5
309,30900,2026-01-11 15:30:26,0.0,5,7.76,0.0,0.0,0.0,32.9,5.0,-4.6,1024,1024,1024,1024,0,0,0,0,95,4.737,59.9,31.16798,P-GPS,,9.5
310,31000,2026-01-11 15:30:26,0.0,5,7.76,0.0,0.0,0.0,32.9,5.0,-4.4,1024,1024,1024,1024,0,0,0,0,95,4.737,59.9,31.16798,P-GPS,,9.5
311,31100,2026-01-11 15:30:26,0.0,5,7.76,0.0,0.0,0.0,32.9,5.2,-4.1,1024,1024,1024,1024,0,0,0,0,95,4.737,59.9,31.16798,P-GPS,,9.5
312,31200,2026-01-11 15:30:27,0.0,5,7.76,0.0,0.0,0.0,32.9,4.9,-3.9,1024,1024,1024,1024,0,0,0,0,95,4.737,59.9,30.839896,P-GPS,,9.4
313,31300,2026-01-11 15:30:27,0.0,5,7.76,0.0,0.0,0.0,32.8,4.9,-4.0,1024,1024,1024,1024,0,0,0,0,95,4.737,59.9,30.839896,P-GPS,,9.4
314,31400,2026-01-11 15:30:27,0.0,5,7.76,0.0,0.0,0.0,32.7,5.1,-4.8,1024,1024,1024,1024,0,0,0,0,95,4.737,59.9,30.839896,P-GPS,,9.4
315,31500,2026-01-11 15:30:27,0.0,5,7.76,0.0,0.0,0.0,32.7,5.4,-4.1,1024,1024,1024,1024,0,0,0,0,95,4.737,59.9,30.839896,P-GPS,,9.4
316,31600,2026-01-11 15:30:27,0.0,5,7.76,0.0,0.0,0.0,32.7,5.5,-4.1,1024,1024,1024,1024,0,0,0,0,95,4.737,59.9,30.839896,P-GPS,,9.4
317,31700,2026-01-11 15:30:27,0.0,5,7.76,0.0,0.0,0.0,32.8,5.4,-3.9,1024,1024,1024,1024,0,0,0,0,95,4.737,59.9,30.839896,P-GPS,,9.4
318,31800,2026-01-11 15:30:27,0.0,5,7.76,0.0,0.0,0.0,32.9,5.2,-3.8,1024,1024,1024,1024,0,0,0,0,95,4.737,59.9,30.839896,P-GPS,,9.4
319,31900,2026-01-11 15:30:27,0.0,5,7.76,0.0,0.0,0.0,32.8,5.7,-4.4,1024,1024,1024,1024,0,0,0,0,95,4.737,59.9,30.839896,P-GPS,,9.4
320,32000,2026-01-11 15:30:27,0.0,5,7.754,0.0,0.0,0.0,32.7,6.2,-4.2,1024,1024,1024,1024,0,0,0,0,95,4.916,59.9,30.839896,P-GPS,,9.4
321,32100,2026-01-11 15:30:28,0.0,5,7.754,0.0,0.0,0.0,32.7,6.7,-4.1,1024,1024,1024,1024,0,0,0,0,95,4.916,59.9,30.839896,P-GPS,,9.4
322,32200,2026-01-11 15:30:28,0.0,5,7.754,0.0,0.0,0.0,32.7,6.7,-3.8,1024,1024,1024,1024,0,0,0,0,95,4.916,59.9,30.839896,P-GPS,,9.4
323,32300,2026-01-11 15:30:28,0.0,5,7.754,0.0,0.0,0.0,32.7,5.7,-4.2,1024,1024,1024,1024,0,0,0,0,95,4.916,59.9,30.839896,P-GPS,,9.4
324,32400,2026-01-11 15:30:28,0.0,5,7.754,0.0,0.0,0.0,32.6,6.1,-4.5,1024,1024,1024,1024,0,0,0,0,95,4.916,59.9,30.839896,P-GPS,,9.4
325,32500,2026-01-11 15:30:28,0.0,5,7.754,0.0,0.0,0.0,32.7,6.5,-3.6,1024,1024,1024,1024,0,0,0,0,95,4.916,59.9,30.511812,P-GPS,,9.3
326,32600,2026-01-11 15:30:28,0.0,5,7.754,0.0,0.0,0.0,32.8,5.1,-3.6,1024,1024,1024,1024,0,0,0,0,95,4.916,59.9,30.839896,P-GPS,,9.4
327,32700,2026-01-11 15:30:28,0.0,5,7.754,0.0,0.0,0.0,32.6,5.3,-4.4,1024,1024,1024,1024,0,0,0,0,95,4.916,59.9,30.839896,P-GPS,,9.4
328,32800,2026-01-11 15:30:28,0.0,5,7.754,0.0,0.0,0.0,32.5,6.1,-3.8,1024,1024,1024,1024,0,0,0,0,95,4.916,59.9,30.839896,P-GPS,,9.4
329,32900,2026-01-11 15:30:28,0.0,5,7.754,0.0,0.0,0.0,32.7,5.5,-3.8,1024,1024,1024,1024,0,0,0,0,95,4.916,59.9,30.839896,P-GPS,,9.4
330,33000,2026-01-11 15:30:28,0.0,5,7.754,0.0,0.0,0.0,32.8,4.3,-3.8,1024,1024,1024,1024,0,0,0,0,95,4.916,59.9,30.839896,P-GPS,,9.4
331,33100,2026-01-11 15:30:29,0.0,5,7.754,0.0,0.0,0.0,32.6,4.5,-4.1,1024,1024,1024,1024,0,0,0,0,95,4.916,59.9,30.839896,P-GPS,,9.4
332,33200,2026-01-11 15:30:29,0.0,5,7.751,0.0,0.0,0.0,32.4,5.2,-4.3,1024,1024,1024,1024,0,0,0,0,95,4.886,60.08,30.839896,P-GPS,,9.4
333,33300,2026-01-11 15:30:29,0.0,5,7.751,0.0,0.0,0.0,32.4,4.9,-4.5,1024,1024,1024,1024,0,0,0,0,95,4.886,60.08,31.16798,P-GPS,,9.5
334,33400,2026-01-11 15:30:29,0.0,5,7.751,0.0,0.0,0.0,32.3,4.8,-5.0,1024,1024,1024,1024,0,0,0,0,95,4.886,60.08,31.16798,P-GPS,,9.5
335,33500,2026-01-11 15:30:29,0.223694,5,7.751,-0.223694,0.0,0.0,32.5,4.0,-5.0,1024,1024,1024,1024,0,0,0,0,95,4.886,60.08,31.16798,P-GPS,,9.5
336,33600,2026-01-11 15:30:29,0.0,5,7.751,0.0,0.0,0.0,32.7,3.4,-5.2,1024,1024,1024,1024,0,0,0,0,95,4.886,60.08,31.16798,P-GPS,,9.5
337,33700,2026-01-11 15:30:29,0.0,5,7.751,0.0,0.0,0.0,32.7,2.7,-5.1,1024,1024,1024,1024,0,0,0,0,95,4.886,60.08,31.16798,P-GPS,,9.5
338,33800,2026-01-11 15:30:29,0.0,5,7.751,0.0,0.0,0.0,32.5,3.3,-5.2,1024,1024,1024,1024,0,0,0,0,95,4.886,60.08,31.16798,P-GPS,,9.5
339,33900,2026-01-11 15:30:29,0.0,5,7.751,0.0,0.0,0.0,32.5,4.2,-4.9,1024,1024,1024,1024,0,0,0,0,95,4.886,60.08,31.16798,P-GPS,,9.5
340,34000,2026-01-11 15:30:29,0.0,5,7.751,0.0,0.0,0.0,32.4,4.6,-4.8,1024,1024,1024,1024,0,0,0,0,95,4.886,60.08,31.496064,P-GPS,,9.6
341,34100,2026-01-11 15:30:30,0.0,5,7.751,0.0,0.0,0.0,32.2,5.5,-4.4,1024,1024,1024,1024,0,0,0,0,95,4.886,60.08,31.496064,P-GPS,,9.6
342,34200,2026-01-11 15:30:30,0.0,5,7.751,0.0,0.0,0.0,32.1,5.5,-4.7,1024,1024,1024,1024,0,0,0,0,95,4.886,60.08,31.496064,P-GPS,,9.6
343,34300,2026-01-11 15:30:30,0.0,5,7.789,0.0,0.0,0.0,32.2,4.2,-4.9,1024,1024,1024,1024,0,0,0,0,95,4.524,60.08,31.496064,P-GPS,,9.6
344,34400,2026-01-11 15:30:30,0.223694,5,7.789,-0.223694,0.0,0.0,32.2,3.4,-4.7,1024,1024,1024,1024,0,0,0,0,95,4.524,60.08,31.496064,P-GPS,,9.6
345,34500,2026-01-11 15:30:30,0.223694,5,7.789,-0.223694,0.0,0.0,32.5,2.4,-5.0,1024,1024,1024,1024,0,0,0,0,95,4.524,60.08,31.496064,P-GPS,,9.6
346,34600,2026-01-11 15:30:30,0.223694,5,7.789,-0.223694,0.0,0.0,32.6,1.8,-5.1,1024,1024,1024,1024,0,0,0,0,95,4.524,60.08,31.496064,P-GPS,,9.6
347,34700,2026-01-11 15:30:30,0.223694,5,7.789,0.0,0.0,0.0,32.7,1.9,-5.0,1024,1024,1024,1024,0,0,0,0,95,4.524,60.08,31.496064,P-GPS,,9.6
348,34800,2026-01-11 15:30:30,0.0,5,7.789,0.0,0.0,0.0,32.8,2.0,-4.2,1024,1024,1024,1024,0,0,0,0,95,4.524,60.08,31.496064,P-GPS,,9.6
349,34900,2026-01-11 15:30:30,0.0,5,7.789,0.0,0.0,0.0,32.7,1.6,-4.4,1024,1024,1024,1024,0,0,0,0,95,4.524,60.08,31.496064,P-GPS,,9.6
350,35000,2026-01-11 15:30:30,0.0,5,7.789,0.0,0.0,0.0,32.8,1.8,-4.5,1024,1024,1024,1024,0,0,0,0,95,4.524,60.08,31.496064,P-GPS,,9.6
351,35100,2026-01-11 15:30:31,0.0,5,7.789,0.0,0.0,0.0,32.7,2.2,-4.6,1024,1024,1024,1024,0,0,0,0,95,4.524,60.08,31.16798,P-GPS,,9.5
352,35200,2026-01-11 15:30:31,0.0,5,7.789,0.0,0.0,0.0,32.7,2.8,-4.4,1024,1024,1024,1024,0,0,0,0,95,4.524,60.08,31.16798,P-GPS,,9.5
353,35300,2026-01-11 15:30:31,0.0,5,7.789,0.0,0.0,0.0,32.7,2.9,-4.3,1024,1024,1024,1024,0,0,0,0,95,4.524,60.08,31.16798,P-GPS,,9.5
354,35400,2026-01-11 15:30:31,0.0,5,7.789,0.0,0.0,0.0,32.7,2.5,-4.3,1024,1024,1024,1024,0,0,0,0,95,4.524,60.08,31.16798,P-GPS,,9.5
355,35500,2026-01-11 15:30:31,0.0,5,7.789,0.0,0.0,0.0,32.4,2.9,-4.3,1024,1024,1024,1024,0,0,0,0,95,4.524,60.08,31.496064,P-GPS,,9.6
356,35600,2026-01-11 15:30:31,0.0,5,7.789,0.0,0.0,0.0,32.1,3.0,-5.1,1024,1024,1024,1024,0,0,0,0,95,4.524,60.08,31.496064,P-GPS,,9.6
357,35700,2026-01-11 15:30:31,0.0,5,7.789,0.0,0.0,0.0,32.1,2.9,-5.7,1024,1024,1024,1024,0,0,0,0,95,4.524,60.08,31.496064,P-GPS,,9.6
358,35800,2026-01-11 15:30:31,0.0,5,7.789,0.0,0.0,0.0,32.2,2.4,-5.7,1024,1024,1024,1024,0,0,0,0,95,4.524,60.08,31.496064,P-GPS,,9.6
359,35900,2026-01-11 15:30:31,0.0,5,7.789,0.0,0.0,0.0,32.2,2.4,-5.9,1024,1024,1024,1024,0,0,0,0,95,4.524,60.08,31.496064,P-GPS,,9.6
360,36000,2026-01-11 15:30:31,0.0,5,7.789,0.0,0.0,0.0,32.2,2.4,-5.6,1024,1024,1024,1024,0,0,0,0,95,4.524,60.08,31.824148,P-GPS,,9.7
361,36100,2026-01-11 15:30:32,0.0,5,7.789,0.0,0.0,0.0,32.2,2.1,-5.7,1024,1024,1024,1024,0,0,0,0,95,4.524,60.08,31.824148,P-GPS,,9.7
362,36200,2026-01-11 15:30:32,0.0,5,7.789,0.0,0.0,0.0,32.3,1.9,-5.5,1024,1024,1024,1024,0,0,0,0,95,4.524,60.08,31.824148,P-GPS,,9.7
363,36300,2026-01-11 15:30:32,0.0,5,7.789,0.0,0.0,0.0,32.5,1.8,-5.4,1024,1024,1024,1024,0,0,0,0,95,4.524,60.08,31.824148,P-GPS,,9.7
364,36400,2026-01-11 15:30:32,0.0,5,7.784,0.0,0.0,0.0,32.5,2.1,-5.5,1024,1024,1024,1024,0,0,0,0,95,4.503,60.08,31.824148,P-GPS,,9.7
