index,time(millisecond),timestamp,speed(mph),gpslevel,voltage(v),xSpeed(mph),ySpeed(mph),zSpeed(mph),compass_heading(degrees),pitch(degrees),roll(degrees),rc_elevator,rc_aileron,rc_throttle,rc_rudder,rc_elevator(percent),rc_aileron(percent),rc_throttle(percent),rc_rudder(percent),battery_percent,current(A),battery_temperature(f),ascent(feet),flycState,message,height_above_takeoff(meters)
866,86600,2026-01-11 15:31:22,0.0,5,7.763,0.0,0.0,0.0,32.4,8.8,-10.5,1024,1024,1024,1024,0,0,0,0,92,5.312,61.34,165.68242,P-GPS,,50.5
867,86700,2026-01-11 15:31:22,0.0,5,7.763,0.0,0.0,0.0,32.4,8.7,-10.1,1024,1024,1024,1024,0,0,0,0,92,5.312,61.34,165.68242,P-GPS,,50.5
868,86800,2026-01-11 15:31:22,0.0,5,7.763,0.0,0.0,0.0,32.4,8.3,-10.1,1024,1024,1024,1024,0,0,0,0,92,5.312,61.34,165.68242,P-GPS,,50.5
869,86900,2026-01-11 15:31:22,0.0,5,7.763,0.0,0.0,0.0,32.5,8.1,-10.1,1024,1024,1024,1024,0,0,0,0,92,5.312,61.34,165.68242,P-GPS,,50.5
870,87000,2026-01-11 15:31:22,0.0,5,7.763,0.0,0.0,0.0,32.5,8.5,-9.9,1024,1024,1024,1024,0,0,0,0,92,5.312,61.34,165.68242,P-GPS,,50.5
871,87100,2026-01-11 15:31:23,0.0,5,7.763,0.0,0.0,0.0,32.5,8.2,-9.5,1024,1024,1024,1024,0,0,0,0,92,5.312,61.34,165.68242,P-GPS,,50.5
872,87200,2026-01-11 15:31:23,0.0,5,7.763,0.0,0.0,0.0,32.5,8.2,-9.5,1024,1024,1024,1024,0,0,0,0,92,5.312,61.34,165.68242,P-GPS,,50.5
873,87300,2026-01-11 15:31:23,0.0,5,7.763,0.0,0.0,0.0,32.6,7.9,-9.2,1024,1024,1024,1024,0,0,0,0,92,5.312,61.34,165.68242,P-GPS,,50.5
874,87400,2026-01-11 15:31:23,0.0,5,7.691,0.0,0.0,0.0,32.7,7.3,-8.6,1024,1024,1024,1024,0,0,0,0,92,4.94,61.34,165.68242,P-GPS,,50.5
875,87500,2026-01-11 15:31:23,0.0,5,7.691,0.0,0.0,0.0,32.6,7.9,-9.1,1024,1024,1024,1024,0,0,0,0,92,4.94,61.34,165.68242,P-GPS,,50.5
876,87600,2026-01-11 15:31:23,0.0,5,7.691,0.0,0.0,0.0,32.5,8.6,-9.2,1024,1024,1024,1024,0,0,0,0,92,4.94,61.34,165.68242,P-GPS,,50.5
877,87700,2026-01-11 15:31:23,0.0,5,7.691,0.0,0.0,0.0,32.6,8.3,-9.4,1024,1024,1024,1024,0,0,0,0,92,4.94,61.34,166.010504,P-GPS,,50.6
878,87800,2026-01-11 15:31:23,0.0,5,7.691,0.0,0.0,0.0,32.5,8.3,-9.6,1024,1024,1024,1024,0,0,0,0,92,4.94,61.34,166.010504,P-GPS,,50.6
879,87900,2026-01-11 15:31:23,0.0,5,7.691,0.0,0.0,0.0,32.6,8.4,-9.8,1024,1024,1024,1024,0,0,0,0,92,4.94,61.34,166.010504,P-GPS,,50.6
880,88000,2026-01-11 15:31:23,0.0,5,7.691,0.0,0.0,0.0,32.5,8.4,-9.9,1024,1024,1024,1024,0,0,0,0,92,4.94,61.34,166.010504,P-GPS,,50.6
881,88100,2026-01-11 15:31:24,0.0,5,7.691,0.0,0.0,0.0,32.5,8.3,-9.9,1024,1024,1024,1024,0,0,0,0,92,4.94,61.34,166.010504,P-GPS,,50.6
882,88200,2026-01-11 15:31:24,0.0,5,7.691,0.0,0.0,0.0,32.5,8.1,-10.0,1024,1024,1024,1024,0,0,0,0,92,4.94,61.34,166.010504,P-GPS,,50.6
883,88300,2026-01-11 15:31:24,0.0,5,7.691,0.0,0.0,0.0,32.5,8.3,-9.9,1024,1024,1024,1024,0,0,0,0,92,4.94,61.34,166.010504,P-GPS,,50.6
884,88400,2026-01-11 15:31:24,0.0,5,7.691,0.0,0.0,0.0,32.4,8.4,-10.0,1024,1024,1024,1024,0,0,0,0,92,4.94,61.34,166.010504,P-GPS,,50.6
885,88500,2026-01-11 15:31:24,0.0,5,7.723,0.0,0.0,0.0,32.4,8.3,-9.8,1024,1024,1024,1024,0,0,0,0,91,4.621,61.34,166.010504,P-GPS,,50.6
886,88600,2026-01-11 15:31:24,0.0,5,7.723,0.0,0.0,0.0,32.5,8.2,-9.7,1024,1024,1024,1024,0,0,0,0,91,4.621,61.34,166.010504,P-GPS,,50.6
887,88700,2026-01-11 15:31:24,0.0,5,7.723,0.0,0.0,0.0,32.5,7.9,-9.7,1024,1024,1024,1024,0,0,0,0,91,4.621,61.34,165.68242,P-GPS,,50.5
888,88800,2026-01-11 15:31:24,0.0,5,7.723,0.0,0.0,0.0,32.6,7.8,-9.5,1024,1024,1024,1024,0,0,0,0,91,4.621,61.34,165.68242,P-GPS,,50.5
889,88900,2026-01-11 15:31:24,0.0,5,7.723,0.0,0.0,0.0,32.6,7.6,-9.3,1024,1024,1024,1024,0,0,0,0,91,4.621,61.34,165.68242,P-GPS,,50.5
890,89000,2026-01-11 15:31:24,0.0,5,7.723,0.0,0.0,0.0,32.6,7.7,-9.2,1024,1024,1024,1024,0,0,0,0,91,4.621,61.34,165.68242,P-GPS,,50.5
891,89100,2026-01-11 15:31:25,0.0,5,7.723,0.0,0.0,0.0,32.6,7.6,-9.2,1024,1024,1024,1024,0,0,0,0,91,4.621,61.34,165.68242,P-GPS,,50.5
892,89200,2026-01-11 15:31:25,0.0,5,7.723,0.0,0.0,0.0,32.5,7.6,-9.2,1024,1024,1024,1024,0,0,0,0,91,4.621,61.34,165.68242,P-GPS,,50.5
893,89300,2026-01-11 15:31:25,0.0,5,7.723,0.0,0.0,0.0,32.6,7.5,-9.1,1024,1024,1024,1024,0,0,0,0,91,4.621,61.34,165.68242,P-GPS,,50.5
894,89400,2026-01-11 15:31:25,0.0,5,7.723,0.0,0.0,0.0,32.6,7.3,-9.1,1024,1024,1024,1024,0,0,0,0,91,4.621,61.34,165.68242,P-GPS,,50.5
895,89500,2026-01-11 15:31:25,0.0,5,7.723,0.0,0.0,0.0,32.6,7.3,-9.2,1024,1024,1024,1024,0,0,0,0,91,4.621,61.34,165.68242,P-GPS,,50.5
896,89600,2026-01-11 15:31:25,0.0,5,7.716,0.0,0.0,0.0,32.7,7.1,-9.3,1024,1024,1024,1024,0,0,0,0,91,4.71,61.34,165.68242,P-GPS,,50.5
897,89700,2026-01-11 15:31:25,0.0,5,7.716,0.0,0.0,0.0,32.6,7.3,-9.7,1024,1024,1024,1024,0,0,0,0,91,4.71,61.34,165.68242,P-GPS,,50.5
898,89800,2026-01-11 15:31:25,0.0,5,7.716,0.0,0.0,0.0,32.7,7.3,-9.3,1024,1024,1024,1024,0,0,0,0,91,4.71,61.34,165.354336,P-GPS,,50.4
899,89900,2026-01-11 15:31:25,0.0,5,7.716,0.0,0.0,0.0,32.8,7.1,-9.4,1024,1024,1024,1024,0,0,0,0,91,4.71,61.34,165.354336,P-GPS,,50.4
900,90000,2026-01-11 15:31:25,0.0,5,7.716,0.0,0.0,0.0,32.8,6.9,-9.6,1024,1024,1024,1024,0,0,0,0,91,4.71,61.34,165.354336,P-GPS,,50.4
901,90100,2026-01-11 15:31:26,0.0,5,7.716,0.0,0.0,0.0,32.8,7.2,-9.6,1024,1024,1024,1024,0,0,0,0,91,4.71,61.34,165.354336,P-GPS,,50.4
902,90200,2026-01-11 15:31:26,0.0,5,7.716,0.0,0.0,0.0,32.6,7.7,-9.7,1024,1024,1024,1024,0,0,0,0,91,4.71,61.34,165.354336,P-GPS,,50.4
903,90300,2026-01-11 15:31:26,0.0,5,7.716,0.0,0.0,0.0,32.6,7.8,-9.5,1024,1024,1024,1024,0,0,0,0,91,4.71,61.34,165.68242,P-GPS,,50.5
904,90400,2026-01-11 15:31:26,0.0,5,7.716,0.0,0.0,0.0,32.6,7.6,-9.7,1024,1024,1024,1024,0,0,0,0,91,4.71,61.34,165.68242,P-GPS,,50.5
905,90500,2026-01-11 15:31:26,0.0,5,7.716,0.0,0.0,0.0,32.6,7.6,-9.7,1024,1024,1024,1024,0,0,0,0,91,4.71,61.34,165.68242,P-GPS,,50.5
906,90600,2026-01-11 15:31:26,0.0,5,7.716,0.0,0.0,0.0,32.6,7.9,-9.8,1024,1024,1024,1024,0,0,0,0,91,4.71,61.34,165.68242,P-GPS,,50.5
907,90700,2026-01-11 15:31:26,0.0,5,7.705,0.0,0.0,0.0,32.6,7.8,-9.9,1024,1024,1024,1024,0,0,0,0,91,4.953,61.52,165.68242,P-GPS,,50.5
908,90800,2026-01-11 15:31:26,0.0,5,7.705,0.0,0.0,0.0,32.7,7.8,-9.8,1024,1024,1024,1024,0,0,0,0,91,4.953,61.52,165.68242,P-GPS,,50.5
909,90900,2026-01-11 15:31:26,0.0,5,7.705,0.0,0.0,0.0,32.7,7.6,-9.8,1024,1024,1024,1024,0,0,0,0,91,4.953,61.52,165.68242,P-GPS,,50.5
910,91000,2026-01-11 15:31:27,0.0,5,7.705,0.0,0.0,0.0,32.7,7.2,-9.6,1024,1024,1024,1024,0,0,0,0,91,4.953,61.52,165.68242,P-GPS,,50.5
911,91100,2026-01-11 15:31:27,0.0,5,7.705,0.0,0.0,0.0,32.7,7.4,-9.5,1024,1024,1024,1024,0,0,0,0,91,4.953,61.52,165.68242,P-GPS,,50.5
912,91200,2026-01-11 15:31:27,0.0,5,7.705,0.0,0.0,0.0,32.7,7.5,-9.5,1024,1024,1024,1024,0,0,0,0,91,4.953,61.52,165.68242,P-GPS,,50.5
913,91300,2026-01-11 15:31:27,0.0,5,7.705,0.0,0.0,0.0,32.7,7.4,-9.5,1024,1024,1024,1024,0,0,0,0,91,4.953,61.52,165.68242,P-GPS,,50.5
914,91400,2026-01-11 15:31:27,0.0,5,7.705,0.0,0.0,0.0,32.6,7.5,-9.5,1024,1024,1024,1024,0,0,0,0,91,4.953,61.52,165.68242,P-GPS,,50.5
915,91500,2026-01-11 15:31:27,0.0,5,7.705,0.0,0.0,0.0,32.6,7.4,-9.7,1024,1024,1024,1024,0,0,0,0,91,4.953,61.52,165.68242,P-GPS,,50.5
916,91600,2026-01-11 15:31:27,0.0,5,7.705,0.0,0.0,0.0,32.7,7.1,-9.9,1024,1024,1024,1024,0,0,0,0,91,4.953,61.52,165.68242,P-GPS,,50.5
917,91700,2026-01-11 15:31:27,0.0,5,7.705,0.0,0.0,0.0,32.6,7.4,-10.1,1024,1024,1024,1024,0,0,0,0,91,4.953,61.52,165.68242,P-GPS,,50.5
918,91800,2026-01-11 15:31:27,0.0,5,7.705,0.0,0.0,0.0,32.6,7.2,-10.2,1024,1024,1024,1024,0,0,0,0,91,4.953,61.52,165.68242,P-GPS,,50.5
919,91900,2026-01-11 15:31:27,0.0,5,7.714,0.0,0.0,0.0,32.7,6.8,-10.2,1024,1024,1024,1024,0,0,0,0,91,4.823,61.52,165.68242,P-GPS,,50.5
920,92000,2026-01-11 15:31:27,0.0,5,7.714,0.0,0.0,0.0,32.8,6.5,-10.2,1024,1024,1024,1024,0,0,0,0,91,4.823,61.52,165.68242,P-GPS,,50.5
921,92100,2026-01-11 15:31:28,0.0,5,7.714,0.0,0.0,0.0,32.9,6.2,-10.1,1024,1024,1024,1024,0,0,0,0,91,4.823,61.52,165.354336,P-GPS,,50.4
922,92200,2026-01-11 15:31:28,0.0,5,7.714,0.0,0.0,0.0,32.8,6.6,-10.0,1024,1024,1024,1024,0,0,0,0,91,4.823,61.52,165.354336,P-GPS,,50.4
923,92300,2026-01-11 15:31:28,0.0,5,7.714,0.0,0.0,0.0,32.7,6.7,-10.0,1024,1024,1024,1024,0,0,0,0,91,4.823,61.52,165.354336,P-GPS,,50.4
924,92400,2026-01-11 15:31:28,0.0,5,7.714,0.0,0.0,0.0,32.7,6.9,-9.8,1024,1024,1024,1024,0,0,0,0,91,4.823,61.52,165.354336,P-GPS,,50.4
925,92500,2026-01-11 15:31:28,0.0,5,7.714,0.0,0.0,0.0,32.8,6.7,-9.7,1024,1024,1024,1024,0,0,0,0,91,4.823,61.52,165.354336,P-GPS,,50.4
926,92600,2026-01-11 15:31:28,0.0,5,7.714,0.0,0.0,0.0,32.7,6.6,-9.9,1024,1024,1024,1024,0,0,0,0,91,4.823,61.52,165.354336,P-GPS,,50.4
927,92700,2026-01-11 15:31:28,0.0,5,7.714,0.0,0.0,0.0,32.8,6.7,-9.6,1024,1024,1024,1024,0,0,0,0,91,4.823,61.52,165.354336,P-GPS,,50.4
928,92800,2026-01-11 15:31:28,0.0,5,7.714,0.0,0.0,0.0,32.9,6.0,-9.7,1024,1024,1024,1024,0,0,0,0,91,4.823,61.52,165.354336,P-GPS,,50.4
929,92900,2026-01-11 15:31:28,0.0,5,7.714,0.0,0.0,0.0,32.8,6.5,-9.8,1024,1024,1024,1024,0,0,0,0,91,4.823,61.52,165.354336,P-GPS,,50.4
930,93000,2026-01-11 15:31:28,0.0,5,7.693,0.0,0.0,0.0,32.8,6.7,-9.8,1024,1024,1024,1024,0,0,0,0,91,5.029,61.52,165.354336,P-GPS,,50.4
931,93100,2026-01-11 15:31:29,0.0,5,7.693,0.0,0.0,0.0,32.8,6.3,-9.7,1024,1024,1024,1024,0,0,0,0,91,5.029,61.52,165.354336,P-GPS,,50.4
932,93200,2026-01-11 15:31:29,0.0,5,7.693,0.0,0.0,0.0,32.9,6.1,-9.2,1024,1024,1024,1024,0,0,0,0,91,5.029,61.52,165.354336,P-GPS,,50.4
933,93300,2026-01-11 15:31:29,0.0,5,7.693,0.0,0.0,0.0,32.8,5.9,-9.2,1024,1024,1024,1024,0,0,0,0,91,5.029,61.52,165.354336,P-GPS,,50.4
934,93400,2026-01-11 15:31:29,0.0,5,7.693,0.0,0.0,0.0,32.8,6.0,-9.5,1024,1024,1024,1024,0,0,0,0,91,5.029,61.52,165.354336,P-GPS,,50.4
935,93500,2026-01-11 15:31:29,0.0,5,7.693,0.0,0.0,0.0,32.7,6.4,-9.2,1024,1024,1024,1024,0,0,0,0,91,5.029,61.52,165.354336,P-GPS,,50.4
936,93600,2026-01-11 15:31:29,0.0,5,7.693,0.0,0.0,0.0,32.8,6.4,-9.1,1024,1024,1024,1024,0,0,0,0,91,5.029,61.52,165.354336,P-GPS,,50.4
937,93700,2026-01-11 15:31:29,0.0,5,7.693,0.0,0.0,0.0,32.8,6.1,-8.9,1024,1024,1024,1024,0,0,0,0,91,5.029,61.52,165.354336,P-GPS,,50.4
938,93800,2026-01-11 15:31:29,0.0,5,7.693,0.0,0.0,0.0,32.8,6.0,-9.2,1024,1024,1024,1024,0,0,0,0,91,5.029,61.52,165.354336,P-GPS,,50.4
939,93900,2026-01-11 15:31:29,0.0,5,7.693,0.0,0.0,0.0,32.8,6.1,-9.1,1024,1024,1024,1024,0,0,0,0,91,5.029,61.52,165.354336,P-GPS,,50.4
940,94000,2026-01-11 15:31:29,0.0,5,7.693,0.0,0.0,0.0,32.8,5.8,-8.7,1024,1024,1024,1024,0,0,0,0,91,5.029,61.52,165.354336,P-GPS,,50.4
941,94100,2026-01-11 15:31:29,0.0,5,7.72,0.0,0.0,0.0,32.8,5.8,-8.9,1024,1024,1024,1024,0,0,0,0,91,4.937,61.7,165.354336,P-GPS,,50.4
942,94200,2026-01-11 15:31:30,0.0,5,7.72,0.0,0.0,0.0,32.8,5.9,-9.0,1024,1024,1024,1024,0,0,0,0,91,4.937,61.7,165.354336,P-GPS,,50.4
943,94300,2026-01-11 15:31:30,0.0,5,7.72,0.0,0.0,0.0,32.8,6.0,-9.0,1024,1024,1024,1024,0,0,0,0,91,4.937,61.7,165.354336,P-GPS,,50.4
944,94400,2026-01-11 15:31:30,0.0,5,7.72,0.0,0.0,0.0,32.8,6.0,-8.7,1024,1024,1024,1024,0,0,0,0,91,4.937,61.7,165.354336,P-GPS,,50.4
945,94500,2026-01-11 15:31:30,0.0,5,7.72,0.0,0.0,0.0,32.8,5.9,-8.6,1024,1024,1024,1024,0,0,0,0,91,4.937,61.7,165.354336,P-GPS,,50.4
946,94600,2026-01-11 15:31:30,0.0,5,7.72,0.0,0.0,0.0,32.8,5.8,-8.8,1024,1024,1024,1024,0,0,0,0,91,4.937,61.7,165.354336,P-GPS,,50.4
947,94700,2026-01-11 15:31:30,0.0,5,7.72,0.0,0.0,0.0,32.8,5.8,-8.7,1024,1024,1024,1024,0,0,0,0,91,4.937,61.7,165.354336,P-GPS,,50.4
948,94800,2026-01-11 15:31:30,0.0,5,7.72,0.0,0.0,0.0,32.8,5.9,-8.8,1024,1024,1024,1024,0,0,0,0,91,4.937,61.7,165.354336,P-GPS,,50.4
949,94900,2026-01-11 15:31:30,0.0,5,7.72,0.0,0.0,0.0,32.8,5.8,-8.7,1024,1024,1024,1024,0,0,0,0,91,4.937,61.7,165.354336,P-GPS,,50.4
950,95000,2026-01-11 15:31:30,0.0,5,7.72,0.0,0.0,0.0,32.9,5.8,-8.7,1024,1024,1024,1024,0,0,0,0,91,4.937,61.7,165.68242,P-GPS,,50.5
951,95100,2026-01-11 15:31:31,0.0,5,7.72,0.0,0.0,0.0,32.8,6.2,-8.6,1024,1024,1024,1024,0,0,0,0,91,4.937,61.7,165.68242,P-GPS,,50.5
952,95200,2026-01-11 15:31:31,0.0,5,7.727,0.0,0.0,0.0,32.8,5.9,-8.5,1024,1024,1024,1024,0,0,0,0,91,4.605,61.7,165.68242,P-GPS,,50.5
953,95300,2026-01-11 15:31:31,0.0,5,7.727,0.0,0.0,0.0,32.8,5.5,-8.6,1024,1024,1024,1024,0,0,0,0,91,4.605,61.7,165.68242,P-GPS,,50.5
954,95400,2026-01-11 15:31:31,0.0,5,7.727,0.0,0.0,0.0,32.8,5.5,-8.6,1024,1024,1024,1024,0,0,0,0,91,4.605,61.7,165.68242,P-GPS,,50.5
955,95500,2026-01-11 15:31:31,0.0,5,7.727,0.0,0.0,0.0,32.9,5.5,-8.4,1024,1024,1024,1024,0,0,0,0,91,4.605,61.7,165.68242,P-GPS,,50.5
956,95600,2026-01-11 15:31:31,0.0,5,7.727,0.0,0.0,0.0,32.9,5.4,-8.3,1024,1024,1024,1024,0,0,0,0,91,4.605,61.7,165.68242,P-GPS,,50.5
957,95700,2026-01-11 15:31:31,0.0,5,7.727,0.0,0.0,0.0,32.9,5.7,-8.3,1024,1024,1024,1024,0,0,0,0,91,4.605,61.7,165.68242,P-GPS,SD card speed low SD card speed low. Normal use may be affected. Replace SD card (Code: 10028). Gimbal stuck. Make sure gimbal cover is removed and manually check whether gimbal can rotate freely (Code: 40002),50.5
958,95800,2026-01-11 15:31:31,0.0,5,7.727,0.0,0.0,0.0,32.9,5.4,-8.3,1024,1024,1024,1024,0,0,0,0,91,4.605,61.7,165.68242,P-GPS,,50.5
959,95900,2026-01-11 15:31:31,0.0,5,7.727,0.0,0.0,0.0,32.9,5.5,-8.2,1024,1024,1024,1024,0,0,0,0,91,4.605,61.7,165.354336,P-GPS,,50.4
960,96000,2026-01-11 15:31:31,0.0,5,7.727,0.0,0.0,0.0,32.9,5.4,-7.8,1024,1024,1024,1024,0,0,0,0,91,4.605,61.7,165.354336,P-GPS,,50.4
961,96100,2026-01-11 15:31:32,0.0,5,7.727,0.0,0.0,0.0,32.9,5.3,-8.2,1024,1024,1024,1024,0,0,0,0,91,4.605,61.7,165.354336,P-GPS,,50.4
962,96200,2026-01-11 15:31:32,0.0,5,7.727,0.0,0.0,0.0,32.8,6.0,-8.5,1024,1024,1024,1024,0,0,0,0,91,4.605,61.7,165.354336,P-GPS,,50.4
963,96300,2026-01-11 15:31:32,0.0,5,7.744,0.0,0.0,0.0,32.8,5.8,-8.5,1024,1024,1024,1024,0,0,0,0,91,4.36,61.7,165.354336,P-GPS,,50.4
964,96400,2026-01-11 15:31:32,0.0,5,7.744,0.0,0.0,0.0,32.9,5.3,-8.6,1024,1024,1024,1024,0,0,0,0,91,4.36,61.7,165.354336,P-GPS,,50.4
965,96500,2026-01-11 15:31:32,0.0,5,7.744,0.0,0.0,0.0,32.9,5.3,-8.9,1024,1024,1024,1024,0,0,0,0,91,4.36,61.7,165.354336,P-GPS,,50.4
966,96600,2026-01-11 15:31:32,0.0,5,7.744,0.0,0.0,0.0,32.8,5.2,-9.2,1024,1024,1024,1024,0,0,0,0,91,4.36,61.7,165.354336,P-GPS,,50.4
967,96700,2026-01-11 15:31:32,0.0,5,7.744,0.0,0.0,0.0,32.8,5.3,-9.5,1024,1024,1024,1024,0,0,0,0,91,4.36,61.7,165.354336,P-GPS,,50.4
968,96800,2026-01-11 15:31:32,0.0,5,7.744,0.0,0.0,0.223694,32.9,5.0,-9.0,1024,1024,1024,1024,0,0,0,0,91,4.36,61.7,165.354336,P-GPS,,50.4
969,96900,2026-01-11 15:31:32,0.0,5,7.744,0.0,0.0,0.0,32.9,4.8,-8.9,1024,1024,1024,1024,0,0,0,0,91,4.36,61.7,165.354336,P-GPS,,50.4
970,97000,2026-01-11 15:31:32,0.0,5,7.744,0.0,0.0,0.0,32.9,4.8,-9.1,1024,1024,1024,1024,0,0,0,0,91,4.36,61.7,165.354336,P-GPS,,50.4
971,97100,2026-01-11 15:31:33,0.0,5,7.744,0.0,0.0,0.0,32.8,5.2,-9.0,1024,1024,1024,1024,0,0,0,0,91,4.36,61.7,165.354336,P-GPS,,50.4
972,97200,2026-01-11 15:31:33,0.0,5,7.744,0.0,0.0,0.0,33.0,4.2,-9.0,1024,1024,1024,1024,0,0,0,0,91,4.36,61.7,165.354336,P-GPS,,50.4
973,97300,2026-01-11 15:31:33,0.0,5,7.744,0.0,0.0,0.0,32.9,4.4,-9.7,1024,1024,1024,1024,0,0,0,0,91,4.36,61.7,165.354336,P-GPS,,50.4
974,97400,2026-01-11 15:31:33,0.0,5,7.744,0.0,0.0,0.0,32.9,4.7,-10.2,1024,1024,1024,1024,0,0,0,0,91,4.36,61.7,165.354336,P-GPS,,50.4
975,97500,2026-01-11 15:31:33,0.0,5,7.744,0.0,0.0,0.0,32.9,4.8,-10.1,1024,1024,1024,1024,0,0,0,0,91,4.36,61.7,165.354336,P-GPS,,50.4
976,97600,2026-01-11 15:31:33,0.0,5,7.744,0.0,0.0,0.0,32.9,4.8,-10.8,1024,1024,1024,1024,0,0,0,0,91,4.36,61.7,165.354336,P-GPS,,50.4
977,97700,2026-01-11 15:31:33,0.0,5,7.744,0.0,0.0,0.0,32.8,5.5,-10.6,1024,1024,1024,1024,0,0,0,0,91,4.36,61.7,165.354336,P-GPS,,50.4
978,97800,2026-01-11 15:31:33,0.0,5,7.744,0.0,0.0,0.0,32.7,6.2,-10.7,1024,1024,1024,1024,0,0,0,0,91,4.36,61.7,165.68242,P-GPS,,50.5
979,97900,2026-01-11 15:31:33,0.0,5,7.744,0.0,0.0,0.0,32.7,6.3,-10.4,1024,1024,1024,1024,0,0,0,0,91,4.36,61.7,165.68242,P-GPS,,50.5
980,98000,2026-01-11 15:31:33,0.0,5,7.744,0.0,0.0,0.0,32.8,6.2,-10.2,1024,1024,1024,1024,0,0,0,0,91,4.36,61.7,165.68242,P-GPS,,50.5
981,98100,2026-01-11 15:31:34,0.0,5,7.744,0.0,0.0,0.0,32.8,6.3,-10.1,1024,1024,1024,1024,0,0,0,0,91,4.36,61.7,165.68242,P-GPS,,50.5
982,98200,2026-01-11 15:31:34,0.0,5,7.744,0.0,0.0,0.0,32.7,6.3,-10.0,1024,1024,1024,1024,0,0,0,0,91,4.36,61.7,165.68242,P-GPS,,50.5
983,98300,2026-01-11 15:31:34,0.0,5,7.744,0.0,0.0,0.0,32.7,6.2,-10.3,1024,1024,1024,1024,0,0,0,0,91,4.36,61.7,165.68242,P-GPS,,50.5
984,98400,2026-01-11 15:31:34,0.0,5,7.71,0.0,0.0,0.0,32.7,6.0,-10.7,1024,1024,1024,1024,0,0,0,0,91,4.475,61.7,165.68242,P-GPS,,50.5
985,98500,2026-01-11 15:31:34,0.0,5,7.71,0.0,0.0,0.0,32.8,5.7,-10.5,1024,1024,1024,1024,0,0,0,0,91,4.475,61.7,165.68242,P-GPS,,50.5
986,98600,2026-01-11 15:31:34,0.0,5,7.71,0.0,0.0,0.0,32.9,5.1,-10.2,1024,1024,1024,1024,0,0,0,0,91,4.475,61.7,165.68242,P-GPS,,50.5
987,98700,2026-01-11 15:31:34,0.0,5,7.71,0.0,0.0,0.0,32.7,6.3,-10.5,1024,1024,1024,1024,0,0,0,0,91,4.475,61.7,165.68242,P-GPS,,50.5
988,98800,2026-01-11 15:31:34,0.0,5,7.71,0.0,0.0,0.0,32.7,6.6,-11.1,1024,1024,1024,1024,0,0,0,0,91,4.475,61.7,165.68242,P-GPS,,50.5
989,98900,2026-01-11 15:31:34,0.0,5,7.71,0.0,0.0,0.0,32.8,6.6,-10.8,1024,1024,1024,1024,0,0,0,0,91,4.475,61.7,165.68242,P-GPS,,50.5
990,99000,2026-01-11 15:31:34,0.0,5,7.71,0.0,0.0,0.0,32.8,5.9,-11.0,1024,1024,1024,1024,0,0,0,0,91,4.475,61.7,165.68242,P-GPS,,50.5
991,99100,2026-01-11 15:31:35,0.0,5,7.71,0.0,0.0,0.0,32.7,6.1,-11.7,1024,1024,1024,1024,0,0,0,0,91,4.475,61.7,165.68242,P-GPS,,50.5
992,99200,2026-01-11 15:31:35,0.0,5,7.71,0.0,0.0,0.0,32.6,6.8,-12.0,1024,1024,1024,1024,0,0,0,0,91,4.475,61.7,165.68242,P-GPS,,50.5
993,99300,2026-01-11 15:31:35,0.0,5,7.71,0.0,0.0,0.0,32.6,7.0,-12.1,1024,1024,1024,1024,0,0,0,0,91,4.475,61.7,165.68242,P-GPS,,50.5
994,99400,2026-01-11 15:31:35,0.0,5,7.71,0.0,0.0,0.0,32.8,6.7,-12.2,1024,1024,1024,1024,0,0,0,0,91,4.475,61.7,166.010504,P-GPS,,50.6
995,99500,2026-01-11 15:31:35,0.0,5,7.71,0.0,0.0,0.0,32.7,7.0,-12.5,1024,1024,1024,1024,0,0,0,0,91,4.475,61.7,166.010504,P-GPS,,50.6
996,99600,2026-01-11 15:31:35,0.0,5,7.743,0.0,0.0,0.0,32.5,7.8,-12.4,1024,1024,1024,1024,0,0,0,0,91,4.358,61.7,166.010504,P-GPS,,50.6
997,99700,2026-01-11 15:31:35,0.0,5,7.743,0.0,0.0,0.0,32.5,7.7,-12.2,1024,1024,1024,1024,0,0,0,0,91,4.358,61.7,166.010504,P-GPS,,50.6
998,99800,2026-01-11 15:31:35,0.0,5,7.743,0.0,0.0,0.0,32.6,7.3,-12.0,1024,1024,1024,1024,0,0,0,0,91,4.358,61.7,166.010504,P-GPS,,50.6
999,99900,2026-01-11 15:31:35,0.0,5,7.743,0.0,0.0,0.0,32.7,7.2,-12.1,1024,1024,1024,1024,0,0,0,0,91,4.358,61.7,166.010504,P-GPS,,50.6
1000,100000,2026-01-11 15:31:35,0.0,5,7.743,0.0,0.0,0.0,32.6,7.0,-12.3,1024,1024,1024,1024,0,0,0,0,91,4.358,61.7,166.010504,P-GPS,,50.6
1001,100100,2026-01-11 15:31:36,0.0,5,7.743,0.0,0.0,0.0,32.5,7.0,-12.6,1024,1024,1024,1024,0,0,0,0,91,4.358,61.7,166.010504,P-GPS,,50.6
1002,100200,2026-01-11 15:31:36,0.0,5,7.743,0.0,0.0,0.0,32.6,6.4,-12.5,1024,1024,1024,1024,0,0,0,0,91,4.358,61.7,166.010504,P-GPS,,50.6
1003,100300,2026-01-11 15:31:36,0.0,5,7.743,0.0,0.0,0.0,32.7,6.1,-12.4,1024,1024,1024,1024,0,0,0,0,91,4.358,61.7,166.010504,P-GPS,,50.6
1004,100400,2026-01-11 15:31:36,0.0,5,7.743,0.0,0.0,0.0,32.5,6.8,-12.2,1024,1024,1024,1024,0,0,0,0,91,4.358,61.7,166.010504,P-GPS,,50.6
1005,100500,2026-01-11 15:31:36,0.0,5,7.743,0.0,0.0,0.0,32.3,7.4,-12.9,1024,1024,1024,1024,0,0,0,0,91,4.358,61.7,166.010504,P-GPS,,50.6
1006,100600,2026-01-11 15:31:36,0.0,5,7.743,0.0,0.0,0.223694,32.5,6.7,-13.3,1024,1024,1024,1024,0,0,0,0,91,4.358,61.7,166.010504,P-GPS,,50.6
1007,100700,2026-01-11 15:31:36,0.0,5,7.72,0.0,0.0,0.223694,32.7,6.1,-13.0,1024,1024,1024,1024,0,0,0,0,91,4.974,61.7,166.010504,P-GPS,,50.6
1008,100800,2026-01-11 15:31:36,0.0,5,7.72,0.0,0.0,0.0,32.8,5.6,-12.7,1024,1024,1024,1024,0,0,0,0,91,4.974,61.7,166.010504,P-GPS,,50.6
1009,100900,2026-01-11 15:31:36,0.0,5,7.72,0.0,0.0,0.0,32.8,5.5,-13.0,1024,1024,1024,1024,0,0,0,0,91,4.974,61.7,165.68242,P-GPS,,50.5
1010,101000,2026-01-11 15:31:37,0.0,5,7.72,0.0,0.0,0.0,32.7,6.1,-12.9,1024,1024,1024,1024,0,0,0,0,91,4.974,61.7,165.68242,P-GPS,,50.5
1011,101100,2026-01-11 15:31:37,0.0,5,7.72,0.0,0.0,0.0,32.6,6.1,-13.1,1024,1024,1024,1024,0,0,0,0,91,4.974,61.7,165.68242,P-GPS,,50.5
1012,101200,2026-01-11 15:31:37,0.0,5,7.72,0.0,0.0,0.0,32.6,6.1,-13.3,1024,1024,1024,1024,0,0,0,0,91,4.974,61.7,165.68242,P-GPS,,50.5
1013,101300,2026-01-11 15:31:37,0.0,5,7.72,0.0,0.0,0.0,32.5,6.5,-13.3,1024,1024,1024,1024,0,0,0,0,91,4.974,61.7,165.68242,P-GPS,,50.5
1014,101400,2026-01-11 15:31:37,0.0,5,7.72,0.0,0.0,0.0,32.7,5.7,-13.1,1024,1024,1024,1024,0,0,0,0,91,4.974,61.7,165.68242,P-GPS,,50.5
1015,101500,2026-01-11 15:31:37,0.0,5,7.72,0.0,0.0,0.0,32.6,5.9,-13.3,1024,1024,1024,1024,0,0,0,0,91,4.974,61.7,165.68242,P-GPS,,50.5
1016,101600,2026-01-11 15:31:37,0.0,5,7.72,0.0,0.0,0.0,32.8,5.2,-13.1,1024,1024,1024,1024,0,0,0,0,91,4.974,61.7,165.68242,P-GPS,,50.5
1017,101700,2026-01-11 15:31:37,0.0,5,7.72,0.0,0.0,0.0,32.8,5.1,-12.9,1024,1024,1024,1024,0,0,0,0,91,4.974,61.7,165.68242,P-GPS,,50.5
1018,101800,2026-01-11 15:31:37,0.0,5,7.66,0.0,0.0,0.0,32.7,5.4,-12.6,1024,1024,1024,1024,0,0,0,0,91,5.357,61.7,165.354336,P-GPS,,50.4
1019,101900,2026-01-11 15:31:37,0.0,5,7.66,0.0,0.0,0.0,32.8,5.5,-12.6,1024,1024,1024,1024,0,0,0,0,91,5.357,61.7,165.354336,P-GPS,,50.4
1020,102000,2026-01-11 15:31:37,0.0,5,7.66,0.0,0.0,0.0,32.6,5.9,-12.4,1024,1024,1024,1024,0,0,0,0,91,5.357,61.7,165.354336,P-GPS,,50.4
1021,102100,2026-01-11 15:31:38,0.0,5,7.66,0.0,0.0,0.0,32.7,5.6,-12.0,1024,1024,1024,1024,0,0,0,0,91,5.357,61.7,165.354336,P-GPS,,50.4
1022,102200,2026-01-11 15:31:38,0.0,5,7.66,0.0,0.0,0.0,32.7,5.8,-11.6,1024,1024,1024,1024,0,0,0,0,91,5.357,61.7,165.354336,P-GPS,,50.4
1023,102300,2026-01-11 15:31:38,0.0,5,7.66,0.0,0.0,0.0,32.9,4.6,-11.7,1024,1024,1024,1024,0,0,0,0,91,5.357,61.7,165.026252,P-GPS,,50.3
1024,102400,2026-01-11 15:31:38,0.0,5,7.66,0.0,0.0,0.0,32.9,4.5,-12.1,1024,1024,1024,1024,0,0,0,0,91,5.357,61.7,165.026252,P-GPS,,50.3
1025,102500,2026-01-11 15:31:38,0.0,5,7.66,0.0,0.0,0.0,32.8,4.8,-11.8,1024,1024,1024,1024,0,0,0,0,91,5.357,61.7,165.026252,P-GPS,,50.3
1026,102600,2026-01-11 15:31:38,0.0,5,7.66,0.0,0.0,0.0,32.9,4.6,-11.5,1024,1024,1024,1024,0,0,0,0,91,5.357,61.7,165.026252,P-GPS,,50.3
1027,102700,2026-01-11 15:31:38,0.0,5,7.66,0.0,0.0,0.0,32.9,4.6,-11.5,1024,1024,1024,1024,0,0,0,0,91,5.357,61.7,165.026252,P-GPS,,50.3
1028,102800,2026-01-11 15:31:38,0.0,5,7.66,0.0,0.0,0.0,32.8,5.1,-11.5,1024,1024,1024,1024,0,0,0,0,91,5.357,61.7,165.026252,P-GPS,,50.3
1029,102900,2026-01-11 15:31:38,0.0,5,7.707,0.0,0.0,0.0,32.8,5.3,-11.6,1024,1024,1024,1024,0,0,0,0,90,5.118,61.88,164.698168,P-GPS,,50.2
1030,103000,2026-01-11 15:31:39,0.0,5,7.707,0.0,0.0,0.0,32.7,6.1,-11.6,1024,1024,1024,1024,0,0,0,0,90,5.118,61.88,164.698168,P-GPS,,50.2
1031,103100,2026-01-11 15:31:39,0.0,5,7.707,0.0,0.0,0.0,32.7,6.2,-11.2,1024,1024,1024,1024,0,0,0,0,90,5.118,61.88,164.698168,P-GPS,,50.2
1032,103200,2026-01-11 15:31:39,0.0,5,7.707,0.0,0.0,0.0,32.8,5.5,-10.9,1024,1024,1024,1024,0,0,0,0,90,5.118,61.88,164.698168,P-GPS,,50.2
1033,103300,2026-01-11 15:31:39,0.0,5,7.707,0.0,0.0,0.0,32.9,5.0,-11.2,1024,1024,1024,1024,0,0,0,0,90,5.118,61.88,164.698168,P-GPS,,50.2
1034,103400,2026-01-11 15:31:39,0.0,5,7.707,0.0,0.0,0.0,32.8,5.5,-11.3,1024,1024,1024,1024,0,0,0,0,90,5.118,61.88,164.698168,P-GPS,,50.2
1035,103500,2026-01-11 15:31:39,0.0,5,7.707,0.0,0.0,0.0,32.7,6.1,-11.5,1024,1024,1024,1024,0,0,0,0,90,5.118,61.88,164.698168,P-GPS,,50.2
1036,103600,2026-01-11 15:31:39,0.0,5,7.707,0.0,0.0,0.0,32.7,5.9,-11.2,1024,1024,1024,1024,0,0,0,0,90,5.118,61.88,164.370084,P-GPS,,50.1
1037,103700,2026-01-11 15:31:39,0.0,5,7.707,0.0,0.0,0.0,32.7,6.0,-10.4,1024,1024,1024,1024,0,0,0,0,90,5.118,61.88,164.370084,P-GPS,,50.1
1038,103800,2026-01-11 15:31:39,0.0,5,7.707,0.0,0.0,0.0,32.8,5.0,-9.9,1024,1024,1024,1024,0,0,0,0,90,5.118,61.88,164.370084,P-GPS,,50.1
1039,103900,2026-01-11 15:31:39,0.0,5,7.707,0.0,0.0,0.0,32.8,4.6,-9.9,1024,1024,1024,1024,0,0,0,0,90,5.118,61.88,164.370084,P-GPS,,50.1
1040,104000,2026-01-11 15:31:39,0.0,5,7.7,0.0,0.0,0.0,32.7,4.6,-9.5,1024,1024,1024,1024,0,0,0,0,90,5.039,61.88,164.370084,P-GPS,,50.1
1041,104100,2026-01-11 15:31:40,0.0,5,7.7,0.0,0.0,0.0,32.7,3.9,-10.2,1024,1024,1024,1024,0,0,0,0,90,5.039,61.88,164.370084,P-GPS,,50.1
1042,104200,2026-01-11 15:31:40,0.0,5,7.7,0.0,0.0,0.0,32.8,3.3,-10.7,1024,1024,1024,1024,0,0,0,0,90,5.039,61.88,164.370084,P-GPS,,50.1
1043,104300,2026-01-11 15:31:40,0.0,5,7.7,0.0,0.0,0.0,32.8,3.5,-11.2,1024,1024,1024,1024,0,0,0,0,90,5.039,61.88,164.370084,P-GPS,,50.1
1044,104400,2026-01-11 15:31:40,0.0,5,7.7,0.0,0.0,0.0,32.9,3.3,-11.5,1024,1024,1024,1024,0,0,0,0,90,5.039,61.88,164.370084,P-GPS,,50.1
1045,104500,2026-01-11 15:31:40,0.0,5,7.7,0.0,0.0,0.0,32.9,3.8,-11.9,1024,1024,1024,1024,0,0,0,0,90,5.039,61.88,164.370084,P-GPS,,50.1
1046,104600,2026-01-11 15:31:40,0.0,5,7.7,0.0,0.0,0.0,32.9,4.2,-11.8,1024,1024,1024,1024,0,0,0,0,90,5.039,61.88,164.370084,P-GPS,,50.1
1047,104700,2026-01-11 15:31:40,0.0,5,7.7,0.0,0.0,0.0,32.9,4.4,-11.4,1024,1024,1024,1024,0,0,0,0,90,5.039,61.88,164.370084,P-GPS,,50.1
1048,104800,2026-01-11 15:31:40,0.0,5,7.7,0.0,0.0,0.0,32.9,4.7,-11.2,1024,1024,1024,1024,0,0,0,0,90,5.039,61.88,164.370084,P-GPS,,50.1
1049,104900,2026-01-11 15:31:40,0.0,5,7.7,0.0,0.0,0.0,32.9,5.0,-11.2,1024,1024,1024,1024,0,0,0,0,90,5.039,61.88,164.370084,P-GPS,,50.1
1050,105000,2026-01-11 15:31:41,0.0,5,7.7,0.0,0.0,0.0,32.8,5.6,-11.0,1024,1024,1024,1024,0,0,0,0,90,5.039,61.88,164.370084,P-GPS,,50.1
1051,105100,2026-01-11 15:31:41,0.0,5,7.701,0.0,0.0,0.0,32.8,5.9,-11.0,1024,1024,1024,1024,0,0,0,0,90,4.862,61.88,164.370084,P-GPS,,50.1
1052,105200,2026-01-11 15:31:41,0.0,5,7.701,0.0,0.0,0.0,32.9,6.2,-10.0,1024,1024,1024,1024,0,0,0,0,90,4.862,61.88,164.370084,P-GPS,,50.1
1053,105300,2026-01-11 15:31:41,0.0,5,7.701,0.0,0.0,0.0,32.9,5.6,-10.3,1024,1024,1024,1024,0,0,0,0,90,4.862,61.88,164.370084,P-GPS,,50.1
1054,105400,2026-01-11 15:31:41,0.0,5,7.701,0.0,0.0,0.0,32.8,6.0,-10.4,1024,1024,1024,1024,0,0,0,0,90,4.862,61.88,164.370084,P-GPS,,50.1
1055,105500,2026-01-11 15:31:41,0.0,5,7.701,0.0,0.0,0.0,32.8,5.9,-10.3,1024,1024,1024,1024,0,0,0,0,90,4.862,61.88,164.370084,P-GPS,,50.1
1056,105600,2026-01-11 15:31:41,0.0,5,7.701,0.0,0.0,0.0,32.8,5.8,-10.3,1024,1024,1024,1024,0,0,0,0,90,4.862,61.88,164.370084,P-GPS,,50.1
1057,105700,2026-01-11 15:31:41,0.0,5,7.701,0.0,0.0,0.0,32.8,5.6,-10.2,1024,1024,1024,1024,0,0,0,0,90,4.862,61.88,164.370084,P-GPS,Strong wind warning Strong wind warning. Aircraft unable to return to home automatically. Lower altitude immediately and return to home manually (Code: 30149). SD card speed low. Normal use may be affected. Replace SD card (Code: 10028). Gimbal stuck. Make sure gimbal c,50.1
1058,105800,2026-01-11 15:31:41,0.0,5,7.701,0.0,0.0,0.0,32.8,5.5,-10.2,1024,1024,1024,1024,0,0,0,0,90,4.862,61.88,164.370084,P-GPS,,50.1
1059,105900,2026-01-11 15:31:41,0.0,5,7.701,0.0,0.0,0.0,32.8,5.2,-10.2,1024,1024,1024,1024,0,0,0,0,90,4.862,61.88,164.370084,P-GPS,,50.1
1060,106000,2026-01-11 15:31:41,0.0,5,7.701,0.0,0.0,0.0,32.8,5.1,-10.2,1024,1024,1024,1024,0,0,0,0,90,4.862,61.88,164.370084,P-GPS,,50.1
1061,106100,2026-01-11 15:31:42,0.0,5,7.701,0.0,0.0,0.0,32.8,5.1,-10.4,1024,1024,1024,1024,0,0,0,0,90,4.862,61.88,164.370084,P-GPS,,50.1
1062,106200,2026-01-11 15:31:42,0.0,5,7.723,0.0,0.0,0.0,32.8,5.0,-10.4,1024,1024,1024,1024,0,0,0,0,90,4.607,61.88,164.370084,P-GPS,,50.1
1063,106300,2026-01-11 15:31:42,0.0,5,7.723,0.0,0.0,0.0,32.8,5.0,-10.4,1024,1024,1024,1024,0,0,0,0,90,4.607,61.88,164.370084,P-GPS,,50.1
1064,106400,2026-01-11 15:31:42,0.0,5,7.723,0.0,0.0,0.0,32.8,5.0,-10.4,1024,1024,1024,1024,0,0,0,0,90,4.607,61.88,164.370084,P-GPS,,50.1
1065,106500,2026-01-11 15:31:42,0.0,5,7.723,0.0,0.0,0.0,32.8,5.0,-10.3,1024,1024,1024,1024,0,0,0,0,90,4.607,61.88,164.370084,P-GPS,,50.1
1066,106600,2026-01-11 15:31:42,0.0,5,7.723,0.0,0.0,0.0,32.8,5.1,-10.3,1024,1024,1024,1024,0,0,0,0,90,4.607,61.88,164.370084,P-GPS,,50.1
1067,106700,2026-01-11 15:31:42,0.0,5,7.723,0.0,0.0,0.0,32.8,5.4,-10.2,1024,1024,1024,1024,0,0,0,0,90,4.607,61.88,164.370084,P-GPS,,50.1
1068,106800,2026-01-11 15:31:42,0.0,5,7.723,0.0,0.0,0.0,32.8,5.7,-10.0,1024,1024,1024,1024,0,0,0,0,90,4.607,61.88,164.370084,P-GPS,,50.1
1069,106900,2026-01-11 15:31:42,0.0,5,7.723,0.0,0.0,0.0,32.8,5.7,-10.1,1024,1024,1024,1024,0,0,0,0,90,4.607,61.88,164.370084,P-GPS,,50.1
1070,107000,2026-01-11 15:31:43,0.0,5,7.723,0.0,0.0,0.0,32.8,5.8,-10.0,1024,1024,1024,1024,0,0,0,0,90,4.607,61.88,164.370084,P-GPS,,50.1
1071,107100,2026-01-11 15:31:43,0.0,5,7.723,0.0,0.0,0.0,32.9,5.7,-10.1,1024,1024,1024,1024,0,0,0,0,90,4.607,61.88,164.370084,P-GPS,,50.1
1072,107200,2026-01-11 15:31:43,0.0,5,7.723,0.0,0.0,0.0,32.9,5.6,-10.3,1024,1024,1024,1024,0,0,0,0,90,4.607,61.88,164.370084,P-GPS,,50.1
1073,107300,2026-01-11 15:31:43,0.0,5,7.712,0.0,0.0,0.0,32.9,5.5,-10.6,1024,1024,1024,1024,0,0,0,0,90,4.753,61.88,164.370084,P-GPS,,50.1
1074,107400,2026-01-11 15:31:43,0.0,5,7.712,0.0,0.0,0.0,32.8,5.6,-10.7,1024,1024,1024,1024,0,0,0,0,90,4.753,61.88,164.370084,P-GPS,,50.1
1075,107500,2026-01-11 15:31:43,0.0,5,7.712,0.0,0.0,0.0,32.8,5.5,-10.7,1024,1024,1024,1024,0,0,0,0,90,4.753,61.88,164.370084,P-GPS,,50.1
1076,107600,2026-01-11 15:31:43,0.0,5,7.712,0.0,0.0,0.0,32.9,5.5,-10.6,1024,1024,1024,1024,0,0,0,0,90,4.753,61.88,164.370084,P-GPS,,50.1
1077,107700,2026-01-11 15:31:43,0.0,5,7.712,0.0,0.0,0.0,32.9,5.5,-10.7,1024,1024,1024,1024,0,0,0,0,90,4.753,61.88,164.370084,P-GPS,,50.1
1078,107800,2026-01-11 15:31:43,0.0,5,7.712,0.0,0.0,0.0,32.9,5.6,-10.6,1024,1024,1024,1024,0,0,0,0,90,4.753,61.88,164.370084,P-GPS,,50.1
1079,107900,2026-01-11 15:31:43,0.0,5,7.712,0.0,0.0,0.0,32.9,5.8,-10.8,1024,1024,1024,1024,0,0,0,0,90,4.753,61.88,164.370084,P-GPS,,50.1
1080,108000,2026-01-11 15:31:43,0.0,5,7.712,0.0,0.0,0.0,32.8,5.8,-10.9,1024,1024,1024,1024,0,0,0,0,90,4.753,61.88,164.370084,P-GPS,,50.1
1081,108100,2026-01-11 15:31:44,0.0,5,7.712,0.0,0.0,0.0,32.8,5.9,-11.0,1024,1024,1024,1024,0,0,0,0,90,4.753,61.88,164.370084,P-GPS,,50.1
1082,108200,2026-01-11 15:31:44,0.0,5,7.712,0.0,0.0,0.0,32.8,5.9,-11.0,1024,1024,1024,1024,0,0,0,0,90,4.753,61.88,164.370084,P-GPS,,50.1
1083,108300,2026-01-11 15:31:44,0.0,5,7.712,0.0,0.0,0.0,32.8,5.8,-10.8,1024,1024,1024,1024,0,0,0,0,90,4.753,61.88,164.698168,P-GPS,,50.2
1084,108400,2026-01-11 15:31:44,0.0,5,7.699,0.0,0.0,0.0,32.8,5.6,-10.9,1024,1024,1024,1024,0,0,0,0,90,4.974,61.88,164.698168,P-GPS,,50.2
1085,108500,2026-01-11 15:31:44,0.0,5,7.699,0.0,0.0,0.0,32.8,5.5,-11.0,1024,1024,1024,1024,0,0,0,0,90,4.974,61.88,164.698168,P-GPS,,50.2
1086,108600,2026-01-11 15:31:44,0.0,5,7.699,0.0,0.0,0.0,32.8,5.6,-11.2,1024,1024,1024,1024,0,0,0,0,90,4.974,61.88,164.698168,P-GPS,,50.2
1087,108700,2026-01-11 15:31:44,0.0,5,7.699,0.0,0.0,0.0,32.8,5.7,-11.2,1024,1024,1024,1024,0,0,0,0,90,4.974,61.88,164.698168,P-GPS,,50.2
1088,108800,2026-01-11 15:31:44,0.0,5,7.699,0.0,0.0,0.0,32.7,6.0,-11.1,1024,1024,1024,1024,0,0,0,0,90,4.974,61.88,164.698168,P-GPS,,50.2
1089,108900,2026-01-11 15:31:44,0.0,5,7.699,0.0,0.0,0.0,32.8,5.9,-11.0,1024,1024,1024,1024,0,0,0,0,90,4.974,61.88,164.698168,P-GPS,,50.2
1090,109000,2026-01-11 15:31:44,0.0,5,7.699,0.0,0.0,0.0,32.8,5.9,-11.0,1024,1024,1024,1024,0,0,0,0,90,4.974,61.88,164.698168,P-GPS,,50.2
1091,109100,2026-01-11 15:31:45,0.0,5,7.699,0.0,0.0,0.0,32.8,5.8,-10.9,1024,1024,1024,1024,0,0,0,0,90,4.974,61.88,164.698168,P-GPS,,50.2
1092,109200,2026-01-11 15:31:45,0.0,5,7.699,0.0,0.0,0.0,32.8,5.7,-10.9,1024,1024,1024,1024,0,0,0,0,90,4.974,61.88,164.698168,P-GPS,,50.2
1093,109300,2026-01-11 15:31:45,0.0,5,7.699,0.0,0.0,0.0,32.8,5.7,-10.9,1024,1024,1024,1024,0,0,0,0,90,4.974,61.88,164.698168,P-GPS,,50.2
1094,109400,2026-01-11 15:31:45,0.0,5,7.699,0.0,0.0,0.0,32.8,5.8,-10.8,1024,1024,1024,1024,0,0,0,0,90,4.974,61.88,164.698168,P-GPS,,50.2
1095,109500,2026-01-11 15:31:45,0.0,5,7.695,0.0,0.0,0.0,32.8,5.9,-11.0,1024,1024,1024,1024,0,0,0,0,90,5.115,61.88,165.026252,P-GPS,,50.3
1096,109600,2026-01-11 15:31:45,0.0,5,7.695,0.0,0.0,0.0,32.8,5.9,-11.1,1024,1024,1024,1024,0,0,0,0,90,5.115,61.88,165.026252,P-GPS,,50.3
1097,109700,2026-01-11 15:31:45,0.0,5,7.695,0.0,0.0,0.0,32.8,5.8,-11.3,1024,1024,1024,1024,0,0,0,0,90,5.115,61.88,165.026252,P-GPS,,50.3
1098,109800,2026-01-11 15:31:45,0.0,5,7.695,0.0,0.0,0.0,32.8,5.8,-11.3,1024,1024,1024,1024,0,0,0,0,90,5.115,61.88,165.026252,P-GPS,,50.3
1099,109900,2026-01-11 15:31:45,0.0,5,7.695,0.0,0.0,0.0,32.7,5.7,-11.3,1024,1024,1024,1024,0,0,0,0,90,5.115,61.88,165.026252,P-GPS,,50.3
1100,110000,2026-01-11 15:31:45,0.0,5,7.695,0.0,0.0,0.0,32.7,5.8,-11.4,1024,1024,1024,1024,0,0,0,0,90,5.115,61.88,165.026252,P-GPS,,50.3
1101,110100,2026-01-11 15:31:46,0.0,5,7.695,0.0,0.0,0.0,32.8,5.4,-11.1,1024,1024,1024,1024,0,0,0,0,90,5.115,61.88,165.026252,P-GPS,,50.3
1102,110200,2026-01-11 15:31:46,0.0,5,7.695,0.0,0.0,0.0,32.8,5.4,-11.6,1024,1024,1024,1024,0,0,0,0,90,5.115,61.88,165.026252,P-GPS,,50.3
1103,110300,2026-01-11 15:31:46,0.0,5,7.695,0.0,0.0,0.0,32.7,6.0,-11.6,1024,1024,1024,1024,0,0,0,0,90,5.115,61.88,165.026252,P-GPS,,50.3
1104,110400,2026-01-11 15:31:46,0.0,5,7.695,0.0,0.0,0.0,32.7,6.0,-11.6,1024,1024,1024,1024,0,0,0,0,90,5.115,61.88,165.026252,P-GPS,,50.3
1105,110500,2026-01-11 15:31:46,0.0,5,7.695,0.0,0.0,0.0,32.7,6.1,-11.7,1024,1024,1024,1024,0,0,0,0,90,5.115,61.88,165.026252,P-GPS,,50.3
1106,110600,2026-01-11 15:31:46,0.0,5,7.698,0.0,0.0,0.0,32.6,6.6,-11.8,1024,1024,1024,1024,0,0,0,0,90,5.037,61.88,165.026252,P-GPS,,50.3
1107,110700,2026-01-11 15:31:46,0.0,5,7.698,0.0,0.0,0.0,32.7,6.7,-11.6,1024,1024,1024,1024,0,0,0,0,90,5.037,61.88,165.354336,P-GPS,,50.4
1108,110800,2026-01-11 15:31:46,0.0,5,7.698,0.0,0.0,0.0,32.7,6.8,-11.3,1024,1024,1024,1024,0,0,0,0,90,5.037,61.88,165.354336,P-GPS,,50.4
1109,110900,2026-01-11 15:31:46,0.0,5,7.698,0.0,0.0,0.0,32.7,6.6,-11.3,1024,1024,1024,1024,0,0,0,0,90,5.037,61.88,165.354336,P-GPS,,50.4
1110,111000,2026-01-11 15:31:46,0.0,5,7.698,0.0,0.0,0.0,32.7,6.6,-11.2,1024,1024,1024,1024,0,0,0,0,90,5.037,61.88,165.354336,P-GPS,,50.4
1111,111100,2026-01-11 15:31:47,0.0,5,7.698,0.0,0.0,0.0,32.7,6.5,-11.3,1024,1024,1024,1024,0,0,0,0,90,5.037,61.88,165.354336,P-GPS,,50.4
1112,111200,2026-01-11 15:31:47,0.0,5,7.698,0.0,0.0,0.0,32.7,6.6,-11.2,1024,1024,1024,1024,0,0,0,0,90,5.037,61.88,165.354336,P-GPS,,50.4
1113,111300,2026-01-11 15:31:47,0.0,5,7.698,0.0,0.0,0.0,32.7,6.4,-11.1,1024,1024,1024,1024,0,0,0,0,90,5.037,61.88,165.354336,P-GPS,,50.4
1114,111400,2026-01-11 15:31:47,0.0,5,7.698,0.0,0.0,0.0,32.7,6.6,-11.0,1024,1024,1024,1024,0,0,0,0,90,5.037,61.88,165.354336,P-GPS,,50.4
1115,111500,2026-01-11 15:31:47,0.0,5,7.698,0.0,0.0,0.0,32.7,6.7,-11.2,1024,1024,1024,1024,0,0,0,0,90,5.037,61.88,165.354336,P-GPS,,50.4
1116,111600,2026-01-11 15:31:47,0.0,5,7.698,0.0,0.0,0.0,32.8,6.2,-11.0,1024,1024,1024,1024,0,0,0,0,90,5.037,61.88,165.354336,P-GPS,,50.4
1117,111700,2026-01-11 15:31:47,0.0,5,7.7,0.0,0.0,0.0,32.6,6.5,-11.9,1024,1024,1024,1024,0,0,0,0,90,4.82,61.88,165.354336,P-GPS,,50.4
1118,111800,2026-01-11 15:31:47,0.0,5,7.7,0.0,0.0,0.0,32.6,6.5,-11.5,1024,1024,1024,1024,0,0,0,0,90,4.82,61.88,165.354336,P-GPS,,50.4
1119,111900,2026-01-11 15:31:47,0.0,5,7.7,0.0,0.0,0.0,32.7,6.2,-11.4,1024,1024,1024,1024,0,0,0,0,90,4.82,61.88,165.354336,P-GPS,,50.4
1120,112000,2026-01-11 15:31:48,0.0,5,7.7,0.0,0.0,0.0,32.7,6.0,-11.5,1024,1024,1024,1024,0,0,0,0,90,4.82,61.88,165.354336,P-GPS,,50.4
1121,112100,2026-01-11 15:31:48,0.0,5,7.7,0.0,0.0,0.0,32.6,6.3,-11.7,1024,1024,1024,1024,0,0,0,0,90,4.82,61.88,165.354336,P-GPS,,50.4
1122,112200,2026-01-11 15:31:48,0.0,5,7.7,0.0,0.0,0.0,32.6,6.4,-11.9,1024,1024,1024,1024,0,0,0,0,90,4.82,61.88,165.354336,P-GPS,,50.4
1123,112300,2026-01-11 15:31:48,0.0,5,7.7,0.0,0.0,0.0,32.6,6.6,-11.7,1024,1024,1024,1024,0,0,0,0,90,4.82,61.88,165.354336,P-GPS,,50.4
1124,112400,2026-01-11 15:31:48,0.0,5,7.7,0.0,0.0,0.0,32.6,6.3,-11.8,1024,1024,1024,1024,0,0,0,0,90,4.82,61.88,165.354336,P-GPS,,50.4
1125,112500,2026-01-11 15:31:48,0.0,5,7.7,0.0,0.0,0.0,32.6,6.2,-11.8,1024,1024,1024,1024,0,0,0,0,90,4.82,61.88,165.354336,P-GPS,,50.4
1126,112600,2026-01-11 15:31:48,0.0,5,7.7,0.0,0.0,0.0,32.6,6.6,-11.4,1024,1024,1024,1024,0,0,0,0,90,4.82,61.88,165.354336,P-GPS,,50.4
1127,112700,2026-01-11 15:31:48,0.0,5,7.7,0.0,0.0,0.0,32.6,6.3,-11.2,1024,1024,1024,1024,0,0,0,0,90,4.82,61.88,165.354336,P-GPS,,50.4
1128,112800,2026-01-11 15:31:48,0.0,5,7.7,0.0,0.0,0.0,32.6,6.1,-11.4,1024,1024,1024,1024,0,0,0,0,90,4.82,61.88,165.026252,P-GPS,,50.3
1129,112900,2026-01-11 15:31:48,0.0,5,7.722,0.0,0.0,0.0,32.7,5.7,-11.4,1024,1024,1024,1024,0,0,0,0,90,4.585,61.88,165.026252,P-GPS,,50.3
1130,113000,2026-01-11 15:31:48,0.0,5,7.722,0.0,0.0,0.0,32.7,5.9,-11.6,1024,1024,1024,1024,0,0,0,0,90,4.585,61.88,165.026252,P-GPS,,50.3
1131,113100,2026-01-11 15:31:49,0.0,5,7.722,0.0,0.0,0.0,32.6,6.8,-11.7,1024,1024,1024,1024,0,0,0,0,90,4.585,61.88,165.026252,P-GPS,,50.3
