time(millisecond),timestamp,speed(mph),gpslevel,voltage(v),xSpeed(mph),ySpeed(mph),zSpeed(mph),compass_heading(degrees),pitch(degrees),roll(degrees),rc_elevator,rc_aileron,rc_throttle,rc_rudder,rc_elevator(percent),rc_aileron(percent),rc_throttle(percent),rc_rudder(percent),battery_percent,current(A),battery_temperature(f),ascent(feet),flycState,message,height_above_takeoff(meters)
482200,2026-01-11 15:38:14,0.0,5,7.343,0.0,0.0,-4.250186,12.4,9.8,-2.2,1024,1024,1684,1024,0,0,100,0,68,6.251,66.02,92.191604,P-GPS,,28.1
482300,2026-01-11 15:38:14,0.0,5,7.343,0.0,0.0,-4.47388,12.3,9.5,-2.2,1024,1024,1684,1024,0,0,100,0,68,6.251,66.02,92.847772,P-GPS,,28.3
482400,2026-01-11 15:38:14,0.0,5,7.343,0.0,0.0,-4.250186,12.4,8.9,-2.0,1024,1024,1684,1024,0,0,100,0,68,6.251,66.02,93.50394,P-GPS,,28.5
482500,2026-01-11 15:38:14,0.0,5,7.343,0.0,0.0,-4.47388,12.6,8.1,-1.5,1024,1024,1684,1024,0,0,100,0,68,6.251,66.02,94.160108,P-GPS,,28.7
482600,2026-01-11 15:38:14,0.0,5,7.335,0.0,0.0,-4.47388,12.5,7.5,-1.7,1024,1024,1684,1024,0,0,100,0,68,6.007,66.2,94.816276,P-GPS,,28.9
482700,2026-01-11 15:38:14,0.0,5,7.335,0.0,0.0,-4.47388,12.4,7.8,-2.0,1024,1024,1024,1024,0,0,0,0,68,6.007,66.2,95.472444,P-GPS,,29.1
482800,2026-01-11 15:38:14,0.0,5,7.335,0.0,0.0,-4.47388,12.4,8.7,-1.5,1024,1024,1024,1024,0,0,0,0,68,6.007,66.2,96.456696,P-GPS,,29.4
482900,2026-01-11 15:38:15,0.0,5,7.335,0.0,0.0,-4.47388,12.6,9.2,-0.2,1024,1024,1024,1024,0,0,0,0,68,6.007,66.2,97.112864,P-GPS,,29.6
483000,2026-01-11 15:38:15,0.0,5,7.335,0.0,0.0,-4.026492,12.4,10.6,-1.2,1024,1024,1024,1024,0,0,0,0,68,6.007,66.2,97.769032,P-GPS,,29.8
483100,2026-01-11 15:38:15,0.223694,5,7.335,0.0,0.223694,-3.131716,12.4,11.3,-1.7,1024,1024,1024,1024,0,0,0,0,68,6.007,66.2,98.097116,P-GPS,,29.9
483200,2026-01-11 15:38:15,0.223694,5,7.335,0.0,0.223694,-2.23694,12.4,10.3,-2.9,1024,1024,1024,1024,0,0,0,0,68,6.007,66.2,98.753284,P-GPS,,30.1
483300,2026-01-11 15:38:15,0.223694,5,7.335,0.0,0.223694,-1.565858,12.2,10.4,-4.2,1024,1024,1024,1024,0,0,0,0,68,6.007,66.2,99.081368,P-GPS,,30.2
483400,2026-01-11 15:38:15,0.223694,5,7.335,0.0,0.223694,-0.671082,12.3,9.3,-5.3,1024,1024,1024,1024,0,0,0,0,68,6.007,66.2,99.081368,P-GPS,,30.2
483500,2026-01-11 15:38:15,0.223694,5,7.335,0.0,0.223694,-0.447388,12.3,8.3,-5.9,1024,1024,1024,1024,0,0,0,0,68,6.007,66.2,99.409452,P-GPS,,30.3
483600,2026-01-11 15:38:15,0.223694,5,7.335,0.0,0.223694,-0.223694,12.3,8.9,-5.7,1024,1024,1024,1024,0,0,0,0,68,6.007,66.2,99.409452,P-GPS,,30.3
483700,2026-01-11 15:38:15,0.223694,5,7.421,0.0,0.223694,0.0,12.3,9.7,-5.6,1024,1024,1024,1024,0,0,0,0,67,4.116,66.2,99.409452,P-GPS,,30.3
483800,2026-01-11 15:38:16,0.223694,5,7.421,0.0,0.223694,0.0,12.4,10.2,-5.8,1024,1024,1024,1024,0,0,0,0,67,4.116,66.2,99.409452,P-GPS,,30.3
483900,2026-01-11 15:38:16,0.223694,5,7.421,0.0,0.223694,0.0,12.4,9.5,-5.3,1024,1024,1024,1024,0,0,0,0,67,4.116,66.2,99.409452,P-GPS,,30.3
484000,2026-01-11 15:38:16,0.223694,5,7.421,0.0,0.0,0.0,12.3,9.7,-5.6,1024,1024,1024,1024,0,0,0,0,67,4.116,66.2,99.081368,P-GPS,,30.2
484100,2026-01-11 15:38:16,0.0,5,7.421,0.0,0.0,0.0,12.3,9.6,-5.3,1024,1024,1024,1024,0,0,0,0,67,4.116,66.2,99.081368,P-GPS,,30.2
484200,2026-01-11 15:38:16,0.0,5,7.421,0.0,0.0,0.0,12.2,9.6,-5.2,1024,1024,1024,1024,0,0,0,0,67,4.116,66.2,99.081368,P-GPS,,30.2
484300,2026-01-11 15:38:16,0.0,5,7.421,0.0,0.0,0.0,12.1,9.4,-5.1,1024,1024,1024,1024,0,0,0,0,67,4.116,66.2,99.081368,P-GPS,,30.2
484400,2026-01-11 15:38:16,0.0,5,7.421,0.0,0.0,0.0,12.3,8.4,-4.3,1024,1024,1024,1024,0,0,0,0,67,4.116,66.2,99.081368,P-GPS,,30.2
484500,2026-01-11 15:38:16,0.0,5,7.421,0.0,0.0,0.0,12.2,8.7,-4.2,1024,1024,1024,1024,0,0,0,0,67,4.116,66.2,99.081368,P-GPS,,30.2
484600,2026-01-11 15:38:16,0.0,5,7.421,0.0,0.0,0.0,12.3,8.0,-4.4,1024,1024,1024,1024,0,0,0,0,67,4.116,66.2,99.081368,P-GPS,,30.2
484700,2026-01-11 15:38:16,0.0,5,7.421,0.0,0.0,0.0,12.3,7.4,-4.1,1024,1024,1024,1024,0,0,0,0,67,4.116,66.2,98.753284,P-GPS,,30.1
484800,2026-01-11 15:38:16,0.0,5,7.416,0.0,0.0,0.0,12.3,6.3,-4.1,1024,1024,1024,1024,0,0,0,0,67,4.677,66.2,98.753284,P-GPS,,30.1
484900,2026-01-11 15:38:17,0.0,5,7.416,0.0,0.0,0.0,12.3,6.3,-4.2,1024,1024,1024,1024,0,0,0,0,67,4.677,66.2,98.753284,P-GPS,,30.1
485000,2026-01-11 15:38:17,0.223694,5,7.416,-0.223694,0.0,0.0,12.2,6.4,-4.2,1024,1024,1024,1024,0,0,0,0,67,4.677,66.2,98.753284,P-GPS,,30.1
485100,2026-01-11 15:38:17,0.223694,5,7.416,-0.223694,0.0,0.0,12.3,5.9,-3.8,1024,1024,1024,1024,0,0,0,0,67,4.677,66.2,98.4252,P-GPS,,30.0
485200,2026-01-11 15:38:17,0.223694,5,7.416,-0.223694,0.0,0.0,12.2,6.1,-3.9,1024,1024,1024,1024,0,0,0,0,67,4.677,66.2,98.4252,P-GPS,,30.0
485300,2026-01-11 15:38:17,0.0,5,7.416,0.0,0.0,0.0,12.3,5.8,-3.7,1024,1024,1024,1024,0,0,0,0,67,4.677,66.2,98.4252,P-GPS,,30.0
485400,2026-01-11 15:38:17,0.0,5,7.416,0.0,0.0,0.0,12.3,6.1,-3.8,1024,1024,1024,1024,0,0,0,0,67,4.677,66.2,98.4252,P-GPS,,30.0
485500,2026-01-11 15:38:17,0.0,5,7.416,0.0,0.0,0.0,12.3,6.7,-3.4,1024,1024,1024,1024,0,0,0,0,67,4.677,66.2,98.4252,P-GPS,,30.0
485600,2026-01-11 15:38:17,0.0,5,7.416,0.0,0.0,0.0,12.4,6.4,-3.8,1024,1024,1024,1024,0,0,0,0,67,4.677,66.2,98.4252,P-GPS,,30.0
485700,2026-01-11 15:38:17,0.0,5,7.416,0.0,0.0,0.0,12.3,6.2,-4.0,1024,1024,1024,1024,0,0,0,0,67,4.677,66.2,98.753284,P-GPS,,30.1
485800,2026-01-11 15:38:17,0.0,5,7.416,0.0,0.0,0.0,12.2,5.8,-4.2,1024,1024,1024,1024,0,0,0,0,67,4.677,66.2,98.753284,P-GPS,,30.1
485900,2026-01-11 15:38:18,0.0,5,7.407,0.0,0.0,0.0,12.3,5.8,-4.1,1024,1024,1024,1024,0,0,0,0,67,4.423,66.2,98.753284,P-GPS,,30.1
486000,2026-01-11 15:38:18,0.0,5,7.407,0.0,0.0,0.0,12.3,5.6,-4.2,1024,1024,1024,1024,0,0,0,0,67,4.423,66.2,98.753284,P-GPS,,30.1
486100,2026-01-11 15:38:18,0.0,5,7.407,0.0,0.0,0.0,12.1,5.7,-4.0,1024,1024,1024,1024,0,0,0,0,67,4.423,66.2,98.753284,P-GPS,,30.1
486200,2026-01-11 15:38:18,0.0,5,7.407,0.0,0.0,0.0,12.2,5.5,-3.9,1024,1024,1024,1024,0,0,0,0,67,4.423,66.2,98.753284,P-GPS,,30.1
486300,2026-01-11 15:38:18,0.0,5,7.407,0.0,0.0,0.0,12.3,5.1,-3.5,1024,1024,1024,1024,0,0,0,0,67,4.423,66.2,99.081368,P-GPS,,30.2
486400,2026-01-11 15:38:18,0.0,5,7.407,0.0,0.0,0.0,12.2,5.1,-4.2,1024,1024,1024,1024,0,0,0,0,67,4.423,66.2,99.081368,P-GPS,,30.2
486500,2026-01-11 15:38:18,0.0,5,7.407,0.0,0.0,0.0,12.2,4.2,-3.9,1024,1024,1024,1024,0,0,0,0,67,4.423,66.2,99.081368,P-GPS,,30.2
486600,2026-01-11 15:38:18,0.0,5,7.407,0.0,0.0,0.0,12.2,3.2,-3.7,1024,1024,1024,1024,0,0,0,0,67,4.423,66.2,99.081368,P-GPS,,30.2
486700,2026-01-11 15:38:18,0.0,5,7.407,0.0,0.0,0.0,12.2,3.9,-3.8,1024,1024,1024,1024,0,0,0,0,67,4.423,66.2,99.081368,P-GPS,,30.2
486800,2026-01-11 15:38:18,0.0,5,7.407,0.0,0.0,0.0,12.2,4.0,-4.4,1024,1024,1024,1024,0,0,0,0,67,4.423,66.2,98.753284,P-GPS,,30.1
486900,2026-01-11 15:38:19,0.0,5,7.407,0.0,0.0,0.0,12.3,4.9,-4.5,1024,1024,1024,1024,0,0,0,0,67,4.423,66.2,98.753284,P-GPS,,30.1
487000,2026-01-11 15:38:19,0.0,5,7.445,0.0,0.0,0.0,12.3,6.0,-4.5,1024,1024,1024,1024,0,0,0,0,67,4.134,66.2,98.4252,P-GPS,,30.0
487100,2026-01-11 15:38:19,0.0,5,7.445,0.0,0.0,0.223694,12.3,6.0,-4.2,1024,1024,1024,1024,0,0,0,0,67,4.134,66.2,98.4252,P-GPS,,30.0
487200,2026-01-11 15:38:19,0.0,5,7.445,0.0,0.0,0.223694,12.4,5.9,-4.2,1024,1024,1024,1024,0,0,0,0,67,4.134,66.2,98.4252,P-GPS,,30.0
487300,2026-01-11 15:38:19,0.0,5,7.445,0.0,0.0,0.0,12.4,6.0,-4.4,1024,1024,1024,1024,0,0,0,0,67,4.134,66.2,98.097116,P-GPS,,29.9
487400,2026-01-11 15:38:19,0.0,5,7.445,0.0,0.0,0.0,12.4,7.3,-4.6,1024,1024,1024,1024,0,0,0,0,67,4.134,66.2,98.097116,P-GPS,,29.9
487500,2026-01-11 15:38:19,0.0,5,7.445,0.0,0.0,0.223694,12.4,7.6,-4.5,1024,1024,1024,1024,0,0,0,0,67,4.134,66.2,98.097116,P-GPS,,29.9
487600,2026-01-11 15:38:19,0.0,5,7.445,0.0,0.0,0.0,12.4,7.6,-4.8,1024,1024,1024,1024,0,0,0,0,67,4.134,66.2,98.097116,P-GPS,,29.9
487700,2026-01-11 15:38:19,0.0,5,7.445,0.0,0.0,0.0,12.4,7.4,-4.9,1024,1024,1024,1024,0,0,0,0,67,4.134,66.2,98.097116,P-GPS,,29.9
487800,2026-01-11 15:38:20,0.0,5,7.445,0.0,0.0,0.0,12.5,7.2,-5.5,1024,1024,1024,1024,0,0,0,0,67,4.134,66.2,98.097116,P-GPS,,29.9
487900,2026-01-11 15:38:20,0.0,5,7.445,0.0,0.0,0.0,12.4,7.6,-5.4,1024,1024,1024,1024,0,0,0,0,67,4.134,66.2,98.097116,P-GPS,,29.9
488000,2026-01-11 15:38:20,0.0,5,7.445,0.0,0.0,0.0,12.2,7.9,-5.1,1024,1024,1024,1024,0,0,0,0,67,4.134,66.2,98.097116,P-GPS,,29.9
488100,2026-01-11 15:38:20,0.0,5,7.445,0.0,0.0,0.0,12.2,6.7,-5.9,1024,1024,1024,1024,0,0,0,0,67,4.134,66.2,98.097116,P-GPS,,29.9
488200,2026-01-11 15:38:20,0.0,5,7.445,0.0,0.0,0.0,12.2,7.5,-5.9,1024,1024,1024,1024,0,0,0,0,67,4.134,66.2,98.097116,P-GPS,,29.9
488300,2026-01-11 15:38:20,0.0,5,7.445,0.0,0.0,0.0,12.3,8.0,-5.4,1024,1024,1024,1024,0,0,0,0,67,4.134,66.2,98.097116,P-GPS,,29.9
488400,2026-01-11 15:38:20,0.0,5,7.445,0.0,0.0,0.0,12.5,7.5,-5.3,1024,1024,1024,1024,0,0,0,0,67,4.134,66.2,98.097116,P-GPS,,29.9
488500,2026-01-11 15:38:20,0.0,5,7.445,0.0,0.0,0.0,12.4,7.8,-5.1,1024,1024,1024,1024,0,0,0,0,67,4.134,66.2,97.769032,P-GPS,,29.8
488600,2026-01-11 15:38:20,0.0,5,7.445,0.0,0.0,0.0,12.4,7.7,-5.0,1024,1024,1024,1024,0,0,0,0,67,4.134,66.2,97.769032,P-GPS,,29.8
488700,2026-01-11 15:38:20,0.0,5,7.445,0.0,0.0,0.0,12.4,7.4,-4.9,1024,1024,1024,1024,0,0,0,0,67,4.134,66.2,97.769032,P-GPS,,29.8
488800,2026-01-11 15:38:20,0.0,5,7.445,0.0,0.0,0.0,12.3,8.2,-5.4,1024,1024,1024,1024,0,0,0,0,67,4.134,66.2,97.769032,P-GPS,,29.8
488900,2026-01-11 15:38:21,0.0,5,7.445,0.0,0.0,0.0,12.3,8.8,-5.3,1024,1024,1024,1024,0,0,0,0,67,4.134,66.2,97.769032,P-GPS,,29.8
489000,2026-01-11 15:38:21,0.0,5,7.445,0.0,0.0,0.0,12.4,9.0,-5.5,1024,1024,1024,1024,0,0,0,0,67,4.134,66.2,97.769032,P-GPS,,29.8
489100,2026-01-11 15:38:21,0.0,5,7.445,0.0,0.0,0.223694,12.5,8.1,-4.9,1024,1024,1024,1024,0,0,0,0,67,4.134,66.2,97.769032,P-GPS,,29.8
489200,2026-01-11 15:38:21,0.0,5,7.422,0.0,0.0,0.0,12.5,7.6,-4.8,1024,1024,1024,1024,0,0,0,0,67,4.44,66.2,97.769032,P-GPS,,29.8
489300,2026-01-11 15:38:21,0.0,5,7.422,0.0,0.0,0.0,12.6,7.2,-4.1,1024,1024,1024,1024,0,0,0,0,67,4.44,66.2,97.440948,P-GPS,,29.7
489400,2026-01-11 15:38:21,0.0,5,7.422,0.0,0.0,0.0,12.5,8.0,-4.1,1024,1024,1024,1024,0,0,0,0,67,4.44,66.2,97.440948,P-GPS,,29.7
489500,2026-01-11 15:38:21,0.0,5,7.422,0.0,0.0,0.0,12.4,8.6,-4.2,1024,1024,1024,1024,0,0,0,0,67,4.44,66.2,97.440948,P-GPS,,29.7
489600,2026-01-11 15:38:21,0.0,5,7.422,0.0,0.0,0.0,12.4,9.2,-4.5,1024,1024,1024,1024,0,0,0,0,67,4.44,66.2,97.440948,P-GPS,,29.7
489700,2026-01-11 15:38:21,0.0,5,7.422,0.0,0.0,0.0,12.5,8.8,-4.1,1024,1024,1024,1024,0,0,0,0,67,4.44,66.2,97.440948,P-GPS,,29.7
489800,2026-01-11 15:38:21,0.0,5,7.422,0.0,0.0,0.0,12.5,8.8,-4.7,1024,1024,1024,1024,0,0,0,0,67,4.44,66.2,97.440948,P-GPS,,29.7
489900,2026-01-11 15:38:22,0.0,5,7.422,0.0,0.0,0.0,12.5,8.5,-4.7,1024,1024,1024,1024,0,0,0,0,67,4.44,66.2,97.440948,P-GPS,,29.7
490000,2026-01-11 15:38:22,0.0,5,7.422,0.0,0.0,0.0,12.4,8.7,-4.7,1024,1024,1024,1024,0,0,0,0,67,4.44,66.2,97.440948,P-GPS,,29.7
490100,2026-01-11 15:38:22,0.0,5,7.422,0.0,0.0,0.0,12.3,10.1,-4.5,1024,1024,1024,1024,0,0,0,0,67,4.44,66.2,97.440948,P-GPS,,29.7
490200,2026-01-11 15:38:22,0.0,5,7.422,0.0,0.0,0.0,12.3,9.2,-4.4,1024,1024,1024,1024,0,0,0,0,67,4.44,66.2,97.440948,P-GPS,,29.7
490300,2026-01-11 15:38:22,0.0,5,7.422,0.0,0.0,0.0,12.4,8.4,-3.8,1024,1024,1024,1024,0,0,0,0,67,4.44,66.2,97.440948,P-GPS,,29.7
490400,2026-01-11 15:38:22,0.0,5,7.422,0.0,0.0,0.0,12.4,8.0,-4.4,1024,1024,1024,1024,0,0,0,0,67,4.44,66.2,97.440948,P-GPS,,29.7
490500,2026-01-11 15:38:22,0.0,5,7.422,0.0,0.0,0.0,12.4,8.1,-4.4,1024,1024,1024,1024,0,0,0,0,67,4.44,66.2,97.440948,P-GPS,,29.7
490600,2026-01-11 15:38:22,0.0,5,7.422,0.0,0.0,0.0,12.4,7.6,-4.5,1024,1024,1024,1024,0,0,0,0,67,4.44,66.2,97.440948,P-GPS,,29.7
490700,2026-01-11 15:38:22,0.0,5,7.422,0.0,0.0,0.0,12.4,7.7,-4.6,1024,1024,1024,1024,0,0,0,0,67,4.44,66.2,97.440948,P-GPS,,29.7
490800,2026-01-11 15:38:22,0.0,5,7.422,0.0,0.0,0.0,12.5,7.8,-4.3,1024,1024,1024,1024,0,0,0,0,67,4.44,66.2,97.440948,P-GPS,,29.7
490900,2026-01-11 15:38:23,0.0,5,7.422,0.0,0.0,0.0,12.5,7.9,-4.0,1024,1024,1024,1024,0,0,0,0,67,4.44,66.2,97.440948,P-GPS,,29.7
491000,2026-01-11 15:38:23,0.0,5,7.422,0.0,0.0,0.0,12.5,7.5,-4.0,1024,1024,1024,1024,0,0,0,0,67,4.44,66.2,97.440948,P-GPS,,29.7
491100,2026-01-11 15:38:23,0.0,5,7.422,0.0,0.0,0.0,12.3,7.8,-4.1,1024,1024,1024,1024,0,0,0,0,67,4.443,66.2,97.440948,P-GPS,,29.7
491200,2026-01-11 15:38:23,0.0,5,7.422,0.0,0.0,0.0,12.4,7.9,-4.2,1024,1024,1024,1024,0,0,0,0,67,4.443,66.2,97.440948,P-GPS,,29.7
491300,2026-01-11 15:38:23,0.0,5,7.422,0.0,0.0,0.0,12.4,8.0,-4.0,1024,1024,1024,1024,0,0,0,0,67,4.443,66.2,97.440948,P-GPS,,29.7
491400,2026-01-11 15:38:23,0.0,5,7.422,0.0,0.0,0.0,12.4,8.1,-4.2,1024,1024,1024,1024,0,0,0,0,67,4.443,66.2,97.440948,P-GPS,,29.7
491500,2026-01-11 15:38:23,0.0,5,7.422,0.0,0.0,0.0,12.3,8.4,-4.2,1024,1024,1024,1024,0,0,0,0,67,4.443,66.2,97.112864,P-GPS,,29.6
491600,2026-01-11 15:38:23,0.0,5,7.422,0.0,0.0,0.0,12.3,8.4,-4.3,1024,1024,1024,1024,0,0,0,0,67,4.443,66.2,97.112864,P-GPS,,29.6
491700,2026-01-11 15:38:23,0.0,5,7.422,0.0,0.0,0.0,12.4,7.6,-4.2,1024,1024,1024,1024,0,0,0,0,67,4.443,66.2,97.112864,P-GPS,,29.6
491800,2026-01-11 15:38:23,0.0,5,7.422,0.0,0.0,0.0,12.3,8.1,-4.7,1024,1024,1024,1024,0,0,0,0,67,4.443,66.2,97.112864,P-GPS,,29.6
491900,2026-01-11 15:38:24,0.0,5,7.422,0.0,0.0,0.0,12.4,7.9,-4.6,1024,1024,1024,1024,0,0,0,0,67,4.443,66.2,97.112864,P-GPS,,29.6
492000,2026-01-11 15:38:24,0.0,5,7.422,0.0,0.0,0.0,12.4,8.0,-4.8,1024,1024,1024,1024,0,0,0,0,67,4.443,66.2,97.112864,P-GPS,,29.6
492100,2026-01-11 15:38:24,0.0,5,7.42,0.0,0.0,0.0,12.4,7.8,-4.8,1024,1024,1024,1024,0,0,0,0,67,4.462,66.2,97.112864,P-GPS,,29.6
492200,2026-01-11 15:38:24,0.0,5,7.42,0.0,0.0,0.0,12.2,8.1,-4.8,1024,1024,1024,1024,0,0,0,0,67,4.462,66.2,96.78478,P-GPS,,29.5
492300,2026-01-11 15:38:24,0.0,5,7.42,0.0,0.0,0.0,12.2,7.8,-4.0,1024,1024,1024,1024,0,0,0,0,67,4.462,66.2,97.112864,P-GPS,,29.6
492400,2026-01-11 15:38:24,0.0,5,7.42,0.0,0.0,0.0,12.2,6.4,-3.7,1024,1024,1024,1024,0,0,0,0,67,4.462,66.2,97.112864,P-GPS,,29.6
492500,2026-01-11 15:38:24,0.0,5,7.42,0.0,0.0,0.0,12.2,6.7,-4.1,1024,1024,1024,1024,0,0,0,0,67,4.462,66.2,97.112864,P-GPS,,29.6
492600,2026-01-11 15:38:24,0.0,5,7.42,0.0,0.0,0.0,12.2,6.8,-4.4,1024,1024,1024,1024,0,0,0,0,67,4.462,66.2,97.112864,P-GPS,,29.6
492700,2026-01-11 15:38:24,0.0,5,7.42,0.0,0.0,0.0,12.3,6.5,-4.6,1024,1024,1024,1024,0,0,0,0,67,4.462,66.2,97.440948,P-GPS,,29.7
492800,2026-01-11 15:38:24,0.0,5,7.42,0.0,0.0,0.0,12.2,6.6,-5.1,1024,1024,1024,1024,0,0,0,0,67,4.462,66.2,97.440948,P-GPS,,29.7
492900,2026-01-11 15:38:25,0.0,5,7.42,0.0,0.0,0.0,12.2,7.0,-5.2,1024,1024,1024,1024,0,0,0,0,67,4.462,66.2,97.440948,P-GPS,,29.7
493000,2026-01-11 15:38:25,0.0,5,7.42,0.0,0.0,0.0,12.2,7.0,-5.5,1024,1024,1024,1024,0,0,0,0,67,4.462,66.2,97.769032,P-GPS,,29.8
493100,2026-01-11 15:38:25,0.0,5,7.422,0.0,0.0,0.0,12.2,7.0,-5.4,1024,1024,1024,1024,0,0,0,0,67,4.341,66.2,97.769032,P-GPS,,29.8
493200,2026-01-11 15:38:25,0.0,5,7.422,0.0,0.0,0.0,12.2,7.3,-5.4,1024,1024,1024,1024,0,0,0,0,67,4.341,66.2,97.769032,P-GPS,,29.8
493300,2026-01-11 15:38:25,0.0,5,7.422,0.0,0.0,0.0,12.2,7.5,-5.4,1024,1024,1024,1024,0,0,0,0,67,4.341,66.2,98.097116,P-GPS,,29.9
493400,2026-01-11 15:38:25,0.0,5,7.422,0.0,0.0,0.0,12.2,7.6,-5.4,1024,1024,1024,1024,0,0,0,0,67,4.341,66.2,98.097116,P-GPS,,29.9
493500,2026-01-11 15:38:25,0.0,5,7.422,0.0,0.0,0.0,12.2,7.6,-5.5,1024,1024,1024,1024,0,0,0,0,67,4.341,66.2,98.097116,P-GPS,,29.9
493600,2026-01-11 15:38:25,0.0,5,7.422,0.0,0.0,0.223694,12.2,7.3,-5.3,1024,1024,1024,1024,0,0,0,0,67,4.341,66.2,98.097116,P-GPS,,29.9
493700,2026-01-11 15:38:25,0.0,5,7.422,0.0,0.0,0.0,12.3,7.3,-5.1,1024,1024,1024,1024,0,0,0,0,67,4.341,66.2,98.097116,P-GPS,,29.9
493800,2026-01-11 15:38:25,0.0,5,7.422,0.0,0.0,0.0,12.2,7.2,-5.6,1024,1024,1024,1024,0,0,0,0,67,4.341,66.2,98.4252,P-GPS,,30.0
493900,2026-01-11 15:38:26,0.0,5,7.422,0.0,0.0,0.0,12.1,8.1,-6.0,1024,1024,1024,1024,0,0,0,0,67,4.341,66.2,98.4252,P-GPS,,30.0
494000,2026-01-11 15:38:26,0.0,5,7.422,0.0,0.0,0.223694,12.2,8.2,-6.1,1024,1024,1024,1024,0,0,0,0,67,4.341,66.2,98.4252,P-GPS,,30.0
494100,2026-01-11 15:38:26,0.0,5,7.432,0.0,0.0,0.223694,12.2,7.8,-6.0,1024,1024,1024,1024,0,0,0,0,67,4.237,66.2,98.4252,P-GPS,,30.0
494200,2026-01-11 15:38:26,0.0,5,7.432,0.0,0.0,0.223694,12.3,8.1,-5.6,1024,1024,1024,1024,0,0,0,0,67,4.237,66.2,98.4252,P-GPS,,30.0
494300,2026-01-11 15:38:26,0.0,5,7.432,0.0,0.0,0.223694,12.2,8.3,-5.6,1024,1024,1024,1024,0,0,0,0,67,4.237,66.2,98.4252,P-GPS,,30.0
494400,2026-01-11 15:38:26,0.0,5,7.432,0.0,0.0,0.223694,12.3,7.8,-5.3,1024,1024,1024,1024,0,0,0,0,67,4.237,66.2,98.4252,P-GPS,,30.0
494500,2026-01-11 15:38:26,0.0,5,7.432,0.0,0.0,0.0,12.2,7.9,-5.3,1024,1024,1024,1024,0,0,0,0,67,4.237,66.2,98.4252,P-GPS,,30.0
494600,2026-01-11 15:38:26,0.0,5,7.432,0.0,0.0,0.0,12.3,7.9,-5.1,1024,1024,1024,1024,0,0,0,0,67,4.237,66.2,98.4252,P-GPS,,30.0
494700,2026-01-11 15:38:26,0.0,5,7.432,0.0,0.0,0.0,12.3,7.5,-5.1,1024,1024,1024,1024,0,0,0,0,67,4.237,66.2,98.097116,P-GPS,,29.9
494800,2026-01-11 15:38:26,0.0,5,7.432,0.0,0.0,0.0,12.3,7.8,-5.0,1024,1024,1024,1024,0,0,0,0,67,4.237,66.2,98.097116,P-GPS,,29.9
494900,2026-01-11 15:38:27,0.0,5,7.432,0.0,0.0,0.223694,12.3,8.5,-4.9,1024,1024,1024,1024,0,0,0,0,67,4.237,66.2,98.097116,P-GPS,,29.9
495000,2026-01-11 15:38:27,0.0,5,7.432,0.0,0.0,0.223694,12.3,8.3,-4.6,1024,1024,1024,1024,0,0,0,0,67,4.237,66.2,98.097116,P-GPS,,29.9
495100,2026-01-11 15:38:27,0.0,5,7.418,0.0,0.0,0.223694,12.5,7.6,-4.0,1024,1024,1024,1024,0,0,0,0,67,4.491,66.2,98.097116,P-GPS,,29.9
495200,2026-01-11 15:38:27,0.0,5,7.418,0.0,0.0,0.223694,12.5,6.9,-3.8,1024,1024,1024,1024,0,0,0,0,67,4.491,66.2,97.769032,P-GPS,,29.8
495300,2026-01-11 15:38:27,0.0,5,7.418,0.0,0.0,0.0,12.5,7.0,-3.7,1024,1024,1024,1024,0,0,0,0,67,4.491,66.2,97.769032,P-GPS,,29.8
495400,2026-01-11 15:38:27,0.0,5,7.418,0.0,0.0,0.0,12.5,6.9,-3.7,1024,1024,1024,1024,0,0,0,0,67,4.491,66.2,97.769032,P-GPS,,29.8
495500,2026-01-11 15:38:27,0.0,5,7.418,0.0,0.0,0.0,12.5,6.9,-3.6,1024,1024,1024,1024,0,0,0,0,67,4.491,66.2,97.769032,P-GPS,,29.8
495600,2026-01-11 15:38:27,0.0,5,7.418,0.0,0.0,0.0,12.4,6.9,-3.7,1024,1024,1024,1024,0,0,0,0,67,4.491,66.2,97.769032,P-GPS,,29.8
495700,2026-01-11 15:38:27,0.0,5,7.418,0.0,0.0,0.0,12.3,7.0,-3.9,1024,1024,1024,1024,0,0,0,0,67,4.491,66.2,97.769032,P-GPS,,29.8
495800,2026-01-11 15:38:27,0.0,5,7.418,0.0,0.0,0.0,12.4,6.8,-3.8,1024,1024,1024,1024,0,0,0,0,67,4.491,66.2,97.769032,P-GPS,,29.8
495900,2026-01-11 15:38:28,0.0,5,7.418,0.0,0.0,0.0,12.4,6.3,-4.1,1024,1024,1024,1024,0,0,0,0,67,4.491,66.2,97.769032,P-GPS,,29.8
496000,2026-01-11 15:38:28,0.0,5,7.418,0.0,0.0,0.0,12.4,6.5,-4.0,1024,1024,1024,1024,0,0,0,0,67,4.491,66.2,97.769032,P-GPS,,29.8
496100,2026-01-11 15:38:28,0.0,5,7.399,0.0,0.0,0.0,12.4,6.7,-3.9,1024,1024,1024,1024,0,0,0,0,67,4.856,66.2,97.769032,P-GPS,,29.8
496200,2026-01-11 15:38:28,0.0,5,7.399,0.0,0.0,0.0,12.3,6.6,-4.2,1024,1024,1024,1024,0,0,0,0,67,4.856,66.2,97.769032,P-GPS,,29.8
496300,2026-01-11 15:38:28,0.0,5,7.399,0.0,0.0,0.0,12.4,6.7,-4.3,1024,1024,1024,1024,0,0,0,0,67,4.856,66.2,97.769032,P-GPS,,29.8
496400,2026-01-11 15:38:28,0.0,5,7.399,0.0,0.0,0.0,12.3,7.1,-4.6,1024,1024,1024,1024,0,0,0,0,67,4.856,66.2,97.769032,P-GPS,,29.8
496500,2026-01-11 15:38:28,0.0,5,7.399,0.0,0.0,0.0,12.4,7.3,-4.1,1024,1024,1024,1024,0,0,0,0,67,4.856,66.2,98.097116,P-GPS,,29.9
496600,2026-01-11 15:38:28,0.0,5,7.399,0.0,0.0,0.0,12.4,7.0,-3.9,1024,1024,1024,1024,0,0,0,0,67,4.856,66.2,98.097116,P-GPS,,29.9
496700,2026-01-11 15:38:28,0.0,5,7.399,0.0,0.0,0.0,12.4,6.9,-4.0,1024,1024,1024,1024,0,0,0,0,67,4.856,66.2,98.097116,P-GPS,,29.9
496800,2026-01-11 15:38:29,0.0,5,7.399,0.0,0.0,0.0,12.3,6.9,-4.1,1024,1024,1024,1024,0,0,0,0,67,4.856,66.2,98.097116,P-GPS,,29.9
496900,2026-01-11 15:38:29,0.0,5,7.399,0.0,0.0,0.0,12.5,6.8,-4.1,1024,1024,1024,1024,0,0,0,0,67,4.856,66.2,98.097116,P-GPS,,29.9
497000,2026-01-11 15:38:29,0.0,5,7.399,0.0,0.0,0.0,12.4,6.1,-4.5,1024,1024,1024,1024,0,0,0,0,67,4.856,66.2,98.097116,P-GPS,,29.9
497100,2026-01-11 15:38:29,0.0,5,7.395,0.0,0.0,0.0,12.4,6.5,-4.6,1024,1024,1024,1024,0,0,0,0,67,4.814,66.38,98.097116,P-GPS,,29.9
497200,2026-01-11 15:38:29,0.0,5,7.395,0.0,0.0,0.0,12.3,6.7,-4.3,1024,1024,1024,1024,0,0,0,0,67,4.814,66.38,98.097116,P-GPS,,29.9
497300,2026-01-11 15:38:29,0.0,5,7.395,0.0,0.0,0.0,12.2,6.7,-4.5,1024,1024,1024,1024,0,0,0,0,67,4.814,66.38,98.097116,P-GPS,,29.9
497400,2026-01-11 15:38:29,0.0,5,7.395,0.0,0.0,0.0,12.1,7.1,-4.3,1024,1024,1024,1024,0,0,0,0,67,4.814,66.38,98.097116,P-GPS,,29.9
497500,2026-01-11 15:38:29,0.0,5,7.395,0.0,0.0,0.0,12.1,6.9,-4.2,1024,1024,1024,1024,0,0,0,0,67,4.814,66.38,98.097116,P-GPS,,29.9
497600,2026-01-11 15:38:29,0.0,5,7.395,0.0,0.0,0.0,12.2,6.0,-4.3,1024,1024,1024,1024,0,0,0,0,67,4.814,66.38,98.097116,P-GPS,,29.9
497700,2026-01-11 15:38:29,0.0,5,7.395,0.0,0.0,0.0,12.2,6.2,-4.3,1024,1024,1024,1024,0,0,0,0,67,4.814,66.38,98.097116,P-GPS,,29.9
497800,2026-01-11 15:38:29,0.0,5,7.395,0.0,0.0,0.0,12.1,6.4,-4.1,1024,1024,1024,1024,0,0,0,0,67,4.814,66.38,98.097116,P-GPS,,29.9
497900,2026-01-11 15:38:30,0.0,5,7.395,0.0,0.0,0.0,12.2,5.9,-3.9,1024,1024,1024,1024,0,0,0,0,67,4.814,66.38,98.097116,P-GPS,,29.9
498000,2026-01-11 15:38:30,0.0,5,7.43,0.0,0.0,0.0,12.3,5.3,-4.3,1024,1024,1024,1024,0,0,0,0,67,4.302,66.38,98.097116,P-GPS,,29.9
498100,2026-01-11 15:38:30,0.0,5,7.43,0.0,0.0,0.0,12.4,5.5,-4.6,1024,1024,1024,1024,0,0,0,0,67,4.302,66.38,97.769032,P-GPS,,29.8
498200,2026-01-11 15:38:30,0.0,5,7.43,0.0,0.0,0.0,12.3,6.3,-4.5,1024,1024,1024,1024,0,0,0,0,67,4.302,66.38,97.769032,P-GPS,,29.8
498300,2026-01-11 15:38:30,0.0,5,7.43,0.0,0.0,0.0,12.2,6.5,-4.0,1024,1024,1024,1024,0,0,0,0,67,4.302,66.38,97.769032,P-GPS,,29.8
498400,2026-01-11 15:38:30,0.0,5,7.43,0.0,0.0,0.0,12.3,6.1,-3.7,1024,1024,1024,1024,0,0,0,0,67,4.302,66.38,97.769032,P-GPS,,29.8
498500,2026-01-11 15:38:30,0.0,5,7.43,0.0,0.0,0.0,12.3,5.5,-4.2,1024,1024,1024,1024,0,0,0,0,67,4.302,66.38,97.769032,P-GPS,,29.8
498600,2026-01-11 15:38:30,0.0,5,7.43,0.0,0.0,0.0,12.3,5.2,-4.2,1024,1024,1024,1024,0,0,0,0,67,4.302,66.38,97.769032,P-GPS,,29.8
498700,2026-01-11 15:38:30,0.0,5,7.43,0.0,0.0,0.0,12.3,5.6,-4.1,1024,1024,1024,1024,0,0,0,0,67,4.302,66.38,97.769032,P-GPS,,29.8
498800,2026-01-11 15:38:30,0.0,5,7.43,0.0,0.0,0.0,12.3,5.8,-3.7,1024,1024,1024,1024,0,0,0,0,67,4.302,66.38,97.769032,P-GPS,,29.8
498900,2026-01-11 15:38:31,0.0,5,7.43,0.0,0.0,0.0,12.4,5.3,-3.7,1024,1024,1024,1024,0,0,0,0,67,4.302,66.38,97.769032,P-GPS,,29.8
499000,2026-01-11 15:38:31,0.0,5,7.43,0.0,0.0,0.0,12.4,5.3,-3.4,1024,1024,1024,1024,0,0,0,0,67,4.302,66.38,97.769032,P-GPS,,29.8
499100,2026-01-11 15:38:31,0.0,5,7.43,0.0,0.0,0.0,12.2,5.7,-3.2,1024,1024,1024,1024,0,0,0,0,67,4.302,66.38,97.769032,P-GPS,,29.8
499200,2026-01-11 15:38:31,0.0,5,7.43,0.0,0.0,0.0,12.2,5.6,-3.5,1024,1024,1024,1024,0,0,0,0,67,4.302,66.38,97.769032,P-GPS,,29.8
499300,2026-01-11 15:38:31,0.0,5,7.43,0.0,0.0,0.0,12.0,5.3,-3.7,1024,1024,1024,1024,0,0,0,0,67,4.302,66.38,97.769032,P-GPS,,29.8
499400,2026-01-11 15:38:31,0.0,5,7.43,0.0,0.0,0.0,11.9,4.9,-4.3,1024,1024,1024,1024,0,0,0,0,67,4.302,66.38,97.769032,P-GPS,,29.8
499500,2026-01-11 15:38:31,0.0,5,7.43,0.0,0.0,0.0,12.0,4.7,-4.2,1024,1024,1024,1024,0,0,0,0,67,4.302,66.38,97.769032,P-GPS,,29.8
499600,2026-01-11 15:38:31,0.0,5,7.43,0.0,0.0,0.0,12.1,4.9,-4.1,1024,1024,1024,1024,0,0,0,0,67,4.302,66.38,97.440948,P-GPS,,29.7
499700,2026-01-11 15:38:31,0.0,5,7.43,0.0,0.0,0.0,12.2,4.9,-4.2,1024,1024,1024,1024,0,0,0,0,67,4.302,66.38,97.440948,P-GPS,,29.7
499800,2026-01-11 15:38:31,0.0,5,7.43,0.0,0.0,0.0,12.3,4.9,-4.3,1024,1024,1024,1024,0,0,0,0,67,4.302,66.38,97.440948,P-GPS,,29.7
499900,2026-01-11 15:38:32,0.0,5,7.43,0.0,0.0,0.0,12.3,4.8,-3.9,1024,1024,1024,1024,0,0,0,0,67,4.302,66.38,97.440948,P-GPS,,29.7
500000,2026-01-11 15:38:32,0.0,5,7.43,0.0,0.0,0.0,12.4,4.9,-4.0,1024,1024,1024,1024,0,0,0,0,67,4.302,66.38,97.769032,P-GPS,,29.8
500100,2026-01-11 15:38:32,0.0,5,7.43,0.0,0.0,0.0,12.6,5.1,-3.8,1024,1024,1024,1024,0,0,0,0,67,4.302,66.38,97.769032,P-GPS,,29.8
500200,2026-01-11 15:38:32,0.0,5,7.426,0.0,0.0,0.0,12.6,5.2,-3.9,1024,1024,1024,1024,0,0,0,0,67,4.144,66.2,97.769032,P-GPS,,29.8
500300,2026-01-11 15:38:32,0.0,5,7.426,0.0,0.0,0.0,12.6,5.5,-3.8,1024,1024,1024,1024,0,0,0,0,67,4.144,66.2,97.769032,P-GPS,,29.8
500400,2026-01-11 15:38:32,0.0,5,7.426,0.0,0.0,0.0,12.6,5.4,-3.7,1024,1024,1024,1024,0,0,0,0,67,4.144,66.2,97.769032,P-GPS,,29.8
500500,2026-01-11 15:38:32,0.0,5,7.426,0.0,0.0,0.0,12.6,5.3,-3.4,1024,1024,1024,1024,0,0,0,0,67,4.144,66.2,97.769032,P-GPS,,29.8
500600,2026-01-11 15:38:32,0.0,5,7.426,0.0,0.0,0.0,12.5,5.5,-3.6,1024,1024,1024,1024,0,0,0,0,67,4.144,66.2,97.769032,P-GPS,,29.8
500700,2026-01-11 15:38:32,0.0,5,7.426,0.0,0.0,0.0,12.4,5.8,-3.7,1024,1024,1024,1024,0,0,0,0,67,4.144,66.2,97.769032,P-GPS,,29.8
500800,2026-01-11 15:38:32,0.0,5,7.426,0.0,0.0,0.0,12.4,6.1,-3.8,1024,1024,1024,1024,0,0,0,0,67,4.144,66.2,97.769032,P-GPS,,29.8
500900,2026-01-11 15:38:33,0.0,5,7.426,0.0,0.0,0.0,12.4,6.0,-3.5,1024,1024,1024,1024,0,0,0,0,67,4.144,66.2,97.769032,P-GPS,,29.8
501000,2026-01-11 15:38:33,0.0,5,7.426,0.0,0.0,0.0,12.4,5.7,-3.3,1024,1024,1024,1024,0,0,0,0,67,4.144,66.2,97.769032,P-GPS,,29.8
501100,2026-01-11 15:38:33,0.0,5,7.426,0.0,0.0,0.0,12.3,6.0,-3.8,1024,1024,1024,1024,0,0,0,0,67,4.144,66.2,97.769032,P-GPS,,29.8
501200,2026-01-11 15:38:33,0.0,5,7.426,0.0,0.0,0.0,12.4,6.1,-4.0,1024,1024,1024,1024,0,0,0,0,67,4.144,66.2,97.769032,P-GPS,,29.8
501300,2026-01-11 15:38:33,0.0,5,7.426,0.0,0.0,0.0,12.3,6.0,-4.0,1024,1024,1024,1024,0,0,0,0,67,4.144,66.2,97.769032,P-GPS,,29.8
501400,2026-01-11 15:38:33,0.0,5,7.426,0.0,0.0,0.0,12.3,5.9,-4.0,1024,1024,1024,1024,0,0,0,0,67,4.144,66.2,98.097116,P-GPS,,29.9
501500,2026-01-11 15:38:33,0.0,5,7.426,0.0,0.0,0.0,12.4,5.5,-4.1,1024,1024,1024,1024,0,0,0,0,66,4.144,66.2,98.097116,P-GPS,,29.9
501600,2026-01-11 15:38:33,0.0,5,7.426,0.0,0.0,0.0,12.3,5.5,-4.4,1024,1024,1024,1024,0,0,0,0,66,4.144,66.2,98.097116,P-GPS,,29.9
501700,2026-01-11 15:38:33,0.0,5,7.426,0.0,0.0,0.0,12.4,5.0,-4.6,1024,1024,1024,1024,0,0,0,0,66,4.144,66.2,98.097116,P-GPS,,29.9
501800,2026-01-11 15:38:33,0.0,5,7.426,0.0,0.0,0.0,12.3,4.8,-4.5,1024,1024,1024,1024,0,0,0,0,66,4.144,66.2,98.097116,P-GPS,,29.9
501900,2026-01-11 15:38:34,0.0,5,7.426,0.0,0.0,0.0,12.2,5.2,-4.5,1024,1024,1024,1024,0,0,0,0,66,4.144,66.2,98.097116,P-GPS,,29.9
502000,2026-01-11 15:38:34,0.0,5,7.426,0.0,0.0,0.0,12.2,5.0,-4.0,1024,1024,1024,1024,0,0,0,0,66,4.144,66.2,97.769032,P-GPS,,29.8
502100,2026-01-11 15:38:34,0.0,5,7.43,0.0,0.0,0.0,12.3,4.4,-3.7,1024,1024,1024,1024,0,0,0,0,66,4.205,66.2,97.769032,P-GPS,,29.8
502200,2026-01-11 15:38:34,0.0,5,7.43,0.0,0.0,0.0,12.3,3.5,-3.3,1024,1024,1024,1024,0,0,0,0,66,4.205,66.2,97.769032,P-GPS,,29.8
502300,2026-01-11 15:38:34,0.0,5,7.43,0.0,0.0,0.0,12.3,3.6,-3.4,1024,1024,1024,1024,0,0,0,0,66,4.205,66.2,97.440948,P-GPS,,29.7
502400,2026-01-11 15:38:34,0.0,5,7.43,0.0,0.0,0.0,12.4,4.0,-2.5,1024,1024,1024,1024,0,0,0,0,66,4.205,66.2,97.440948,P-GPS,,29.7
502500,2026-01-11 15:38:34,0.0,5,7.43,0.0,0.0,0.0,12.3,3.9,-2.7,1024,1024,1024,1024,0,0,0,0,66,4.205,66.2,97.440948,P-GPS,,29.7
502600,2026-01-11 15:38:34,0.0,5,7.43,0.0,0.0,0.0,12.4,4.0,-2.7,1024,1024,1024,1024,0,0,0,0,66,4.205,66.2,97.769032,P-GPS,,29.8
502700,2026-01-11 15:38:34,0.0,5,7.43,0.0,0.0,0.0,12.5,3.9,-2.8,1024,1024,1024,1024,0,0,0,0,66,4.205,66.2,97.769032,P-GPS,,29.8
502800,2026-01-11 15:38:34,0.0,5,7.43,0.0,0.0,0.0,12.5,4.0,-3.3,1024,1024,1024,1024,0,0,0,0,66,4.205,66.2,98.097116,P-GPS,,29.9
502900,2026-01-11 15:38:35,0.0,5,7.43,0.0,0.0,0.0,12.5,3.9,-3.6,1024,1024,1024,1024,0,0,0,0,66,4.205,66.2,98.097116,P-GPS,,29.9
503000,2026-01-11 15:38:35,0.0,5,7.43,0.0,0.0,0.0,12.5,3.8,-3.6,1024,1024,1024,1024,0,0,0,0,66,4.205,66.2,98.097116,P-GPS,,29.9
503100,2026-01-11 15:38:35,0.0,5,7.426,0.0,0.0,0.0,12.4,3.5,-3.6,1024,1024,1024,1024,0,0,0,0,66,4.153,66.2,98.4252,P-GPS,,30.0
503200,2026-01-11 15:38:35,0.0,5,7.426,0.0,0.0,0.0,12.3,3.5,-3.6,1024,1024,1024,1024,0,0,0,0,66,4.153,66.2,98.4252,P-GPS,,30.0
503300,2026-01-11 15:38:35,0.0,5,7.426,0.0,0.0,0.0,12.3,3.8,-3.6,1024,1024,1024,1024,0,0,0,0,66,4.153,66.2,98.4252,P-GPS,,30.0
503400,2026-01-11 15:38:35,0.0,5,7.426,0.0,0.0,0.0,12.2,3.6,-3.8,1024,1024,1024,1024,0,0,0,0,66,4.153,66.2,98.753284,P-GPS,,30.1
503500,2026-01-11 15:38:35,0.0,5,7.426,0.0,0.0,0.0,12.2,4.1,-3.7,1024,1024,1024,1024,0,0,0,0,66,4.153,66.2,98.4252,P-GPS,,30.0
503600,2026-01-11 15:38:35,0.0,5,7.426,0.0,0.0,0.0,12.3,4.3,-3.8,1024,1024,1024,1024,0,0,0,0,66,4.153,66.2,98.753284,P-GPS,,30.1
503700,2026-01-11 15:38:35,0.0,5,7.426,0.0,0.0,0.0,12.4,4.1,-3.9,1024,1024,1024,1024,0,0,0,0,66,4.153,66.2,98.753284,P-GPS,,30.1
503800,2026-01-11 15:38:35,0.0,5,7.426,0.0,0.0,0.0,12.3,4.2,-4.2,1024,1024,1024,1024,0,0,0,0,66,4.153,66.2,98.753284,P-GPS,,30.1
503900,2026-01-11 15:38:36,0.0,5,7.426,0.0,0.0,0.0,12.4,4.0,-4.2,1024,1024,1024,1024,0,0,0,0,66,4.153,66.2,98.753284,P-GPS,,30.1
504000,2026-01-11 15:38:36,0.0,5,7.426,0.0,0.0,0.0,12.4,4.0,-4.3,1024,1024,1024,1024,0,0,0,0,66,4.153,66.2,98.753284,P-GPS,,30.1
504100,2026-01-11 15:38:36,0.0,5,7.433,0.0,0.0,0.0,12.4,5.0,-4.0,1024,1024,1024,1024,0,0,0,0,66,4.309,66.02,98.753284,P-GPS,,30.1
504200,2026-01-11 15:38:36,0.0,5,7.433,0.0,0.0,0.0,12.3,5.5,-3.9,1024,1024,1024,1024,0,0,0,0,66,4.309,66.02,98.753284,P-GPS,,30.1
504300,2026-01-11 15:38:36,0.0,5,7.433,0.0,0.0,0.0,12.3,5.6,-4.1,1024,1024,1024,1024,0,0,0,0,66,4.309,66.02,98.753284,P-GPS,,30.1
504400,2026-01-11 15:38:36,0.0,5,7.433,0.0,0.0,0.0,12.4,5.8,-4.7,1024,1024,1024,1024,0,0,0,0,66,4.309,66.02,99.081368,P-GPS,,30.2
504500,2026-01-11 15:38:36,0.0,5,7.433,0.0,0.0,0.0,12.6,4.0,-4.6,1024,1024,1024,1024,0,0,0,0,66,4.309,66.02,99.081368,P-GPS,,30.2
504600,2026-01-11 15:38:36,0.0,5,7.433,0.0,0.0,0.0,12.6,2.7,-4.9,1024,1024,1024,1024,0,0,0,0,66,4.309,66.02,99.081368,P-GPS,,30.2
504700,2026-01-11 15:38:36,0.0,5,7.433,0.0,0.0,0.0,12.3,3.4,-5.1,1024,1024,1024,1024,0,0,0,0,66,4.309,66.02,99.081368,P-GPS,,30.2
504800,2026-01-11 15:38:37,0.0,5,7.433,0.0,0.0,0.0,12.2,4.1,-4.9,1024,1024,1024,1024,0,0,0,0,66,4.309,66.02,98.753284,P-GPS,,30.1
504900,2026-01-11 15:38:37,0.0,5,7.433,0.0,0.0,0.0,12.2,3.9,-4.5,1024,1024,1024,1024,0,0,0,0,66,4.309,66.02,98.753284,P-GPS,,30.1
505000,2026-01-11 15:38:37,0.0,5,7.433,0.0,0.0,0.0,12.2,4.6,-3.9,1024,1024,1024,1024,0,0,0,0,66,4.309,66.02,98.753284,P-GPS,,30.1
505100,2026-01-11 15:38:37,0.0,5,7.418,0.0,0.0,0.223694,12.2,4.8,-3.6,1024,1024,1024,1024,0,0,0,0,66,4.323,66.02,98.753284,P-GPS,,30.1
505200,2026-01-11 15:38:37,0.0,5,7.418,0.0,0.0,0.223694,12.4,5.2,-3.3,1024,1024,1024,1024,0,0,0,0,66,4.323,66.02,98.753284,P-GPS,,30.1
505300,2026-01-11 15:38:37,0.0,5,7.418,0.0,0.0,0.223694,12.5,5.0,-3.3,1024,1024,1024,1024,0,0,0,0,66,4.323,66.02,98.753284,P-GPS,,30.1
505400,2026-01-11 15:38:37,0.0,5,7.418,0.0,0.0,0.0,12.5,4.7,-3.7,1024,1024,1024,1024,0,0,0,0,66,4.323,66.02,98.753284,P-GPS,,30.1
505500,2026-01-11 15:38:37,0.0,5,7.418,0.0,0.0,0.0,12.4,4.7,-3.7,1024,1024,1024,1024,0,0,0,0,66,4.323,66.02,98.753284,P-GPS,,30.1
505600,2026-01-11 15:38:37,0.0,5,7.418,0.0,0.0,0.0,12.3,4.6,-4.6,1024,1024,1024,1024,0,0,0,0,66,4.323,66.02,98.4252,P-GPS,,30.0
505700,2026-01-11 15:38:37,0.0,5,7.418,0.0,0.0,0.0,12.3,5.8,-4.4,1024,1024,1024,1024,0,0,0,0,66,4.323,66.02,98.4252,P-GPS,,30.0
505800,2026-01-11 15:38:37,0.0,5,7.418,0.0,0.0,0.0,12.5,5.3,-4.4,1024,1024,1024,1024,0,0,0,0,66,4.323,66.02,98.4252,P-GPS,,30.0
505900,2026-01-11 15:38:38,0.0,5,7.418,0.0,0.0,0.0,12.6,5.1,-4.2,1024,1024,1024,1024,0,0,0,0,66,4.323,66.02,98.4252,P-GPS,,30.0
506000,2026-01-11 15:38:38,0.0,5,7.418,0.0,0.0,0.0,12.6,5.2,-3.8,1024,1024,1024,1024,0,0,0,0,66,4.323,66.02,98.4252,P-GPS,,30.0
506100,2026-01-11 15:38:38,0.0,5,7.414,0.0,0.0,0.0,12.7,5.2,-3.5,1024,1024,1024,1024,0,0,0,0,66,4.207,66.02,98.4252,P-GPS,,30.0
506200,2026-01-11 15:38:38,0.0,5,7.414,0.0,0.0,0.0,12.7,5.1,-3.7,1024,1024,1024,1024,0,0,0,0,66,4.207,66.02,98.4252,P-GPS,,30.0
506300,2026-01-11 15:38:38,0.0,5,7.414,0.0,0.0,0.0,12.7,5.1,-3.2,1024,1024,1024,1024,0,0,0,0,66,4.207,66.02,98.4252,P-GPS,,30.0
506400,2026-01-11 15:38:38,0.0,5,7.414,0.0,0.0,0.0,12.6,4.8,-3.2,1024,1024,1024,1024,0,0,0,0,66,4.207,66.02,98.4252,P-GPS,,30.0
506500,2026-01-11 15:38:38,0.0,5,7.414,0.0,0.0,0.0,12.6,5.1,-3.1,1024,1024,1024,1024,0,0,0,0,66,4.207,66.02,98.4252,P-GPS,,30.0
506600,2026-01-11 15:38:38,0.0,5,7.414,0.0,0.0,0.0,12.6,5.2,-3.3,1024,1024,1024,1024,0,0,0,0,66,4.207,66.02,98.4252,P-GPS,,30.0
506700,2026-01-11 15:38:38,0.0,5,7.414,0.0,0.0,0.0,12.5,5.3,-3.7,1024,1024,1024,1024,0,0,0,0,66,4.207,66.02,98.4252,P-GPS,,30.0
506800,2026-01-11 15:38:38,0.0,5,7.414,0.0,0.0,0.0,12.5,4.7,-3.7,1024,1024,1024,1024,0,0,0,0,66,4.207,66.02,98.4252,P-GPS,,30.0
506900,2026-01-11 15:38:39,0.0,5,7.414,0.0,0.0,0.0,12.5,4.5,-3.7,1024,1024,1024,1024,0,0,0,0,66,4.207,66.02,98.4252,P-GPS,,30.0
507000,2026-01-11 15:38:39,0.0,5,7.414,0.0,0.0,0.0,12.5,4.4,-4.2,1024,1024,1024,1024,0,0,0,0,66,4.207,66.02,98.4252,P-GPS,,30.0
507100,2026-01-11 15:38:39,0.0,5,7.416,0.0,0.0,0.0,12.5,4.2,-4.6,1024,1024,1024,1024,0,0,0,0,66,4.511,66.02,98.4252,P-GPS,,30.0
507200,2026-01-11 15:38:39,0.0,5,7.416,0.0,0.0,0.0,12.5,4.0,-5.0,1024,1024,1024,1024,0,0,0,0,66,4.511,66.02,98.4252,P-GPS,,30.0
507300,2026-01-11 15:38:39,0.0,5,7.416,0.0,0.0,0.0,12.5,4.5,-4.7,1024,1024,1024,1024,0,0,0,0,66,4.511,66.02,98.4252,P-GPS,,30.0
507400,2026-01-11 15:38:39,0.0,5,7.416,0.0,0.0,0.0,12.4,4.7,-4.5,1024,1024,1024,1024,0,0,0,0,66,4.511,66.02,98.4252,P-GPS,,30.0
507500,2026-01-11 15:38:39,0.0,5,7.416,0.0,0.0,0.0,12.4,4.1,-4.8,1024,1024,1024,1024,0,0,0,0,66,4.511,66.02,98.097116,P-GPS,,29.9
507600,2026-01-11 15:38:39,0.0,5,7.416,0.0,0.0,0.0,12.5,4.3,-4.7,1024,1024,1024,1024,0,0,0,0,66,4.511,66.02,98.097116,P-GPS,,29.9
507700,2026-01-11 15:38:39,0.0,5,7.416,0.0,0.0,0.0,12.4,4.6,-4.3,1024,1024,1024,1024,0,0,0,0,66,4.511,66.02,98.097116,P-GPS,,29.9
507800,2026-01-11 15:38:39,0.0,5,7.416,0.0,0.0,0.0,12.4,4.5,-4.5,1024,1024,1024,1024,0,0,0,0,66,4.511,66.02,98.097116,P-GPS,,29.9
507900,2026-01-11 15:38:40,0.0,5,7.416,0.0,0.0,0.0,12.4,4.9,-4.7,1024,1024,1024,1024,0,0,0,0,66,4.511,66.02,98.097116,P-GPS,,29.9
508000,2026-01-11 15:38:40,0.0,5,7.416,0.0,0.0,0.0,12.4,5.0,-4.7,1024,1024,1024,1024,0,0,0,0,66,4.511,66.02,98.097116,P-GPS,,29.9
508100,2026-01-11 15:38:40,0.0,5,7.413,0.0,0.0,0.0,12.4,4.7,-4.2,1024,1024,1190,1024,0,0,25,0,66,4.445,66.2,98.097116,P-GPS,,29.9
508200,2026-01-11 15:38:40,0.0,5,7.413,0.0,0.0,0.0,12.3,5.1,-4.4,1024,1024,1684,1024,0,0,100,0,66,4.445,66.2,98.097116,P-GPS,,29.9
508300,2026-01-11 15:38:40,0.0,5,7.413,0.0,0.0,0.0,12.5,5.0,-4.1,1024,1024,1684,1024,0,0,100,0,66,4.445,66.2,98.097116,P-GPS,,29.9
508400,2026-01-11 15:38:40,0.0,5,7.413,0.0,0.0,-0.447388,12.5,5.6,-4.4,1024,1024,1684,1024,0,0,100,0,66,4.445,66.2,98.097116,P-GPS,,29.9
508500,2026-01-11 15:38:40,0.0,5,7.413,-0.223694,0.0,-1.11847,12.6,5.3,-5.5,1024,1024,1684,1024,0,0,100,0,66,4.445,66.2,98.4252,P-GPS,,30.0
508600,2026-01-11 15:38:40,0.223694,5,7.413,-0.223694,0.0,-1.789552,12.8,3.1,-5.5,1024,1024,1684,1024,0,0,100,0,66,4.445,66.2,98.753284,P-GPS,,30.1
508700,2026-01-11 15:38:40,0.0,5,7.413,0.0,0.0,-2.684328,13.0,2.9,-6.3,1024,1024,1684,1024,0,0,100,0,66,4.445,66.2,99.081368,P-GPS,,30.2
508800,2026-01-11 15:38:41,0.0,5,7.413,0.0,0.0,-3.579104,12.8,4.1,-6.6,1024,1024,1684,1024,0,0,100,0,66,4.445,66.2,99.409452,P-GPS,,30.3
508900,2026-01-11 15:38:41,0.0,5,7.413,0.0,0.0,-3.802798,12.6,5.3,-6.1,1024,1024,1684,1024,0,0,100,0,66,4.445,66.2,100.06562,P-GPS,,30.5
509000,2026-01-11 15:38:41,0.0,5,7.288,0.0,0.0,-4.250186,12.7,4.8,-6.7,1024,1024,1684,1024,0,0,100,0,66,6.149,66.2,100.721788,P-GPS,,30.7
509100,2026-01-11 15:38:41,0.0,5,7.288,0.0,0.0,-4.250186,12.7,4.3,-6.3,1024,1024,1684,1024,0,0,100,0,66,6.149,66.2,101.049872,P-GPS,,30.8
509200,2026-01-11 15:38:41,0.0,5,7.288,0.0,0.0,-4.250186,12.7,5.0,-5.4,1024,1024,1684,1024,0,0,100,0,66,6.149,66.2,101.70604,P-GPS,,31.0
509300,2026-01-11 15:38:41,0.0,5,7.288,0.0,0.0,-4.250186,12.6,5.5,-4.7,1024,1024,1684,1024,0,0,100,0,66,6.149,66.2,102.362208,P-GPS,,31.2
509400,2026-01-11 15:38:41,0.0,5,7.288,0.0,0.0,-4.250186,12.6,5.7,-4.6,1024,1024,1684,1024,0,0,100,0,66,6.149,66.2,103.018376,P-GPS,,31.4
509500,2026-01-11 15:38:41,0.0,5,7.288,0.0,0.0,-4.250186,12.6,6.4,-4.5,1024,1024,1684,1024,0,0,100,0,66,6.149,66.2,103.34646,P-GPS,,31.5
509600,2026-01-11 15:38:41,0.0,5,7.288,0.0,0.0,-4.250186,12.6,7.0,-4.3,1024,1024,1684,1024,0,0,100,0,66,6.149,66.2,104.002628,P-GPS,,31.7
509700,2026-01-11 15:38:41,0.0,5,7.288,0.0,0.0,-4.250186,12.6,7.1,-3.6,1024,1024,1684,1024,0,0,100,0,66,6.149,66.2,104.658796,P-GPS,,31.9
553400,2026-01-11 15:39:25,0.0,5,7.397,0.0,0.0,3.802798,12.1,5.6,-6.0,1024,1024,364,1024,0,0,-100,0,63,4.118,66.92,104.330712,P-GPS,,31.8
553500,2026-01-11 15:39:25,0.0,5,7.397,0.0,0.0,4.026492,12.2,5.2,-5.7,1024,1024,364,1024,0,0,-100,0,63,4.118,66.92,103.674544,P-GPS,,31.6
553600,2026-01-11 15:39:25,0.0,5,7.397,0.0,0.0,4.026492,12.3,5.2,-5.3,1024,1024,364,1024,0,0,-100,0,63,4.118,66.92,103.018376,P-GPS,,31.4
553700,2026-01-11 15:39:25,0.0,5,7.397,0.0,0.0,4.026492,12.2,5.1,-5.3,1024,1024,364,1024,0,0,-100,0,63,4.118,66.92,102.362208,P-GPS,,31.2
553800,2026-01-11 15:39:26,0.0,5,7.397,0.0,0.0,4.026492,12.2,5.1,-5.4,1024,1024,364,1024,0,0,-100,0,63,4.118,66.92,102.034124,P-GPS,,31.1
553900,2026-01-11 15:39:26,0.0,5,7.397,0.0,0.0,3.802798,12.2,5.9,-5.6,1024,1024,364,1024,0,0,-100,0,63,4.118,66.92,101.377956,P-GPS,,30.9
554000,2026-01-11 15:39:26,0.0,5,7.397,0.0,0.0,3.802798,12.2,5.5,-6.0,1024,1024,364,1024,0,0,-100,0,63,4.118,66.92,100.721788,P-GPS,,30.7
554100,2026-01-11 15:39:26,0.0,5,7.397,0.0,0.0,3.802798,12.0,5.6,-5.6,1024,1024,364,1024,0,0,-100,0,63,4.118,66.92,100.06562,P-GPS,,30.5
554200,2026-01-11 15:39:26,0.0,5,7.397,0.0,0.0,3.802798,12.1,5.1,-5.3,1024,1024,364,1024,0,0,-100,0,63,4.118,66.92,99.409452,P-GPS,,30.3
554300,2026-01-11 15:39:26,0.0,5,7.397,0.0,0.0,3.802798,12.2,4.7,-5.4,1024,1024,364,1024,0,0,-100,0,63,4.118,66.92,98.753284,P-GPS,,30.1
554400,2026-01-11 15:39:26,0.0,5,7.397,0.0,0.0,3.802798,12.4,4.7,-5.2,1024,1024,364,1024,0,0,-100,0,63,4.118,66.92,97.769032,P-GPS,,29.8
554500,2026-01-11 15:39:26,0.0,5,7.397,0.0,0.0,3.802798,12.5,4.1,-5.4,1024,1024,364,1024,0,0,-100,0,63,4.118,66.92,97.112864,P-GPS,,29.6
554600,2026-01-11 15:39:26,0.0,5,7.397,0.0,0.0,4.026492,12.4,4.2,-5.8,1024,1024,364,1024,0,0,-100,0,63,4.118,66.92,96.456696,P-GPS,,29.4
554700,2026-01-11 15:39:26,0.0,5,7.397,0.0,0.0,4.026492,12.3,4.3,-5.8,1024,1024,364,1024,0,0,-100,0,63,4.118,66.92,95.800528,P-GPS,,29.2
554800,2026-01-11 15:39:27,0.0,5,7.397,0.0,0.0,4.026492,12.4,4.0,-5.6,1024,1024,364,1024,0,0,-100,0,63,4.118,66.92,95.14436,P-GPS,,29.0
554900,2026-01-11 15:39:27,0.0,5,7.397,0.0,0.0,4.026492,12.3,3.8,-5.9,1024,1024,364,1024,0,0,-100,0,63,4.118,66.92,94.488192,P-GPS,,28.8
555000,2026-01-11 15:39:27,0.0,5,7.397,0.0,0.0,4.026492,12.3,3.5,-6.0,1024,1024,364,1024,0,0,-100,0,63,4.118,66.92,93.832024,P-GPS,,28.6
555100,2026-01-11 15:39:27,0.0,5,7.397,0.0,0.0,4.026492,12.3,4.3,-6.3,1024,1024,364,1024,0,0,-100,0,63,4.118,66.92,93.175856,P-GPS,,28.4
555200,2026-01-11 15:39:27,0.0,5,7.423,0.0,0.0,4.026492,12.2,4.3,-6.8,1024,1024,364,1024,0,0,-100,0,63,3.528,66.92,92.519688,P-GPS,,28.2
