time(millisecond),timestamp,speed(mph),gpslevel,voltage(v),xSpeed(mph),ySpeed(mph),zSpeed(mph),compass_heading(degrees),pitch(degrees),roll(degrees),rc_elevator,rc_aileron,rc_throttle,rc_rudder,rc_elevator(percent),rc_aileron(percent),rc_throttle(percent),rc_rudder(percent),battery_percent,current(A),battery_temperature(f),ascent(feet),flycState,message,height_above_takeoff(meters)
351400,2026-01-11 17:23:44,0.0,5,7.387,0.0,0.0,0.0,28.5,10.9,-10.6,1024,1024,1024,1024,0,0,0,0,76,6.762,62.6,163.713916,P-GPS,,49.9
351500,2026-01-11 17:23:44,0.0,5,7.387,0.0,0.0,0.0,28.6,10.8,-10.1,1024,1024,1024,1024,0,0,0,0,76,6.762,62.6,163.713916,P-GPS,,49.9
351600,2026-01-11 17:23:44,0.0,5,7.387,0.0,0.0,0.0,28.6,10.7,-9.8,1024,1024,1024,1024,0,0,0,0,76,6.762,62.6,163.713916,P-GPS,,49.9
351700,2026-01-11 17:23:44,0.0,5,7.387,0.0,0.0,0.0,28.6,10.0,-9.6,1024,1024,1024,1024,0,0,0,0,76,6.762,62.6,163.713916,P-GPS,,49.9
351800,2026-01-11 17:23:44,0.0,5,7.387,0.0,0.0,0.0,28.7,9.6,-9.2,1024,1024,1024,1024,0,0,0,0,76,6.762,62.6,163.713916,P-GPS,,49.9
351900,2026-01-11 17:23:44,0.0,5,7.477,0.0,0.0,0.0,28.8,8.6,-8.5,1024,1024,1024,1024,0,0,0,0,76,4.81,62.6,163.713916,P-GPS,,49.9
352100,2026-01-11 17:23:44,0.0,5,7.477,0.0,0.0,0.0,28.7,9.1,-8.3,1024,1024,1024,1024,0,0,0,0,76,4.81,62.6,163.713916,P-GPS,,49.9
352200,2026-01-11 17:23:44,0.0,5,7.477,0.0,0.0,0.0,28.9,9.0,-7.7,1024,1024,1024,1024,0,0,0,0,76,4.81,62.6,163.385832,P-GPS,,49.8
352300,2026-01-11 17:23:44,0.0,5,7.477,0.0,0.0,0.0,28.9,9.2,-7.4,1024,1024,1024,1024,0,0,0,0,76,4.81,62.6,163.385832,P-GPS,,49.8
352400,2026-01-11 17:23:45,0.0,5,7.477,0.0,0.0,0.0,28.9,8.8,-7.3,1024,1024,1024,1024,0,0,0,0,76,4.81,62.6,163.057748,P-GPS,,49.7
352500,2026-01-11 17:23:45,0.0,5,7.477,0.0,0.0,0.0,28.8,8.9,-7.5,1024,1024,1024,1024,0,0,0,0,76,4.81,62.6,163.057748,P-GPS,,49.7
352600,2026-01-11 17:23:45,0.0,5,7.477,0.0,0.0,0.0,28.9,8.3,-7.7,1024,1024,1024,1024,0,0,0,0,76,4.81,62.6,163.057748,P-GPS,,49.7
352700,2026-01-11 17:23:45,0.0,5,7.477,0.0,0.0,0.0,29.1,8.0,-7.7,1024,1024,1024,1024,0,0,0,0,76,4.81,62.6,163.057748,P-GPS,,49.7
352800,2026-01-11 17:23:45,0.0,5,7.477,0.0,0.0,0.0,29.2,7.7,-7.9,1024,1024,1024,1024,0,0,0,0,76,4.81,62.6,162.729664,P-GPS,,49.6
352900,2026-01-11 17:23:45,0.0,5,7.477,0.0,0.0,0.0,29.3,6.6,-7.7,1024,1024,1024,1024,0,0,0,0,76,4.81,62.6,162.729664,P-GPS,,49.6
353000,2026-01-11 17:23:45,0.223694,5,7.525,0.0,-0.223694,0.0,29.3,7.1,-7.2,1024,1024,1024,1024,0,0,0,0,75,4.202,62.78,162.729664,P-GPS,,49.6
353100,2026-01-11 17:23:45,0.0,5,7.525,0.0,0.0,0.0,29.2,8.1,-7.1,1024,1024,1024,1024,0,0,0,0,75,4.202,62.78,162.40158,P-GPS,,49.5
353200,2026-01-11 17:23:45,0.0,5,7.525,0.0,0.0,0.0,29.3,8.0,-6.4,1024,1024,1024,1024,0,0,0,0,75,4.202,62.78,162.40158,P-GPS,,49.5
353300,2026-01-11 17:23:46,0.0,5,7.525,0.0,0.0,0.0,29.3,7.9,-6.3,1024,1024,1024,1024,0,0,0,0,75,4.202,62.78,162.40158,P-GPS,,49.5
353400,2026-01-11 17:23:46,0.0,5,7.525,0.0,0.0,0.0,29.4,8.6,-6.8,1024,1024,1024,1024,0,0,0,0,75,4.202,62.78,162.40158,P-GPS,,49.5
353500,2026-01-11 17:23:46,0.0,5,7.525,0.0,0.0,0.0,29.4,8.8,-6.6,1024,1024,1024,1024,0,0,0,0,75,4.202,62.78,162.073496,P-GPS,,49.4
353600,2026-01-11 17:23:46,0.0,5,7.525,0.0,0.0,0.0,29.4,8.7,-6.5,1024,1024,1024,1024,0,0,0,0,75,4.202,62.78,162.073496,P-GPS,,49.4
353700,2026-01-11 17:23:46,0.0,5,7.525,0.0,0.0,0.0,29.4,8.5,-6.3,1024,1024,1024,1024,0,0,0,0,75,4.202,62.78,162.073496,P-GPS,,49.4
353800,2026-01-11 17:23:46,0.0,5,7.525,0.0,0.0,0.0,29.4,8.8,-6.4,1024,1024,1024,1024,0,0,0,0,75,4.202,62.78,161.745412,P-GPS,,49.3
353900,2026-01-11 17:23:46,0.0,5,7.525,0.0,0.0,0.0,29.3,9.6,-6.4,1024,1024,1024,1024,0,0,0,0,75,4.202,62.78,161.745412,P-GPS,,49.3
354000,2026-01-11 17:23:46,0.0,5,7.495,0.0,0.0,0.0,29.3,9.4,-6.7,1024,1024,1024,1024,0,0,0,0,75,4.553,62.78,161.745412,P-GPS,,49.3
354100,2026-01-11 17:23:46,0.0,5,7.495,0.0,0.0,0.0,29.3,9.6,-6.7,1024,1024,1024,1024,0,0,0,0,75,4.553,62.78,161.745412,P-GPS,,49.3
354200,2026-01-11 17:23:46,0.0,5,7.495,0.0,0.0,0.0,29.3,9.6,-6.9,1024,1024,1024,1024,0,0,0,0,75,4.553,62.78,161.745412,P-GPS,,49.3
354300,2026-01-11 17:23:47,0.0,5,7.495,0.0,0.0,0.0,29.3,9.6,-6.9,1024,1024,1024,1024,0,0,0,0,75,4.553,62.78,161.745412,P-GPS,,49.3
354400,2026-01-11 17:23:47,0.0,5,7.495,0.0,0.0,0.0,29.3,9.7,-6.7,1024,1024,1024,1024,0,0,0,0,75,4.553,62.78,161.745412,P-GPS,,49.3
354500,2026-01-11 17:23:47,0.0,5,7.495,0.0,0.0,0.0,29.3,9.6,-6.7,1024,1024,1024,1024,0,0,0,0,75,4.553,62.78,161.745412,P-GPS,,49.3
354600,2026-01-11 17:23:47,0.0,5,7.495,0.0,0.0,0.0,29.3,9.7,-6.6,1024,1024,1024,1024,0,0,0,0,75,4.553,62.78,161.745412,P-GPS,,49.3
354700,2026-01-11 17:23:47,0.0,5,7.495,0.0,0.0,0.0,29.3,9.8,-6.7,1024,1024,1024,1024,0,0,0,0,75,4.553,62.78,162.073496,P-GPS,,49.4
354800,2026-01-11 17:23:47,0.0,5,7.495,0.0,0.0,0.0,29.3,10.4,-6.8,1024,1024,1024,1024,0,0,0,0,75,4.553,62.78,162.073496,P-GPS,,49.4
354900,2026-01-11 17:23:47,0.0,5,7.495,0.0,0.0,0.0,29.3,10.6,-6.9,1024,1024,1024,1024,0,0,0,0,75,4.553,62.78,162.073496,P-GPS,,49.4
355000,2026-01-11 17:23:47,0.0,5,7.495,0.0,0.0,0.0,29.3,10.6,-7.0,1024,1024,1024,1024,0,0,0,0,75,4.553,62.78,162.073496,P-GPS,,49.4
355100,2026-01-11 17:23:47,0.0,5,7.495,0.0,0.0,0.0,29.2,10.5,-6.9,1024,1024,1024,1024,0,0,0,0,75,4.553,62.78,162.073496,P-GPS,,49.4
355200,2026-01-11 17:23:47,0.0,5,7.495,0.0,0.0,0.0,29.2,10.3,-7.5,1024,1024,1024,1024,0,0,0,0,75,4.553,62.78,162.073496,P-GPS,,49.4
355300,2026-01-11 17:23:48,0.0,5,7.495,0.0,0.0,0.0,29.3,9.9,-7.6,1024,1024,1024,1024,0,0,0,0,75,4.553,62.78,162.073496,P-GPS,,49.4
355400,2026-01-11 17:23:48,0.0,5,7.495,0.0,0.0,0.0,29.2,10.2,-7.8,1024,1024,1024,1024,0,0,0,0,75,4.553,62.78,162.073496,P-GPS,,49.4
355500,2026-01-11 17:23:48,0.0,5,7.495,0.0,0.0,0.0,29.2,10.2,-7.8,1024,1024,1024,1024,0,0,0,0,75,4.553,62.78,162.073496,P-GPS,,49.4
355600,2026-01-11 17:23:48,0.0,5,7.495,0.0,0.0,0.0,29.1,10.7,-7.6,1024,1024,1024,1024,0,0,0,0,75,4.553,62.78,162.073496,P-GPS,,49.4
355700,2026-01-11 17:23:48,0.0,5,7.495,0.0,0.0,0.0,29.1,10.7,-7.8,1024,1024,1024,1024,0,0,0,0,75,4.553,62.78,162.073496,P-GPS,,49.4
355800,2026-01-11 17:23:48,0.0,5,7.495,0.0,0.0,0.0,29.1,11.0,-7.5,1024,1024,1024,1024,0,0,0,0,75,4.553,62.78,162.073496,P-GPS,,49.4
355900,2026-01-11 17:23:48,0.0,5,7.495,0.0,0.0,0.0,29.1,10.6,-7.7,1024,1024,1024,1024,0,0,0,0,75,4.553,62.78,162.073496,P-GPS,,49.4
356000,2026-01-11 17:23:48,0.0,5,7.495,0.0,0.0,0.0,29.1,10.7,-7.7,1024,1024,1024,1024,0,0,0,0,75,4.553,62.78,162.073496,P-GPS,,49.4
356100,2026-01-11 17:23:48,0.0,5,7.495,0.0,0.0,0.0,29.2,10.4,-7.4,1024,1024,1024,1024,0,0,0,0,75,4.553,62.78,162.073496,P-GPS,,49.4
356200,2026-01-11 17:23:48,0.0,5,7.495,0.0,0.0,0.0,29.2,10.3,-7.2,1024,1024,1024,1024,0,0,0,0,75,4.553,62.78,162.073496,P-GPS,,49.4
356300,2026-01-11 17:23:49,0.0,5,7.487,0.0,0.0,0.0,29.2,10.0,-7.3,1024,1024,1024,1024,0,0,0,0,75,5.021,62.78,162.073496,P-GPS,,49.4
356400,2026-01-11 17:23:49,0.0,5,7.487,0.0,0.0,0.0,29.2,10.1,-7.2,1024,1024,1024,1024,0,0,0,0,75,5.021,62.78,162.073496,P-GPS,,49.4
356500,2026-01-11 17:23:49,0.0,5,7.487,0.0,0.0,0.0,29.3,10.0,-7.2,1024,1024,1024,1024,0,0,0,0,75,5.021,62.78,161.745412,P-GPS,,49.3
356600,2026-01-11 17:23:49,0.0,5,7.487,0.0,0.0,0.0,29.3,10.3,-7.0,1024,1024,1024,1024,0,0,0,0,75,5.021,62.78,161.745412,P-GPS,,49.3
356700,2026-01-11 17:23:49,0.0,5,7.487,0.0,0.0,0.0,29.3,10.3,-7.1,1024,1024,1024,1024,0,0,0,0,75,5.021,62.78,161.745412,P-GPS,,49.3
356800,2026-01-11 17:23:49,0.0,5,7.487,0.0,0.0,0.0,29.3,9.8,-7.8,1024,1024,1024,1024,0,0,0,0,75,5.021,62.78,161.745412,P-GPS,,49.3
356900,2026-01-11 17:23:49,0.0,5,7.487,0.0,0.0,0.0,29.0,11.0,-8.7,1024,1024,1024,1024,0,0,0,0,75,5.021,62.78,161.745412,P-GPS,,49.3
357100,2026-01-11 17:23:49,0.223694,5,7.487,0.0,0.223694,0.0,29.3,9.4,-8.6,1024,1024,1024,1024,0,0,0,0,75,5.021,62.78,161.745412,P-GPS,,49.3
357200,2026-01-11 17:23:49,0.223694,5,7.487,0.0,0.223694,0.0,29.2,10.5,-9.7,1024,1024,1024,1024,0,0,0,0,75,5.021,62.78,161.745412,P-GPS,,49.3
357300,2026-01-11 17:23:50,0.223694,5,7.487,0.0,0.223694,0.0,29.2,10.9,-9.7,1024,1024,1024,1024,0,0,0,0,75,5.021,62.78,161.745412,P-GPS,,49.3
357400,2026-01-11 17:23:50,0.223694,5,7.459,0.0,0.223694,0.0,29.0,11.1,-10.2,1024,1024,1024,1024,0,0,0,0,75,4.798,62.78,161.745412,P-GPS,,49.3
357500,2026-01-11 17:23:50,0.0,5,7.459,0.0,0.0,0.0,28.9,11.1,-10.1,1024,1024,1024,1024,0,0,0,0,75,4.798,62.78,161.745412,P-GPS,,49.3
357600,2026-01-11 17:23:50,0.0,5,7.459,0.0,0.0,0.0,28.9,10.7,-9.8,1024,1024,1024,1024,0,0,0,0,75,4.798,62.78,162.073496,P-GPS,,49.4
357700,2026-01-11 17:23:50,0.0,5,7.459,0.0,0.0,0.0,28.9,10.5,-9.6,1024,1024,1024,1024,0,0,0,0,75,4.798,62.78,162.073496,P-GPS,,49.4
357800,2026-01-11 17:23:50,0.0,5,7.459,0.0,0.0,0.0,29.0,10.2,-9.5,1024,1024,1024,1024,0,0,0,0,75,4.798,62.78,162.073496,P-GPS,,49.4
357900,2026-01-11 17:23:50,0.0,5,7.459,0.0,0.0,0.0,29.0,10.0,-9.4,1024,1024,1024,1024,0,0,0,0,75,4.798,62.78,162.073496,P-GPS,,49.4
358000,2026-01-11 17:23:50,0.0,5,7.459,0.0,0.0,0.0,29.0,10.2,-9.4,1024,1024,1024,1024,0,0,0,0,75,4.798,62.78,162.073496,P-GPS,,49.4
358100,2026-01-11 17:23:50,0.0,5,7.459,0.0,0.0,0.0,29.1,9.4,-9.5,1024,1024,1024,1024,0,0,0,0,75,4.798,62.78,162.073496,P-GPS,,49.4
358200,2026-01-11 17:23:50,0.0,5,7.459,0.0,0.0,0.0,29.0,9.4,-9.7,1024,1024,1024,1024,0,0,0,0,75,4.798,62.78,162.073496,P-GPS,,49.4
358300,2026-01-11 17:23:51,0.0,5,7.459,0.0,0.0,0.0,29.0,9.8,-9.7,1024,1024,1024,1024,0,0,0,0,75,4.798,62.78,162.073496,P-GPS,,49.4
358400,2026-01-11 17:23:51,0.0,5,7.459,0.0,0.0,0.0,29.0,10.1,-10.0,1024,1024,1024,1024,0,0,0,0,75,4.798,62.78,162.073496,P-GPS,,49.4
358500,2026-01-11 17:23:51,0.0,5,7.501,0.0,0.0,0.0,29.1,9.8,-9.7,1024,1024,1024,1024,0,0,0,0,75,4.486,62.78,162.073496,P-GPS,,49.4
358600,2026-01-11 17:23:51,0.0,5,7.501,0.0,0.0,0.0,29.1,10.3,-10.2,1024,1024,1024,1024,0,0,0,0,75,4.486,62.78,162.073496,P-GPS,,49.4
358700,2026-01-11 17:23:51,0.0,5,7.501,0.0,0.0,0.0,29.1,10.1,-10.5,1024,1024,1024,1024,0,0,0,0,75,4.486,62.78,162.073496,P-GPS,,49.4
358800,2026-01-11 17:23:51,0.0,5,7.501,0.0,0.0,0.0,29.0,10.9,-10.0,1024,1024,1024,1024,0,0,0,0,75,4.486,62.78,162.073496,P-GPS,,49.4
358900,2026-01-11 17:23:51,0.0,5,7.501,0.0,0.0,0.0,29.0,10.8,-10.2,1024,1024,1024,1024,0,0,0,0,75,4.486,62.78,162.073496,P-GPS,,49.4
359000,2026-01-11 17:23:51,0.0,5,7.501,0.0,0.0,0.0,28.9,11.0,-10.2,1024,1024,1024,1024,0,0,0,0,75,4.486,62.78,162.073496,P-GPS,,49.4
359100,2026-01-11 17:23:51,0.0,5,7.501,0.0,0.0,0.0,29.0,11.0,-10.2,1024,1024,1024,1024,0,0,0,0,75,4.486,62.78,162.073496,P-GPS,,49.4
359200,2026-01-11 17:23:51,0.0,5,7.501,0.0,0.0,0.0,29.0,10.8,-10.2,1024,1024,1024,1024,0,0,0,0,75,4.486,62.78,162.073496,P-GPS,,49.4
359300,2026-01-11 17:23:52,0.0,5,7.501,0.0,0.0,0.0,29.0,11.1,-10.4,1024,1024,1024,1024,0,0,0,0,75,4.486,62.78,162.073496,P-GPS,,49.4
359400,2026-01-11 17:23:52,0.0,5,7.501,0.0,0.0,0.0,29.0,11.4,-10.3,1024,1024,1024,1024,0,0,0,0,75,4.486,62.78,162.073496,P-GPS,,49.4
359500,2026-01-11 17:23:52,0.0,5,7.501,0.0,0.0,0.0,29.0,11.5,-10.3,1024,1024,1024,1024,0,0,0,0,75,4.486,62.78,162.073496,P-GPS,,49.4
359600,2026-01-11 17:23:52,0.0,5,7.481,0.0,0.0,0.0,28.9,11.8,-10.6,1024,1024,1024,1024,0,0,0,0,75,5.337,62.78,162.073496,P-GPS,,49.4
359700,2026-01-11 17:23:52,0.0,5,7.481,0.0,0.0,0.0,28.8,12.0,-10.4,1024,1024,1024,1024,0,0,0,0,75,5.337,62.78,162.073496,P-GPS,,49.4
359800,2026-01-11 17:23:52,0.0,5,7.481,0.0,0.0,0.0,28.9,11.6,-10.3,1024,1024,1024,1024,0,0,0,0,75,5.337,62.78,162.073496,P-GPS,,49.4
359900,2026-01-11 17:23:52,0.0,5,7.481,0.0,0.0,0.0,28.9,11.7,-10.3,1024,1024,1024,1024,0,0,0,0,75,5.337,62.78,162.073496,P-GPS,,49.4
360000,2026-01-11 17:23:52,0.0,5,7.481,0.0,0.0,0.0,28.9,11.8,-10.9,1024,1024,1024,1024,0,0,0,0,75,5.337,62.78,162.40158,P-GPS,,49.5
360100,2026-01-11 17:23:52,0.0,5,7.481,0.0,0.0,0.0,28.8,11.9,-11.1,1024,1024,1024,1024,0,0,0,0,75,5.337,62.78,162.40158,P-GPS,,49.5
360200,2026-01-11 17:23:52,0.0,5,7.481,0.0,0.0,0.0,28.7,12.0,-11.1,1024,1024,1024,1024,0,0,0,0,75,5.337,62.78,162.40158,P-GPS,,49.5
360300,2026-01-11 17:23:53,0.0,5,7.481,0.0,0.0,0.0,28.7,12.0,-11.1,1024,1024,1024,1024,0,0,0,0,75,5.337,62.78,162.40158,P-GPS,,49.5
360400,2026-01-11 17:23:53,0.0,5,7.481,0.0,0.0,0.0,28.7,12.0,-11.1,1024,1024,1024,1024,0,0,0,0,75,5.337,62.78,162.40158,P-GPS,,49.5
360500,2026-01-11 17:23:53,0.0,5,7.481,0.0,0.0,0.0,28.7,12.1,-11.0,1024,1024,1024,1024,0,0,0,0,75,5.337,62.78,162.40158,P-GPS,,49.5
360600,2026-01-11 17:23:53,0.0,5,7.481,0.0,0.0,0.0,28.7,12.2,-10.9,1024,1024,1024,1024,0,0,0,0,75,5.337,62.78,162.40158,P-GPS,,49.5
360700,2026-01-11 17:23:53,0.0,5,7.454,0.0,0.0,0.0,28.7,12.0,-11.0,1024,1024,1024,1024,0,0,0,0,75,5.504,62.96,162.40158,P-GPS,,49.5
360800,2026-01-11 17:23:53,0.0,5,7.454,0.0,0.0,0.0,28.7,12.1,-11.1,1024,1024,1024,1024,0,0,0,0,75,5.504,62.96,162.40158,P-GPS,,49.5
360900,2026-01-11 17:23:53,0.0,5,7.454,0.0,0.0,0.0,28.7,12.1,-11.1,1024,1024,1024,1024,0,0,0,0,75,5.504,62.96,162.40158,P-GPS,,49.5
361000,2026-01-11 17:23:53,0.0,5,7.454,0.0,0.0,0.0,28.6,12.3,-11.0,1024,1024,1024,1024,0,0,0,0,75,5.504,62.96,162.40158,P-GPS,,49.5
361100,2026-01-11 17:23:53,0.0,5,7.454,0.0,0.0,0.0,28.7,12.3,-10.9,1024,1024,1024,1024,0,0,0,0,75,5.504,62.96,162.40158,P-GPS,,49.5
361200,2026-01-11 17:23:53,0.0,5,7.454,0.0,0.0,0.0,28.7,12.2,-10.8,1024,1024,1024,1024,0,0,0,0,75,5.504,62.96,162.40158,P-GPS,,49.5
361300,2026-01-11 17:23:54,0.0,5,7.454,0.0,0.0,0.0,28.7,12.2,-10.7,1024,1024,1024,1024,0,0,0,0,75,5.504,62.96,162.40158,P-GPS,,49.5
361400,2026-01-11 17:23:54,0.0,5,7.454,0.0,0.0,0.0,28.7,12.3,-10.8,1024,1024,1024,1024,0,0,0,0,75,5.504,62.96,162.40158,P-GPS,,49.5
361500,2026-01-11 17:23:54,0.0,5,7.454,0.0,0.0,0.0,28.8,11.9,-10.6,1024,1024,1024,1024,0,0,0,0,75,5.504,62.96,162.40158,P-GPS,,49.5
361600,2026-01-11 17:23:54,0.0,5,7.454,0.0,0.0,0.0,28.8,12.2,-10.9,1024,1024,1024,1024,0,0,0,0,75,5.504,62.96,162.40158,P-GPS,,49.5
361700,2026-01-11 17:23:54,0.0,5,7.454,0.0,0.0,0.0,28.7,12.1,-11.3,1024,1024,1024,1024,0,0,0,0,75,5.504,62.96,162.40158,P-GPS,,49.5
361800,2026-01-11 17:23:54,0.0,5,7.445,0.0,0.0,0.0,28.7,12.2,-11.1,1024,1024,1024,1024,0,0,0,0,75,5.697,62.96,162.073496,P-GPS,,49.4
361900,2026-01-11 17:23:54,0.0,5,7.445,0.0,0.0,0.0,28.7,12.1,-11.2,1024,1024,1024,1024,0,0,0,0,75,5.697,62.96,162.073496,P-GPS,,49.4
362000,2026-01-11 17:23:54,0.0,5,7.445,0.0,0.0,0.0,28.6,12.0,-11.2,1024,1024,1024,1024,0,0,0,0,75,5.697,62.96,162.073496,P-GPS,,49.4
362100,2026-01-11 17:23:54,0.0,5,7.445,0.0,0.0,0.0,28.7,11.7,-10.8,1024,1024,1024,1024,0,0,0,0,75,5.697,62.96,162.073496,P-GPS,,49.4
362200,2026-01-11 17:23:54,0.0,5,7.445,0.0,0.0,0.0,28.8,11.8,-10.9,1024,1024,1024,1024,0,0,0,0,75,5.697,62.96,162.073496,P-GPS,,49.4
362300,2026-01-11 17:23:55,0.0,5,7.445,0.0,0.0,0.0,28.8,11.8,-10.7,1024,1024,1024,1024,0,0,0,0,75,5.697,62.96,162.073496,P-GPS,,49.4
362400,2026-01-11 17:23:55,0.0,5,7.445,0.0,0.0,0.0,28.8,11.7,-10.7,1024,1024,1024,1024,0,0,0,0,75,5.697,62.96,162.073496,P-GPS,,49.4
362500,2026-01-11 17:23:55,0.0,5,7.445,0.0,0.0,0.0,29.0,11.3,-10.8,1024,1024,1024,1024,0,0,0,0,75,5.697,62.96,162.073496,P-GPS,,49.4
362600,2026-01-11 17:23:55,0.0,5,7.445,0.0,0.0,0.0,28.9,11.3,-11.0,1024,1024,1024,1024,0,0,0,0,75,5.697,62.96,162.073496,P-GPS,,49.4
362700,2026-01-11 17:23:55,0.0,5,7.445,0.0,0.0,0.0,28.9,11.3,-11.5,1024,1024,1024,1024,0,0,0,0,75,5.697,62.96,162.073496,P-GPS,,49.4
362800,2026-01-11 17:23:55,0.0,5,7.445,0.0,0.0,0.0,28.9,11.4,-11.3,1024,1024,1024,1024,0,0,0,0,75,5.697,62.96,162.073496,P-GPS,,49.4
362900,2026-01-11 17:23:55,0.0,5,7.461,0.0,0.0,0.0,28.8,11.6,-11.3,1024,1024,1024,1024,0,0,0,0,75,5.49,62.96,162.073496,P-GPS,,49.4
363000,2026-01-11 17:23:55,0.0,5,7.461,0.0,0.0,0.0,28.8,11.5,-11.2,1024,1024,1024,1024,0,0,0,0,75,5.49,62.96,162.073496,P-GPS,,49.4
363100,2026-01-11 17:23:55,0.0,5,7.461,0.0,0.0,0.0,28.9,10.9,-11.4,1024,1024,1024,1024,0,0,0,0,75,5.49,62.96,162.073496,P-GPS,,49.4
363200,2026-01-11 17:23:55,0.0,5,7.461,0.0,0.0,0.0,28.8,11.1,-11.5,1024,1024,1024,1024,0,0,0,0,75,5.49,62.96,162.073496,P-GPS,,49.4
363300,2026-01-11 17:23:55,0.0,5,7.461,0.0,0.0,0.0,28.8,11.2,-11.3,1024,1024,1024,1024,0,0,0,0,75,5.49,62.96,162.073496,P-GPS,,49.4
363400,2026-01-11 17:23:56,0.0,5,7.461,0.0,0.0,0.0,28.7,11.1,-11.6,1024,1024,1024,1024,0,0,0,0,75,5.49,62.96,162.073496,P-GPS,,49.4
363500,2026-01-11 17:23:56,0.0,5,7.461,0.0,0.0,0.0,28.8,11.0,-11.4,1024,1024,1024,1024,0,0,0,0,75,5.49,62.96,162.073496,P-GPS,,49.4
363600,2026-01-11 17:23:56,0.0,5,7.461,0.0,0.0,0.0,28.8,10.8,-11.8,1024,1024,1024,1024,0,0,0,0,75,5.49,62.96,162.073496,P-GPS,,49.4
363700,2026-01-11 17:23:56,0.0,5,7.461,0.0,0.0,0.0,28.9,10.9,-11.9,1024,1024,1024,1024,0,0,0,0,75,5.49,62.96,162.073496,P-GPS,,49.4
363800,2026-01-11 17:23:56,0.0,5,7.461,0.0,0.0,0.0,28.8,11.5,-12.0,1024,1024,1024,1024,0,0,0,0,75,5.49,62.96,162.073496,P-GPS,,49.4
363900,2026-01-11 17:23:56,0.0,5,7.461,0.0,0.0,0.0,28.7,11.7,-11.6,1024,1024,1024,1024,0,0,0,0,75,5.49,62.96,162.073496,P-GPS,,49.4
364000,2026-01-11 17:23:56,0.0,5,7.469,0.0,0.0,0.0,28.8,11.5,-11.5,1024,1024,1024,1024,0,0,0,0,75,5.273,62.96,162.073496,P-GPS,,49.4
364100,2026-01-11 17:23:56,0.0,5,7.469,0.0,0.0,0.0,28.9,11.5,-11.6,1024,1024,1024,1024,0,0,0,0,75,5.273,62.96,162.073496,P-GPS,,49.4
364200,2026-01-11 17:23:56,0.0,5,7.469,0.0,0.0,0.0,28.8,11.8,-11.5,1024,1024,1024,1024,0,0,0,0,75,5.273,62.96,162.073496,P-GPS,,49.4
364300,2026-01-11 17:23:57,0.0,5,7.469,0.0,0.0,0.0,28.8,11.6,-11.1,1024,1024,1024,1024,0,0,0,0,75,5.273,62.96,162.073496,P-GPS,,49.4
364400,2026-01-11 17:23:57,0.0,5,7.469,0.0,0.0,0.0,28.8,11.2,-11.0,1024,1024,1024,1024,0,0,0,0,75,5.273,62.96,162.073496,P-GPS,,49.4
364500,2026-01-11 17:23:57,0.0,5,7.469,0.0,0.0,0.0,28.8,10.9,-11.2,1024,1024,1024,1024,0,0,0,0,75,5.273,62.96,162.073496,P-GPS,,49.4
364600,2026-01-11 17:23:57,0.0,5,7.469,0.0,0.0,0.0,28.9,10.6,-11.1,1024,1024,1024,1024,0,0,0,0,75,5.273,62.96,162.073496,P-GPS,,49.4
364700,2026-01-11 17:23:57,0.0,5,7.469,0.0,0.0,0.0,28.9,10.4,-10.8,1024,1024,1024,1024,0,0,0,0,75,5.273,62.96,162.073496,P-GPS,,49.4
364800,2026-01-11 17:23:57,0.0,5,7.469,0.0,0.0,0.0,29.0,10.0,-10.6,1024,1024,1024,1024,0,0,0,0,75,5.273,62.96,161.745412,P-GPS,,49.3
364900,2026-01-11 17:23:57,0.0,5,7.469,0.0,0.0,0.0,28.9,9.9,-10.4,1024,1024,1024,1024,0,0,0,0,75,5.273,62.96,161.745412,P-GPS,,49.3
365000,2026-01-11 17:23:57,0.0,5,7.469,0.0,0.0,0.0,29.0,9.5,-10.4,1024,1024,1024,1024,0,0,0,0,75,5.273,62.96,161.745412,P-GPS,,49.3
365100,2026-01-11 17:23:57,0.0,5,7.485,0.0,0.0,0.0,29.1,9.2,-10.2,1024,1024,1024,1024,0,0,0,0,75,4.994,62.96,161.745412,P-GPS,,49.3
365200,2026-01-11 17:23:58,0.0,5,7.485,0.0,0.0,0.0,29.1,8.9,-10.1,1024,1024,1024,1024,0,0,0,0,75,4.994,62.96,161.745412,P-GPS,,49.3
365300,2026-01-11 17:23:58,0.0,5,7.485,0.0,0.0,0.0,29.1,8.8,-10.0,1024,1024,1024,1024,0,0,0,0,75,4.994,62.96,161.745412,P-GPS,,49.3
365400,2026-01-11 17:23:58,0.0,5,7.485,0.0,0.0,0.0,29.0,9.3,-10.2,1024,1024,1024,1024,0,0,0,0,75,4.994,62.96,161.745412,P-GPS,,49.3
365500,2026-01-11 17:23:58,0.0,5,7.485,0.0,0.0,0.0,28.9,9.4,-10.1,1024,1024,1024,1024,0,0,0,0,75,4.994,62.96,161.745412,P-GPS,,49.3
365600,2026-01-11 17:23:58,0.0,5,7.485,0.0,0.0,0.0,28.8,9.9,-9.8,1024,1024,1024,1024,0,0,0,0,75,4.994,62.96,161.745412,P-GPS,,49.3
365700,2026-01-11 17:23:58,0.0,5,7.485,0.0,0.0,0.0,28.8,10.0,-9.8,1024,1024,1024,1024,0,0,0,0,75,4.994,62.96,161.745412,P-GPS,,49.3
365800,2026-01-11 17:23:58,0.0,5,7.485,0.0,0.0,0.0,28.8,10.4,-9.6,1024,1024,1024,1024,0,0,0,0,75,4.994,62.96,161.417328,P-GPS,,49.2
365900,2026-01-11 17:23:58,0.0,5,7.485,0.0,0.0,0.0,29.1,9.9,-9.4,1024,1024,1024,1024,0,0,0,0,75,4.994,62.96,161.417328,P-GPS,,49.2
366000,2026-01-11 17:23:58,0.0,5,7.485,0.0,0.0,0.0,29.1,10.1,-9.4,1024,1024,1024,1024,0,0,0,0,75,4.994,62.96,161.417328,P-GPS,,49.2
366100,2026-01-11 17:23:58,0.0,5,7.485,0.0,0.0,0.0,29.0,11.0,-9.6,1024,1024,1024,1024,0,0,0,0,75,4.994,62.96,161.417328,P-GPS,,49.2
366200,2026-01-11 17:23:58,0.0,5,7.485,0.0,0.0,0.0,29.1,10.6,-9.5,1024,1024,1024,1024,0,0,0,0,75,4.994,62.96,161.417328,P-GPS,,49.2
366300,2026-01-11 17:23:59,0.0,5,7.485,0.0,0.0,0.0,29.0,10.8,-9.4,1024,1024,1024,1024,0,0,0,0,75,4.994,62.96,161.089244,P-GPS,,49.1
366400,2026-01-11 17:23:59,0.0,5,7.485,0.0,0.0,0.0,29.0,11.3,-9.5,1024,1024,1024,1024,0,0,0,0,75,4.994,62.96,161.089244,P-GPS,,49.1
366500,2026-01-11 17:23:59,0.0,5,7.485,0.0,0.0,0.0,29.0,11.3,-9.3,1024,1024,1024,1024,0,0,0,0,75,4.994,62.96,161.089244,P-GPS,,49.1
366600,2026-01-11 17:23:59,0.0,5,7.485,0.0,0.0,0.0,28.9,12.2,-9.7,1024,1024,1024,1024,0,0,0,0,75,4.994,62.96,161.089244,P-GPS,,49.1
366700,2026-01-11 17:23:59,0.0,5,7.485,0.0,0.0,0.0,28.8,12.6,-10.0,1024,1024,1024,1024,0,0,0,0,75,4.994,62.96,161.089244,P-GPS,,49.1
366800,2026-01-11 17:23:59,0.0,5,7.485,0.0,0.0,0.0,28.7,12.6,-10.3,1024,1024,1024,1024,0,0,0,0,75,4.994,62.96,161.089244,P-GPS,,49.1
366900,2026-01-11 17:23:59,0.0,5,7.485,0.0,0.0,0.0,28.7,12.8,-10.2,1024,1024,1024,1024,0,0,0,0,75,4.994,62.96,161.417328,P-GPS,,49.2
367000,2026-01-11 17:23:59,0.0,5,7.485,0.0,0.0,0.0,28.7,12.3,-10.3,1024,1024,1024,1024,0,0,0,0,75,4.994,62.96,161.417328,P-GPS,,49.2
367100,2026-01-11 17:23:59,0.0,5,7.485,0.0,0.0,0.0,28.7,12.1,-10.9,1024,1024,1024,1024,0,0,0,0,75,4.994,62.96,161.745412,P-GPS,,49.3
367200,2026-01-11 17:24:00,0.223694,5,7.485,0.0,0.223694,0.0,28.7,11.9,-11.6,1024,1024,1024,1024,0,0,0,0,75,4.994,62.96,161.745412,P-GPS,,49.3
367300,2026-01-11 17:24:00,0.223694,5,7.52,0.0,0.223694,0.0,28.5,12.3,-12.2,1024,1024,1024,1024,0,0,0,0,75,4.582,62.96,161.745412,P-GPS,,49.3
367400,2026-01-11 17:24:00,0.223694,5,7.52,0.0,0.223694,0.0,28.2,13.0,-13.1,1024,1024,1024,1024,0,0,0,0,75,4.582,62.96,162.073496,P-GPS,,49.4
367500,2026-01-11 17:24:00,0.223694,5,7.52,0.0,0.223694,0.0,28.3,13.5,-12.7,1024,1024,1024,1024,0,0,0,0,75,4.582,62.96,162.073496,P-GPS,,49.4
367600,2026-01-11 17:24:00,0.0,5,7.52,0.0,0.0,0.0,28.5,13.5,-11.7,1024,1024,1024,1024,0,0,0,0,75,4.582,62.96,162.073496,P-GPS,,49.4
367700,2026-01-11 17:24:00,0.223694,5,7.52,0.223694,0.0,0.0,28.7,13.7,-10.6,1024,1024,1024,1024,0,0,0,0,74,4.582,62.96,162.073496,P-GPS,,49.4
367800,2026-01-11 17:24:00,0.223694,5,7.52,0.223694,0.0,0.0,28.7,13.7,-9.9,1024,1024,1024,1024,0,0,0,0,74,4.582,62.96,162.073496,P-GPS,,49.4
367900,2026-01-11 17:24:00,0.223694,5,7.52,0.223694,0.0,0.0,28.8,13.9,-9.6,1024,1024,1024,1024,0,0,0,0,74,4.582,62.96,162.073496,P-GPS,,49.4
368000,2026-01-11 17:24:00,0.223694,5,7.52,0.223694,0.0,0.0,28.8,14.1,-9.2,1024,1024,1024,1024,0,0,0,0,74,4.582,62.96,162.073496,P-GPS,,49.4
368100,2026-01-11 17:24:00,0.0,5,7.52,0.0,0.0,0.0,28.9,13.7,-8.9,1024,1024,1024,1024,0,0,0,0,74,4.582,62.96,162.073496,P-GPS,,49.4
368200,2026-01-11 17:24:00,0.0,5,7.52,0.0,0.0,0.0,28.8,13.5,-9.4,1024,1024,1024,1024,0,0,0,0,74,4.582,62.96,162.073496,P-GPS,,49.4
368300,2026-01-11 17:24:01,0.0,5,7.52,0.0,0.0,0.0,28.7,13.5,-10.1,1024,1024,1024,1024,0,0,0,0,74,4.582,62.96,162.40158,P-GPS,,49.5
368400,2026-01-11 17:24:01,0.0,5,7.388,0.0,0.0,0.0,28.6,13.8,-10.9,1024,1024,1024,1024,0,0,0,0,74,6.5,62.96,162.40158,P-GPS,,49.5
368500,2026-01-11 17:24:01,0.0,5,7.388,0.0,0.0,0.0,28.5,14.2,-11.5,1024,1024,1024,1024,0,0,0,0,74,6.5,62.96,162.40158,P-GPS,,49.5
368700,2026-01-11 17:24:01,0.0,5,7.388,0.0,0.0,0.0,28.6,14.1,-11.2,1024,1024,1024,1024,0,0,0,0,74,6.5,62.96,162.40158,P-GPS,,49.5
368800,2026-01-11 17:24:01,0.0,5,7.388,0.0,0.0,0.0,28.8,13.4,-11.2,1024,1024,1024,1024,0,0,0,0,74,6.5,62.96,162.40158,P-GPS,,49.5
368900,2026-01-11 17:24:01,0.0,5,7.388,0.0,0.0,0.0,28.8,13.2,-10.9,1024,1024,1024,1024,0,0,0,0,74,6.5,62.96,162.40158,P-GPS,,49.5
369000,2026-01-11 17:24:01,0.0,5,7.388,0.0,0.0,0.0,28.8,13.6,-10.3,1024,1024,1024,1024,0,0,0,0,74,6.5,62.96,162.40158,P-GPS,,49.5
369100,2026-01-11 17:24:01,0.0,5,7.388,0.0,0.0,0.0,28.8,13.7,-9.8,1024,1024,1024,1024,0,0,0,0,74,6.5,62.96,162.40158,P-GPS,,49.5
369200,2026-01-11 17:24:01,0.0,5,7.388,0.0,0.0,0.0,29.0,13.3,-9.6,1024,1024,1024,1024,0,0,0,0,74,6.5,62.96,162.40158,P-GPS,,49.5
369300,2026-01-11 17:24:02,0.0,5,7.388,0.0,0.0,0.0,28.9,13.5,-9.4,1024,1024,1024,1024,0,0,0,0,74,6.5,62.96,162.40158,P-GPS,,49.5
369400,2026-01-11 17:24:02,0.0,5,7.388,0.0,0.0,0.0,28.8,14.0,-9.5,1024,1024,1024,1024,0,0,0,0,74,6.5,62.96,162.40158,P-GPS,,49.5
369500,2026-01-11 17:24:02,0.0,5,7.392,0.0,0.0,0.0,28.8,13.9,-9.7,1024,1024,1024,1024,0,0,0,0,74,6.905,62.96,162.40158,P-GPS,,49.5
369600,2026-01-11 17:24:02,0.0,5,7.392,0.0,0.0,0.0,28.7,13.8,-10.1,1024,1024,1024,1024,0,0,0,0,74,6.905,62.96,162.073496,P-GPS,,49.4
369700,2026-01-11 17:24:02,0.0,5,7.392,0.0,0.0,0.0,28.6,14.0,-10.0,1024,1024,1024,1024,0,0,0,0,74,6.905,62.96,162.40158,P-GPS,,49.5
369800,2026-01-11 17:24:02,0.0,5,7.392,0.0,0.0,0.0,28.6,13.9,-10.1,1024,1024,1024,1024,0,0,0,0,74,6.905,62.96,162.073496,P-GPS,,49.4
369900,2026-01-11 17:24:02,0.0,5,7.392,0.0,0.0,0.0,28.7,13.4,-10.3,1024,1024,1024,1024,0,0,0,0,74,6.905,62.96,162.073496,P-GPS,,49.4
370000,2026-01-11 17:24:02,0.0,5,7.392,0.0,0.0,0.0,28.8,12.8,-10.1,1024,1024,1024,1024,0,0,0,0,74,6.905,62.96,162.073496,P-GPS,,49.4
370100,2026-01-11 17:24:02,0.0,5,7.392,0.0,0.0,0.0,28.6,12.8,-10.4,1024,1024,1024,1024,0,0,0,0,74,6.905,62.96,162.073496,P-GPS,,49.4
370200,2026-01-11 17:24:02,0.0,5,7.392,0.0,0.0,0.0,28.6,12.6,-10.5,1024,1024,1024,1024,0,0,0,0,74,6.905,62.96,162.073496,P-GPS,,49.4
370300,2026-01-11 17:24:02,0.0,5,7.392,0.0,0.0,0.0,28.7,12.3,-10.4,1024,1024,1024,1024,0,0,0,0,74,6.905,62.96,161.745412,P-GPS,,49.3
370400,2026-01-11 17:24:03,0.0,5,7.392,0.0,0.0,0.0,28.5,12.9,-10.6,1024,1024,1024,1024,0,0,0,0,74,6.905,62.96,161.745412,P-GPS,,49.3
370500,2026-01-11 17:24:03,0.0,5,7.392,0.0,0.0,0.0,28.4,13.4,-10.8,1024,1024,1024,1024,0,0,0,0,74,6.905,62.96,161.745412,P-GPS,,49.3
370600,2026-01-11 17:24:03,0.0,5,7.434,0.0,0.0,0.0,28.5,13.9,-10.5,1024,1024,1024,1024,0,0,0,0,74,6.116,62.96,161.417328,P-GPS,,49.2
370700,2026-01-11 17:24:03,0.0,5,7.434,0.0,0.0,0.0,28.7,14.1,-10.1,1024,1024,1024,1024,0,0,0,0,74,6.116,62.96,161.417328,P-GPS,,49.2
370900,2026-01-11 17:24:03,0.223694,5,7.434,0.223694,0.0,0.0,28.8,14.3,-8.7,1024,1024,1024,1024,0,0,0,0,74,6.116,62.96,161.417328,P-GPS,,49.2
371000,2026-01-11 17:24:03,0.223694,5,7.434,0.223694,0.0,0.0,28.9,14.4,-8.0,1024,1024,1024,1024,0,0,0,0,74,6.116,62.96,161.417328,P-GPS,,49.2
371100,2026-01-11 17:24:03,0.0,5,7.434,0.0,0.0,0.0,28.9,14.1,-7.3,1024,1024,1024,1024,0,0,0,0,74,6.116,62.96,161.417328,P-GPS,,49.2
371500,2026-01-11 17:24:04,0.0,5,7.434,0.0,0.0,0.0,28.8,13.1,-8.3,1024,1024,1024,1024,0,0,0,0,74,6.116,62.96,161.417328,P-GPS,,49.2
371600,2026-01-11 17:24:04,0.0,5,7.434,0.0,0.0,0.0,28.7,12.9,-8.7,1024,1024,1024,1024,0,0,0,0,74,6.116,62.96,161.417328,P-GPS,,49.2
371700,2026-01-11 17:24:04,0.0,5,7.407,0.0,0.0,0.0,28.6,13.2,-9.7,1024,1024,1024,1024,0,0,0,0,74,6.482,62.96,161.417328,P-GPS,,49.2
371800,2026-01-11 17:24:04,0.0,5,7.407,0.0,0.0,0.0,28.5,13.3,-9.9,1024,1024,1024,1024,0,0,0,0,74,6.482,62.96,161.417328,P-GPS,,49.2
371900,2026-01-11 17:24:04,0.0,5,7.407,0.0,0.0,0.0,28.6,13.0,-9.6,1024,1024,1024,1024,0,0,0,0,74,6.482,62.96,161.417328,P-GPS,,49.2
372000,2026-01-11 17:24:04,0.0,5,7.407,0.0,0.0,0.0,28.5,13.1,-10.4,1024,1024,1024,1024,0,0,0,0,74,6.482,62.96,161.417328,P-GPS,,49.2
372100,2026-01-11 17:24:04,0.0,5,7.407,0.0,0.0,0.0,28.6,12.5,-10.3,1024,1024,1024,1024,0,0,0,0,74,6.482,62.96,161.089244,P-GPS,,49.1
372200,2026-01-11 17:24:05,0.0,5,7.407,0.0,0.0,0.0,28.7,12.8,-9.7,1024,1024,1024,1024,0,0,0,0,74,6.482,62.96,161.089244,P-GPS,,49.1
372300,2026-01-11 17:24:05,0.0,5,7.407,0.0,0.0,0.0,28.8,12.5,-8.6,1024,1024,1024,1024,0,0,0,0,74,6.482,62.96,161.089244,P-GPS,,49.1
372400,2026-01-11 17:24:05,0.0,5,7.407,0.0,0.0,0.0,28.8,12.8,-8.5,1024,1024,1024,1024,0,0,0,0,74,6.482,62.96,161.089244,P-GPS,,49.1
372500,2026-01-11 17:24:05,0.0,5,7.407,0.0,0.0,0.0,28.9,12.6,-8.5,1024,1024,1024,1024,0,0,0,0,74,6.482,62.96,160.76116,P-GPS,,49.0
372600,2026-01-11 17:24:05,0.0,5,7.407,0.0,0.0,0.0,28.7,13.9,-8.2,1024,1024,1024,1024,0,0,0,0,74,6.482,62.96,160.76116,P-GPS,,49.0
372700,2026-01-11 17:24:05,0.0,5,7.407,0.0,0.0,0.0,28.9,13.7,-8.0,1024,1024,1024,1024,0,0,0,0,74,6.482,62.96,160.76116,P-GPS,,49.0
372800,2026-01-11 17:24:05,0.0,5,7.425,0.0,0.0,0.0,28.8,14.3,-8.4,1024,1024,1024,1024,0,0,0,0,74,6.066,63.14,160.76116,P-GPS,,49.0
372900,2026-01-11 17:24:05,0.0,5,7.425,0.0,0.0,0.0,28.9,14.2,-8.3,1024,1024,1024,1024,0,0,0,0,74,6.066,63.14,160.76116,P-GPS,,49.0
373000,2026-01-11 17:24:05,0.0,5,7.425,0.0,0.0,0.0,28.8,14.2,-9.0,1024,1024,1024,1024,0,0,0,0,74,6.066,63.14,160.76116,P-GPS,,49.0
373100,2026-01-11 17:24:05,0.0,5,7.425,0.0,0.0,0.0,28.6,14.7,-9.2,1024,1024,1024,1024,0,0,0,0,74,6.066,63.14,160.76116,P-GPS,,49.0
373200,2026-01-11 17:24:05,0.0,5,7.425,0.0,0.0,0.0,28.5,15.1,-10.0,1024,1024,1024,1024,0,0,0,0,74,6.066,63.14,160.76116,P-GPS,,49.0
373300,2026-01-11 17:24:06,0.0,5,7.425,0.0,0.0,0.0,28.8,14.9,-9.8,1024,1024,1024,1024,0,0,0,0,74,6.066,63.14,160.76116,P-GPS,,49.0
373400,2026-01-11 17:24:06,0.0,5,7.425,0.0,0.0,0.0,28.8,14.6,-9.8,1024,1024,1024,1024,0,0,0,0,74,6.066,63.14,160.76116,P-GPS,,49.0
373500,2026-01-11 17:24:06,0.0,5,7.425,0.0,0.0,0.0,28.7,14.4,-9.5,1024,1024,1024,1024,0,0,0,0,74,6.066,63.14,160.76116,P-GPS,,49.0
373600,2026-01-11 17:24:06,0.0,5,7.425,0.0,0.0,0.0,28.7,14.7,-9.2,1024,1024,1024,1024,0,0,0,0,74,6.066,63.14,160.76116,P-GPS,,49.0
373700,2026-01-11 17:24:06,0.0,5,7.425,0.0,0.0,0.0,28.8,14.5,-8.5,1024,1024,1024,1024,0,0,0,0,74,6.066,63.14,160.76116,P-GPS,,49.0
373800,2026-01-11 17:24:06,0.0,5,7.425,0.0,0.0,0.0,28.8,14.5,-8.3,1024,1024,1024,1024,0,0,0,0,74,6.066,63.14,160.76116,P-GPS,,49.0
373900,2026-01-11 17:24:06,0.0,5,7.384,0.0,0.0,0.0,28.9,14.0,-7.6,1024,1024,1024,1024,0,0,0,0,74,6.264,62.96,160.76116,P-GPS,,49.0
374000,2026-01-11 17:24:06,0.0,5,7.384,0.0,0.0,0.0,28.9,13.9,-8.0,1024,1024,1024,1024,0,0,0,0,74,6.264,62.96,160.76116,P-GPS,,49.0
374100,2026-01-11 17:24:06,0.0,5,7.384,0.0,0.0,0.0,28.9,13.4,-8.5,1024,1024,1024,1024,0,0,0,0,74,6.264,62.96,160.76116,P-GPS,,49.0
374200,2026-01-11 17:24:07,0.0,5,7.384,0.0,0.0,0.0,28.7,13.8,-9.3,1024,1024,1024,1024,0,0,0,0,74,6.264,62.96,160.76116,P-GPS,,49.0
374300,2026-01-11 17:24:07,0.0,5,7.384,0.0,0.0,0.0,28.8,13.3,-9.2,1024,1024,1024,1024,0,0,0,0,74,6.264,62.96,160.76116,P-GPS,,49.0
374400,2026-01-11 17:24:07,0.0,5,7.384,0.0,0.0,0.0,28.7,13.4,-9.3,1024,1024,1024,1024,0,0,0,0,74,6.264,62.96,160.433076,P-GPS,,48.9
374500,2026-01-11 17:24:07,0.0,5,7.384,0.0,0.0,0.0,28.7,13.5,-9.6,1024,1024,1024,1024,0,0,0,0,74,6.264,62.96,160.433076,P-GPS,,48.9
374600,2026-01-11 17:24:07,0.0,5,7.384,0.0,0.0,0.0,28.6,13.5,-9.8,1024,1024,1024,1024,0,0,0,0,74,6.264,62.96,160.433076,P-GPS,,48.9
374700,2026-01-11 17:24:07,0.0,5,7.384,0.0,0.0,0.0,28.7,13.3,-9.6,1024,1024,1024,1024,0,0,0,0,74,6.264,62.96,160.433076,P-GPS,,48.9
374800,2026-01-11 17:24:07,0.0,5,7.384,0.0,0.0,0.0,28.8,13.6,-8.9,1024,1024,1024,1024,0,0,0,0,74,6.264,62.96,160.433076,P-GPS,,48.9
374900,2026-01-11 17:24:07,0.0,5,7.384,0.0,0.0,0.0,29.0,12.7,-7.7,1024,1024,1024,1024,0,0,0,0,74,6.264,62.96,160.433076,P-GPS,,48.9
375400,2026-01-11 17:24:08,0.0,5,7.394,0.0,0.0,0.0,28.8,11.8,-9.4,1024,1024,1024,1024,0,0,0,0,74,5.777,63.14,160.433076,P-GPS,,48.9
375500,2026-01-11 17:24:08,0.0,5,7.394,0.0,0.0,0.0,28.7,12.4,-9.6,1024,1024,1024,1024,0,0,0,0,74,5.777,63.14,160.433076,P-GPS,,48.9
375600,2026-01-11 17:24:08,0.0,5,7.394,0.0,0.0,0.0,28.7,13.1,-9.3,1024,1024,1024,1024,0,0,0,0,74,5.777,63.14,160.433076,P-GPS,,48.9
375700,2026-01-11 17:24:08,0.0,5,7.394,0.0,0.0,0.0,28.7,13.4,-8.6,1024,1024,1024,1024,0,0,0,0,74,5.777,63.14,160.433076,P-GPS,,48.9
375800,2026-01-11 17:24:08,0.0,5,7.394,0.0,0.0,0.0,28.7,13.5,-8.9,1024,1024,1024,1024,0,0,0,0,74,5.777,63.14,160.433076,P-GPS,,48.9
375900,2026-01-11 17:24:08,0.0,5,7.394,0.0,0.0,0.0,28.7,13.2,-8.8,1024,1024,1024,1024,0,0,0,0,74,5.777,63.14,160.433076,P-GPS,,48.9
376000,2026-01-11 17:24:08,0.0,5,7.394,0.0,0.0,0.0,28.8,13.0,-8.4,1024,1024,1024,1024,0,0,0,0,74,5.777,63.14,160.104992,P-GPS,,48.8
376100,2026-01-11 17:24:08,0.0,5,7.453,0.0,0.0,0.0,28.8,12.9,-8.4,1024,1024,1024,1024,0,0,0,0,74,5.192,63.14,160.104992,P-GPS,,48.8
376200,2026-01-11 17:24:08,0.0,5,7.453,0.0,0.0,0.0,28.7,13.3,-8.2,1024,1024,1024,1024,0,0,0,0,74,5.192,63.14,160.104992,P-GPS,,48.8
376300,2026-01-11 17:24:09,0.0,5,7.453,0.0,0.0,0.0,28.9,12.6,-7.4,1024,1024,1024,1024,0,0,0,0,74,5.192,63.14,160.104992,P-GPS,,48.8
376500,2026-01-11 17:24:09,0.0,5,7.453,0.0,0.0,0.0,29.0,12.5,-7.8,1024,1024,1024,1024,0,0,0,0,74,5.192,63.14,160.104992,P-GPS,,48.8
376600,2026-01-11 17:24:09,0.0,5,7.453,0.0,0.0,0.0,28.9,12.7,-7.4,1024,1024,638,1024,0,0,-58,0,74,5.192,63.14,160.104992,P-GPS,,48.8
376700,2026-01-11 17:24:09,0.0,5,7.453,0.0,0.0,0.0,29.0,12.3,-7.3,1024,1024,364,1024,0,0,-100,0,74,5.192,63.14,160.104992,P-GPS,,48.8
376800,2026-01-11 17:24:09,0.0,5,7.453,0.0,0.0,0.0,28.9,12.3,-8.0,1024,1024,364,1024,0,0,-100,0,74,5.192,63.14,160.433076,P-GPS,,48.9
