index,time(millisecond),timestamp,speed(mph),gpslevel,voltage(v),xSpeed(mph),ySpeed(mph),zSpeed(mph),compass_heading(degrees),pitch(degrees),roll(degrees),rc_elevator,rc_aileron,rc_throttle,rc_rudder,rc_elevator(percent),rc_aileron(percent),rc_throttle(percent),rc_rudder(percent),battery_percent,current(A),battery_temperature(f),ascent(feet),flycState,message,height_above_takeoff(meters)
72,157200,2026-01-11 15:32:36,0.0,5,7.674,0.0,0.0,-4.250186,23.6,3.9,-1.5,1024,1024,1024,1024,0,0,0,0,87,5.588,61.88,32.480316,P-GPS,,9.9
73,157300,2026-01-11 15:32:36,0.223694,5,7.674,-0.223694,0.0,-4.250186,23.7,3.0,-1.6,1024,1024,1024,1024,0,0,0,0,87,5.588,61.88,33.136484,P-GPS,,10.1
74,157400,2026-01-11 15:32:36,0.223694,5,7.674,-0.223694,0.0,-4.250186,23.8,1.6,-2.1,1024,1024,1024,1024,0,0,0,0,87,5.588,61.88,34.120736,P-GPS,,10.4
75,157500,2026-01-11 15:32:37,0.0,5,7.674,0.0,0.0,-3.802798,23.7,2.2,-2.1,1024,1024,1024,1024,0,0,0,0,87,5.588,61.88,34.776904,P-GPS,,10.6
76,157600,2026-01-11 15:32:37,0.0,5,7.674,0.0,0.0,-3.131716,23.7,1.7,-2.1,1024,1024,1024,1024,0,0,0,0,87,5.588,61.88,35.433072,P-GPS,,10.8
77,157700,2026-01-11 15:32:37,0.0,5,7.674,0.0,0.0,-2.460634,23.6,1.8,-2.7,1024,1024,1024,1024,0,0,0,0,87,5.588,61.88,35.761156,P-GPS,,10.9
78,157800,2026-01-11 15:32:37,0.0,5,7.674,0.0,0.0,-1.565858,23.3,2.9,-4.1,1024,1024,1024,1024,0,0,0,0,87,5.588,61.88,36.417324,P-GPS,,11.1
79,157900,2026-01-11 15:32:37,0.0,5,7.674,0.0,0.0,-0.894776,23.3,3.1,-4.4,1024,1024,1024,1024,0,0,0,0,87,5.588,61.88,36.745408,P-GPS,,11.2
80,158000,2026-01-11 15:32:37,0.3131716,5,7.674,-0.223694,0.223694,-0.447388,23.3,2.6,-4.4,1024,1024,1024,1024,0,0,0,0,87,5.588,61.88,37.073492,P-GPS,,11.3
81,158100,2026-01-11 15:32:37,0.223694,5,7.804,-0.223694,0.0,-0.223694,23.3,3.0,-4.7,1024,1024,1024,1024,0,0,0,0,87,4.185,62.06,37.073492,P-GPS,,11.3
82,158200,2026-01-11 15:32:37,0.223694,5,7.804,-0.223694,0.0,0.0,23.4,2.9,-4.8,1024,1024,1024,1024,0,0,0,0,87,4.185,62.06,37.401576,P-GPS,,11.4
83,158300,2026-01-11 15:32:37,0.223694,5,7.804,-0.223694,0.0,0.0,23.5,1.7,-5.1,1024,1024,1024,1024,0,0,0,0,87,4.185,62.06,37.401576,P-GPS,,11.4
84,158400,2026-01-11 15:32:37,0.223694,5,7.804,-0.223694,0.0,0.0,23.6,0.9,-5.9,1024,1024,1024,1024,0,0,0,0,87,4.185,62.06,37.72966,P-GPS,,11.5
85,158500,2026-01-11 15:32:37,0.223694,5,7.804,-0.223694,0.0,0.0,23.5,1.7,-5.9,1024,1024,1024,1024,0,0,0,0,87,4.185,62.06,37.72966,P-GPS,,11.5
86,158600,2026-01-11 15:32:38,0.223694,5,7.804,-0.223694,0.0,0.0,23.7,0.5,-5.8,1024,1024,1024,1024,0,0,0,0,87,4.185,62.06,37.72966,P-GPS,,11.5
87,158700,2026-01-11 15:32:38,0.0,5,7.804,0.0,0.0,0.0,23.7,0.5,-5.2,1024,1024,1024,1024,0,0,0,0,87,4.185,62.06,37.72966,P-GPS,,11.5
88,158800,2026-01-11 15:32:38,0.0,5,7.804,0.0,0.0,0.0,23.7,0.8,-4.4,1024,1024,1024,1024,0,0,0,0,87,4.185,62.06,38.057744,P-GPS,,11.6
89,158900,2026-01-11 15:32:38,0.223694,5,7.804,0.0,-0.223694,0.0,23.9,0.0,-2.7,1024,1024,1024,1024,0,0,0,0,87,4.185,62.06,38.057744,P-GPS,,11.6
90,159000,2026-01-11 15:32:38,0.223694,5,7.804,0.0,-0.223694,0.0,24.0,0.0,-2.3,1024,1024,1024,1024,0,0,0,0,87,4.185,62.06,38.057744,P-GPS,,11.6
91,159100,2026-01-11 15:32:38,0.0,5,7.804,0.0,0.0,0.0,24.2,-0.6,-2.3,1024,1024,1024,1024,0,0,0,0,87,4.185,62.06,38.057744,P-GPS,,11.6
92,159200,2026-01-11 15:32:38,0.0,5,7.704,0.0,0.0,0.0,24.1,-0.7,-2.1,1024,1024,1024,1024,0,0,0,0,87,4.721,62.06,37.72966,P-GPS,,11.5
93,159300,2026-01-11 15:32:38,0.0,5,7.704,0.0,0.0,0.0,23.9,0.5,-2.0,1024,1024,1024,1024,0,0,0,0,87,4.721,62.06,37.72966,P-GPS,,11.5
94,159400,2026-01-11 15:32:38,0.0,5,7.704,0.0,0.0,0.0,24.0,1.5,-1.9,1024,1024,1024,1024,0,0,0,0,87,4.721,62.06,37.72966,P-GPS,,11.5
95,159500,2026-01-11 15:32:38,0.0,5,7.704,0.0,0.0,0.0,24.1,2.0,-2.2,1024,1024,1024,1024,0,0,0,0,87,4.721,62.06,37.72966,P-GPS,,11.5
96,159600,2026-01-11 15:32:39,0.0,5,7.704,0.0,0.0,0.0,24.1,2.7,-2.6,1024,1024,1024,1024,0,0,0,0,87,4.721,62.06,37.72966,P-GPS,,11.5
97,159700,2026-01-11 15:32:39,0.0,5,7.704,0.0,0.0,0.0,24.0,3.4,-2.6,1024,1024,1024,1024,0,0,0,0,87,4.721,62.06,37.72966,P-GPS,,11.5
98,159800,2026-01-11 15:32:39,0.0,5,7.704,0.0,0.0,0.0,24.0,3.4,-2.3,1024,1024,1024,1024,0,0,0,0,87,4.721,62.06,37.72966,P-GPS,,11.5
99,159900,2026-01-11 15:32:39,0.0,5,7.704,0.0,0.0,0.0,24.0,3.4,-2.5,1024,1024,1024,1024,0,0,0,0,87,4.721,62.06,37.72966,P-GPS,,11.5
100,160000,2026-01-11 15:32:39,0.0,5,7.704,0.0,0.0,0.0,23.9,3.4,-2.6,1024,1024,1024,1024,0,0,0,0,87,4.721,62.06,37.72966,P-GPS,,11.5
101,160100,2026-01-11 15:32:39,0.0,5,7.704,0.0,0.0,0.0,23.9,3.1,-2.2,1024,1024,1024,1024,0,0,0,0,87,4.721,62.06,37.72966,P-GPS,,11.5
102,160200,2026-01-11 15:32:39,0.0,5,7.704,0.0,0.0,0.0,23.9,2.8,-1.7,1024,1024,1024,1024,0,0,0,0,87,4.721,62.06,37.401576,P-GPS,,11.4
103,160300,2026-01-11 15:32:39,0.0,5,7.715,0.0,0.0,0.0,24.0,2.8,-1.7,1024,1024,1024,1024,0,0,0,0,87,4.519,62.06,37.401576,P-GPS,,11.4
104,160400,2026-01-11 15:32:39,0.0,5,7.715,0.0,0.0,0.0,23.9,2.8,-1.7,1024,1024,1024,1024,0,0,0,0,87,4.519,62.06,37.401576,P-GPS,,11.4
105,160500,2026-01-11 15:32:39,0.0,5,7.715,0.0,0.0,0.0,23.8,2.7,-2.2,1024,1024,1024,1024,0,0,0,0,87,4.519,62.06,37.401576,P-GPS,,11.4
106,160600,2026-01-11 15:32:40,0.0,5,7.715,0.0,0.0,0.0,23.8,2.3,-2.0,1024,1024,1024,1024,0,0,0,0,87,4.519,62.06,37.401576,P-GPS,,11.4
107,160700,2026-01-11 15:32:40,0.0,5,7.715,0.0,0.0,0.0,23.9,2.2,-1.8,1024,1024,1024,1024,0,0,0,0,87,4.519,62.06,37.401576,P-GPS,,11.4
108,160800,2026-01-11 15:32:40,0.0,5,7.715,0.0,0.0,0.0,23.9,2.4,-2.0,1024,1024,1024,1024,0,0,0,0,87,4.519,62.06,37.401576,P-GPS,,11.4
109,160900,2026-01-11 15:32:40,0.0,5,7.715,0.0,0.0,0.0,23.7,2.8,-1.7,1024,1024,1024,1024,0,0,0,0,87,4.519,62.06,37.401576,P-GPS,,11.4
110,161000,2026-01-11 15:32:40,0.0,5,7.715,0.0,0.0,0.0,23.6,4.5,-2.2,1024,1024,1024,1024,0,0,0,0,87,4.519,62.06,37.401576,P-GPS,,11.4
111,161100,2026-01-11 15:32:40,0.0,5,7.715,0.0,0.0,0.0,23.5,3.3,-2.7,1024,1024,1024,1024,0,0,0,0,87,4.519,62.06,37.401576,P-GPS,,11.4
112,161200,2026-01-11 15:32:40,0.0,5,7.715,0.0,0.0,0.0,23.5,2.0,-3.4,1024,1024,1024,1024,0,0,0,0,87,4.519,62.06,37.401576,P-GPS,,11.4
113,161300,2026-01-11 15:32:40,0.0,5,7.715,-0.223694,0.0,0.0,23.6,0.8,-4.2,1024,1024,1024,1024,0,0,0,0,87,4.519,62.06,37.72966,P-GPS,,11.5
114,161400,2026-01-11 15:32:40,0.0,5,7.71,0.0,0.0,0.0,23.7,0.4,-4.2,1024,1024,1024,1024,0,0,0,0,87,4.653,62.06,37.72966,P-GPS,,11.5
115,161500,2026-01-11 15:32:40,0.0,5,7.71,0.0,0.0,0.0,23.8,0.3,-4.0,1024,1024,1024,1024,0,0,0,0,87,4.653,62.06,37.72966,P-GPS,,11.5
116,161600,2026-01-11 15:32:41,0.0,5,7.71,0.0,0.0,0.0,23.8,0.6,-3.9,1024,1024,1024,1024,0,0,0,0,87,4.653,62.06,37.72966,P-GPS,,11.5
117,161700,2026-01-11 15:32:41,0.0,5,7.71,0.0,0.0,0.0,23.5,1.3,-3.6,1024,1024,1024,1024,0,0,0,0,87,4.653,62.06,37.72966,P-GPS,,11.5
118,161800,2026-01-11 15:32:41,0.223694,5,7.71,0.0,0.223694,0.0,23.6,1.3,-3.5,1024,1024,1024,1024,0,0,0,0,87,4.653,62.06,37.72966,P-GPS,,11.5
119,161900,2026-01-11 15:32:41,0.223694,5,7.71,0.0,0.223694,0.0,23.6,3.1,-4.1,1024,1024,1024,1024,0,0,0,0,87,4.653,62.06,37.72966,P-GPS,,11.5
120,162000,2026-01-11 15:32:41,0.223694,5,7.71,0.0,0.223694,0.0,23.4,3.5,-4.3,1024,1024,1024,1024,0,0,0,0,87,4.653,62.06,37.72966,P-GPS,,11.5
121,162100,2026-01-11 15:32:41,0.223694,5,7.71,0.0,0.223694,0.0,23.6,1.4,-5.2,1024,1024,1024,1024,0,0,0,0,87,4.653,62.06,37.72966,P-GPS,,11.5
122,162200,2026-01-11 15:32:41,0.223694,5,7.71,0.0,0.223694,0.0,23.3,1.4,-5.9,1024,1024,1024,1024,0,0,0,0,87,4.653,62.06,38.057744,P-GPS,,11.6
123,162300,2026-01-11 15:32:41,0.0,5,7.71,0.0,0.0,0.0,23.3,1.4,-5.7,1024,1024,1024,1024,0,0,0,0,87,4.653,62.06,38.057744,P-GPS,,11.6
124,162400,2026-01-11 15:32:41,0.0,5,7.71,0.0,0.0,0.0,23.3,1.8,-6.0,1024,1024,1024,1024,0,0,0,0,87,4.653,62.06,38.057744,P-GPS,,11.6
125,162500,2026-01-11 15:32:41,0.0,5,7.7,0.0,0.0,0.0,23.6,1.6,-5.9,1024,1024,1024,1024,0,0,0,0,87,4.642,62.06,38.385828,P-GPS,,11.7
126,162600,2026-01-11 15:32:42,0.0,5,7.7,0.0,0.0,0.0,23.8,0.4,-5.5,1024,1024,1024,1024,0,0,0,0,87,4.642,62.06,38.385828,P-GPS,,11.7
127,162700,2026-01-11 15:32:42,0.0,5,7.7,0.0,0.0,0.0,23.6,0.1,-5.5,1024,1024,1024,1024,0,0,0,0,87,4.642,62.06,38.385828,P-GPS,,11.7
128,162800,2026-01-11 15:32:42,0.0,5,7.7,0.0,0.0,0.0,23.6,0.3,-4.9,1024,1024,1024,1024,0,0,0,0,87,4.642,62.06,38.385828,P-GPS,,11.7
129,162900,2026-01-11 15:32:42,0.0,5,7.7,0.0,0.0,0.0,23.5,1.0,-5.2,1024,1024,1024,1024,0,0,0,0,87,4.642,62.06,38.385828,P-GPS,,11.7
130,163000,2026-01-11 15:32:42,0.0,5,7.7,0.0,0.0,0.0,23.6,0.8,-5.3,1024,1024,1024,1024,0,0,0,0,87,4.642,62.06,38.385828,P-GPS,,11.7
131,163100,2026-01-11 15:32:42,0.0,5,7.7,0.0,0.0,0.0,23.6,0.6,-5.3,1024,1024,1024,1024,0,0,0,0,87,4.642,62.06,38.385828,P-GPS,,11.7
132,163200,2026-01-11 15:32:42,0.0,5,7.7,0.0,0.0,0.0,23.6,0.6,-5.4,1024,1024,1024,1024,0,0,0,0,87,4.642,62.06,38.385828,P-GPS,,11.7
133,163300,2026-01-11 15:32:42,0.0,5,7.7,0.0,0.0,0.0,23.6,0.4,-5.5,1024,1024,1024,1024,0,0,0,0,87,4.642,62.06,38.385828,P-GPS,,11.7
134,163400,2026-01-11 15:32:42,0.0,5,7.7,0.0,0.0,0.0,23.6,1.1,-5.6,1024,1024,1024,1024,0,0,0,0,87,4.642,62.06,38.385828,P-GPS,,11.7
135,163500,2026-01-11 15:32:42,0.0,5,7.7,0.0,0.0,0.0,23.6,1.6,-5.7,1024,1024,1024,1024,0,0,0,0,87,4.642,62.06,38.057744,P-GPS,,11.6
136,163600,2026-01-11 15:32:43,0.0,5,7.695,0.0,0.0,0.0,23.6,2.3,-5.8,1024,1024,1024,1024,0,0,0,0,87,4.782,62.06,38.057744,P-GPS,,11.6
137,163700,2026-01-11 15:32:43,0.0,5,7.695,0.0,0.0,0.0,23.7,2.3,-5.8,1024,1024,1024,1024,0,0,0,0,87,4.782,62.06,38.057744,P-GPS,,11.6
138,163800,2026-01-11 15:32:43,0.0,5,7.695,0.0,0.0,0.0,23.9,1.3,-5.5,1024,1024,1024,1024,0,0,0,0,87,4.782,62.06,38.057744,P-GPS,,11.6
139,163900,2026-01-11 15:32:43,0.0,5,7.695,0.0,0.0,0.0,23.8,1.5,-4.8,1024,1024,1024,1024,0,0,0,0,87,4.782,62.06,38.057744,P-GPS,,11.6
140,164000,2026-01-11 15:32:43,0.0,5,7.695,0.0,0.0,0.0,23.6,1.9,-5.0,1024,1024,1024,1024,0,0,0,0,87,4.782,62.06,37.72966,P-GPS,,11.5
141,164100,2026-01-11 15:32:43,0.0,5,7.695,0.0,0.0,0.0,23.8,1.1,-4.8,1024,1024,1024,1024,0,0,0,0,87,4.782,62.06,37.72966,P-GPS,,11.5
142,164200,2026-01-11 15:32:43,0.0,5,7.695,0.0,0.0,0.0,23.9,0.1,-4.6,1024,1024,1024,1024,0,0,0,0,87,4.782,62.06,37.72966,P-GPS,,11.5
143,164300,2026-01-11 15:32:43,0.0,5,7.695,0.0,0.0,0.0,23.9,-0.1,-4.4,1024,1024,1024,1024,0,0,0,0,87,4.782,62.06,37.72966,P-GPS,,11.5
144,164400,2026-01-11 15:32:43,0.0,5,7.695,0.0,0.0,0.0,23.8,0.5,-4.2,1024,1024,1024,1024,0,0,0,0,87,4.782,62.06,37.72966,P-GPS,,11.5
145,164500,2026-01-11 15:32:43,0.0,5,7.695,0.0,0.0,0.0,23.8,0.1,-4.0,1024,1024,1024,1024,0,0,0,0,87,4.782,62.06,37.401576,P-GPS,,11.4
146,164600,2026-01-11 15:32:44,0.0,5,7.695,0.0,0.0,0.0,23.8,0.0,-3.9,1024,1024,1024,1024,0,0,0,0,87,4.782,62.06,37.401576,P-GPS,,11.4
147,164700,2026-01-11 15:32:44,0.0,5,7.687,0.0,0.0,0.0,23.8,0.1,-3.8,1024,1024,1024,1024,0,0,0,0,87,4.866,62.06,37.401576,P-GPS,,11.4
148,164800,2026-01-11 15:32:44,0.0,5,7.687,0.0,0.0,0.0,24.0,-0.3,-3.8,1024,1024,1024,1024,0,0,0,0,87,4.866,62.06,37.401576,P-GPS,,11.4
149,164900,2026-01-11 15:32:44,0.0,5,7.687,0.0,0.0,0.0,24.0,-0.6,-3.7,1024,1024,1024,1024,0,0,0,0,87,4.866,62.06,37.073492,P-GPS,,11.3
150,165000,2026-01-11 15:32:44,0.0,5,7.687,0.0,0.0,0.0,24.0,-0.4,-3.6,1024,1024,1024,1024,0,0,0,0,87,4.866,62.06,37.073492,P-GPS,,11.3
151,165100,2026-01-11 15:32:44,0.0,5,7.687,0.0,0.0,0.0,23.9,0.0,-3.5,1024,1024,1024,1024,0,0,0,0,87,4.866,62.06,37.073492,P-GPS,,11.3
152,165200,2026-01-11 15:32:44,0.0,5,7.687,0.0,0.0,0.0,23.9,0.7,-3.2,1024,1024,1024,1024,0,0,0,0,87,4.866,62.06,36.745408,P-GPS,,11.2
153,165300,2026-01-11 15:32:44,0.0,5,7.687,0.0,0.0,0.0,23.9,1.2,-3.1,1024,1024,1024,1024,0,0,0,0,87,4.866,62.06,36.745408,P-GPS,,11.2
154,165400,2026-01-11 15:32:44,0.0,5,7.687,0.0,0.0,0.0,24.0,1.6,-3.3,1024,1024,1024,1024,0,0,0,0,87,4.866,62.06,36.745408,P-GPS,,11.2
155,165500,2026-01-11 15:32:44,0.0,5,7.687,0.223694,0.0,0.0,24.2,2.0,-3.3,1024,1024,1024,1024,0,0,0,0,87,4.866,62.06,36.417324,P-GPS,,11.1
156,165600,2026-01-11 15:32:45,0.223694,5,7.687,0.223694,0.0,0.0,24.1,2.6,-3.5,1024,1024,1024,1024,0,0,0,0,87,4.866,62.06,36.417324,P-GPS,,11.1
157,165700,2026-01-11 15:32:45,0.223694,5,7.687,0.223694,0.0,0.0,24.0,3.2,-3.3,1024,1024,1024,1024,0,0,0,0,87,4.866,62.06,36.417324,P-GPS,,11.1
158,165800,2026-01-11 15:32:45,0.223694,5,7.698,0.223694,0.0,0.0,24.0,3.6,-2.8,1024,1024,1024,1024,0,0,0,0,87,4.794,62.06,36.417324,P-GPS,,11.1
159,165900,2026-01-11 15:32:45,0.223694,5,7.698,0.223694,0.0,0.0,23.9,3.8,-2.7,1024,1024,1024,1024,0,0,0,0,87,4.794,62.06,36.08924,P-GPS,,11.0
160,166000,2026-01-11 15:32:45,0.0,5,7.698,0.0,0.0,0.0,23.9,3.7,-2.7,1024,1024,1024,1024,0,0,0,0,87,4.794,62.06,36.08924,P-GPS,,11.0
161,166100,2026-01-11 15:32:45,0.0,5,7.698,0.0,0.0,0.0,23.9,3.5,-2.9,1024,1024,1024,1024,0,0,0,0,87,4.794,62.06,36.08924,P-GPS,,11.0
162,166200,2026-01-11 15:32:45,0.0,5,7.698,0.0,0.0,0.0,23.9,3.0,-3.5,1024,1024,1024,1024,0,0,0,0,87,4.794,62.06,36.08924,P-GPS,,11.0
163,166300,2026-01-11 15:32:45,0.0,5,7.698,0.0,0.0,0.0,24.0,2.8,-3.6,1024,1024,1024,1024,0,0,0,0,87,4.794,62.06,36.08924,P-GPS,,11.0
164,166400,2026-01-11 15:32:45,0.0,5,7.698,0.0,0.0,0.0,24.0,3.0,-3.9,1024,1024,1024,1024,0,0,0,0,87,4.794,62.06,36.08924,P-GPS,,11.0
165,166500,2026-01-11 15:32:45,0.0,5,7.698,0.0,0.0,0.0,24.0,3.1,-3.9,1024,1024,1024,1024,0,0,0,0,87,4.794,62.06,36.08924,P-GPS,,11.0
166,166600,2026-01-11 15:32:46,0.0,5,7.698,0.0,0.0,0.0,24.1,3.6,-3.5,1024,1024,1024,1024,0,0,0,0,87,4.794,62.06,36.08924,P-GPS,,11.0
167,166700,2026-01-11 15:32:46,0.0,5,7.698,0.0,0.0,0.0,24.1,3.7,-3.4,1024,1024,1024,1024,0,0,0,0,87,4.794,62.06,36.08924,P-GPS,,11.0
168,166800,2026-01-11 15:32:46,0.0,5,7.698,0.0,0.0,0.0,24.1,3.8,-3.2,1024,1024,1024,1024,0,0,0,0,87,4.794,62.06,35.761156,P-GPS,,10.9
169,166900,2026-01-11 15:32:46,0.0,5,7.698,0.0,0.0,0.0,24.0,3.9,-2.8,1024,1024,1024,1024,0,0,0,0,87,4.794,62.06,35.761156,P-GPS,,10.9
170,167000,2026-01-11 15:32:46,0.0,5,7.698,0.0,0.0,0.0,24.1,3.6,-3.1,1024,1024,1024,1024,0,0,0,0,87,4.794,62.06,35.761156,P-GPS,,10.9
171,167100,2026-01-11 15:32:46,0.0,5,7.698,0.0,0.0,0.0,24.0,3.6,-3.4,1024,1024,1024,1024,0,0,0,0,87,4.794,62.06,35.761156,P-GPS,,10.9
172,167200,2026-01-11 15:32:46,0.0,5,7.698,0.0,0.0,0.0,24.0,3.7,-3.4,1024,1024,1024,1024,0,0,0,0,87,4.794,62.06,35.761156,P-GPS,,10.9
173,167300,2026-01-11 15:32:46,0.0,5,7.698,0.0,0.0,0.0,24.0,3.9,-3.1,1024,1024,1024,1024,0,0,0,0,87,4.794,62.06,35.761156,P-GPS,,10.9
174,167400,2026-01-11 15:32:46,0.0,5,7.698,0.0,0.0,0.0,24.0,3.9,-3.3,1024,1024,1024,1024,0,0,0,0,87,4.794,62.06,35.761156,P-GPS,,10.9
175,167500,2026-01-11 15:32:46,0.0,5,7.698,0.0,0.0,0.0,24.0,4.0,-3.1,1024,1024,1024,1024,0,0,0,0,87,4.794,62.06,35.761156,P-GPS,,10.9
176,167600,2026-01-11 15:32:47,0.0,5,7.698,0.0,0.0,0.0,23.8,4.3,-3.4,1024,1024,1024,1024,0,0,0,0,87,4.794,62.06,35.761156,P-GPS,,10.9
177,167700,2026-01-11 15:32:47,0.0,5,7.698,0.0,0.0,0.0,23.8,3.7,-3.5,1024,1024,1024,1024,0,0,0,0,87,4.794,62.06,35.761156,P-GPS,,10.9
178,167800,2026-01-11 15:32:47,0.0,5,7.698,0.0,0.0,0.0,23.7,3.6,-4.0,1024,1024,1024,1024,0,0,0,0,87,4.794,62.06,35.761156,P-GPS,,10.9
179,167900,2026-01-11 15:32:47,0.0,5,7.71,0.0,0.0,0.0,23.7,3.8,-4.6,1024,1024,1024,1024,0,0,0,0,87,4.602,62.24,35.761156,P-GPS,,10.9
180,168000,2026-01-11 15:32:47,0.0,5,7.71,0.0,0.0,0.0,23.7,3.7,-5.1,1024,1024,1024,1024,0,0,0,0,87,4.602,62.24,35.761156,P-GPS,,10.9
181,168100,2026-01-11 15:32:47,0.0,5,7.71,0.0,0.0,0.0,23.7,3.7,-5.7,1024,1024,1024,1024,0,0,0,0,87,4.602,62.24,35.761156,P-GPS,,10.9
182,168200,2026-01-11 15:32:47,0.0,5,7.71,0.0,0.0,0.0,23.5,4.2,-5.6,1024,1024,1024,1024,0,0,0,0,87,4.602,62.24,35.761156,P-GPS,,10.9
183,168300,2026-01-11 15:32:47,0.0,5,7.71,0.0,0.0,0.0,23.6,3.6,-5.7,1024,1024,1024,1024,0,0,0,0,87,4.602,62.24,36.08924,P-GPS,,11.0
184,168400,2026-01-11 15:32:47,0.0,5,7.71,0.0,0.0,0.0,23.5,3.7,-5.9,1024,1024,1024,1024,0,0,0,0,87,4.602,62.24,36.08924,P-GPS,,11.0
185,168500,2026-01-11 15:32:48,0.0,5,7.71,0.0,0.0,0.0,23.4,3.6,-5.6,1024,1024,1024,1024,0,0,0,0,87,4.602,62.24,36.08924,P-GPS,,11.0
186,168600,2026-01-11 15:32:48,0.0,5,7.71,0.0,0.0,0.0,23.4,3.2,-5.9,1024,1024,1024,1024,0,0,0,0,87,4.602,62.24,36.08924,P-GPS,,11.0
187,168700,2026-01-11 15:32:48,0.223694,5,7.71,-0.223694,0.0,0.0,23.6,2.1,-6.1,1024,1024,1024,1024,0,0,0,0,87,4.602,62.24,36.08924,P-GPS,,11.0
188,168800,2026-01-11 15:32:48,0.223694,5,7.71,0.0,0.0,0.0,23.7,1.7,-6.6,1024,1024,1024,1024,0,0,0,0,87,4.602,62.24,36.08924,P-GPS,,11.0
189,168900,2026-01-11 15:32:48,0.0,5,7.71,0.0,0.0,0.0,23.7,2.3,-6.5,1024,1024,1024,1024,0,0,0,0,87,4.602,62.24,36.08924,P-GPS,,11.0
190,169000,2026-01-11 15:32:48,0.0,5,7.71,0.0,0.0,0.0,23.6,2.9,-6.3,1024,1024,1024,1024,0,0,0,0,87,4.602,62.24,36.08924,P-GPS,,11.0
191,169100,2026-01-11 15:32:48,0.0,5,7.681,0.0,0.0,0.0,23.6,3.1,-6.1,1024,1024,1024,1024,0,0,0,0,87,4.945,62.42,36.08924,P-GPS,,11.0
192,169200,2026-01-11 15:32:48,0.0,5,7.681,0.0,0.0,0.0,23.8,2.8,-5.7,1024,1024,1024,1024,0,0,0,0,87,4.945,62.42,36.08924,P-GPS,,11.0
193,169300,2026-01-11 15:32:48,0.0,5,7.681,0.0,0.0,0.0,23.8,3.0,-5.5,1024,1024,1024,1024,0,0,0,0,87,4.945,62.42,36.08924,P-GPS,,11.0
194,169400,2026-01-11 15:32:48,0.0,5,7.681,0.0,0.0,0.0,23.8,3.5,-5.8,1024,1024,1024,1024,0,0,0,0,87,4.945,62.42,36.08924,P-GPS,,11.0
195,169500,2026-01-11 15:32:48,0.0,5,7.681,0.0,0.0,0.0,23.8,3.9,-5.6,1024,1024,1024,1024,0,0,0,0,87,4.945,62.42,36.08924,P-GPS,,11.0
196,169600,2026-01-11 15:32:49,0.0,5,7.681,0.0,0.0,0.0,23.8,3.6,-5.1,1024,1024,1024,1024,0,0,0,0,87,4.945,62.42,36.08924,P-GPS,,11.0
197,169700,2026-01-11 15:32:49,0.0,5,7.681,0.0,0.0,0.0,23.8,3.8,-4.8,1024,1024,1024,1024,0,0,0,0,87,4.945,62.42,36.08924,P-GPS,,11.0
198,169800,2026-01-11 15:32:49,0.0,5,7.681,0.0,0.0,0.0,23.9,4.0,-4.6,1024,1024,1024,1024,0,0,0,0,87,4.945,62.42,36.08924,P-GPS,,11.0
199,169900,2026-01-11 15:32:49,0.0,5,7.681,0.0,0.0,0.0,23.9,3.9,-4.2,1024,1024,1024,1024,0,0,0,0,87,4.945,62.42,35.761156,P-GPS,,10.9
200,170000,2026-01-11 15:32:49,0.0,5,7.681,0.0,0.0,0.0,24.0,4.0,-4.0,1024,1024,1024,1024,0,0,0,0,87,4.945,62.42,35.761156,P-GPS,,10.9
201,170100,2026-01-11 15:32:49,0.0,5,7.681,0.0,0.0,0.0,24.0,3.8,-3.9,1024,1024,1024,1024,0,0,0,0,87,4.945,62.42,35.761156,P-GPS,,10.9
202,170200,2026-01-11 15:32:49,0.0,5,7.683,0.0,0.0,0.0,24.0,3.7,-3.5,1024,1024,1024,1024,0,0,0,0,87,4.968,62.42,35.761156,P-GPS,,10.9
203,170300,2026-01-11 15:32:49,0.0,5,7.683,0.0,0.0,0.0,23.9,3.8,-3.3,1024,1024,1024,1024,0,0,0,0,87,4.968,62.42,35.433072,P-GPS,,10.8
204,170400,2026-01-11 15:32:49,0.0,5,7.683,0.0,0.0,0.0,24.0,3.6,-3.3,1024,1024,1024,1024,0,0,0,0,87,4.968,62.42,35.433072,P-GPS,,10.8
205,170500,2026-01-11 15:32:49,0.0,5,7.683,0.0,0.0,0.0,24.0,3.7,-3.4,1024,1024,1024,1024,0,0,0,0,87,4.968,62.42,35.433072,P-GPS,,10.8
206,170600,2026-01-11 15:32:50,0.0,5,7.683,0.0,0.0,0.0,24.1,4.0,-3.4,1024,1024,1024,1024,0,0,0,0,87,4.968,62.42,35.433072,P-GPS,,10.8
207,170700,2026-01-11 15:32:50,0.0,5,7.683,0.0,0.0,0.0,24.1,4.3,-3.4,1024,1024,1024,1024,0,0,0,0,87,4.968,62.42,35.433072,P-GPS,,10.8
208,170800,2026-01-11 15:32:50,0.0,5,7.683,0.0,0.0,0.0,24.0,4.9,-3.4,1024,1024,1024,1024,0,0,0,0,87,4.968,62.42,35.433072,P-GPS,,10.8
209,170900,2026-01-11 15:32:50,0.0,5,7.683,0.0,0.0,0.0,24.0,5.0,-3.5,1024,1024,1024,1024,0,0,0,0,87,4.968,62.42,35.433072,P-GPS,,10.8
210,171000,2026-01-11 15:32:50,0.0,5,7.683,0.0,0.0,0.0,24.0,5.0,-3.7,1024,1024,1024,1024,0,0,0,0,87,4.968,62.42,35.433072,P-GPS,,10.8
211,171100,2026-01-11 15:32:50,0.0,5,7.683,0.0,0.0,0.0,23.9,4.9,-3.8,1024,1024,1024,1024,0,0,0,0,87,4.968,62.42,35.104988,P-GPS,,10.7
212,171200,2026-01-11 15:32:50,0.0,5,7.683,0.0,0.0,0.0,23.8,4.7,-3.9,1024,1024,1024,1024,0,0,0,0,87,4.968,62.42,35.104988,P-GPS,,10.7
213,171300,2026-01-11 15:32:50,0.0,5,7.678,0.0,0.0,0.0,23.8,4.6,-4.2,1024,1024,1024,1024,0,0,0,0,86,4.864,62.42,35.104988,P-GPS,,10.7
214,171400,2026-01-11 15:32:50,0.0,5,7.678,0.0,0.0,0.0,23.8,4.3,-4.4,1024,1024,1024,1024,0,0,0,0,86,4.864,62.42,35.104988,P-GPS,,10.7
215,171500,2026-01-11 15:32:50,0.0,5,7.678,0.0,0.0,0.0,23.8,4.7,-4.6,1024,1024,1024,1024,0,0,0,0,86,4.864,62.42,35.104988,P-GPS,,10.7
216,171600,2026-01-11 15:32:51,0.0,5,7.678,0.0,0.0,0.0,23.7,5.8,-4.7,1024,1024,1024,1024,0,0,0,0,86,4.864,62.42,35.104988,P-GPS,,10.7
217,171700,2026-01-11 15:32:51,0.0,5,7.678,0.0,0.0,0.0,23.8,5.6,-4.1,1024,1024,1024,1024,0,0,0,0,86,4.864,62.42,35.104988,P-GPS,,10.7
218,171800,2026-01-11 15:32:51,0.0,5,7.678,0.0,0.0,0.0,24.0,4.8,-3.5,1024,1024,1024,1024,0,0,0,0,86,4.864,62.42,35.104988,P-GPS,,10.7
219,171900,2026-01-11 15:32:51,0.0,5,7.678,0.0,0.0,0.0,24.1,3.9,-2.8,1024,1024,1024,1024,0,0,0,0,86,4.864,62.42,35.104988,P-GPS,,10.7
220,172000,2026-01-11 15:32:51,0.0,5,7.678,0.0,0.0,0.0,24.0,3.3,-2.8,1024,1024,1024,1024,0,0,0,0,86,4.864,62.42,35.104988,P-GPS,,10.7
221,172100,2026-01-11 15:32:51,0.0,5,7.678,0.0,0.0,0.0,23.7,3.6,-2.8,1024,1024,1024,1024,0,0,0,0,86,4.864,62.42,35.104988,P-GPS,,10.7
222,172200,2026-01-11 15:32:51,0.0,5,7.678,0.0,0.0,0.0,23.5,3.6,-2.9,1024,1024,1024,1024,0,0,0,0,86,4.864,62.42,35.433072,P-GPS,,10.8
223,172300,2026-01-11 15:32:51,0.0,5,7.678,0.0,0.0,0.0,23.5,3.3,-3.5,1024,1024,1024,1024,0,0,0,0,86,4.864,62.42,35.433072,P-GPS,,10.8
224,172400,2026-01-11 15:32:51,0.0,5,7.691,0.0,0.0,0.0,23.4,3.5,-4.3,1024,1024,1024,1024,0,0,0,0,86,4.815,62.42,35.433072,P-GPS,,10.8
225,172500,2026-01-11 15:32:51,0.223694,5,7.691,-0.223694,0.0,0.0,23.2,3.4,-4.9,1024,1024,1024,1024,0,0,0,0,86,4.815,62.42,35.433072,P-GPS,,10.8
226,172600,2026-01-11 15:32:52,0.223694,5,7.691,-0.223694,0.0,0.0,23.3,2.8,-4.4,1024,1024,1024,1024,0,0,0,0,86,4.815,62.42,35.761156,P-GPS,,10.9
227,172700,2026-01-11 15:32:52,0.223694,5,7.691,-0.223694,0.0,0.0,23.4,2.2,-4.1,1024,1024,1024,1024,0,0,0,0,86,4.815,62.42,35.761156,P-GPS,,10.9
228,172800,2026-01-11 15:32:52,0.223694,5,7.691,-0.223694,0.0,0.0,23.3,2.2,-4.3,1024,1024,1024,1024,0,0,0,0,86,4.815,62.42,35.761156,P-GPS,,10.9
229,172900,2026-01-11 15:32:52,0.223694,5,7.691,-0.223694,0.0,0.0,23.3,3.1,-4.1,1024,1024,1024,1024,0,0,0,0,86,4.815,62.42,35.761156,P-GPS,,10.9
230,173000,2026-01-11 15:32:52,0.223694,5,7.691,-0.223694,0.0,0.0,23.2,2.4,-4.1,1024,1024,1024,1024,0,0,0,0,86,4.815,62.42,36.08924,P-GPS,,11.0
231,173100,2026-01-11 15:32:52,0.223694,5,7.691,-0.223694,0.0,0.0,23.2,1.9,-4.3,1024,1024,1024,1024,0,0,0,0,86,4.815,62.42,36.08924,P-GPS,,11.0
232,173200,2026-01-11 15:32:52,0.223694,5,7.691,-0.223694,0.0,0.0,23.3,1.0,-4.6,1024,1024,1024,1024,0,0,0,0,86,4.815,62.42,36.08924,P-GPS,,11.0
233,173300,2026-01-11 15:32:52,0.223694,5,7.691,-0.223694,0.0,0.0,23.3,0.6,-5.0,1024,1024,1024,1024,0,0,0,0,86,4.815,62.42,36.08924,P-GPS,,11.0
234,173400,2026-01-11 15:32:52,0.223694,5,7.691,-0.223694,0.0,0.0,23.4,1.0,-5.2,1024,1024,1024,1024,0,0,0,0,86,4.815,62.42,36.08924,P-GPS,,11.0
235,173500,2026-01-11 15:32:52,0.223694,5,7.687,-0.223694,0.0,0.0,23.5,1.0,-5.0,1024,1024,1024,1024,0,0,0,0,86,4.823,62.42,36.08924,P-GPS,,11.0
236,173600,2026-01-11 15:32:53,0.223694,5,7.687,-0.223694,0.0,0.0,23.6,0.9,-4.9,1024,1024,1024,1024,0,0,0,0,86,4.823,62.42,36.417324,P-GPS,,11.1
237,173700,2026-01-11 15:32:53,0.223694,5,7.687,-0.223694,0.0,0.0,23.7,0.1,-4.4,1024,1024,1024,1024,0,0,0,0,86,4.823,62.42,36.417324,P-GPS,,11.1
238,173800,2026-01-11 15:32:53,0.223694,5,7.687,-0.223694,0.0,0.0,23.7,-0.6,-4.5,1024,1024,1024,1024,0,0,0,0,86,4.823,62.42,36.417324,P-GPS,,11.1
239,173900,2026-01-11 15:32:53,0.0,5,7.687,0.0,0.0,0.0,23.6,-0.3,-4.2,1024,1024,1024,1024,0,0,0,0,86,4.823,62.42,36.417324,P-GPS,,11.1
240,174000,2026-01-11 15:32:53,0.0,5,7.687,0.0,0.0,0.0,23.6,-0.1,-4.0,1024,1024,1024,1024,0,0,0,0,86,4.823,62.42,36.417324,P-GPS,,11.1
241,174100,2026-01-11 15:32:53,0.0,5,7.687,0.0,0.0,0.0,23.7,-1.0,-3.8,1024,1024,1024,1024,0,0,0,0,86,4.823,62.42,36.417324,P-GPS,,11.1
242,174200,2026-01-11 15:32:53,0.0,5,7.687,0.0,0.0,0.0,23.6,-1.1,-5.1,1024,1024,1024,1024,0,0,0,0,86,4.823,62.42,36.417324,P-GPS,,11.1
243,174300,2026-01-11 15:32:53,0.0,5,7.687,0.0,0.0,0.0,23.3,0.2,-5.9,1024,1024,1024,1024,0,0,0,0,86,4.823,62.42,36.745408,P-GPS,,11.2
244,174400,2026-01-11 15:32:53,0.0,5,7.687,0.0,0.0,0.0,23.4,0.9,-5.6,1024,1024,1024,1024,0,0,0,0,86,4.823,62.42,36.745408,P-GPS,,11.2
245,174500,2026-01-11 15:32:53,0.0,5,7.687,0.0,0.0,0.0,23.5,1.8,-5.1,1024,1024,1024,1024,0,0,0,0,86,4.823,62.42,36.745408,P-GPS,,11.2
246,174600,2026-01-11 15:32:54,0.0,5,7.691,0.0,0.0,0.0,23.3,2.7,-5.1,1024,1024,1024,1024,0,0,0,0,86,4.917,62.42,36.417324,P-GPS,,11.1
247,174700,2026-01-11 15:32:54,0.0,5,7.691,0.0,0.0,0.0,23.6,2.2,-4.6,1024,1024,1024,1024,0,0,0,0,86,4.917,62.42,36.417324,P-GPS,,11.1
248,174800,2026-01-11 15:32:54,0.0,5,7.691,0.0,0.0,0.0,23.8,1.5,-4.2,1024,1024,1024,1024,0,0,0,0,86,4.917,62.42,36.417324,P-GPS,,11.1
249,174900,2026-01-11 15:32:54,0.0,5,7.691,0.0,0.0,0.0,23.8,0.2,-3.2,1024,1024,1024,1024,0,0,0,0,86,4.917,62.42,36.417324,P-GPS,,11.1
250,175000,2026-01-11 15:32:54,0.0,5,7.691,0.0,0.0,0.0,23.8,0.5,-3.4,1024,1024,1024,1024,0,0,0,0,86,4.917,62.42,36.417324,P-GPS,,11.1
251,175100,2026-01-11 15:32:54,0.0,5,7.691,0.0,0.0,0.0,23.7,1.7,-3.0,1024,1024,1024,1024,0,0,0,0,86,4.917,62.42,36.417324,P-GPS,,11.1
252,175200,2026-01-11 15:32:54,0.0,5,7.691,0.0,0.0,0.0,23.7,-0.2,-3.9,1024,1024,1024,1024,0,0,0,0,86,4.917,62.42,36.417324,P-GPS,,11.1
253,175300,2026-01-11 15:32:54,0.0,5,7.691,0.0,0.0,0.0,23.7,0.0,-4.4,1024,1024,1024,1024,0,0,0,0,86,4.917,62.42,36.417324,P-GPS,,11.1
254,175400,2026-01-11 15:32:54,0.0,5,7.691,0.0,0.0,0.0,23.5,2.0,-4.8,1024,1024,1024,1024,0,0,0,0,86,4.917,62.42,36.417324,P-GPS,,11.1
255,175500,2026-01-11 15:32:54,0.0,5,7.691,0.0,0.0,0.0,23.6,2.0,-4.5,1024,1024,1024,1024,0,0,0,0,86,4.917,62.42,36.417324,P-GPS,,11.1
256,175600,2026-01-11 15:32:55,0.0,5,7.691,0.0,0.0,0.0,23.8,0.8,-4.3,1024,1024,1024,1024,0,0,0,0,86,4.917,62.42,36.417324,P-GPS,,11.1
257,175700,2026-01-11 15:32:55,0.0,5,7.69,0.0,0.0,0.0,24.0,0.5,-4.3,1024,1024,1024,1024,0,0,0,0,86,4.79,62.42,36.417324,P-GPS,,11.1
258,175800,2026-01-11 15:32:55,0.0,5,7.69,0.0,0.0,0.0,23.9,0.6,-4.4,1024,1024,1024,1024,0,0,0,0,86,4.79,62.42,36.417324,P-GPS,,11.1
259,175900,2026-01-11 15:32:55,0.0,5,7.69,0.0,0.0,0.0,23.9,0.3,-4.0,1024,1024,1024,1024,0,0,0,0,86,4.79,62.42,36.417324,P-GPS,,11.1
260,176000,2026-01-11 15:32:55,0.0,5,7.69,0.0,0.0,0.0,23.9,0.2,-4.3,1024,1024,1024,1024,0,0,0,0,86,4.79,62.42,36.417324,P-GPS,,11.1
261,176100,2026-01-11 15:32:55,0.0,5,7.69,0.0,0.0,0.0,23.9,0.2,-4.9,1024,1024,1024,1024,0,0,0,0,86,4.79,62.42,36.417324,P-GPS,,11.1
262,176200,2026-01-11 15:32:55,0.0,5,7.69,0.0,0.0,0.0,24.0,0.0,-4.2,1024,1024,1024,1024,0,0,0,0,86,4.79,62.42,36.417324,P-GPS,,11.1
263,176300,2026-01-11 15:32:55,0.0,5,7.69,0.0,0.0,0.0,23.9,0.9,-3.7,1024,1024,1024,1024,0,0,0,0,86,4.79,62.42,36.08924,P-GPS,,11.0
264,176400,2026-01-11 15:32:55,0.0,5,7.69,0.0,0.0,0.0,23.9,1.5,-3.4,1024,1024,1024,1024,0,0,0,0,86,4.79,62.42,36.08924,P-GPS,,11.0
265,176500,2026-01-11 15:32:55,0.0,5,7.69,0.0,0.0,0.0,24.1,1.7,-3.3,1024,1024,1024,1024,0,0,0,0,86,4.79,62.42,36.08924,P-GPS,,11.0
266,176600,2026-01-11 15:32:56,0.223694,5,7.69,0.223694,0.0,0.0,24.3,1.7,-3.3,1024,1024,1024,1024,0,0,0,0,86,4.79,62.42,36.08924,P-GPS,,11.0
267,176700,2026-01-11 15:32:56,0.223694,5,7.683,0.223694,0.0,0.0,24.1,2.9,-3.9,1024,1024,1024,1024,0,0,0,0,86,4.792,62.42,36.08924,P-GPS,,11.0
268,176800,2026-01-11 15:32:56,0.223694,5,7.683,0.223694,0.0,0.0,24.0,4.3,-3.3,1024,1024,1024,1024,0,0,0,0,86,4.792,62.42,35.761156,P-GPS,,10.9
269,176900,2026-01-11 15:32:56,0.223694,5,7.683,0.223694,0.0,0.0,23.9,4.3,-3.0,1024,1024,1024,1024,0,0,0,0,86,4.792,62.42,35.761156,P-GPS,,10.9
270,177000,2026-01-11 15:32:56,0.223694,5,7.683,0.0,0.0,0.0,24.1,3.7,-2.8,1024,1024,1024,1024,0,0,0,0,86,4.792,62.42,35.761156,P-GPS,,10.9
271,177100,2026-01-11 15:32:56,0.0,5,7.683,0.0,0.0,0.0,24.0,3.4,-3.0,1024,1024,1024,1024,0,0,0,0,86,4.792,62.42,35.761156,P-GPS,,10.9
272,177200,2026-01-11 15:32:56,0.0,5,7.683,0.0,0.0,0.0,24.0,3.9,-3.4,1024,1024,1024,1024,0,0,0,0,86,4.792,62.42,35.761156,P-GPS,,10.9
273,177300,2026-01-11 15:32:56,0.0,5,7.683,0.0,0.0,0.0,24.1,4.1,-3.5,1024,1024,1024,1024,0,0,0,0,86,4.792,62.42,35.761156,P-GPS,,10.9
274,177400,2026-01-11 15:32:56,0.0,5,7.683,0.0,0.0,0.0,24.1,4.2,-3.3,1024,1024,1024,1024,0,0,0,0,86,4.792,62.42,35.761156,P-GPS,,10.9
275,177500,2026-01-11 15:32:56,0.0,5,7.683,0.0,0.0,0.0,24.1,4.5,-3.1,1024,1024,1024,1024,0,0,0,0,86,4.792,62.42,35.761156,P-GPS,,10.9
276,177600,2026-01-11 15:32:57,0.0,5,7.683,0.0,0.0,0.0,24.0,4.6,-2.9,1024,1024,1024,1024,0,0,0,0,86,4.792,62.42,35.761156,P-GPS,,10.9
277,177700,2026-01-11 15:32:57,0.0,5,7.683,0.0,0.0,0.0,24.0,4.5,-2.9,1024,1024,1024,1024,0,0,0,0,86,4.792,62.42,35.761156,P-GPS,,10.9
278,177800,2026-01-11 15:32:57,0.0,5,7.683,0.0,0.0,0.0,24.0,4.5,-3.1,1024,1024,1024,1024,0,0,0,0,86,4.792,62.42,35.433072,P-GPS,,10.8
279,177900,2026-01-11 15:32:57,0.0,5,7.683,0.0,0.0,0.0,24.0,4.4,-3.5,1024,1024,1024,1024,0,0,0,0,86,4.792,62.42,35.433072,P-GPS,,10.8
280,178000,2026-01-11 15:32:57,0.0,5,7.683,0.0,0.0,0.0,24.0,4.4,-3.6,1024,1024,1024,1024,0,0,0,0,86,4.792,62.42,35.433072,P-GPS,,10.8
281,178100,2026-01-11 15:32:57,0.0,5,7.683,0.0,0.0,0.0,24.0,4.3,-3.9,1024,1024,1024,1024,0,0,0,0,86,4.792,62.42,35.761156,P-GPS,,10.9
282,178200,2026-01-11 15:32:57,0.0,5,7.683,0.0,0.0,0.0,23.9,4.5,-4.1,1024,1024,1024,1024,0,0,0,0,86,4.792,62.42,35.761156,P-GPS,,10.9
283,178300,2026-01-11 15:32:57,0.0,5,7.683,0.0,0.0,0.0,23.8,4.2,-5.0,1024,1024,1024,1024,0,0,0,0,86,4.792,62.42,35.761156,P-GPS,,10.9
284,178400,2026-01-11 15:32:57,0.0,5,7.683,0.0,0.0,0.0,23.9,3.8,-5.0,1024,1024,1024,1024,0,0,0,0,86,4.792,62.42,35.761156,P-GPS,,10.9
285,178500,2026-01-11 15:32:57,0.0,5,7.683,0.0,0.0,0.0,23.7,4.1,-5.2,1024,1024,1024,1024,0,0,0,0,86,4.792,62.42,35.761156,P-GPS,,10.9
286,178600,2026-01-11 15:32:58,0.0,5,7.683,0.0,0.0,0.0,23.6,4.4,-5.1,1024,1024,1024,1024,0,0,0,0,86,4.792,62.42,35.761156,P-GPS,,10.9
287,178700,2026-01-11 15:32:58,0.0,5,7.683,0.0,0.0,0.0,23.6,4.2,-5.4,1024,1024,1024,1024,0,0,0,0,86,4.792,62.42,35.761156,P-GPS,,10.9
288,178800,2026-01-11 15:32:58,0.0,5,7.683,0.0,0.0,0.0,23.5,4.4,-5.9,1024,1024,1024,1024,0,0,0,0,86,4.792,62.42,35.761156,P-GPS,,10.9
289,178900,2026-01-11 15:32:58,0.0,5,7.683,0.0,0.0,0.0,23.6,4.0,-6.0,1024,1024,1024,1024,0,0,0,0,86,4.792,62.42,36.08924,P-GPS,,11.0
290,179000,2026-01-11 15:32:58,0.0,5,7.691,0.0,0.0,0.0,23.6,4.1,-6.2,1024,1024,1024,1024,0,0,0,0,86,4.767,62.6,36.08924,P-GPS,,11.0
291,179100,2026-01-11 15:32:58,0.0,5,7.691,0.0,0.0,0.0,23.5,3.9,-6.3,1024,1024,1024,1024,0,0,0,0,86,4.767,62.6,36.08924,P-GPS,,11.0
292,179200,2026-01-11 15:32:58,0.0,5,7.691,0.0,0.0,0.0,23.6,3.3,-6.3,1024,1024,1024,1024,0,0,0,0,86,4.767,62.6,36.08924,P-GPS,,11.0
293,179300,2026-01-11 15:32:58,0.0,5,7.691,0.0,0.0,0.0,23.6,3.2,-6.6,1024,1024,1024,1024,0,0,0,0,86,4.767,62.6,36.08924,P-GPS,,11.0
294,179400,2026-01-11 15:32:58,0.0,5,7.691,0.0,0.0,0.0,23.5,4.0,-6.6,1024,1024,1024,1024,0,0,0,0,86,4.767,62.6,36.08924,P-GPS,,11.0
295,179500,2026-01-11 15:32:58,0.0,5,7.691,0.0,0.0,0.0,23.6,3.2,-6.8,1024,1024,1024,1024,0,0,0,0,86,4.767,62.6,36.08924,P-GPS,,11.0
296,179600,2026-01-11 15:32:59,0.0,5,7.691,0.0,0.0,0.0,23.6,3.6,-6.7,1024,1024,1024,1024,0,0,0,0,86,4.767,62.6,36.08924,P-GPS,,11.0
297,179700,2026-01-11 15:32:59,0.0,5,7.691,0.0,0.0,0.0,23.6,3.9,-6.8,1024,1024,1024,1024,0,0,0,0,86,4.767,62.6,36.08924,P-GPS,,11.0
298,179800,2026-01-11 15:32:59,0.0,5,7.691,0.0,0.0,0.0,23.6,3.6,-6.7,1024,1024,1024,1024,0,0,0,0,86,4.767,62.6,36.08924,P-GPS,,11.0
299,179900,2026-01-11 15:32:59,0.0,5,7.691,0.0,0.0,0.0,23.6,3.8,-7.0,1024,1024,1024,1024,0,0,0,0,86,4.767,62.6,36.08924,P-GPS,,11.0
300,180000,2026-01-11 15:32:59,0.0,5,7.691,0.0,0.0,0.0,23.6,3.5,-6.4,1024,1024,1024,1024,0,0,0,0,86,4.767,62.6,36.08924,P-GPS,,11.0
301,180100,2026-01-11 15:32:59,0.0,5,7.673,0.0,0.0,0.0,23.6,3.2,-6.2,1024,1024,1024,1024,0,0,0,0,86,4.866,62.6,36.08924,P-GPS,,11.0
302,180200,2026-01-11 15:32:59,0.0,5,7.673,0.0,0.0,0.0,23.8,3.0,-5.7,1024,1024,1024,1024,0,0,0,0,86,4.866,62.6,35.761156,P-GPS,,10.9
303,180300,2026-01-11 15:32:59,0.0,5,7.673,0.0,0.0,0.0,23.8,3.4,-5.3,1024,1024,1024,1024,0,0,0,0,86,4.866,62.6,35.761156,P-GPS,,10.9
304,180400,2026-01-11 15:32:59,0.0,5,7.673,0.0,0.0,0.0,23.8,3.8,-5.7,1024,1024,1024,1024,0,0,0,0,86,4.866,62.6,35.761156,P-GPS,,10.9
305,180500,2026-01-11 15:33:00,0.0,5,7.673,0.0,0.0,0.0,23.7,4.2,-5.8,1024,1024,1024,1024,0,0,0,0,86,4.866,62.6,35.761156,P-GPS,,10.9
306,180600,2026-01-11 15:33:00,0.0,5,7.673,0.0,0.0,0.0,23.7,4.6,-6.5,1024,1024,1024,1024,0,0,0,0,86,4.866,62.6,35.761156,P-GPS,,10.9
307,180700,2026-01-11 15:33:00,0.0,5,7.673,0.0,0.0,0.0,23.8,4.7,-6.1,1024,1024,1024,1024,0,0,0,0,86,4.866,62.6,35.761156,P-GPS,,10.9
308,180800,2026-01-11 15:33:00,0.0,5,7.673,0.0,0.0,0.0,23.9,4.6,-5.5,1024,1024,1024,1024,0,0,0,0,86,4.866,62.6,35.761156,P-GPS,,10.9
309,180900,2026-01-11 15:33:00,0.0,5,7.673,0.0,0.0,0.0,23.8,4.5,-5.1,1024,1024,1024,1024,0,0,0,0,86,4.866,62.6,35.433072,P-GPS,,10.8
310,181000,2026-01-11 15:33:00,0.0,5,7.673,0.0,0.0,0.0,23.7,4.7,-5.3,1024,1024,1024,1024,0,0,0,0,86,4.866,62.6,35.433072,P-GPS,,10.8
311,181100,2026-01-11 15:33:00,0.0,5,7.645,0.0,0.0,0.0,23.7,5.0,-5.8,1024,1024,1024,1024,0,0,0,0,86,5.021,62.6,35.433072,P-GPS,,10.8
312,181200,2026-01-11 15:33:00,0.0,5,7.645,0.0,0.0,0.0,23.5,5.5,-5.6,1024,1024,1024,1024,0,0,0,0,86,5.021,62.6,35.433072,P-GPS,,10.8
313,181300,2026-01-11 15:33:00,0.0,5,7.645,0.0,0.0,0.0,23.5,5.5,-5.6,1024,1024,1024,1024,0,0,0,0,86,5.021,62.6,35.433072,P-GPS,,10.8
314,181400,2026-01-11 15:33:00,0.0,5,7.645,0.0,0.0,0.0,23.5,5.4,-5.5,1024,1024,1024,1024,0,0,0,0,86,5.021,62.6,35.433072,P-GPS,,10.8
315,181500,2026-01-11 15:33:00,0.0,5,7.645,0.0,0.0,0.0,23.5,5.5,-5.4,1024,1024,1024,1024,0,0,0,0,86,5.021,62.6,35.433072,P-GPS,,10.8
316,181600,2026-01-11 15:33:01,0.0,5,7.645,0.0,0.0,0.0,23.6,5.1,-5.6,1024,1024,1024,1024,0,0,0,0,86,5.021,62.6,35.433072,P-GPS,,10.8
317,181700,2026-01-11 15:33:01,0.0,5,7.645,0.0,0.0,0.0,23.7,4.8,-5.5,1024,1024,1024,1024,0,0,0,0,86,5.021,62.6,35.433072,P-GPS,,10.8
318,181800,2026-01-11 15:33:01,0.0,5,7.645,0.0,0.0,0.0,23.7,4.6,-5.4,1024,1024,1024,1024,0,0,0,0,86,5.021,62.6,35.433072,P-GPS,,10.8
319,181900,2026-01-11 15:33:01,0.0,5,7.645,0.0,0.0,0.0,23.7,4.1,-5.4,1024,1024,1024,1024,0,0,0,0,86,5.021,62.6,35.104988,P-GPS,,10.7
320,182000,2026-01-11 15:33:01,0.0,5,7.645,0.0,0.0,0.0,23.7,3.9,-5.4,1024,1024,1024,1024,0,0,0,0,86,5.021,62.6,35.104988,P-GPS,,10.7
321,182100,2026-01-11 15:33:01,0.0,5,7.645,0.0,0.0,0.0,23.7,4.1,-5.1,1024,1024,1024,1024,0,0,0,0,86,5.021,62.6,35.104988,P-GPS,,10.7
322,182200,2026-01-11 15:33:01,0.0,5,7.645,0.0,0.0,0.0,23.6,4.3,-5.4,1024,1024,1024,1024,0,0,0,0,86,5.021,62.6,35.104988,P-GPS,,10.7
323,182300,2026-01-11 15:33:01,0.0,5,7.679,0.0,0.0,0.0,23.7,4.8,-5.3,1024,1024,1024,1024,0,0,0,0,86,4.749,62.6,35.104988,P-GPS,,10.7
324,182400,2026-01-11 15:33:01,0.0,5,7.679,0.0,0.0,0.0,23.7,4.4,-4.8,1024,1024,1024,1024,0,0,0,0,86,4.749,62.6,35.104988,P-GPS,,10.7
325,182500,2026-01-11 15:33:01,0.0,5,7.679,0.0,0.0,0.0,23.7,4.5,-4.6,1024,1024,1024,1024,0,0,0,0,86,4.749,62.6,35.104988,P-GPS,,10.7
326,182600,2026-01-11 15:33:02,0.0,5,7.679,0.0,0.0,0.0,23.5,4.7,-4.9,1024,1024,1024,1024,0,0,0,0,86,4.749,62.6,35.104988,P-GPS,,10.7
327,182700,2026-01-11 15:33:02,0.0,5,7.679,0.0,0.0,0.0,23.5,5.1,-4.8,1024,1024,1024,1024,0,0,0,0,86,4.749,62.6,35.104988,P-GPS,,10.7
328,182800,2026-01-11 15:33:02,0.0,5,7.679,0.0,0.0,0.0,23.5,5.5,-4.7,1024,1024,1024,1024,0,0,0,0,86,4.749,62.6,35.104988,P-GPS,,10.7
329,182900,2026-01-11 15:33:02,0.0,5,7.679,0.0,0.0,0.0,23.5,5.1,-5.0,1024,1024,1024,1024,0,0,0,0,86,4.749,62.6,35.104988,P-GPS,,10.7
330,183000,2026-01-11 15:33:02,0.0,5,7.679,0.0,0.0,0.0,23.6,4.8,-5.1,1024,1024,1024,1024,0,0,0,0,86,4.749,62.6,35.104988,P-GPS,,10.7
331,183100,2026-01-11 15:33:02,0.0,5,7.679,0.0,0.0,0.0,23.6,4.8,-4.7,1024,1024,1024,1024,0,0,0,0,86,4.749,62.6,35.104988,P-GPS,,10.7
332,183200,2026-01-11 15:33:02,0.0,5,7.679,0.0,0.0,0.0,23.6,4.9,-4.6,1024,1024,1024,1024,0,0,0,0,86,4.749,62.6,34.776904,P-GPS,,10.6
333,183300,2026-01-11 15:33:02,0.0,5,7.679,0.0,0.0,0.0,23.6,5.1,-4.4,1024,1024,1024,1024,0,0,0,0,86,4.749,62.6,34.776904,P-GPS,,10.6
334,183400,2026-01-11 15:33:02,0.0,5,7.688,0.0,0.0,0.0,23.8,4.7,-4.3,1024,1024,1024,1024,0,0,0,0,86,4.624,62.6,34.776904,P-GPS,,10.6
335,183500,2026-01-11 15:33:02,0.0,5,7.688,0.0,0.0,0.0,23.8,4.8,-3.9,1024,1024,1024,1024,0,0,0,0,86,4.624,62.6,34.776904,P-GPS,,10.6
336,183600,2026-01-11 15:33:03,0.0,5,7.688,0.0,0.0,0.0,23.8,4.0,-4.1,1024,1024,1024,1024,0,0,0,0,86,4.624,62.6,34.776904,P-GPS,,10.6
337,183700,2026-01-11 15:33:03,0.0,5,7.688,0.0,0.0,0.0,23.9,3.3,-4.0,1024,1024,1024,1024,0,0,0,0,86,4.624,62.6,34.776904,P-GPS,,10.6
338,183800,2026-01-11 15:33:03,0.0,5,7.688,0.0,0.0,0.0,23.8,3.7,-4.3,1024,1024,1024,1024,0,0,0,0,86,4.624,62.6,34.776904,P-GPS,,10.6
339,183900,2026-01-11 15:33:03,0.0,5,7.688,0.0,0.0,0.0,23.7,4.2,-4.2,1024,1024,1024,1024,0,0,0,0,86,4.624,62.6,34.44882,P-GPS,,10.5
340,184000,2026-01-11 15:33:03,0.0,5,7.688,0.0,0.0,0.0,23.7,4.2,-4.3,1024,1024,1024,1024,0,0,0,0,86,4.624,62.6,34.44882,P-GPS,,10.5
341,184100,2026-01-11 15:33:03,0.0,5,7.688,0.0,0.0,0.0,23.6,4.3,-4.7,1024,1024,1024,1024,0,0,0,0,86,4.624,62.6,34.776904,P-GPS,,10.6
342,184200,2026-01-11 15:33:03,0.0,5,7.688,0.0,0.0,0.0,23.6,4.2,-4.9,1024,1024,1024,1024,0,0,0,0,86,4.624,62.6,34.776904,P-GPS,,10.6
343,184300,2026-01-11 15:33:03,0.0,5,7.688,0.0,0.0,0.0,23.7,4.4,-4.9,1024,1024,1024,1024,0,0,0,0,86,4.624,62.6,34.776904,P-GPS,,10.6
344,184400,2026-01-11 15:33:03,0.0,5,7.688,0.0,0.0,0.0,23.7,4.4,-5.0,1024,1024,1024,1024,0,0,0,0,86,4.624,62.6,34.776904,P-GPS,,10.6
345,184500,2026-01-11 15:33:03,0.0,5,7.683,0.0,0.0,0.0,23.8,3.8,-4.8,1024,1024,1024,1024,0,0,0,0,86,4.698,62.6,34.776904,P-GPS,,10.6
346,184600,2026-01-11 15:33:04,0.0,5,7.683,0.0,0.0,0.0,23.8,3.2,-4.8,1024,1024,1024,1024,0,0,0,0,86,4.698,62.6,34.776904,P-GPS,,10.6
347,184700,2026-01-11 15:33:04,0.0,5,7.683,0.0,0.0,0.0,23.6,3.7,-4.4,1024,1024,1024,1024,0,0,0,0,86,4.698,62.6,34.776904,P-GPS,,10.6
