time(millisecond),timestamp,speed(mph),gpslevel,voltage(v),xSpeed(mph),ySpeed(mph),zSpeed(mph),compass_heading(degrees),pitch(degrees),roll(degrees),rc_elevator,rc_aileron,rc_throttle,rc_rudder,rc_elevator(percent),rc_aileron(percent),rc_throttle(percent),rc_rudder(percent),battery_percent,current(A),battery_temperature(f),ascent(feet),flycState,message,height_above_takeoff(meters)
84800,2026-01-11 15:31:20,0.0,5,7.528,0.0,0.0,-4.47388,32.7,8.5,-10.0,1024,1024,1684,1024,0,0,100,0,92,7.624,61.16,158.136488,P-GPS,,48.2
84900,2026-01-11 15:31:20,0.0,5,7.528,0.0,0.0,-4.250186,32.8,8.2,-9.9,1024,1024,1684,1024,0,0,100,0,92,7.624,61.16,158.792656,P-GPS,,48.4
85000,2026-01-11 15:31:20,0.0,5,7.528,0.0,0.0,-4.250186,32.8,8.1,-9.6,1024,1024,1684,1024,0,0,100,0,92,7.624,61.16,159.448824,P-GPS,,48.6
85100,2026-01-11 15:31:21,0.0,5,7.528,0.0,0.0,-4.47388,32.8,7.5,-9.5,1024,1024,1684,1024,0,0,100,0,92,7.624,61.16,160.104992,P-GPS,,48.8
85200,2026-01-11 15:31:21,0.0,5,7.527,0.0,0.0,-4.47388,32.7,7.9,-10.0,1024,1024,1684,1024,0,0,100,0,92,7.807,61.16,160.76116,P-GPS,,49.0
85300,2026-01-11 15:31:21,0.0,5,7.527,0.0,0.0,-4.250186,32.6,7.9,-10.1,1024,1024,1684,1024,0,0,100,0,92,7.807,61.16,161.417328,P-GPS,,49.2
85400,2026-01-11 15:31:21,0.0,5,7.527,0.0,0.0,-4.250186,32.7,7.9,-9.8,1024,1024,1024,1024,0,0,0,0,92,7.807,61.16,162.073496,P-GPS,,49.4
85500,2026-01-11 15:31:21,0.0,5,7.527,0.0,0.0,-4.47388,32.7,7.5,-10.0,1024,1024,1024,1024,0,0,0,0,92,7.807,61.16,162.729664,P-GPS,,49.6
85600,2026-01-11 15:31:21,0.0,5,7.527,0.0,0.0,-4.47388,32.5,7.7,-10.4,1024,1024,1024,1024,0,0,0,0,92,7.807,61.16,163.713916,P-GPS,,49.9
85700,2026-01-11 15:31:21,0.0,5,7.527,0.0,0.0,-4.250186,32.4,7.6,-10.9,1024,1024,1024,1024,0,0,0,0,92,7.807,61.16,164.042,P-GPS,,50.0
85800,2026-01-11 15:31:21,0.0,5,7.527,0.0,0.0,-3.579104,32.4,7.9,-11.4,1024,1024,1024,1024,0,0,0,0,92,7.807,61.16,164.698168,P-GPS,,50.2
85900,2026-01-11 15:31:21,0.0,5,7.527,0.0,0.0,-2.908022,32.3,8.3,-11.3,1024,1024,1024,1024,0,0,0,0,92,7.807,61.16,165.026252,P-GPS,,50.3
86000,2026-01-11 15:31:21,0.0,5,7.527,0.0,0.0,-2.23694,32.2,8.9,-11.7,1024,1024,1024,1024,0,0,0,0,92,7.807,61.16,165.354336,P-GPS,,50.4
86100,2026-01-11 15:31:22,0.0,5,7.527,0.0,0.0,-1.342164,32.1,9.7,-11.6,1024,1024,1024,1024,0,0,0,0,92,7.807,61.16,165.68242,P-GPS,,50.5
86200,2026-01-11 15:31:22,0.0,5,7.527,0.0,0.0,-0.671082,32.2,9.3,-11.6,1024,1024,1024,1024,0,0,0,0,92,7.807,61.16,165.68242,P-GPS,,50.5
86300,2026-01-11 15:31:22,0.0,5,7.763,0.0,0.0,-0.447388,32.3,9.0,-11.2,1024,1024,1024,1024,0,0,0,0,92,5.312,61.34,165.68242,P-GPS,,50.5
86400,2026-01-11 15:31:22,0.0,5,7.763,0.0,0.0,0.0,32.4,8.8,-10.8,1024,1024,1024,1024,0,0,0,0,92,5.312,61.34,165.68242,P-GPS,,50.5
86500,2026-01-11 15:31:22,0.0,5,7.763,0.0,0.0,0.0,32.5,8.7,-10.7,1024,1024,1024,1024,0,0,0,0,92,5.312,61.34,165.68242,P-GPS,,50.5
86600,2026-01-11 15:31:22,0.0,5,7.763,0.0,0.0,0.0,32.4,8.8,-10.5,1024,1024,1024,1024,0,0,0,0,92,5.312,61.34,165.68242,P-GPS,,50.5
86700,2026-01-11 15:31:22,0.0,5,7.763,0.0,0.0,0.0,32.4,8.7,-10.1,1024,1024,1024,1024,0,0,0,0,92,5.312,61.34,165.68242,P-GPS,,50.5
86800,2026-01-11 15:31:22,0.0,5,7.763,0.0,0.0,0.0,32.4,8.3,-10.1,1024,1024,1024,1024,0,0,0,0,92,5.312,61.34,165.68242,P-GPS,,50.5
86900,2026-01-11 15:31:22,0.0,5,7.763,0.0,0.0,0.0,32.5,8.1,-10.1,1024,1024,1024,1024,0,0,0,0,92,5.312,61.34,165.68242,P-GPS,,50.5
87000,2026-01-11 15:31:22,0.0,5,7.763,0.0,0.0,0.0,32.5,8.5,-9.9,1024,1024,1024,1024,0,0,0,0,92,5.312,61.34,165.68242,P-GPS,,50.5
87100,2026-01-11 15:31:23,0.0,5,7.763,0.0,0.0,0.0,32.5,8.2,-9.5,1024,1024,1024,1024,0,0,0,0,92,5.312,61.34,165.68242,P-GPS,,50.5
87200,2026-01-11 15:31:23,0.0,5,7.763,0.0,0.0,0.0,32.5,8.2,-9.5,1024,1024,1024,1024,0,0,0,0,92,5.312,61.34,165.68242,P-GPS,,50.5
87300,2026-01-11 15:31:23,0.0,5,7.763,0.0,0.0,0.0,32.6,7.9,-9.2,1024,1024,1024,1024,0,0,0,0,92,5.312,61.34,165.68242,P-GPS,,50.5
87400,2026-01-11 15:31:23,0.0,5,7.691,0.0,0.0,0.0,32.7,7.3,-8.6,1024,1024,1024,1024,0,0,0,0,92,4.94,61.34,165.68242,P-GPS,,50.5
87500,2026-01-11 15:31:23,0.0,5,7.691,0.0,0.0,0.0,32.6,7.9,-9.1,1024,1024,1024,1024,0,0,0,0,92,4.94,61.34,165.68242,P-GPS,,50.5
87600,2026-01-11 15:31:23,0.0,5,7.691,0.0,0.0,0.0,32.5,8.6,-9.2,1024,1024,1024,1024,0,0,0,0,92,4.94,61.34,165.68242,P-GPS,,50.5
87700,2026-01-11 15:31:23,0.0,5,7.691,0.0,0.0,0.0,32.6,8.3,-9.4,1024,1024,1024,1024,0,0,0,0,92,4.94,61.34,166.010504,P-GPS,,50.6
87800,2026-01-11 15:31:23,0.0,5,7.691,0.0,0.0,0.0,32.5,8.3,-9.6,1024,1024,1024,1024,0,0,0,0,92,4.94,61.34,166.010504,P-GPS,,50.6
87900,2026-01-11 15:31:23,0.0,5,7.691,0.0,0.0,0.0,32.6,8.4,-9.8,1024,1024,1024,1024,0,0,0,0,92,4.94,61.34,166.010504,P-GPS,,50.6
88000,2026-01-11 15:31:23,0.0,5,7.691,0.0,0.0,0.0,32.5,8.4,-9.9,1024,1024,1024,1024,0,0,0,0,92,4.94,61.34,166.010504,P-GPS,,50.6
88100,2026-01-11 15:31:24,0.0,5,7.691,0.0,0.0,0.0,32.5,8.3,-9.9,1024,1024,1024,1024,0,0,0,0,92,4.94,61.34,166.010504,P-GPS,,50.6
88200,2026-01-11 15:31:24,0.0,5,7.691,0.0,0.0,0.0,32.5,8.1,-10.0,1024,1024,1024,1024,0,0,0,0,92,4.94,61.34,166.010504,P-GPS,,50.6
88300,2026-01-11 15:31:24,0.0,5,7.691,0.0,0.0,0.0,32.5,8.3,-9.9,1024,1024,1024,1024,0,0,0,0,92,4.94,61.34,166.010504,P-GPS,,50.6
88400,2026-01-11 15:31:24,0.0,5,7.691,0.0,0.0,0.0,32.4,8.4,-10.0,1024,1024,1024,1024,0,0,0,0,92,4.94,61.34,166.010504,P-GPS,,50.6
88500,2026-01-11 15:31:24,0.0,5,7.723,0.0,0.0,0.0,32.4,8.3,-9.8,1024,1024,1024,1024,0,0,0,0,91,4.621,61.34,166.010504,P-GPS,,50.6
88600,2026-01-11 15:31:24,0.0,5,7.723,0.0,0.0,0.0,32.5,8.2,-9.7,1024,1024,1024,1024,0,0,0,0,91,4.621,61.34,166.010504,P-GPS,,50.6
88700,2026-01-11 15:31:24,0.0,5,7.723,0.0,0.0,0.0,32.5,7.9,-9.7,1024,1024,1024,1024,0,0,0,0,91,4.621,61.34,165.68242,P-GPS,,50.5
88800,2026-01-11 15:31:24,0.0,5,7.723,0.0,0.0,0.0,32.6,7.8,-9.5,1024,1024,1024,1024,0,0,0,0,91,4.621,61.34,165.68242,P-GPS,,50.5
88900,2026-01-11 15:31:24,0.0,5,7.723,0.0,0.0,0.0,32.6,7.6,-9.3,1024,1024,1024,1024,0,0,0,0,91,4.621,61.34,165.68242,P-GPS,,50.5
89000,2026-01-11 15:31:24,0.0,5,7.723,0.0,0.0,0.0,32.6,7.7,-9.2,1024,1024,1024,1024,0,0,0,0,91,4.621,61.34,165.68242,P-GPS,,50.5
89100,2026-01-11 15:31:25,0.0,5,7.723,0.0,0.0,0.0,32.6,7.6,-9.2,1024,1024,1024,1024,0,0,0,0,91,4.621,61.34,165.68242,P-GPS,,50.5
89200,2026-01-11 15:31:25,0.0,5,7.723,0.0,0.0,0.0,32.5,7.6,-9.2,1024,1024,1024,1024,0,0,0,0,91,4.621,61.34,165.68242,P-GPS,,50.5
89300,2026-01-11 15:31:25,0.0,5,7.723,0.0,0.0,0.0,32.6,7.5,-9.1,1024,1024,1024,1024,0,0,0,0,91,4.621,61.34,165.68242,P-GPS,,50.5
89400,2026-01-11 15:31:25,0.0,5,7.723,0.0,0.0,0.0,32.6,7.3,-9.1,1024,1024,1024,1024,0,0,0,0,91,4.621,61.34,165.68242,P-GPS,,50.5
89500,2026-01-11 15:31:25,0.0,5,7.723,0.0,0.0,0.0,32.6,7.3,-9.2,1024,1024,1024,1024,0,0,0,0,91,4.621,61.34,165.68242,P-GPS,,50.5
89600,2026-01-11 15:31:25,0.0,5,7.716,0.0,0.0,0.0,32.7,7.1,-9.3,1024,1024,1024,1024,0,0,0,0,91,4.71,61.34,165.68242,P-GPS,,50.5
89700,2026-01-11 15:31:25,0.0,5,7.716,0.0,0.0,0.0,32.6,7.3,-9.7,1024,1024,1024,1024,0,0,0,0,91,4.71,61.34,165.68242,P-GPS,,50.5
89800,2026-01-11 15:31:25,0.0,5,7.716,0.0,0.0,0.0,32.7,7.3,-9.3,1024,1024,1024,1024,0,0,0,0,91,4.71,61.34,165.354336,P-GPS,,50.4
89900,2026-01-11 15:31:25,0.0,5,7.716,0.0,0.0,0.0,32.8,7.1,-9.4,1024,1024,1024,1024,0,0,0,0,91,4.71,61.34,165.354336,P-GPS,,50.4
90000,2026-01-11 15:31:25,0.0,5,7.716,0.0,0.0,0.0,32.8,6.9,-9.6,1024,1024,1024,1024,0,0,0,0,91,4.71,61.34,165.354336,P-GPS,,50.4
90100,2026-01-11 15:31:26,0.0,5,7.716,0.0,0.0,0.0,32.8,7.2,-9.6,1024,1024,1024,1024,0,0,0,0,91,4.71,61.34,165.354336,P-GPS,,50.4
90200,2026-01-11 15:31:26,0.0,5,7.716,0.0,0.0,0.0,32.6,7.7,-9.7,1024,1024,1024,1024,0,0,0,0,91,4.71,61.34,165.354336,P-GPS,,50.4
90300,2026-01-11 15:31:26,0.0,5,7.716,0.0,0.0,0.0,32.6,7.8,-9.5,1024,1024,1024,1024,0,0,0,0,91,4.71,61.34,165.68242,P-GPS,,50.5
90400,2026-01-11 15:31:26,0.0,5,7.716,0.0,0.0,0.0,32.6,7.6,-9.7,1024,1024,1024,1024,0,0,0,0,91,4.71,61.34,165.68242,P-GPS,,50.5
90500,2026-01-11 15:31:26,0.0,5,7.716,0.0,0.0,0.0,32.6,7.6,-9.7,1024,1024,1024,1024,0,0,0,0,91,4.71,61.34,165.68242,P-GPS,,50.5
90600,2026-01-11 15:31:26,0.0,5,7.716,0.0,0.0,0.0,32.6,7.9,-9.8,1024,1024,1024,1024,0,0,0,0,91,4.71,61.34,165.68242,P-GPS,,50.5
90700,2026-01-11 15:31:26,0.0,5,7.705,0.0,0.0,0.0,32.6,7.8,-9.9,1024,1024,1024,1024,0,0,0,0,91,4.953,61.52,165.68242,P-GPS,,50.5
90800,2026-01-11 15:31:26,0.0,5,7.705,0.0,0.0,0.0,32.7,7.8,-9.8,1024,1024,1024,1024,0,0,0,0,91,4.953,61.52,165.68242,P-GPS,,50.5
90900,2026-01-11 15:31:26,0.0,5,7.705,0.0,0.0,0.0,32.7,7.6,-9.8,1024,1024,1024,1024,0,0,0,0,91,4.953,61.52,165.68242,P-GPS,,50.5
91000,2026-01-11 15:31:27,0.0,5,7.705,0.0,0.0,0.0,32.7,7.2,-9.6,1024,1024,1024,1024,0,0,0,0,91,4.953,61.52,165.68242,P-GPS,,50.5
91100,2026-01-11 15:31:27,0.0,5,7.705,0.0,0.0,0.0,32.7,7.4,-9.5,1024,1024,1024,1024,0,0,0,0,91,4.953,61.52,165.68242,P-GPS,,50.5
91200,2026-01-11 15:31:27,0.0,5,7.705,0.0,0.0,0.0,32.7,7.5,-9.5,1024,1024,1024,1024,0,0,0,0,91,4.953,61.52,165.68242,P-GPS,,50.5
91300,2026-01-11 15:31:27,0.0,5,7.705,0.0,0.0,0.0,32.7,7.4,-9.5,1024,1024,1024,1024,0,0,0,0,91,4.953,61.52,165.68242,P-GPS,,50.5
91400,2026-01-11 15:31:27,0.0,5,7.705,0.0,0.0,0.0,32.6,7.5,-9.5,1024,1024,1024,1024,0,0,0,0,91,4.953,61.52,165.68242,P-GPS,,50.5
91500,2026-01-11 15:31:27,0.0,5,7.705,0.0,0.0,0.0,32.6,7.4,-9.7,1024,1024,1024,1024,0,0,0,0,91,4.953,61.52,165.68242,P-GPS,,50.5
91600,2026-01-11 15:31:27,0.0,5,7.705,0.0,0.0,0.0,32.7,7.1,-9.9,1024,1024,1024,1024,0,0,0,0,91,4.953,61.52,165.68242,P-GPS,,50.5
91700,2026-01-11 15:31:27,0.0,5,7.705,0.0,0.0,0.0,32.6,7.4,-10.1,1024,1024,1024,1024,0,0,0,0,91,4.953,61.52,165.68242,P-GPS,,50.5
91800,2026-01-11 15:31:27,0.0,5,7.705,0.0,0.0,0.0,32.6,7.2,-10.2,1024,1024,1024,1024,0,0,0,0,91,4.953,61.52,165.68242,P-GPS,,50.5
91900,2026-01-11 15:31:27,0.0,5,7.714,0.0,0.0,0.0,32.7,6.8,-10.2,1024,1024,1024,1024,0,0,0,0,91,4.823,61.52,165.68242,P-GPS,,50.5
92000,2026-01-11 15:31:27,0.0,5,7.714,0.0,0.0,0.0,32.8,6.5,-10.2,1024,1024,1024,1024,0,0,0,0,91,4.823,61.52,165.68242,P-GPS,,50.5
92100,2026-01-11 15:31:28,0.0,5,7.714,0.0,0.0,0.0,32.9,6.2,-10.1,1024,1024,1024,1024,0,0,0,0,91,4.823,61.52,165.354336,P-GPS,,50.4
92200,2026-01-11 15:31:28,0.0,5,7.714,0.0,0.0,0.0,32.8,6.6,-10.0,1024,1024,1024,1024,0,0,0,0,91,4.823,61.52,165.354336,P-GPS,,50.4
92300,2026-01-11 15:31:28,0.0,5,7.714,0.0,0.0,0.0,32.7,6.7,-10.0,1024,1024,1024,1024,0,0,0,0,91,4.823,61.52,165.354336,P-GPS,,50.4
92400,2026-01-11 15:31:28,0.0,5,7.714,0.0,0.0,0.0,32.7,6.9,-9.8,1024,1024,1024,1024,0,0,0,0,91,4.823,61.52,165.354336,P-GPS,,50.4
92500,2026-01-11 15:31:28,0.0,5,7.714,0.0,0.0,0.0,32.8,6.7,-9.7,1024,1024,1024,1024,0,0,0,0,91,4.823,61.52,165.354336,P-GPS,,50.4
92600,2026-01-11 15:31:28,0.0,5,7.714,0.0,0.0,0.0,32.7,6.6,-9.9,1024,1024,1024,1024,0,0,0,0,91,4.823,61.52,165.354336,P-GPS,,50.4
92700,2026-01-11 15:31:28,0.0,5,7.714,0.0,0.0,0.0,32.8,6.7,-9.6,1024,1024,1024,1024,0,0,0,0,91,4.823,61.52,165.354336,P-GPS,,50.4
92800,2026-01-11 15:31:28,0.0,5,7.714,0.0,0.0,0.0,32.9,6.0,-9.7,1024,1024,1024,1024,0,0,0,0,91,4.823,61.52,165.354336,P-GPS,,50.4
92900,2026-01-11 15:31:28,0.0,5,7.714,0.0,0.0,0.0,32.8,6.5,-9.8,1024,1024,1024,1024,0,0,0,0,91,4.823,61.52,165.354336,P-GPS,,50.4
93000,2026-01-11 15:31:28,0.0,5,7.693,0.0,0.0,0.0,32.8,6.7,-9.8,1024,1024,1024,1024,0,0,0,0,91,5.029,61.52,165.354336,P-GPS,,50.4
93100,2026-01-11 15:31:29,0.0,5,7.693,0.0,0.0,0.0,32.8,6.3,-9.7,1024,1024,1024,1024,0,0,0,0,91,5.029,61.52,165.354336,P-GPS,,50.4
93200,2026-01-11 15:31:29,0.0,5,7.693,0.0,0.0,0.0,32.9,6.1,-9.2,1024,1024,1024,1024,0,0,0,0,91,5.029,61.52,165.354336,P-GPS,,50.4
93300,2026-01-11 15:31:29,0.0,5,7.693,0.0,0.0,0.0,32.8,5.9,-9.2,1024,1024,1024,1024,0,0,0,0,91,5.029,61.52,165.354336,P-GPS,,50.4
93400,2026-01-11 15:31:29,0.0,5,7.693,0.0,0.0,0.0,32.8,6.0,-9.5,1024,1024,1024,1024,0,0,0,0,91,5.029,61.52,165.354336,P-GPS,,50.4
93500,2026-01-11 15:31:29,0.0,5,7.693,0.0,0.0,0.0,32.7,6.4,-9.2,1024,1024,1024,1024,0,0,0,0,91,5.029,61.52,165.354336,P-GPS,,50.4
93600,2026-01-11 15:31:29,0.0,5,7.693,0.0,0.0,0.0,32.8,6.4,-9.1,1024,1024,1024,1024,0,0,0,0,91,5.029,61.52,165.354336,P-GPS,,50.4
93700,2026-01-11 15:31:29,0.0,5,7.693,0.0,0.0,0.0,32.8,6.1,-8.9,1024,1024,1024,1024,0,0,0,0,91,5.029,61.52,165.354336,P-GPS,,50.4
93800,2026-01-11 15:31:29,0.0,5,7.693,0.0,0.0,0.0,32.8,6.0,-9.2,1024,1024,1024,1024,0,0,0,0,91,5.029,61.52,165.354336,P-GPS,,50.4
93900,2026-01-11 15:31:29,0.0,5,7.693,0.0,0.0,0.0,32.8,6.1,-9.1,1024,1024,1024,1024,0,0,0,0,91,5.029,61.52,165.354336,P-GPS,,50.4
94000,2026-01-11 15:31:29,0.0,5,7.693,0.0,0.0,0.0,32.8,5.8,-8.7,1024,1024,1024,1024,0,0,0,0,91,5.029,61.52,165.354336,P-GPS,,50.4
94100,2026-01-11 15:31:29,0.0,5,7.72,0.0,0.0,0.0,32.8,5.8,-8.9,1024,1024,1024,1024,0,0,0,0,91,4.937,61.7,165.354336,P-GPS,,50.4
94200,2026-01-11 15:31:30,0.0,5,7.72,0.0,0.0,0.0,32.8,5.9,-9.0,1024,1024,1024,1024,0,0,0,0,91,4.937,61.7,165.354336,P-GPS,,50.4
94300,2026-01-11 15:31:30,0.0,5,7.72,0.0,0.0,0.0,32.8,6.0,-9.0,1024,1024,1024,1024,0,0,0,0,91,4.937,61.7,165.354336,P-GPS,,50.4
94400,2026-01-11 15:31:30,0.0,5,7.72,0.0,0.0,0.0,32.8,6.0,-8.7,1024,1024,1024,1024,0,0,0,0,91,4.937,61.7,165.354336,P-GPS,,50.4
94500,2026-01-11 15:31:30,0.0,5,7.72,0.0,0.0,0.0,32.8,5.9,-8.6,1024,1024,1024,1024,0,0,0,0,91,4.937,61.7,165.354336,P-GPS,,50.4
94600,2026-01-11 15:31:30,0.0,5,7.72,0.0,0.0,0.0,32.8,5.8,-8.8,1024,1024,1024,1024,0,0,0,0,91,4.937,61.7,165.354336,P-GPS,,50.4
94700,2026-01-11 15:31:30,0.0,5,7.72,0.0,0.0,0.0,32.8,5.8,-8.7,1024,1024,1024,1024,0,0,0,0,91,4.937,61.7,165.354336,P-GPS,,50.4
94800,2026-01-11 15:31:30,0.0,5,7.72,0.0,0.0,0.0,32.8,5.9,-8.8,1024,1024,1024,1024,0,0,0,0,91,4.937,61.7,165.354336,P-GPS,,50.4
94900,2026-01-11 15:31:30,0.0,5,7.72,0.0,0.0,0.0,32.8,5.8,-8.7,1024,1024,1024,1024,0,0,0,0,91,4.937,61.7,165.354336,P-GPS,,50.4
95000,2026-01-11 15:31:30,0.0,5,7.72,0.0,0.0,0.0,32.9,5.8,-8.7,1024,1024,1024,1024,0,0,0,0,91,4.937,61.7,165.68242,P-GPS,,50.5
95100,2026-01-11 15:31:31,0.0,5,7.72,0.0,0.0,0.0,32.8,6.2,-8.6,1024,1024,1024,1024,0,0,0,0,91,4.937,61.7,165.68242,P-GPS,,50.5
95200,2026-01-11 15:31:31,0.0,5,7.727,0.0,0.0,0.0,32.8,5.9,-8.5,1024,1024,1024,1024,0,0,0,0,91,4.605,61.7,165.68242,P-GPS,,50.5
95300,2026-01-11 15:31:31,0.0,5,7.727,0.0,0.0,0.0,32.8,5.5,-8.6,1024,1024,1024,1024,0,0,0,0,91,4.605,61.7,165.68242,P-GPS,,50.5
95400,2026-01-11 15:31:31,0.0,5,7.727,0.0,0.0,0.0,32.8,5.5,-8.6,1024,1024,1024,1024,0,0,0,0,91,4.605,61.7,165.68242,P-GPS,,50.5
95500,2026-01-11 15:31:31,0.0,5,7.727,0.0,0.0,0.0,32.9,5.5,-8.4,1024,1024,1024,1024,0,0,0,0,91,4.605,61.7,165.68242,P-GPS,,50.5
95600,2026-01-11 15:31:31,0.0,5,7.727,0.0,0.0,0.0,32.9,5.4,-8.3,1024,1024,1024,1024,0,0,0,0,91,4.605,61.7,165.68242,P-GPS,,50.5
95700,2026-01-11 15:31:31,0.0,5,7.727,0.0,0.0,0.0,32.9,5.7,-8.3,1024,1024,1024,1024,0,0,0,0,91,4.605,61.7,165.68242,P-GPS,SD card speed low SD card speed low. Normal use may be affected. Replace SD card (Code: 10028). Gimbal stuck. Make sure gimbal cover is removed and manually check whether gimbal can rotate freely (Code: 40002),50.5
95800,2026-01-11 15:31:31,0.0,5,7.727,0.0,0.0,0.0,32.9,5.4,-8.3,1024,1024,1024,1024,0,0,0,0,91,4.605,61.7,165.68242,P-GPS,,50.5
95900,2026-01-11 15:31:31,0.0,5,7.727,0.0,0.0,0.0,32.9,5.5,-8.2,1024,1024,1024,1024,0,0,0,0,91,4.605,61.7,165.354336,P-GPS,,50.4
96000,2026-01-11 15:31:31,0.0,5,7.727,0.0,0.0,0.0,32.9,5.4,-7.8,1024,1024,1024,1024,0,0,0,0,91,4.605,61.7,165.354336,P-GPS,,50.4
96100,2026-01-11 15:31:32,0.0,5,7.727,0.0,0.0,0.0,32.9,5.3,-8.2,1024,1024,1024,1024,0,0,0,0,91,4.605,61.7,165.354336,P-GPS,,50.4
96200,2026-01-11 15:31:32,0.0,5,7.727,0.0,0.0,0.0,32.8,6.0,-8.5,1024,1024,1024,1024,0,0,0,0,91,4.605,61.7,165.354336,P-GPS,,50.4
96300,2026-01-11 15:31:32,0.0,5,7.744,0.0,0.0,0.0,32.8,5.8,-8.5,1024,1024,1024,1024,0,0,0,0,91,4.36,61.7,165.354336,P-GPS,,50.4
96400,2026-01-11 15:31:32,0.0,5,7.744,0.0,0.0,0.0,32.9,5.3,-8.6,1024,1024,1024,1024,0,0,0,0,91,4.36,61.7,165.354336,P-GPS,,50.4
96500,2026-01-11 15:31:32,0.0,5,7.744,0.0,0.0,0.0,32.9,5.3,-8.9,1024,1024,1024,1024,0,0,0,0,91,4.36,61.7,165.354336,P-GPS,,50.4
96600,2026-01-11 15:31:32,0.0,5,7.744,0.0,0.0,0.0,32.8,5.2,-9.2,1024,1024,1024,1024,0,0,0,0,91,4.36,61.7,165.354336,P-GPS,,50.4
96700,2026-01-11 15:31:32,0.0,5,7.744,0.0,0.0,0.0,32.8,5.3,-9.5,1024,1024,1024,1024,0,0,0,0,91,4.36,61.7,165.354336,P-GPS,,50.4
96800,2026-01-11 15:31:32,0.0,5,7.744,0.0,0.0,0.223694,32.9,5.0,-9.0,1024,1024,1024,1024,0,0,0,0,91,4.36,61.7,165.354336,P-GPS,,50.4
96900,2026-01-11 15:31:32,0.0,5,7.744,0.0,0.0,0.0,32.9,4.8,-8.9,1024,1024,1024,1024,0,0,0,0,91,4.36,61.7,165.354336,P-GPS,,50.4
97000,2026-01-11 15:31:32,0.0,5,7.744,0.0,0.0,0.0,32.9,4.8,-9.1,1024,1024,1024,1024,0,0,0,0,91,4.36,61.7,165.354336,P-GPS,,50.4
97100,2026-01-11 15:31:33,0.0,5,7.744,0.0,0.0,0.0,32.8,5.2,-9.0,1024,1024,1024,1024,0,0,0,0,91,4.36,61.7,165.354336,P-GPS,,50.4
97200,2026-01-11 15:31:33,0.0,5,7.744,0.0,0.0,0.0,33.0,4.2,-9.0,1024,1024,1024,1024,0,0,0,0,91,4.36,61.7,165.354336,P-GPS,,50.4
97300,2026-01-11 15:31:33,0.0,5,7.744,0.0,0.0,0.0,32.9,4.4,-9.7,1024,1024,1024,1024,0,0,0,0,91,4.36,61.7,165.354336,P-GPS,,50.4
97400,2026-01-11 15:31:33,0.0,5,7.744,0.0,0.0,0.0,32.9,4.7,-10.2,1024,1024,1024,1024,0,0,0,0,91,4.36,61.7,165.354336,P-GPS,,50.4
97500,2026-01-11 15:31:33,0.0,5,7.744,0.0,0.0,0.0,32.9,4.8,-10.1,1024,1024,1024,1024,0,0,0,0,91,4.36,61.7,165.354336,P-GPS,,50.4
97600,2026-01-11 15:31:33,0.0,5,7.744,0.0,0.0,0.0,32.9,4.8,-10.8,1024,1024,1024,1024,0,0,0,0,91,4.36,61.7,165.354336,P-GPS,,50.4
97700,2026-01-11 15:31:33,0.0,5,7.744,0.0,0.0,0.0,32.8,5.5,-10.6,1024,1024,1024,1024,0,0,0,0,91,4.36,61.7,165.354336,P-GPS,,50.4
97800,2026-01-11 15:31:33,0.0,5,7.744,0.0,0.0,0.0,32.7,6.2,-10.7,1024,1024,1024,1024,0,0,0,0,91,4.36,61.7,165.68242,P-GPS,,50.5
97900,2026-01-11 15:31:33,0.0,5,7.744,0.0,0.0,0.0,32.7,6.3,-10.4,1024,1024,1024,1024,0,0,0,0,91,4.36,61.7,165.68242,P-GPS,,50.5
98000,2026-01-11 15:31:33,0.0,5,7.744,0.0,0.0,0.0,32.8,6.2,-10.2,1024,1024,1024,1024,0,0,0,0,91,4.36,61.7,165.68242,P-GPS,,50.5
98100,2026-01-11 15:31:34,0.0,5,7.744,0.0,0.0,0.0,32.8,6.3,-10.1,1024,1024,1024,1024,0,0,0,0,91,4.36,61.7,165.68242,P-GPS,,50.5
98200,2026-01-11 15:31:34,0.0,5,7.744,0.0,0.0,0.0,32.7,6.3,-10.0,1024,1024,1024,1024,0,0,0,0,91,4.36,61.7,165.68242,P-GPS,,50.5
98300,2026-01-11 15:31:34,0.0,5,7.744,0.0,0.0,0.0,32.7,6.2,-10.3,1024,1024,1024,1024,0,0,0,0,91,4.36,61.7,165.68242,P-GPS,,50.5
98400,2026-01-11 15:31:34,0.0,5,7.71,0.0,0.0,0.0,32.7,6.0,-10.7,1024,1024,1024,1024,0,0,0,0,91,4.475,61.7,165.68242,P-GPS,,50.5
98500,2026-01-11 15:31:34,0.0,5,7.71,0.0,0.0,0.0,32.8,5.7,-10.5,1024,1024,1024,1024,0,0,0,0,91,4.475,61.7,165.68242,P-GPS,,50.5
98600,2026-01-11 15:31:34,0.0,5,7.71,0.0,0.0,0.0,32.9,5.1,-10.2,1024,1024,1024,1024,0,0,0,0,91,4.475,61.7,165.68242,P-GPS,,50.5
98700,2026-01-11 15:31:34,0.0,5,7.71,0.0,0.0,0.0,32.7,6.3,-10.5,1024,1024,1024,1024,0,0,0,0,91,4.475,61.7,165.68242,P-GPS,,50.5
98800,2026-01-11 15:31:34,0.0,5,7.71,0.0,0.0,0.0,32.7,6.6,-11.1,1024,1024,1024,1024,0,0,0,0,91,4.475,61.7,165.68242,P-GPS,,50.5
98900,2026-01-11 15:31:34,0.0,5,7.71,0.0,0.0,0.0,32.8,6.6,-10.8,1024,1024,1024,1024,0,0,0,0,91,4.475,61.7,165.68242,P-GPS,,50.5
99000,2026-01-11 15:31:34,0.0,5,7.71,0.0,0.0,0.0,32.8,5.9,-11.0,1024,1024,1024,1024,0,0,0,0,91,4.475,61.7,165.68242,P-GPS,,50.5
99100,2026-01-11 15:31:35,0.0,5,7.71,0.0,0.0,0.0,32.7,6.1,-11.7,1024,1024,1024,1024,0,0,0,0,91,4.475,61.7,165.68242,P-GPS,,50.5
99200,2026-01-11 15:31:35,0.0,5,7.71,0.0,0.0,0.0,32.6,6.8,-12.0,1024,1024,1024,1024,0,0,0,0,91,4.475,61.7,165.68242,P-GPS,,50.5
99300,2026-01-11 15:31:35,0.0,5,7.71,0.0,0.0,0.0,32.6,7.0,-12.1,1024,1024,1024,1024,0,0,0,0,91,4.475,61.7,165.68242,P-GPS,,50.5
99400,2026-01-11 15:31:35,0.0,5,7.71,0.0,0.0,0.0,32.8,6.7,-12.2,1024,1024,1024,1024,0,0,0,0,91,4.475,61.7,166.010504,P-GPS,,50.6
99500,2026-01-11 15:31:35,0.0,5,7.71,0.0,0.0,0.0,32.7,7.0,-12.5,1024,1024,1024,1024,0,0,0,0,91,4.475,61.7,166.010504,P-GPS,,50.6
99600,2026-01-11 15:31:35,0.0,5,7.743,0.0,0.0,0.0,32.5,7.8,-12.4,1024,1024,1024,1024,0,0,0,0,91,4.358,61.7,166.010504,P-GPS,,50.6
99700,2026-01-11 15:31:35,0.0,5,7.743,0.0,0.0,0.0,32.5,7.7,-12.2,1024,1024,1024,1024,0,0,0,0,91,4.358,61.7,166.010504,P-GPS,,50.6
99800,2026-01-11 15:31:35,0.0,5,7.743,0.0,0.0,0.0,32.6,7.3,-12.0,1024,1024,1024,1024,0,0,0,0,91,4.358,61.7,166.010504,P-GPS,,50.6
99900,2026-01-11 15:31:35,0.0,5,7.743,0.0,0.0,0.0,32.7,7.2,-12.1,1024,1024,1024,1024,0,0,0,0,91,4.358,61.7,166.010504,P-GPS,,50.6
100000,2026-01-11 15:31:35,0.0,5,7.743,0.0,0.0,0.0,32.6,7.0,-12.3,1024,1024,1024,1024,0,0,0,0,91,4.358,61.7,166.010504,P-GPS,,50.6
100100,2026-01-11 15:31:36,0.0,5,7.743,0.0,0.0,0.0,32.5,7.0,-12.6,1024,1024,1024,1024,0,0,0,0,91,4.358,61.7,166.010504,P-GPS,,50.6
100200,2026-01-11 15:31:36,0.0,5,7.743,0.0,0.0,0.0,32.6,6.4,-12.5,1024,1024,1024,1024,0,0,0,0,91,4.358,61.7,166.010504,P-GPS,,50.6
100300,2026-01-11 15:31:36,0.0,5,7.743,0.0,0.0,0.0,32.7,6.1,-12.4,1024,1024,1024,1024,0,0,0,0,91,4.358,61.7,166.010504,P-GPS,,50.6
100400,2026-01-11 15:31:36,0.0,5,7.743,0.0,0.0,0.0,32.5,6.8,-12.2,1024,1024,1024,1024,0,0,0,0,91,4.358,61.7,166.010504,P-GPS,,50.6
100500,2026-01-11 15:31:36,0.0,5,7.743,0.0,0.0,0.0,32.3,7.4,-12.9,1024,1024,1024,1024,0,0,0,0,91,4.358,61.7,166.010504,P-GPS,,50.6
100600,2026-01-11 15:31:36,0.0,5,7.743,0.0,0.0,0.223694,32.5,6.7,-13.3,1024,1024,1024,1024,0,0,0,0,91,4.358,61.7,166.010504,P-GPS,,50.6
100700,2026-01-11 15:31:36,0.0,5,7.72,0.0,0.0,0.223694,32.7,6.1,-13.0,1024,1024,1024,1024,0,0,0,0,91,4.974,61.7,166.010504,P-GPS,,50.6
100800,2026-01-11 15:31:36,0.0,5,7.72,0.0,0.0,0.0,32.8,5.6,-12.7,1024,1024,1024,1024,0,0,0,0,91,4.974,61.7,166.010504,P-GPS,,50.6
100900,2026-01-11 15:31:36,0.0,5,7.72,0.0,0.0,0.0,32.8,5.5,-13.0,1024,1024,1024,1024,0,0,0,0,91,4.974,61.7,165.68242,P-GPS,,50.5
101000,2026-01-11 15:31:37,0.0,5,7.72,0.0,0.0,0.0,32.7,6.1,-12.9,1024,1024,1024,1024,0,0,0,0,91,4.974,61.7,165.68242,P-GPS,,50.5
101100,2026-01-11 15:31:37,0.0,5,7.72,0.0,0.0,0.0,32.6,6.1,-13.1,1024,1024,1024,1024,0,0,0,0,91,4.974,61.7,165.68242,P-GPS,,50.5
101200,2026-01-11 15:31:37,0.0,5,7.72,0.0,0.0,0.0,32.6,6.1,-13.3,1024,1024,1024,1024,0,0,0,0,91,4.974,61.7,165.68242,P-GPS,,50.5
101300,2026-01-11 15:31:37,0.0,5,7.72,0.0,0.0,0.0,32.5,6.5,-13.3,1024,1024,1024,1024,0,0,0,0,91,4.974,61.7,165.68242,P-GPS,,50.5
101400,2026-01-11 15:31:37,0.0,5,7.72,0.0,0.0,0.0,32.7,5.7,-13.1,1024,1024,1024,1024,0,0,0,0,91,4.974,61.7,165.68242,P-GPS,,50.5
101500,2026-01-11 15:31:37,0.0,5,7.72,0.0,0.0,0.0,32.6,5.9,-13.3,1024,1024,1024,1024,0,0,0,0,91,4.974,61.7,165.68242,P-GPS,,50.5
101600,2026-01-11 15:31:37,0.0,5,7.72,0.0,0.0,0.0,32.8,5.2,-13.1,1024,1024,1024,1024,0,0,0,0,91,4.974,61.7,165.68242,P-GPS,,50.5
101700,2026-01-11 15:31:37,0.0,5,7.72,0.0,0.0,0.0,32.8,5.1,-12.9,1024,1024,1024,1024,0,0,0,0,91,4.974,61.7,165.68242,P-GPS,,50.5
101800,2026-01-11 15:31:37,0.0,5,7.66,0.0,0.0,0.0,32.7,5.4,-12.6,1024,1024,1024,1024,0,0,0,0,91,5.357,61.7,165.354336,P-GPS,,50.4
101900,2026-01-11 15:31:37,0.0,5,7.66,0.0,0.0,0.0,32.8,5.5,-12.6,1024,1024,1024,1024,0,0,0,0,91,5.357,61.7,165.354336,P-GPS,,50.4
102000,2026-01-11 15:31:37,0.0,5,7.66,0.0,0.0,0.0,32.6,5.9,-12.4,1024,1024,1024,1024,0,0,0,0,91,5.357,61.7,165.354336,P-GPS,,50.4
102100,2026-01-11 15:31:38,0.0,5,7.66,0.0,0.0,0.0,32.7,5.6,-12.0,1024,1024,1024,1024,0,0,0,0,91,5.357,61.7,165.354336,P-GPS,,50.4
102200,2026-01-11 15:31:38,0.0,5,7.66,0.0,0.0,0.0,32.7,5.8,-11.6,1024,1024,1024,1024,0,0,0,0,91,5.357,61.7,165.354336,P-GPS,,50.4
102300,2026-01-11 15:31:38,0.0,5,7.66,0.0,0.0,0.0,32.9,4.6,-11.7,1024,1024,1024,1024,0,0,0,0,91,5.357,61.7,165.026252,P-GPS,,50.3
102400,2026-01-11 15:31:38,0.0,5,7.66,0.0,0.0,0.0,32.9,4.5,-12.1,1024,1024,1024,1024,0,0,0,0,91,5.357,61.7,165.026252,P-GPS,,50.3
102500,2026-01-11 15:31:38,0.0,5,7.66,0.0,0.0,0.0,32.8,4.8,-11.8,1024,1024,1024,1024,0,0,0,0,91,5.357,61.7,165.026252,P-GPS,,50.3
102600,2026-01-11 15:31:38,0.0,5,7.66,0.0,0.0,0.0,32.9,4.6,-11.5,1024,1024,1024,1024,0,0,0,0,91,5.357,61.7,165.026252,P-GPS,,50.3
102700,2026-01-11 15:31:38,0.0,5,7.66,0.0,0.0,0.0,32.9,4.6,-11.5,1024,1024,1024,1024,0,0,0,0,91,5.357,61.7,165.026252,P-GPS,,50.3
102800,2026-01-11 15:31:38,0.0,5,7.66,0.0,0.0,0.0,32.8,5.1,-11.5,1024,1024,1024,1024,0,0,0,0,91,5.357,61.7,165.026252,P-GPS,,50.3
102900,2026-01-11 15:31:38,0.0,5,7.707,0.0,0.0,0.0,32.8,5.3,-11.6,1024,1024,1024,1024,0,0,0,0,90,5.118,61.88,164.698168,P-GPS,,50.2
103000,2026-01-11 15:31:39,0.0,5,7.707,0.0,0.0,0.0,32.7,6.1,-11.6,1024,1024,1024,1024,0,0,0,0,90,5.118,61.88,164.698168,P-GPS,,50.2
103100,2026-01-11 15:31:39,0.0,5,7.707,0.0,0.0,0.0,32.7,6.2,-11.2,1024,1024,1024,1024,0,0,0,0,90,5.118,61.88,164.698168,P-GPS,,50.2
103200,2026-01-11 15:31:39,0.0,5,7.707,0.0,0.0,0.0,32.8,5.5,-10.9,1024,1024,1024,1024,0,0,0,0,90,5.118,61.88,164.698168,P-GPS,,50.2
103300,2026-01-11 15:31:39,0.0,5,7.707,0.0,0.0,0.0,32.9,5.0,-11.2,1024,1024,1024,1024,0,0,0,0,90,5.118,61.88,164.698168,P-GPS,,50.2
103400,2026-01-11 15:31:39,0.0,5,7.707,0.0,0.0,0.0,32.8,5.5,-11.3,1024,1024,1024,1024,0,0,0,0,90,5.118,61.88,164.698168,P-GPS,,50.2
103500,2026-01-11 15:31:39,0.0,5,7.707,0.0,0.0,0.0,32.7,6.1,-11.5,1024,1024,1024,1024,0,0,0,0,90,5.118,61.88,164.698168,P-GPS,,50.2
103600,2026-01-11 15:31:39,0.0,5,7.707,0.0,0.0,0.0,32.7,5.9,-11.2,1024,1024,1024,1024,0,0,0,0,90,5.118,61.88,164.370084,P-GPS,,50.1
103700,2026-01-11 15:31:39,0.0,5,7.707,0.0,0.0,0.0,32.7,6.0,-10.4,1024,1024,1024,1024,0,0,0,0,90,5.118,61.88,164.370084,P-GPS,,50.1
103800,2026-01-11 15:31:39,0.0,5,7.707,0.0,0.0,0.0,32.8,5.0,-9.9,1024,1024,1024,1024,0,0,0,0,90,5.118,61.88,164.370084,P-GPS,,50.1
103900,2026-01-11 15:31:39,0.0,5,7.707,0.0,0.0,0.0,32.8,4.6,-9.9,1024,1024,1024,1024,0,0,0,0,90,5.118,61.88,164.370084,P-GPS,,50.1
104000,2026-01-11 15:31:39,0.0,5,7.7,0.0,0.0,0.0,32.7,4.6,-9.5,1024,1024,1024,1024,0,0,0,0,90,5.039,61.88,164.370084,P-GPS,,50.1
104100,2026-01-11 15:31:40,0.0,5,7.7,0.0,0.0,0.0,32.7,3.9,-10.2,1024,1024,1024,1024,0,0,0,0,90,5.039,61.88,164.370084,P-GPS,,50.1
104200,2026-01-11 15:31:40,0.0,5,7.7,0.0,0.0,0.0,32.8,3.3,-10.7,1024,1024,1024,1024,0,0,0,0,90,5.039,61.88,164.370084,P-GPS,,50.1
104300,2026-01-11 15:31:40,0.0,5,7.7,0.0,0.0,0.0,32.8,3.5,-11.2,1024,1024,1024,1024,0,0,0,0,90,5.039,61.88,164.370084,P-GPS,,50.1
104400,2026-01-11 15:31:40,0.0,5,7.7,0.0,0.0,0.0,32.9,3.3,-11.5,1024,1024,1024,1024,0,0,0,0,90,5.039,61.88,164.370084,P-GPS,,50.1
104500,2026-01-11 15:31:40,0.0,5,7.7,0.0,0.0,0.0,32.9,3.8,-11.9,1024,1024,1024,1024,0,0,0,0,90,5.039,61.88,164.370084,P-GPS,,50.1
104600,2026-01-11 15:31:40,0.0,5,7.7,0.0,0.0,0.0,32.9,4.2,-11.8,1024,1024,1024,1024,0,0,0,0,90,5.039,61.88,164.370084,P-GPS,,50.1
104700,2026-01-11 15:31:40,0.0,5,7.7,0.0,0.0,0.0,32.9,4.4,-11.4,1024,1024,1024,1024,0,0,0,0,90,5.039,61.88,164.370084,P-GPS,,50.1
104800,2026-01-11 15:31:40,0.0,5,7.7,0.0,0.0,0.0,32.9,4.7,-11.2,1024,1024,1024,1024,0,0,0,0,90,5.039,61.88,164.370084,P-GPS,,50.1
104900,2026-01-11 15:31:40,0.0,5,7.7,0.0,0.0,0.0,32.9,5.0,-11.2,1024,1024,1024,1024,0,0,0,0,90,5.039,61.88,164.370084,P-GPS,,50.1
105000,2026-01-11 15:31:41,0.0,5,7.7,0.0,0.0,0.0,32.8,5.6,-11.0,1024,1024,1024,1024,0,0,0,0,90,5.039,61.88,164.370084,P-GPS,,50.1
105100,2026-01-11 15:31:41,0.0,5,7.701,0.0,0.0,0.0,32.8,5.9,-11.0,1024,1024,1024,1024,0,0,0,0,90,4.862,61.88,164.370084,P-GPS,,50.1
105200,2026-01-11 15:31:41,0.0,5,7.701,0.0,0.0,0.0,32.9,6.2,-10.0,1024,1024,1024,1024,0,0,0,0,90,4.862,61.88,164.370084,P-GPS,,50.1
105300,2026-01-11 15:31:41,0.0,5,7.701,0.0,0.0,0.0,32.9,5.6,-10.3,1024,1024,1024,1024,0,0,0,0,90,4.862,61.88,164.370084,P-GPS,,50.1
105400,2026-01-11 15:31:41,0.0,5,7.701,0.0,0.0,0.0,32.8,6.0,-10.4,1024,1024,1024,1024,0,0,0,0,90,4.862,61.88,164.370084,P-GPS,,50.1
105500,2026-01-11 15:31:41,0.0,5,7.701,0.0,0.0,0.0,32.8,5.9,-10.3,1024,1024,1024,1024,0,0,0,0,90,4.862,61.88,164.370084,P-GPS,,50.1
105600,2026-01-11 15:31:41,0.0,5,7.701,0.0,0.0,0.0,32.8,5.8,-10.3,1024,1024,1024,1024,0,0,0,0,90,4.862,61.88,164.370084,P-GPS,,50.1
105700,2026-01-11 15:31:41,0.0,5,7.701,0.0,0.0,0.0,32.8,5.6,-10.2,1024,1024,1024,1024,0,0,0,0,90,4.862,61.88,164.370084,P-GPS,Strong wind warning Strong wind warning. Aircraft unable to return to home automatically. Lower altitude immediately and return to home manually (Code: 30149). SD card speed low. Normal use may be affected. Replace SD card (Code: 10028). Gimbal stuck. Make sure gimbal c,50.1
105800,2026-01-11 15:31:41,0.0,5,7.701,0.0,0.0,0.0,32.8,5.5,-10.2,1024,1024,1024,1024,0,0,0,0,90,4.862,61.88,164.370084,P-GPS,,50.1
105900,2026-01-11 15:31:41,0.0,5,7.701,0.0,0.0,0.0,32.8,5.2,-10.2,1024,1024,1024,1024,0,0,0,0,90,4.862,61.88,164.370084,P-GPS,,50.1
106000,2026-01-11 15:31:41,0.0,5,7.701,0.0,0.0,0.0,32.8,5.1,-10.2,1024,1024,1024,1024,0,0,0,0,90,4.862,61.88,164.370084,P-GPS,,50.1
106100,2026-01-11 15:31:42,0.0,5,7.701,0.0,0.0,0.0,32.8,5.1,-10.4,1024,1024,1024,1024,0,0,0,0,90,4.862,61.88,164.370084,P-GPS,,50.1
106200,2026-01-11 15:31:42,0.0,5,7.723,0.0,0.0,0.0,32.8,5.0,-10.4,1024,1024,1024,1024,0,0,0,0,90,4.607,61.88,164.370084,P-GPS,,50.1
106300,2026-01-11 15:31:42,0.0,5,7.723,0.0,0.0,0.0,32.8,5.0,-10.4,1024,1024,1024,1024,0,0,0,0,90,4.607,61.88,164.370084,P-GPS,,50.1
106400,2026-01-11 15:31:42,0.0,5,7.723,0.0,0.0,0.0,32.8,5.0,-10.4,1024,1024,1024,1024,0,0,0,0,90,4.607,61.88,164.370084,P-GPS,,50.1
106500,2026-01-11 15:31:42,0.0,5,7.723,0.0,0.0,0.0,32.8,5.0,-10.3,1024,1024,1024,1024,0,0,0,0,90,4.607,61.88,164.370084,P-GPS,,50.1
106600,2026-01-11 15:31:42,0.0,5,7.723,0.0,0.0,0.0,32.8,5.1,-10.3,1024,1024,1024,1024,0,0,0,0,90,4.607,61.88,164.370084,P-GPS,,50.1
106700,2026-01-11 15:31:42,0.0,5,7.723,0.0,0.0,0.0,32.8,5.4,-10.2,1024,1024,1024,1024,0,0,0,0,90,4.607,61.88,164.370084,P-GPS,,50.1
106800,2026-01-11 15:31:42,0.0,5,7.723,0.0,0.0,0.0,32.8,5.7,-10.0,1024,1024,1024,1024,0,0,0,0,90,4.607,61.88,164.370084,P-GPS,,50.1
106900,2026-01-11 15:31:42,0.0,5,7.723,0.0,0.0,0.0,32.8,5.7,-10.1,1024,1024,1024,1024,0,0,0,0,90,4.607,61.88,164.370084,P-GPS,,50.1
107000,2026-01-11 15:31:43,0.0,5,7.723,0.0,0.0,0.0,32.8,5.8,-10.0,1024,1024,1024,1024,0,0,0,0,90,4.607,61.88,164.370084,P-GPS,,50.1
107100,2026-01-11 15:31:43,0.0,5,7.723,0.0,0.0,0.0,32.9,5.7,-10.1,1024,1024,1024,1024,0,0,0,0,90,4.607,61.88,164.370084,P-GPS,,50.1
107200,2026-01-11 15:31:43,0.0,5,7.723,0.0,0.0,0.0,32.9,5.6,-10.3,1024,1024,1024,1024,0,0,0,0,90,4.607,61.88,164.370084,P-GPS,,50.1
107300,2026-01-11 15:31:43,0.0,5,7.712,0.0,0.0,0.0,32.9,5.5,-10.6,1024,1024,1024,1024,0,0,0,0,90,4.753,61.88,164.370084,P-GPS,,50.1
107400,2026-01-11 15:31:43,0.0,5,7.712,0.0,0.0,0.0,32.8,5.6,-10.7,1024,1024,1024,1024,0,0,0,0,90,4.753,61.88,164.370084,P-GPS,,50.1
107500,2026-01-11 15:31:43,0.0,5,7.712,0.0,0.0,0.0,32.8,5.5,-10.7,1024,1024,1024,1024,0,0,0,0,90,4.753,61.88,164.370084,P-GPS,,50.1
107600,2026-01-11 15:31:43,0.0,5,7.712,0.0,0.0,0.0,32.9,5.5,-10.6,1024,1024,1024,1024,0,0,0,0,90,4.753,61.88,164.370084,P-GPS,,50.1
107700,2026-01-11 15:31:43,0.0,5,7.712,0.0,0.0,0.0,32.9,5.5,-10.7,1024,1024,1024,1024,0,0,0,0,90,4.753,61.88,164.370084,P-GPS,,50.1
107800,2026-01-11 15:31:43,0.0,5,7.712,0.0,0.0,0.0,32.9,5.6,-10.6,1024,1024,1024,1024,0,0,0,0,90,4.753,61.88,164.370084,P-GPS,,50.1
107900,2026-01-11 15:31:43,0.0,5,7.712,0.0,0.0,0.0,32.9,5.8,-10.8,1024,1024,1024,1024,0,0,0,0,90,4.753,61.88,164.370084,P-GPS,,50.1
108000,2026-01-11 15:31:43,0.0,5,7.712,0.0,0.0,0.0,32.8,5.8,-10.9,1024,1024,1024,1024,0,0,0,0,90,4.753,61.88,164.370084,P-GPS,,50.1
108100,2026-01-11 15:31:44,0.0,5,7.712,0.0,0.0,0.0,32.8,5.9,-11.0,1024,1024,1024,1024,0,0,0,0,90,4.753,61.88,164.370084,P-GPS,,50.1
108200,2026-01-11 15:31:44,0.0,5,7.712,0.0,0.0,0.0,32.8,5.9,-11.0,1024,1024,1024,1024,0,0,0,0,90,4.753,61.88,164.370084,P-GPS,,50.1
108300,2026-01-11 15:31:44,0.0,5,7.712,0.0,0.0,0.0,32.8,5.8,-10.8,1024,1024,1024,1024,0,0,0,0,90,4.753,61.88,164.698168,P-GPS,,50.2
108400,2026-01-11 15:31:44,0.0,5,7.699,0.0,0.0,0.0,32.8,5.6,-10.9,1024,1024,1024,1024,0,0,0,0,90,4.974,61.88,164.698168,P-GPS,,50.2
108500,2026-01-11 15:31:44,0.0,5,7.699,0.0,0.0,0.0,32.8,5.5,-11.0,1024,1024,1024,1024,0,0,0,0,90,4.974,61.88,164.698168,P-GPS,,50.2
108600,2026-01-11 15:31:44,0.0,5,7.699,0.0,0.0,0.0,32.8,5.6,-11.2,1024,1024,1024,1024,0,0,0,0,90,4.974,61.88,164.698168,P-GPS,,50.2
108700,2026-01-11 15:31:44,0.0,5,7.699,0.0,0.0,0.0,32.8,5.7,-11.2,1024,1024,1024,1024,0,0,0,0,90,4.974,61.88,164.698168,P-GPS,,50.2
108800,2026-01-11 15:31:44,0.0,5,7.699,0.0,0.0,0.0,32.7,6.0,-11.1,1024,1024,1024,1024,0,0,0,0,90,4.974,61.88,164.698168,P-GPS,,50.2
108900,2026-01-11 15:31:44,0.0,5,7.699,0.0,0.0,0.0,32.8,5.9,-11.0,1024,1024,1024,1024,0,0,0,0,90,4.974,61.88,164.698168,P-GPS,,50.2
109000,2026-01-11 15:31:44,0.0,5,7.699,0.0,0.0,0.0,32.8,5.9,-11.0,1024,1024,1024,1024,0,0,0,0,90,4.974,61.88,164.698168,P-GPS,,50.2
109100,2026-01-11 15:31:45,0.0,5,7.699,0.0,0.0,0.0,32.8,5.8,-10.9,1024,1024,1024,1024,0,0,0,0,90,4.974,61.88,164.698168,P-GPS,,50.2
109200,2026-01-11 15:31:45,0.0,5,7.699,0.0,0.0,0.0,32.8,5.7,-10.9,1024,1024,1024,1024,0,0,0,0,90,4.974,61.88,164.698168,P-GPS,,50.2
109300,2026-01-11 15:31:45,0.0,5,7.699,0.0,0.0,0.0,32.8,5.7,-10.9,1024,1024,1024,1024,0,0,0,0,90,4.974,61.88,164.698168,P-GPS,,50.2
109400,2026-01-11 15:31:45,0.0,5,7.699,0.0,0.0,0.0,32.8,5.8,-10.8,1024,1024,1024,1024,0,0,0,0,90,4.974,61.88,164.698168,P-GPS,,50.2
109500,2026-01-11 15:31:45,0.0,5,7.695,0.0,0.0,0.0,32.8,5.9,-11.0,1024,1024,1024,1024,0,0,0,0,90,5.115,61.88,165.026252,P-GPS,,50.3
109600,2026-01-11 15:31:45,0.0,5,7.695,0.0,0.0,0.0,32.8,5.9,-11.1,1024,1024,1024,1024,0,0,0,0,90,5.115,61.88,165.026252,P-GPS,,50.3
109700,2026-01-11 15:31:45,0.0,5,7.695,0.0,0.0,0.0,32.8,5.8,-11.3,1024,1024,1024,1024,0,0,0,0,90,5.115,61.88,165.026252,P-GPS,,50.3
109800,2026-01-11 15:31:45,0.0,5,7.695,0.0,0.0,0.0,32.8,5.8,-11.3,1024,1024,1024,1024,0,0,0,0,90,5.115,61.88,165.026252,P-GPS,,50.3
109900,2026-01-11 15:31:45,0.0,5,7.695,0.0,0.0,0.0,32.7,5.7,-11.3,1024,1024,1024,1024,0,0,0,0,90,5.115,61.88,165.026252,P-GPS,,50.3
110000,2026-01-11 15:31:45,0.0,5,7.695,0.0,0.0,0.0,32.7,5.8,-11.4,1024,1024,1024,1024,0,0,0,0,90,5.115,61.88,165.026252,P-GPS,,50.3
110100,2026-01-11 15:31:46,0.0,5,7.695,0.0,0.0,0.0,32.8,5.4,-11.1,1024,1024,1024,1024,0,0,0,0,90,5.115,61.88,165.026252,P-GPS,,50.3
110200,2026-01-11 15:31:46,0.0,5,7.695,0.0,0.0,0.0,32.8,5.4,-11.6,1024,1024,1024,1024,0,0,0,0,90,5.115,61.88,165.026252,P-GPS,,50.3
110300,2026-01-11 15:31:46,0.0,5,7.695,0.0,0.0,0.0,32.7,6.0,-11.6,1024,1024,1024,1024,0,0,0,0,90,5.115,61.88,165.026252,P-GPS,,50.3
110400,2026-01-11 15:31:46,0.0,5,7.695,0.0,0.0,0.0,32.7,6.0,-11.6,1024,1024,1024,1024,0,0,0,0,90,5.115,61.88,165.026252,P-GPS,,50.3
110500,2026-01-11 15:31:46,0.0,5,7.695,0.0,0.0,0.0,32.7,6.1,-11.7,1024,1024,1024,1024,0,0,0,0,90,5.115,61.88,165.026252,P-GPS,,50.3
110600,2026-01-11 15:31:46,0.0,5,7.698,0.0,0.0,0.0,32.6,6.6,-11.8,1024,1024,1024,1024,0,0,0,0,90,5.037,61.88,165.026252,P-GPS,,50.3
110700,2026-01-11 15:31:46,0.0,5,7.698,0.0,0.0,0.0,32.7,6.7,-11.6,1024,1024,1024,1024,0,0,0,0,90,5.037,61.88,165.354336,P-GPS,,50.4
110800,2026-01-11 15:31:46,0.0,5,7.698,0.0,0.0,0.0,32.7,6.8,-11.3,1024,1024,1024,1024,0,0,0,0,90,5.037,61.88,165.354336,P-GPS,,50.4
110900,2026-01-11 15:31:46,0.0,5,7.698,0.0,0.0,0.0,32.7,6.6,-11.3,1024,1024,1024,1024,0,0,0,0,90,5.037,61.88,165.354336,P-GPS,,50.4
111000,2026-01-11 15:31:46,0.0,5,7.698,0.0,0.0,0.0,32.7,6.6,-11.2,1024,1024,1024,1024,0,0,0,0,90,5.037,61.88,165.354336,P-GPS,,50.4
111100,2026-01-11 15:31:47,0.0,5,7.698,0.0,0.0,0.0,32.7,6.5,-11.3,1024,1024,1024,1024,0,0,0,0,90,5.037,61.88,165.354336,P-GPS,,50.4
111200,2026-01-11 15:31:47,0.0,5,7.698,0.0,0.0,0.0,32.7,6.6,-11.2,1024,1024,1024,1024,0,0,0,0,90,5.037,61.88,165.354336,P-GPS,,50.4
111300,2026-01-11 15:31:47,0.0,5,7.698,0.0,0.0,0.0,32.7,6.4,-11.1,1024,1024,1024,1024,0,0,0,0,90,5.037,61.88,165.354336,P-GPS,,50.4
111400,2026-01-11 15:31:47,0.0,5,7.698,0.0,0.0,0.0,32.7,6.6,-11.0,1024,1024,1024,1024,0,0,0,0,90,5.037,61.88,165.354336,P-GPS,,50.4
111500,2026-01-11 15:31:47,0.0,5,7.698,0.0,0.0,0.0,32.7,6.7,-11.2,1024,1024,1024,1024,0,0,0,0,90,5.037,61.88,165.354336,P-GPS,,50.4
111600,2026-01-11 15:31:47,0.0,5,7.698,0.0,0.0,0.0,32.8,6.2,-11.0,1024,1024,1024,1024,0,0,0,0,90,5.037,61.88,165.354336,P-GPS,,50.4
111700,2026-01-11 15:31:47,0.0,5,7.7,0.0,0.0,0.0,32.6,6.5,-11.9,1024,1024,1024,1024,0,0,0,0,90,4.82,61.88,165.354336,P-GPS,,50.4
111800,2026-01-11 15:31:47,0.0,5,7.7,0.0,0.0,0.0,32.6,6.5,-11.5,1024,1024,1024,1024,0,0,0,0,90,4.82,61.88,165.354336,P-GPS,,50.4
111900,2026-01-11 15:31:47,0.0,5,7.7,0.0,0.0,0.0,32.7,6.2,-11.4,1024,1024,1024,1024,0,0,0,0,90,4.82,61.88,165.354336,P-GPS,,50.4
112000,2026-01-11 15:31:48,0.0,5,7.7,0.0,0.0,0.0,32.7,6.0,-11.5,1024,1024,1024,1024,0,0,0,0,90,4.82,61.88,165.354336,P-GPS,,50.4
112100,2026-01-11 15:31:48,0.0,5,7.7,0.0,0.0,0.0,32.6,6.3,-11.7,1024,1024,1024,1024,0,0,0,0,90,4.82,61.88,165.354336,P-GPS,,50.4
112200,2026-01-11 15:31:48,0.0,5,7.7,0.0,0.0,0.0,32.6,6.4,-11.9,1024,1024,1024,1024,0,0,0,0,90,4.82,61.88,165.354336,P-GPS,,50.4
112300,2026-01-11 15:31:48,0.0,5,7.7,0.0,0.0,0.0,32.6,6.6,-11.7,1024,1024,1024,1024,0,0,0,0,90,4.82,61.88,165.354336,P-GPS,,50.4
112400,2026-01-11 15:31:48,0.0,5,7.7,0.0,0.0,0.0,32.6,6.3,-11.8,1024,1024,1024,1024,0,0,0,0,90,4.82,61.88,165.354336,P-GPS,,50.4
112500,2026-01-11 15:31:48,0.0,5,7.7,0.0,0.0,0.0,32.6,6.2,-11.8,1024,1024,1024,1024,0,0,0,0,90,4.82,61.88,165.354336,P-GPS,,50.4
112600,2026-01-11 15:31:48,0.0,5,7.7,0.0,0.0,0.0,32.6,6.6,-11.4,1024,1024,1024,1024,0,0,0,0,90,4.82,61.88,165.354336,P-GPS,,50.4
112700,2026-01-11 15:31:48,0.0,5,7.7,0.0,0.0,0.0,32.6,6.3,-11.2,1024,1024,1024,1024,0,0,0,0,90,4.82,61.88,165.354336,P-GPS,,50.4
112800,2026-01-11 15:31:48,0.0,5,7.7,0.0,0.0,0.0,32.6,6.1,-11.4,1024,1024,1024,1024,0,0,0,0,90,4.82,61.88,165.026252,P-GPS,,50.3
112900,2026-01-11 15:31:48,0.0,5,7.722,0.0,0.0,0.0,32.7,5.7,-11.4,1024,1024,1024,1024,0,0,0,0,90,4.585,61.88,165.026252,P-GPS,,50.3
113000,2026-01-11 15:31:48,0.0,5,7.722,0.0,0.0,0.0,32.7,5.9,-11.6,1024,1024,1024,1024,0,0,0,0,90,4.585,61.88,165.026252,P-GPS,,50.3
113100,2026-01-11 15:31:49,0.0,5,7.722,0.0,0.0,0.0,32.6,6.8,-11.7,1024,1024,1024,1024,0,0,0,0,90,4.585,61.88,165.026252,P-GPS,,50.3
113200,2026-01-11 15:31:49,0.0,5,7.722,0.0,0.0,0.0,32.6,6.6,-11.5,1024,1024,692,1024,0,0,-50,0,90,4.585,61.88,165.026252,P-GPS,,50.3
113300,2026-01-11 15:31:49,0.0,5,7.722,0.0,0.0,0.0,32.6,6.6,-11.7,1024,1024,364,1007,0,0,-100,-3,90,4.585,61.88,165.026252,P-GPS,,50.3
113400,2026-01-11 15:31:49,0.0,5,7.722,0.0,0.0,0.0,32.7,6.8,-11.1,1024,1024,364,879,0,0,-100,-22,90,4.585,61.88,165.026252,P-GPS,,50.3
113500,2026-01-11 15:31:49,0.0,5,7.722,0.0,0.0,0.0,32.5,7.1,-11.6,1024,1024,364,878,0,0,-100,-22,90,4.585,61.88,165.026252,P-GPS,,50.3
113600,2026-01-11 15:31:49,0.0,5,7.722,0.0,0.0,0.447388,32.2,8.1,-12.1,1024,1024,364,880,0,0,-100,-22,90,4.585,61.88,164.698168,P-GPS,,50.2
113700,2026-01-11 15:31:49,0.0,5,7.722,0.0,0.0,1.11847,31.5,7.8,-12.5,1024,1024,364,880,0,0,-100,-22,90,4.585,61.88,164.370084,P-GPS,,50.1
113800,2026-01-11 15:31:49,0.0,5,7.722,0.0,0.0,2.013246,30.6,7.7,-12.6,1024,1024,364,962,0,0,-100,-9,90,4.585,61.88,164.042,P-GPS,,50.0
113900,2026-01-11 15:31:49,0.0,5,7.722,0.0,0.0,2.684328,29.9,7.1,-12.6,1024,1024,364,988,0,0,-100,-5,90,4.585,61.88,163.385832,P-GPS,,49.8
114000,2026-01-11 15:31:49,0.0,5,7.853,0.0,0.0,3.35541,29.5,6.3,-12.0,1024,1024,364,988,0,0,-100,-5,90,3.32,61.88,162.729664,P-GPS,,49.6
114100,2026-01-11 15:31:50,0.0,5,7.853,0.0,0.0,3.802798,29.3,5.8,-11.4,1024,1024,364,989,0,0,-100,-5,90,3.32,61.88,162.073496,P-GPS,,49.4
114200,2026-01-11 15:31:50,0.0,5,7.853,0.0,0.0,4.026492,29.2,5.5,-11.0,1024,1024,364,988,0,0,-100,-5,90,3.32,61.88,161.417328,P-GPS,,49.2
114300,2026-01-11 15:31:50,0.0,5,7.853,0.0,0.0,4.026492,29.2,4.9,-10.8,1024,1024,364,988,0,0,-100,-5,90,3.32,61.88,160.76116,P-GPS,,49.0
114400,2026-01-11 15:31:50,0.0,5,7.853,0.0,0.0,4.026492,29.0,4.7,-10.8,1024,1024,364,988,0,0,-100,-5,90,3.32,61.88,160.104992,P-GPS,,48.8
114500,2026-01-11 15:31:50,0.0,5,7.853,0.0,0.0,4.026492,28.9,4.3,-10.9,1024,1024,364,988,0,0,-100,-5,90,3.32,61.88,159.448824,P-GPS,,48.6
114600,2026-01-11 15:31:50,0.0,5,7.853,0.0,0.0,4.026492,28.7,4.5,-11.1,1024,1024,364,987,0,0,-100,-6,90,3.32,61.88,158.792656,P-GPS,,48.4
114700,2026-01-11 15:31:50,0.0,5,7.853,0.0,0.0,4.026492,28.6,4.5,-11.2,1024,1024,364,987,0,0,-100,-6,90,3.32,61.88,158.136488,P-GPS,,48.2
