index,time(millisecond),timestamp,speed(mph),gpslevel,voltage(v),xSpeed(mph),ySpeed(mph),zSpeed(mph),compass_heading(degrees),pitch(degrees),roll(degrees),rc_elevator,rc_aileron,rc_throttle,rc_rudder,rc_elevator(percent),rc_aileron(percent),rc_throttle(percent),rc_rudder(percent),battery_percent,current(A),battery_temperature(f),ascent(feet),flycState,message,height_above_takeoff(meters)
390,233000,2026-01-13 17:36:11,0.0,5,7.626,0.0,0.0,0.0,33.9,15.9,-9.4,1024,1024,1024,1024,0,0,0,0,82,6.511,70.52,96.456696,P-GPS,,29.4
391,233100,2026-01-13 17:36:11,0.0,5,7.626,0.0,0.0,0.0,34.1,14.8,-10.0,1024,1024,1024,1024,0,0,0,0,82,6.511,70.52,96.128612,P-GPS,,29.3
392,233200,2026-01-13 17:36:11,0.0,5,7.626,0.0,0.0,0.0,34.0,14.5,-9.6,1024,1024,1024,1024,0,0,0,0,82,6.511,70.52,95.800528,P-GPS,,29.2
393,233300,2026-01-13 17:36:11,0.0,5,7.626,0.0,0.0,0.0,33.9,15.0,-9.6,1024,1024,1024,1024,0,0,0,0,82,6.511,70.52,95.800528,P-GPS,,29.2
394,233400,2026-01-13 17:36:11,0.0,5,7.626,0.0,0.0,0.0,34.0,14.4,-9.9,1024,1024,1024,1024,0,0,0,0,82,6.511,70.52,95.472444,P-GPS,,29.1
395,233500,2026-01-13 17:36:11,0.0,5,7.626,0.0,0.0,-0.223694,34.0,14.2,-9.5,1024,1024,1024,1024,0,0,0,0,82,6.511,70.52,95.472444,P-GPS,,29.1
396,233600,2026-01-13 17:36:11,0.0,5,7.626,0.0,0.0,-0.223694,34.0,14.2,-9.5,1024,1024,1024,1024,0,0,0,0,82,6.511,70.52,95.472444,P-GPS,,29.1
397,233700,2026-01-13 17:36:11,0.0,5,7.626,0.0,0.0,-0.223694,34.0,14.7,-9.0,1024,1024,1024,1024,0,0,0,0,82,6.511,70.52,95.14436,P-GPS,,29.0
398,233800,2026-01-13 17:36:11,0.0,5,7.626,0.0,0.0,-0.223694,34.1,14.7,-8.7,1024,1024,1024,1024,0,0,0,0,82,6.511,70.52,94.816276,P-GPS,,28.9
399,233900,2026-01-13 17:36:12,0.0,5,7.594,0.0,0.0,-0.223694,34.0,15.3,-8.2,1024,1024,1024,1024,0,0,0,0,82,6.258,70.7,94.816276,P-GPS,,28.9
400,234000,2026-01-13 17:36:12,0.0,5,7.594,0.0,0.0,0.0,34.2,15.2,-7.4,1024,1024,1024,1024,0,0,0,0,82,6.258,70.7,94.488192,P-GPS,,28.8
401,234100,2026-01-13 17:36:12,0.0,5,7.594,0.0,0.0,0.0,34.2,15.1,-7.4,1024,1024,1024,1024,0,0,0,0,82,6.258,70.7,94.488192,P-GPS,,28.8
402,234200,2026-01-13 17:36:12,0.0,5,7.594,0.0,0.0,0.0,34.4,14.0,-7.9,1024,1024,1024,1024,0,0,0,0,82,6.258,70.7,94.160108,P-GPS,,28.7
403,234300,2026-01-13 17:36:12,0.0,5,7.594,0.0,0.0,-0.223694,34.4,14.0,-8.2,1024,1024,1024,1024,0,0,0,0,82,6.258,70.7,94.160108,P-GPS,,28.7
404,234400,2026-01-13 17:36:12,0.0,5,7.594,0.0,0.0,-0.223694,34.2,14.1,-8.7,1024,1024,1024,1024,0,0,0,0,82,6.258,70.7,93.832024,P-GPS,,28.6
405,234500,2026-01-13 17:36:12,0.0,5,7.594,0.0,0.0,0.0,34.2,14.0,-8.8,1024,1024,1024,1024,0,0,0,0,82,6.258,70.7,93.50394,P-GPS,,28.5
406,234600,2026-01-13 17:36:12,0.0,5,7.594,0.0,0.0,0.0,34.2,14.4,-8.6,1024,1024,1024,1024,0,0,0,0,82,6.258,70.7,93.50394,P-GPS,,28.5
407,234700,2026-01-13 17:36:12,0.0,5,7.594,0.0,0.0,0.0,34.3,14.2,-8.4,1024,1024,1024,1024,0,0,0,0,82,6.258,70.7,93.175856,P-GPS,,28.4
408,234800,2026-01-13 17:36:12,0.0,5,7.594,0.0,0.0,0.0,34.3,14.1,-8.0,1024,1024,1024,1024,0,0,0,0,82,6.258,70.7,93.175856,P-GPS,,28.4
409,234900,2026-01-13 17:36:12,0.0,5,7.594,0.0,0.0,0.0,34.5,13.8,-7.7,1024,1024,1024,1024,0,0,0,0,82,6.258,70.7,93.175856,P-GPS,,28.4
410,235000,2026-01-13 17:36:13,0.0,5,7.613,0.0,0.0,0.0,34.5,13.9,-7.3,1024,1024,1024,1024,0,0,0,0,82,5.327,70.7,93.175856,P-GPS,Strong wind warning Strong wind warning. Aircraft unable to return to home automatically. Lower altitude immediately and return to home manually (Code: 30149). SD card speed low. Normal use may be affected. Replace SD card (Code: 10028). Gimbal stuck. Make sure gimbal c,28.4
411,235100,2026-01-13 17:36:13,0.0,5,7.613,0.0,0.0,0.0,34.6,13.4,-7.3,1024,1024,1024,1024,0,0,0,0,82,5.327,70.7,93.175856,P-GPS,,28.4
412,235200,2026-01-13 17:36:13,0.0,5,7.613,0.0,0.0,-0.223694,34.7,12.3,-7.3,1024,1024,1024,1024,0,0,0,0,82,5.327,70.7,93.175856,P-GPS,,28.4
413,235300,2026-01-13 17:36:13,0.0,5,7.613,0.0,0.0,-0.223694,34.6,12.3,-7.3,1024,1024,1024,1024,0,0,0,0,82,5.327,70.7,93.50394,P-GPS,,28.5
414,235400,2026-01-13 17:36:13,0.0,5,7.613,0.0,0.0,-0.447388,34.6,11.6,-7.8,1024,1024,1024,1024,0,0,0,0,82,5.327,70.7,93.50394,P-GPS,,28.5
415,235500,2026-01-13 17:36:13,0.0,5,7.613,0.0,0.0,-0.447388,34.4,12.1,-8.6,1024,1024,1024,1024,0,0,0,0,82,5.327,70.7,93.175856,P-GPS,,28.4
416,235600,2026-01-13 17:36:13,0.0,5,7.613,0.0,0.0,-0.223694,34.4,12.3,-9.1,1024,1024,1024,1024,0,0,0,0,82,5.327,70.7,93.175856,P-GPS,,28.4
417,235700,2026-01-13 17:36:13,0.0,5,7.613,0.0,0.0,0.0,34.3,12.8,-9.0,1024,1024,1024,1024,0,0,0,0,82,5.327,70.7,93.175856,P-GPS,,28.4
418,235800,2026-01-13 17:36:13,0.0,5,7.613,0.0,0.0,0.0,34.3,13.0,-8.9,1024,1024,1024,1024,0,0,0,0,82,5.327,70.7,92.847772,P-GPS,,28.3
419,235900,2026-01-13 17:36:13,0.0,5,7.613,0.0,0.0,0.0,34.3,13.5,-8.7,1024,1024,1024,1024,0,0,0,0,82,5.327,70.7,92.847772,P-GPS,,28.3
420,236000,2026-01-13 17:36:14,0.0,5,7.613,0.0,0.0,0.0,34.4,13.5,-8.7,1024,1024,1024,1024,0,0,0,0,82,5.327,70.7,92.847772,P-GPS,,28.3
421,236100,2026-01-13 17:36:14,0.0,5,7.643,0.0,0.0,0.0,34.2,13.7,-8.5,1024,1024,1024,1024,0,0,0,0,82,5.127,70.7,92.847772,P-GPS,,28.3
422,236200,2026-01-13 17:36:14,0.0,5,7.643,0.0,0.0,0.0,34.2,14.1,-8.9,1024,1024,1024,1024,0,0,0,0,82,5.127,70.7,92.519688,P-GPS,,28.2
423,236300,2026-01-13 17:36:14,0.0,5,7.643,0.0,0.0,0.0,34.2,13.9,-8.6,1024,1024,1024,1024,0,0,0,0,82,5.127,70.7,92.519688,P-GPS,,28.2
424,236400,2026-01-13 17:36:14,0.0,5,7.643,0.0,0.0,0.0,34.4,13.4,-8.4,1024,1024,1024,1024,0,0,0,0,82,5.127,70.7,92.847772,P-GPS,,28.3
425,236500,2026-01-13 17:36:14,0.0,5,7.643,0.0,0.0,0.0,34.4,13.0,-8.6,1024,1024,1024,1024,0,0,0,0,82,5.127,70.7,92.847772,P-GPS,,28.3
426,236600,2026-01-13 17:36:14,0.0,5,7.643,0.0,0.0,0.0,34.3,13.7,-9.0,1024,1024,1024,1024,0,0,0,0,82,5.127,70.7,92.847772,P-GPS,,28.3
427,236700,2026-01-13 17:36:14,0.0,5,7.643,0.0,0.0,0.0,34.4,14.1,-9.0,1024,1024,1024,1024,0,0,0,0,82,5.127,70.7,92.847772,P-GPS,,28.3
428,236800,2026-01-13 17:36:14,0.0,5,7.643,0.0,0.0,-0.223694,34.4,13.8,-8.9,1024,1024,1024,1024,0,0,0,0,82,5.127,70.7,92.847772,P-GPS,,28.3
429,236900,2026-01-13 17:36:15,0.0,5,7.643,0.0,0.0,-0.223694,34.3,13.7,-8.7,1024,1024,1024,1024,0,0,0,0,82,5.127,70.7,93.175856,P-GPS,,28.4
430,237000,2026-01-13 17:36:15,0.0,5,7.643,0.0,0.0,-0.223694,34.2,14.3,-8.7,1024,1024,1024,1024,0,0,0,0,82,5.127,70.7,93.175856,P-GPS,,28.4
431,237100,2026-01-13 17:36:15,0.0,5,7.643,0.0,0.0,0.0,34.0,14.6,-8.9,1024,1024,1024,1024,0,0,0,0,82,5.127,70.7,93.175856,P-GPS,,28.4
432,237200,2026-01-13 17:36:15,0.0,5,7.612,0.0,0.0,0.0,34.0,14.8,-8.7,1024,1024,1024,1024,0,0,0,0,82,5.563,70.7,93.175856,P-GPS,,28.4
433,237300,2026-01-13 17:36:15,0.0,5,7.612,0.0,0.0,0.0,33.9,15.3,-9.1,1024,1024,1024,1024,0,0,0,0,82,5.563,70.7,93.175856,P-GPS,,28.4
434,237400,2026-01-13 17:36:15,0.0,5,7.612,0.0,0.0,0.0,34.3,13.8,-9.3,1024,1024,1024,1024,0,0,0,0,82,5.563,70.7,93.175856,P-GPS,,28.4
435,237500,2026-01-13 17:36:15,0.0,5,7.612,0.0,0.0,0.0,34.3,13.6,-8.9,1024,1024,1024,1024,0,0,0,0,82,5.563,70.7,93.175856,P-GPS,,28.4
436,237600,2026-01-13 17:36:15,0.0,5,7.612,0.0,0.0,0.0,34.4,12.8,-8.3,1024,1024,1024,1024,0,0,0,0,82,5.563,70.7,93.50394,P-GPS,,28.5
437,237700,2026-01-13 17:36:15,0.0,5,7.612,0.0,0.0,-0.223694,34.5,12.2,-8.3,1024,1024,1024,1024,0,0,0,0,82,5.563,70.7,93.50394,P-GPS,,28.5
438,237800,2026-01-13 17:36:15,0.0,5,7.612,0.0,0.0,-0.223694,34.5,12.8,-8.8,1024,1024,1024,1024,0,0,0,0,82,5.563,70.7,93.50394,P-GPS,,28.5
439,237900,2026-01-13 17:36:16,0.0,5,7.612,0.0,0.0,0.0,34.2,13.9,-9.5,1024,1024,1024,1024,0,0,0,0,82,5.563,70.7,93.50394,P-GPS,,28.5
440,238000,2026-01-13 17:36:16,0.0,5,7.612,0.0,0.0,0.0,34.2,14.1,-9.4,1024,1024,1024,1024,0,0,0,0,82,5.563,70.7,93.50394,P-GPS,,28.5
441,238100,2026-01-13 17:36:16,0.0,5,7.612,0.0,0.0,0.0,34.2,14.1,-8.9,1024,1024,1024,1024,0,0,0,0,82,5.563,70.7,93.50394,P-GPS,,28.5
442,238200,2026-01-13 17:36:16,0.223694,5,7.612,0.223694,0.0,0.0,34.2,15.1,-8.2,1024,1024,1024,1024,0,0,0,0,82,5.563,70.7,93.50394,P-GPS,,28.5
443,238300,2026-01-13 17:36:16,0.223694,5,7.608,0.223694,0.0,0.0,34.1,15.9,-7.2,1024,1024,1024,1024,0,0,0,0,82,5.472,70.88,93.50394,P-GPS,,28.5
444,238400,2026-01-13 17:36:16,0.223694,5,7.608,0.223694,0.0,0.0,34.4,14.9,-6.3,1024,1024,1024,1024,0,0,0,0,82,5.472,70.88,93.50394,P-GPS,,28.5
445,238500,2026-01-13 17:36:16,0.223694,5,7.608,0.223694,0.0,-0.223694,34.4,15.1,-5.6,1024,1024,1024,1024,0,0,0,0,82,5.472,70.88,93.50394,P-GPS,,28.5
446,238600,2026-01-13 17:36:16,0.0,5,7.608,0.0,0.0,-0.223694,34.4,14.9,-5.3,1024,1024,1024,1024,0,0,0,0,82,5.472,70.88,93.50394,P-GPS,,28.5
447,238700,2026-01-13 17:36:16,0.0,5,7.608,0.0,0.0,-0.223694,34.5,14.8,-5.2,1024,1024,1024,1024,0,0,0,0,82,5.472,70.88,93.50394,P-GPS,,28.5
448,238800,2026-01-13 17:36:16,0.0,5,7.608,0.0,0.0,-0.223694,34.4,15.3,-6.1,1024,1024,1024,1024,0,0,0,0,82,5.472,70.88,93.50394,P-GPS,,28.5
449,238900,2026-01-13 17:36:17,0.0,5,7.608,0.0,0.0,0.0,34.5,14.5,-6.4,1024,1024,1024,1024,0,0,0,0,82,5.472,70.88,93.50394,P-GPS,,28.5
450,239000,2026-01-13 17:36:17,0.0,5,7.608,0.0,0.0,0.0,34.5,14.0,-7.0,1024,1024,1024,1024,0,0,0,0,82,5.472,70.88,93.50394,P-GPS,,28.5
451,239100,2026-01-13 17:36:17,0.0,5,7.608,0.0,0.0,0.0,34.4,14.9,-7.7,1024,1024,1024,1024,0,0,0,0,82,5.472,70.88,93.50394,P-GPS,,28.5
452,239200,2026-01-13 17:36:17,0.0,5,7.608,0.0,0.0,0.0,34.4,15.5,-8.0,1024,1024,1024,1024,0,0,0,0,82,5.472,70.88,93.50394,P-GPS,,28.5
453,239300,2026-01-13 17:36:17,0.0,5,7.608,0.0,0.0,0.0,34.4,14.9,-8.3,1024,1024,1024,1024,0,0,0,0,82,5.472,70.88,93.50394,P-GPS,,28.5
454,239400,2026-01-13 17:36:17,0.0,5,7.684,0.0,0.0,0.0,34.4,14.5,-8.8,1024,1024,1024,1024,0,0,0,0,82,5.129,70.88,93.832024,P-GPS,,28.6
455,239500,2026-01-13 17:36:17,0.0,5,7.684,0.0,0.0,0.0,34.3,13.9,-9.4,1024,1024,1024,1024,0,0,0,0,82,5.129,70.88,93.832024,P-GPS,,28.6
456,239600,2026-01-13 17:36:17,0.0,5,7.684,0.0,0.0,0.0,34.2,14.0,-9.5,1024,1024,1024,1024,0,0,0,0,82,5.129,70.88,93.832024,P-GPS,,28.6
457,239700,2026-01-13 17:36:17,0.0,5,7.684,0.0,0.0,0.0,34.3,13.4,-9.4,1024,1024,1024,1024,0,0,0,0,82,5.129,70.88,94.160108,P-GPS,,28.7
458,239800,2026-01-13 17:36:17,0.0,5,7.684,-0.223694,0.0,0.0,34.4,13.2,-9.6,1024,1024,1024,1024,0,0,0,0,82,5.129,70.88,94.160108,P-GPS,,28.7
459,239900,2026-01-13 17:36:17,0.0,5,7.684,0.0,0.0,0.0,34.3,12.9,-9.5,1024,1024,1024,1024,0,0,0,0,82,5.129,70.88,94.488192,P-GPS,,28.8
460,240000,2026-01-13 17:36:18,0.0,5,7.684,0.0,0.0,0.0,34.4,12.5,-9.6,1024,1024,1024,1024,0,0,0,0,82,5.129,70.88,94.488192,P-GPS,,28.8
461,240100,2026-01-13 17:36:18,0.0,5,7.684,0.0,0.0,0.0,34.2,13.2,-9.2,1024,1024,1024,1024,0,0,0,0,82,5.129,70.88,94.488192,P-GPS,,28.8
462,240200,2026-01-13 17:36:18,0.0,5,7.684,0.0,0.0,0.0,34.2,13.9,-8.4,1024,1024,1024,1024,0,0,0,0,82,5.129,70.88,94.488192,P-GPS,,28.8
463,240300,2026-01-13 17:36:18,0.0,5,7.684,0.0,0.0,0.0,34.4,13.5,-7.6,1024,1024,1024,1024,0,0,0,0,82,5.129,70.88,94.816276,P-GPS,,28.9
464,240400,2026-01-13 17:36:18,0.223694,5,7.684,0.223694,0.0,-0.223694,34.4,14.9,-6.5,1024,1024,1024,1024,0,0,0,0,82,5.129,70.88,94.816276,P-GPS,,28.9
465,240500,2026-01-13 17:36:18,0.223694,5,7.614,0.223694,0.0,0.0,34.4,15.6,-5.3,1024,1024,1024,1024,0,0,0,0,82,5.56,70.88,94.488192,P-GPS,,28.8
466,240600,2026-01-13 17:36:18,0.223694,5,7.614,0.223694,0.0,0.0,34.6,15.5,-4.4,1024,1024,1024,1024,0,0,0,0,82,5.56,70.88,94.488192,P-GPS,,28.8
467,240700,2026-01-13 17:36:18,0.0,5,7.614,0.0,0.0,0.0,34.7,14.4,-3.7,1024,1024,1024,1024,0,0,0,0,82,5.56,70.88,94.488192,P-GPS,,28.8
468,240800,2026-01-13 17:36:18,0.223694,5,7.614,0.0,-0.223694,0.0,34.9,13.2,-3.3,1024,1024,1024,1024,0,0,0,0,82,5.56,70.88,94.488192,P-GPS,,28.8
469,240900,2026-01-13 17:36:19,0.0,5,7.614,0.0,0.0,0.0,34.9,12.6,-3.1,1024,1024,1024,1024,0,0,0,0,82,5.56,70.88,94.160108,P-GPS,,28.7
470,241000,2026-01-13 17:36:19,0.0,5,7.614,0.0,0.0,0.0,34.9,12.4,-4.2,1024,1024,1024,1024,0,0,0,0,82,5.56,70.88,94.160108,P-GPS,,28.7
471,241100,2026-01-13 17:36:19,0.0,5,7.614,0.0,0.0,0.0,34.8,12.8,-4.4,1024,1024,1024,1024,0,0,0,0,82,5.56,70.88,94.160108,P-GPS,,28.7
472,241200,2026-01-13 17:36:19,0.0,5,7.614,0.0,0.0,0.0,34.9,11.9,-4.0,1024,1024,1024,1024,0,0,0,0,82,5.56,70.88,94.160108,P-GPS,,28.7
473,241300,2026-01-13 17:36:19,0.0,5,7.614,0.0,0.0,0.0,34.9,12.5,-4.4,1024,1024,1024,1024,0,0,0,0,82,5.56,70.88,93.832024,P-GPS,,28.6
474,241400,2026-01-13 17:36:19,0.0,5,7.614,0.0,0.0,0.0,34.8,13.2,-5.5,1024,1024,1024,1024,0,0,0,0,82,5.56,70.88,94.160108,P-GPS,,28.7
475,241500,2026-01-13 17:36:19,0.0,5,7.614,-0.223694,0.0,0.0,34.7,12.4,-6.8,1024,1024,1024,1024,0,0,0,0,82,5.56,70.88,94.160108,P-GPS,,28.7
476,241600,2026-01-13 17:36:19,0.223694,5,7.614,-0.223694,0.0,0.0,34.5,12.6,-8.0,1024,1024,1024,1024,0,0,0,0,82,5.56,70.88,94.160108,P-GPS,,28.7
477,241700,2026-01-13 17:36:19,0.223694,5,7.614,0.0,0.223694,0.0,34.5,12.1,-8.3,1024,1024,1024,1024,0,0,0,0,82,5.56,70.88,94.488192,P-GPS,,28.8
478,241800,2026-01-13 17:36:19,0.223694,5,7.614,0.0,0.223694,0.0,34.3,13.1,-9.0,1024,1024,1024,1024,0,0,0,0,82,5.56,70.88,94.488192,P-GPS,,28.8
479,241900,2026-01-13 17:36:19,0.223694,5,7.614,0.0,0.223694,0.0,34.2,13.6,-9.5,1024,1024,1024,1024,0,0,0,0,81,5.56,70.88,94.816276,P-GPS,,28.9
480,242000,2026-01-13 17:36:20,0.223694,5,7.614,0.0,0.223694,0.0,34.3,13.8,-9.2,1024,1024,1024,1024,0,0,0,0,81,5.56,70.88,94.816276,P-GPS,,28.9
481,242100,2026-01-13 17:36:20,0.223694,5,7.614,0.0,0.223694,0.0,34.1,15.1,-9.2,1024,1024,1024,1024,0,0,0,0,81,5.56,70.88,95.14436,P-GPS,,29.0
482,242200,2026-01-13 17:36:20,0.223694,5,7.614,0.0,0.223694,0.0,34.2,15.1,-9.3,1024,1024,1024,1024,0,0,0,0,81,5.56,70.88,95.14436,P-GPS,,29.0
483,242300,2026-01-13 17:36:20,0.223694,5,7.614,0.0,0.223694,0.0,34.2,15.3,-9.1,1024,1024,1024,1024,0,0,0,0,81,5.56,70.88,95.472444,P-GPS,,29.1
484,242400,2026-01-13 17:36:20,0.223694,5,7.614,0.0,0.223694,0.0,34.2,15.0,-9.3,1024,1024,1024,1024,0,0,0,0,81,5.56,70.88,95.472444,P-GPS,,29.1
485,242500,2026-01-13 17:36:20,0.223694,5,7.614,0.0,0.223694,0.0,34.2,15.2,-9.1,1024,1024,1024,1024,0,0,0,0,81,5.56,70.88,95.800528,P-GPS,,29.2
486,242600,2026-01-13 17:36:20,0.223694,5,7.614,0.0,0.223694,0.0,34.1,15.4,-9.3,1024,1024,1024,1024,0,0,0,0,81,5.56,70.88,95.800528,P-GPS,,29.2
487,242700,2026-01-13 17:36:20,0.223694,5,7.624,0.0,0.223694,0.0,34.0,15.9,-9.5,1024,1024,1024,1024,0,0,0,0,81,5.4,70.88,95.800528,P-GPS,,29.2
488,242800,2026-01-13 17:36:20,0.223694,5,7.624,0.0,0.223694,0.0,34.0,15.9,-9.9,1024,1024,1024,1024,0,0,0,0,81,5.4,70.88,96.128612,P-GPS,,29.3
489,242900,2026-01-13 17:36:21,0.0,5,7.624,0.0,0.0,0.0,34.2,15.7,-9.4,1024,1024,1024,1024,0,0,0,0,81,5.4,70.88,96.128612,P-GPS,,29.3
490,243000,2026-01-13 17:36:21,0.0,5,7.624,0.0,0.0,0.0,34.4,14.9,-9.0,1024,1024,1024,1024,0,0,0,0,81,5.4,70.88,96.128612,P-GPS,,29.3
491,243100,2026-01-13 17:36:21,0.0,5,7.624,0.0,0.0,0.0,34.3,14.7,-9.0,1024,1024,1024,1024,0,0,0,0,81,5.4,70.88,96.128612,P-GPS,,29.3
492,243200,2026-01-13 17:36:21,0.0,5,7.624,0.0,0.0,0.0,34.4,14.8,-8.7,1024,1024,1024,1024,0,0,0,0,81,5.4,70.88,96.128612,P-GPS,,29.3
493,243300,2026-01-13 17:36:21,0.0,5,7.624,0.0,0.0,0.0,34.4,14.6,-8.8,1024,1024,1024,1024,0,0,0,0,81,5.4,70.88,96.128612,P-GPS,,29.3
494,243400,2026-01-13 17:36:21,0.0,5,7.624,0.0,0.0,0.0,34.4,14.5,-9.0,1024,1024,1024,1024,0,0,0,0,81,5.4,70.88,96.128612,P-GPS,,29.3
495,243500,2026-01-13 17:36:21,0.0,5,7.624,0.0,0.0,0.0,34.2,15.7,-8.9,1024,1024,1024,1024,0,0,0,0,81,5.4,70.88,96.128612,P-GPS,,29.3
496,243600,2026-01-13 17:36:21,0.0,5,7.624,0.0,0.0,0.223694,34.1,15.6,-8.4,1024,1024,1024,1024,0,0,0,0,81,5.4,70.88,95.800528,P-GPS,,29.2
497,243700,2026-01-13 17:36:21,0.0,5,7.624,0.0,0.0,0.223694,34.1,16.0,-7.5,1024,1024,1024,1024,0,0,0,0,81,5.4,70.88,95.800528,P-GPS,,29.2
498,243800,2026-01-13 17:36:21,0.0,5,7.635,0.0,0.0,0.223694,34.2,16.1,-7.7,1024,1024,1024,1024,0,0,0,0,81,5.038,71.06,95.800528,P-GPS,,29.2
499,243900,2026-01-13 17:36:22,0.0,5,7.635,0.0,0.0,0.223694,34.1,16.6,-7.8,1024,1024,1024,1024,0,0,0,0,81,5.038,71.06,95.800528,P-GPS,,29.2
500,244000,2026-01-13 17:36:22,0.0,5,7.635,0.0,0.0,0.223694,34.2,16.6,-7.4,1024,1024,1024,1024,0,0,0,0,81,5.038,71.06,95.800528,P-GPS,,29.2
501,244100,2026-01-13 17:36:22,0.0,5,7.635,0.0,0.0,0.223694,34.5,15.4,-7.2,1024,1024,1024,1024,0,0,0,0,81,5.038,71.06,95.800528,P-GPS,,29.2
502,244200,2026-01-13 17:36:22,0.0,5,7.635,0.0,0.0,0.0,34.6,14.4,-7.1,1024,1024,1024,1024,0,0,0,0,81,5.038,71.06,95.800528,P-GPS,,29.2
503,244300,2026-01-13 17:36:22,0.0,5,7.635,0.0,0.0,0.0,34.6,14.0,-7.5,1024,1024,1024,1024,0,0,0,0,81,5.038,71.06,96.128612,P-GPS,,29.3
504,244400,2026-01-13 17:36:22,0.0,5,7.635,0.0,0.0,0.0,34.6,14.2,-7.9,1024,1024,1024,1024,0,0,0,0,81,5.038,71.06,96.128612,P-GPS,,29.3
505,244500,2026-01-13 17:36:22,0.0,5,7.635,0.0,0.0,0.0,34.5,13.5,-8.3,1024,1024,1024,1024,0,0,0,0,81,5.038,71.06,96.128612,P-GPS,,29.3
506,244600,2026-01-13 17:36:22,0.0,5,7.635,0.0,0.0,0.0,34.4,14.0,-8.5,1024,1024,1024,1024,0,0,0,0,81,5.038,71.06,96.128612,P-GPS,,29.3
507,244700,2026-01-13 17:36:22,0.0,5,7.635,0.0,0.0,0.0,34.3,14.3,-8.9,1024,1024,1024,1024,0,0,0,0,81,5.038,71.06,96.456696,P-GPS,,29.4
508,244800,2026-01-13 17:36:22,0.0,5,7.635,0.0,0.0,0.0,34.2,14.5,-9.1,1024,1024,1024,1024,0,0,0,0,81,5.038,71.06,96.456696,P-GPS,,29.4
509,244900,2026-01-13 17:36:23,0.0,5,7.607,0.0,0.0,0.0,34.2,14.7,-9.5,1024,1024,1024,1024,0,0,0,0,81,5.549,71.06,96.456696,P-GPS,,29.4
510,245000,2026-01-13 17:36:23,0.0,5,7.607,0.0,0.0,0.223694,34.3,14.3,-9.3,1024,1024,1024,1024,0,0,0,0,81,5.549,71.06,96.456696,P-GPS,,29.4
511,245100,2026-01-13 17:36:23,0.0,5,7.607,0.0,0.0,0.0,34.4,14.2,-9.5,1024,1024,1024,1024,0,0,0,0,81,5.549,71.06,96.456696,P-GPS,,29.4
512,245200,2026-01-13 17:36:23,0.0,5,7.607,0.0,0.0,0.0,34.3,14.3,-9.5,1024,1024,1024,1024,0,0,0,0,81,5.549,71.06,96.78478,P-GPS,,29.5
513,245300,2026-01-13 17:36:23,0.0,5,7.607,0.0,0.0,0.0,34.4,13.7,-9.6,1024,1024,1024,1024,0,0,0,0,81,5.549,71.06,96.78478,P-GPS,,29.5
514,245400,2026-01-13 17:36:23,0.0,5,7.607,0.0,0.0,0.0,34.4,13.4,-9.6,1024,1024,1024,1024,0,0,0,0,81,5.549,71.06,96.78478,P-GPS,,29.5
515,245500,2026-01-13 17:36:23,0.0,5,7.607,0.0,0.0,0.0,34.3,13.9,-9.0,1024,1024,1024,1024,0,0,0,0,81,5.549,71.06,96.78478,P-GPS,,29.5
516,245600,2026-01-13 17:36:23,0.0,5,7.607,0.0,0.0,0.0,34.1,15.5,-9.7,1024,1024,1024,1024,0,0,0,0,81,5.549,71.06,96.78478,P-GPS,,29.5
517,245700,2026-01-13 17:36:23,0.0,5,7.607,0.0,0.0,0.223694,33.9,16.1,-10.3,1024,1024,1024,1024,0,0,0,0,81,5.549,71.06,96.78478,P-GPS,,29.5
518,245800,2026-01-13 17:36:23,0.0,5,7.607,0.0,0.0,0.223694,34.1,15.5,-9.8,1024,1024,1024,1024,0,0,0,0,81,5.549,71.06,96.78478,P-GPS,,29.5
519,245900,2026-01-13 17:36:24,0.0,5,7.607,0.0,0.0,0.223694,34.2,14.9,-10.3,1024,1024,1024,1024,0,0,0,0,81,5.549,71.06,96.78478,P-GPS,,29.5
520,246000,2026-01-13 17:36:24,0.0,5,7.62,0.0,0.0,0.447388,34.1,13.9,-10.6,1024,1024,1024,1024,0,0,0,0,81,5.338,71.06,96.78478,P-GPS,,29.5
521,246100,2026-01-13 17:36:24,0.0,5,7.62,0.0,0.0,0.447388,34.1,15.0,-10.5,1024,1024,1024,1024,0,0,0,0,81,5.338,71.06,97.112864,P-GPS,,29.6
522,246200,2026-01-13 17:36:24,0.0,5,7.62,0.0,0.0,0.223694,34.5,13.4,-8.9,1024,1024,1024,1024,0,0,0,0,81,5.338,71.06,97.112864,P-GPS,,29.6
523,246300,2026-01-13 17:36:24,0.0,5,7.62,0.0,0.0,0.0,34.6,12.4,-8.5,1024,1024,1024,1024,0,0,0,0,81,5.338,71.06,97.112864,P-GPS,,29.6
524,246400,2026-01-13 17:36:24,0.0,5,7.62,0.0,0.0,0.0,34.7,11.4,-7.8,1024,1024,1024,1024,0,0,0,0,81,5.338,71.06,97.112864,P-GPS,,29.6
525,246500,2026-01-13 17:36:24,0.0,5,7.62,0.0,0.0,0.0,34.4,13.2,-8.4,1024,1024,1024,1024,0,0,0,0,81,5.338,71.06,97.112864,P-GPS,,29.6
526,246600,2026-01-13 17:36:24,0.0,5,7.62,0.0,0.0,0.0,34.3,13.9,-9.4,1024,1024,1024,1024,0,0,0,0,81,5.338,71.06,97.440948,P-GPS,,29.7
527,246700,2026-01-13 17:36:24,0.0,5,7.62,0.0,0.0,0.447388,33.8,16.2,-11.1,1024,1024,1024,1024,0,0,0,0,81,5.338,71.06,97.440948,P-GPS,,29.7
528,246800,2026-01-13 17:36:24,0.0,5,7.62,0.0,0.0,0.894776,33.8,16.3,-12.2,1024,1024,1024,1024,0,0,0,0,81,5.338,71.06,97.769032,P-GPS,,29.8
529,246900,2026-01-13 17:36:25,0.0,5,7.62,0.0,0.0,0.894776,34.1,15.7,-11.0,1024,1024,1024,1024,0,0,0,0,81,5.338,71.06,97.769032,P-GPS,,29.8
530,247000,2026-01-13 17:36:25,0.0,5,7.62,0.0,0.0,0.671082,35.0,10.8,-8.4,1024,1024,1024,1024,0,0,0,0,81,5.338,71.06,97.769032,P-GPS,,29.8
531,247100,2026-01-13 17:36:25,0.223694,5,7.489,-0.223694,0.0,0.0,35.0,9.7,-8.7,1024,1024,1024,1024,0,0,0,0,81,7.307,71.06,97.769032,P-GPS,,29.8
532,247200,2026-01-13 17:36:25,0.0,5,7.489,0.0,0.0,0.0,34.8,9.1,-9.9,1024,1024,1024,1024,0,0,0,0,81,7.307,71.06,98.097116,P-GPS,,29.9
533,247300,2026-01-13 17:36:25,0.0,5,7.489,0.0,0.0,-0.223694,34.7,9.5,-9.5,1024,1024,1024,1024,0,0,0,0,81,7.307,71.06,98.097116,P-GPS,,29.9
534,247400,2026-01-13 17:36:25,0.0,5,7.489,0.0,0.0,-0.447388,34.3,10.7,-10.6,1024,1024,1024,1024,0,0,0,0,81,7.307,71.06,98.097116,P-GPS,,29.9
535,247500,2026-01-13 17:36:25,0.0,5,7.489,0.0,0.0,0.0,33.5,14.6,-10.9,1024,1024,1024,1024,0,0,0,0,81,7.307,71.06,98.097116,P-GPS,,29.9
536,247600,2026-01-13 17:36:25,0.0,5,7.489,0.0,0.0,0.223694,33.7,14.5,-10.7,1024,1024,1024,1024,0,0,0,0,81,7.307,71.06,98.097116,P-GPS,,29.9
537,247700,2026-01-13 17:36:25,0.0,5,7.489,0.0,0.0,0.223694,34.3,13.3,-10.5,1024,1024,1024,1024,0,0,0,0,81,7.307,71.06,98.097116,P-GPS,,29.9
538,247800,2026-01-13 17:36:25,0.0,5,7.489,0.0,0.0,0.223694,34.0,14.2,-10.9,1024,1024,1024,1024,0,0,0,0,81,7.307,71.06,98.097116,P-GPS,,29.9
539,247900,2026-01-13 17:36:26,0.0,5,7.489,0.0,0.0,0.0,34.5,11.5,-10.1,1024,1024,1024,1024,0,0,0,0,81,7.307,71.06,98.097116,P-GPS,,29.9
540,248000,2026-01-13 17:36:26,0.0,5,7.489,0.0,0.0,-0.447388,34.6,10.7,-9.4,1024,1024,1024,1024,0,0,0,0,81,7.307,71.06,98.097116,P-GPS,,29.9
541,248100,2026-01-13 17:36:26,0.0,5,7.489,0.0,0.0,-0.223694,34.4,11.4,-9.1,1024,1024,1024,1024,0,0,0,0,81,7.307,71.06,97.769032,P-GPS,,29.8
542,248200,2026-01-13 17:36:26,0.0,5,7.552,0.0,0.0,0.0,34.4,11.8,-9.6,1024,1024,1024,1024,0,0,0,0,81,6.629,71.06,97.769032,P-GPS,,29.8
543,248300,2026-01-13 17:36:26,0.0,5,7.552,0.0,0.0,0.0,34.4,11.9,-8.8,1024,1024,1024,1024,0,0,0,0,81,6.629,71.06,97.440948,P-GPS,,29.7
544,248400,2026-01-13 17:36:26,0.0,5,7.552,0.0,0.0,0.223694,34.5,12.2,-8.1,1024,1024,1024,1024,0,0,0,0,81,6.629,71.06,97.112864,P-GPS,,29.6
545,248500,2026-01-13 17:36:26,0.0,5,7.552,0.0,0.0,0.447388,34.5,13.3,-8.2,1024,1024,1024,1024,0,0,0,0,81,6.629,71.06,96.78478,P-GPS,,29.5
546,248600,2026-01-13 17:36:26,0.0,5,7.552,0.0,0.0,0.447388,34.4,13.6,-8.5,1024,1024,1024,1024,0,0,0,0,81,6.629,71.06,96.78478,P-GPS,,29.5
547,248700,2026-01-13 17:36:26,0.0,5,7.552,0.0,0.0,0.223694,34.4,13.8,-8.7,1024,1024,1024,1024,0,0,0,0,81,6.629,71.06,96.78478,P-GPS,,29.5
548,248800,2026-01-13 17:36:26,0.0,5,7.552,0.0,0.0,0.0,34.5,12.7,-8.7,1024,1024,1024,1024,0,0,0,0,81,6.629,71.06,96.456696,P-GPS,,29.4
549,248900,2026-01-13 17:36:26,0.0,5,7.552,0.0,0.0,0.0,34.5,12.4,-8.7,1024,1024,1024,1024,0,0,0,0,81,6.629,71.06,96.456696,P-GPS,,29.4
550,249000,2026-01-13 17:36:27,0.0,5,7.552,0.0,0.0,0.0,34.3,12.8,-9.6,1024,1024,1024,1024,0,0,0,0,81,6.629,71.06,96.456696,P-GPS,,29.4
551,249100,2026-01-13 17:36:27,0.0,5,7.552,0.0,0.0,0.0,34.2,13.2,-9.4,1024,1024,1024,1024,0,0,0,0,81,6.629,71.06,96.456696,P-GPS,,29.4
552,249200,2026-01-13 17:36:27,0.0,5,7.552,0.0,0.0,0.0,34.1,13.2,-10.3,1024,1024,1024,1024,0,0,0,0,81,6.629,71.06,96.78478,P-GPS,,29.5
553,249300,2026-01-13 17:36:27,0.0,5,7.598,0.0,0.0,0.223694,34.1,13.4,-10.5,1024,1024,1024,1024,0,0,0,0,81,5.742,71.24,96.78478,P-GPS,,29.5
554,249400,2026-01-13 17:36:27,0.0,5,7.598,0.0,0.0,0.0,34.3,12.5,-10.3,1024,1024,1024,1024,0,0,0,0,81,5.742,71.24,96.78478,P-GPS,,29.5
555,249500,2026-01-13 17:36:27,0.0,5,7.598,0.0,0.0,0.0,34.5,11.7,-9.8,1024,1024,1024,1024,0,0,0,0,81,5.742,71.24,96.78478,P-GPS,,29.5
556,249600,2026-01-13 17:36:27,0.0,5,7.598,0.0,0.0,0.0,34.4,11.4,-9.4,1024,1024,1024,1024,0,0,0,0,81,5.742,71.24,96.78478,P-GPS,,29.5
557,249700,2026-01-13 17:36:27,0.0,5,7.598,0.0,0.0,0.0,34.4,12.0,-9.3,1024,1024,1024,1024,0,0,0,0,81,5.742,71.24,96.78478,P-GPS,,29.5
558,249800,2026-01-13 17:36:27,0.0,5,7.598,0.0,0.0,0.0,34.5,12.4,-8.5,1024,1024,1024,1024,0,0,0,0,81,5.742,71.24,96.78478,P-GPS,,29.5
559,249900,2026-01-13 17:36:28,0.0,5,7.598,0.0,0.0,0.0,34.5,12.4,-8.2,1024,1024,1024,1024,0,0,0,0,81,5.742,71.24,96.78478,P-GPS,,29.5
560,250000,2026-01-13 17:36:28,0.0,5,7.598,0.0,0.0,0.0,34.5,12.3,-8.1,1024,1024,1024,1024,0,0,0,0,81,5.742,71.24,96.78478,P-GPS,,29.5
561,250100,2026-01-13 17:36:28,0.0,5,7.598,0.0,0.0,0.0,34.6,12.2,-7.4,1024,1024,1024,1024,0,0,0,0,81,5.742,71.24,96.456696,P-GPS,,29.4
562,250200,2026-01-13 17:36:28,0.0,5,7.598,0.0,0.0,0.0,34.6,12.2,-6.7,1024,1024,1024,1024,0,0,0,0,81,5.742,71.24,96.456696,P-GPS,,29.4
563,250300,2026-01-13 17:36:28,0.0,5,7.598,0.0,0.0,0.0,34.7,12.2,-6.7,1024,1024,1024,1024,0,0,0,0,81,5.742,71.24,96.456696,P-GPS,,29.4
564,250400,2026-01-13 17:36:28,0.0,5,7.589,0.0,0.0,0.0,34.6,12.6,-6.4,1024,1024,1024,1024,0,0,0,0,81,5.862,71.24,96.128612,P-GPS,,29.3
565,250500,2026-01-13 17:36:28,0.0,5,7.589,0.0,0.0,0.0,34.6,12.9,-6.0,1024,1024,1024,1024,0,0,0,0,81,5.862,71.24,96.128612,P-GPS,,29.3
566,250600,2026-01-13 17:36:28,0.0,5,7.589,0.0,0.0,0.0,34.8,12.1,-6.0,1024,1024,1024,1024,0,0,0,0,81,5.862,71.24,96.128612,P-GPS,,29.3
567,250700,2026-01-13 17:36:28,0.0,5,7.589,0.0,0.0,0.0,34.9,10.6,-6.2,1024,1024,1024,1024,0,0,0,0,81,5.862,71.24,96.128612,P-GPS,,29.3
568,250800,2026-01-13 17:36:28,0.0,5,7.589,0.0,0.0,0.0,34.7,12.0,-7.7,1024,1024,1024,1024,0,0,0,0,81,5.862,71.24,95.800528,P-GPS,,29.2
569,250900,2026-01-13 17:36:28,0.0,5,7.589,0.0,0.0,0.0,34.5,13.1,-8.3,1024,1024,1024,1024,0,0,0,0,81,5.862,71.24,95.800528,P-GPS,,29.2
570,251000,2026-01-13 17:36:29,0.223694,5,7.589,0.0,0.223694,0.0,34.6,12.8,-9.0,1024,1024,1024,1024,0,0,0,0,81,5.862,71.24,95.800528,P-GPS,,29.2
571,251100,2026-01-13 17:36:29,0.223694,5,7.589,0.0,0.223694,0.0,34.5,12.9,-9.7,1024,1024,1024,1024,0,0,0,0,81,5.862,71.24,95.800528,P-GPS,,29.2
572,251200,2026-01-13 17:36:29,0.223694,5,7.589,0.0,0.223694,0.0,34.4,13.8,-9.8,1024,1024,1024,1024,0,0,0,0,81,5.862,71.24,95.800528,P-GPS,,29.2
573,251300,2026-01-13 17:36:29,0.223694,5,7.589,0.0,0.223694,0.0,34.4,13.1,-9.7,1024,1024,1024,1024,0,0,0,0,81,5.862,71.24,95.800528,P-GPS,,29.2
574,251400,2026-01-13 17:36:29,0.0,5,7.644,0.0,0.0,-0.223694,34.3,13.6,-10.3,1024,1024,1024,1024,0,0,0,0,81,4.606,71.06,95.800528,P-GPS,,29.2
575,251500,2026-01-13 17:36:29,0.0,5,7.644,0.0,0.0,0.0,34.0,14.4,-10.5,1024,1024,1024,1024,0,0,0,0,81,4.606,71.06,95.800528,P-GPS,,29.2
576,251600,2026-01-13 17:36:29,0.0,5,7.644,0.0,0.0,0.223694,34.4,12.8,-9.8,1024,1024,1024,1024,0,0,0,0,81,4.606,71.06,95.800528,P-GPS,,29.2
577,251700,2026-01-13 17:36:29,0.0,5,7.644,0.0,0.0,0.0,34.5,11.8,-9.0,1024,1024,1024,1024,0,0,0,0,81,4.606,71.06,95.800528,P-GPS,,29.2
578,251800,2026-01-13 17:36:29,0.0,5,7.644,0.0,0.0,0.0,34.5,11.9,-8.8,1024,1024,1024,1024,0,0,0,0,81,4.606,71.06,95.472444,P-GPS,,29.1
579,251900,2026-01-13 17:36:30,0.0,5,7.644,0.0,0.0,0.0,34.7,10.9,-8.3,1024,1024,1024,1024,0,0,0,0,81,4.606,71.06,95.472444,P-GPS,,29.1
580,252000,2026-01-13 17:36:30,0.0,5,7.644,0.0,0.0,-0.223694,34.6,10.9,-8.6,1024,1024,1024,1024,0,0,0,0,81,4.606,71.06,95.472444,P-GPS,,29.1
581,252100,2026-01-13 17:36:30,0.0,5,7.644,0.0,0.0,0.0,34.4,12.7,-9.1,1024,1024,1024,1024,0,0,0,0,81,4.606,71.06,95.472444,P-GPS,,29.1
582,252200,2026-01-13 17:36:30,0.0,5,7.644,0.0,0.0,0.0,34.7,11.7,-8.8,1024,1024,1024,1024,0,0,0,0,81,4.606,71.06,95.472444,P-GPS,,29.1
583,252300,2026-01-13 17:36:30,0.0,5,7.644,0.0,0.0,0.0,34.6,11.9,-8.7,1024,1024,1024,1024,0,0,0,0,81,4.606,71.06,95.14436,P-GPS,,29.0
584,252400,2026-01-13 17:36:30,0.0,5,7.644,0.0,0.0,0.0,34.7,11.1,-8.2,1024,1024,1024,1024,0,0,0,0,81,4.606,71.06,95.14436,P-GPS,,29.0
585,252500,2026-01-13 17:36:30,0.0,5,7.644,0.0,0.0,0.0,34.5,11.0,-7.7,1024,1024,1024,1024,0,0,0,0,81,4.606,71.06,94.816276,P-GPS,,28.9
586,252600,2026-01-13 17:36:30,0.0,5,7.644,0.0,0.0,0.0,34.7,9.9,-7.4,1024,1024,1024,1024,0,0,0,0,81,4.606,71.06,94.816276,P-GPS,,28.9
587,252700,2026-01-13 17:36:30,0.0,5,7.644,0.0,0.0,0.0,34.6,10.4,-7.5,1024,1024,1024,1024,0,0,0,0,81,4.606,71.06,94.816276,P-GPS,,28.9
588,252800,2026-01-13 17:36:30,0.0,5,7.644,0.0,0.0,0.0,34.6,11.8,-7.5,1024,1024,1024,1024,0,0,0,0,81,4.606,71.06,94.488192,P-GPS,,28.8
589,252900,2026-01-13 17:36:31,0.0,5,7.644,0.0,0.0,0.223694,34.7,11.7,-7.0,1024,1024,1024,1024,0,0,0,0,81,4.606,71.06,94.488192,P-GPS,,28.8
590,253000,2026-01-13 17:36:31,0.0,5,7.644,0.0,0.0,0.223694,34.8,11.2,-6.1,1024,1024,1024,1024,0,0,0,0,81,4.606,71.06,94.488192,P-GPS,,28.8
591,253100,2026-01-13 17:36:31,0.0,5,7.644,0.0,0.0,0.0,34.8,11.3,-5.9,1024,1024,1024,1024,0,0,0,0,81,4.606,71.06,94.488192,P-GPS,,28.8
592,253200,2026-01-13 17:36:31,0.0,5,7.644,0.0,0.0,0.0,34.9,10.6,-5.7,1024,1024,1024,1024,0,0,0,0,81,4.606,71.06,94.488192,P-GPS,,28.8
593,253300,2026-01-13 17:36:31,0.0,5,7.644,0.0,0.0,0.0,34.9,9.6,-5.8,1024,1024,1024,1024,0,0,0,0,81,4.606,71.06,94.488192,P-GPS,,28.8
594,253400,2026-01-13 17:36:31,0.0,5,7.644,0.0,0.0,-0.223694,34.9,9.0,-6.2,1024,1024,1024,1024,0,0,0,0,81,4.606,71.06,94.816276,P-GPS,,28.9
595,253500,2026-01-13 17:36:31,0.0,5,7.644,0.0,0.0,-0.223694,34.7,10.4,-6.4,1024,1024,1024,1024,0,0,0,0,81,4.606,71.06,94.816276,P-GPS,,28.9
596,253600,2026-01-13 17:36:31,0.0,5,7.644,0.0,0.0,0.0,34.9,10.7,-6.3,1024,1024,1024,1024,0,0,0,0,81,4.606,71.06,94.816276,P-GPS,,28.9
597,253700,2026-01-13 17:36:31,0.0,5,7.644,0.0,0.0,0.0,34.8,10.8,-5.5,1024,1024,1024,1024,0,0,0,0,81,4.714,71.24,94.816276,P-GPS,,28.9
598,253800,2026-01-13 17:36:31,0.0,5,7.644,0.0,0.0,0.0,34.9,11.3,-4.1,1024,1024,1024,1024,0,0,0,0,81,4.714,71.24,94.816276,P-GPS,,28.9
599,253900,2026-01-13 17:36:32,0.0,5,7.644,0.0,0.0,-0.223694,34.9,10.8,-4.6,1024,1024,1024,1024,0,0,0,0,81,4.714,71.24,94.816276,P-GPS,,28.9
600,254000,2026-01-13 17:36:32,0.0,5,7.644,0.0,0.0,-0.223694,34.8,10.5,-5.4,1024,1024,1024,1024,0,0,0,0,81,4.714,71.24,94.816276,P-GPS,,28.9
601,254100,2026-01-13 17:36:32,0.0,5,7.644,0.0,0.0,-0.223694,34.5,11.7,-6.7,1024,1024,1024,1024,0,0,0,0,81,4.714,71.24,95.14436,P-GPS,,29.0
602,254200,2026-01-13 17:36:32,0.223694,5,7.644,0.0,0.223694,0.0,34.6,11.4,-7.3,1024,1024,1024,1024,0,0,0,0,81,4.714,71.24,95.14436,P-GPS,,29.0
603,254300,2026-01-13 17:36:32,0.223694,5,7.644,0.0,0.223694,0.0,34.7,11.6,-8.2,1024,1024,1024,1024,0,0,0,0,81,4.714,71.24,95.472444,P-GPS,,29.1
604,254400,2026-01-13 17:36:32,0.223694,5,7.644,0.0,0.223694,0.0,34.7,11.3,-8.5,1024,1024,1024,1024,0,0,0,0,81,4.714,71.24,95.472444,P-GPS,,29.1
605,254500,2026-01-13 17:36:32,0.223694,5,7.644,0.0,0.223694,0.0,34.5,12.3,-9.0,1024,1024,1024,1024,0,0,0,0,81,4.714,71.24,95.472444,P-GPS,,29.1
606,254600,2026-01-13 17:36:32,0.223694,5,7.644,0.0,0.223694,0.0,34.6,12.3,-9.8,1024,1024,1024,1024,0,0,0,0,81,4.714,71.24,95.800528,P-GPS,,29.2
607,254700,2026-01-13 17:36:32,0.223694,5,7.644,0.0,0.223694,0.0,34.3,12.5,-9.7,1024,1024,1024,1024,0,0,0,0,81,4.714,71.24,95.800528,P-GPS,,29.2
608,254800,2026-01-13 17:36:32,0.223694,5,7.668,0.0,0.223694,0.0,34.2,13.9,-8.8,1024,1024,1024,1024,0,0,0,0,81,4.607,71.24,95.800528,P-GPS,,29.2
609,254900,2026-01-13 17:36:33,0.223694,5,7.668,0.0,0.223694,0.0,34.3,14.2,-9.1,1024,1024,1024,1024,0,0,0,0,81,4.607,71.24,95.800528,P-GPS,,29.2
610,255000,2026-01-13 17:36:33,0.3131716,5,7.668,0.223694,0.223694,0.0,34.2,14.8,-8.5,1024,1024,1024,1024,0,0,0,0,81,4.607,71.24,95.800528,P-GPS,,29.2
611,255100,2026-01-13 17:36:33,0.0,5,7.668,0.0,0.0,0.223694,34.3,15.3,-7.5,1024,1024,1024,1024,0,0,0,0,81,4.607,71.24,95.800528,P-GPS,,29.2
612,255200,2026-01-13 17:36:33,0.0,5,7.668,0.0,0.0,0.223694,34.5,14.7,-7.6,1024,1024,1024,1024,0,0,0,0,81,4.607,71.24,95.800528,P-GPS,,29.2
613,255300,2026-01-13 17:36:33,0.0,5,7.668,0.0,0.0,0.223694,34.7,14.1,-7.5,1024,1024,1024,1024,0,0,0,0,81,4.607,71.24,96.128612,P-GPS,,29.3
614,255400,2026-01-13 17:36:33,0.0,5,7.668,0.0,0.0,0.0,34.7,13.0,-8.1,1024,1024,1024,1024,0,0,0,0,81,4.607,71.24,96.128612,P-GPS,,29.3
615,255500,2026-01-13 17:36:33,0.0,5,7.668,0.0,0.0,0.0,34.5,13.2,-8.5,1024,1024,1024,1024,0,0,0,0,81,4.607,71.24,96.128612,P-GPS,,29.3
616,255600,2026-01-13 17:36:33,0.223694,5,7.668,0.0,0.223694,0.0,34.4,13.5,-9.2,1024,1024,1024,1024,0,0,0,0,81,4.607,71.24,96.456696,P-GPS,,29.4
617,255700,2026-01-13 17:36:33,0.223694,5,7.668,0.0,0.223694,0.0,34.3,14.2,-9.5,1024,1024,1024,1024,0,0,0,0,81,4.607,71.24,96.456696,P-GPS,,29.4
618,255800,2026-01-13 17:36:33,0.223694,5,7.668,0.0,0.223694,0.0,34.1,14.6,-9.8,1024,1024,1024,1024,0,0,0,0,81,4.607,71.24,96.456696,P-GPS,,29.4
619,255900,2026-01-13 17:36:33,0.223694,5,7.634,0.0,0.223694,0.0,34.0,15.2,-10.1,1024,1024,1024,1024,0,0,0,0,80,5.361,71.24,96.456696,P-GPS,,29.4
620,256000,2026-01-13 17:36:34,0.223694,5,7.634,0.0,0.223694,0.223694,34.1,15.3,-10.0,1024,1024,1024,1024,0,0,0,0,80,5.361,71.24,96.456696,P-GPS,,29.4
621,256100,2026-01-13 17:36:34,0.223694,5,7.634,0.0,0.223694,0.223694,34.1,15.5,-9.4,1024,1024,1024,1024,0,0,0,0,80,5.361,71.24,96.456696,P-GPS,,29.4
622,256200,2026-01-13 17:36:34,0.0,5,7.634,0.0,0.0,0.223694,34.1,15.6,-9.0,1024,1024,1024,1024,0,0,0,0,80,5.361,71.24,96.456696,P-GPS,,29.4
623,256300,2026-01-13 17:36:34,0.0,5,7.634,0.0,0.0,0.0,34.1,15.8,-8.6,1024,1024,1024,1024,0,0,0,0,80,5.361,71.24,96.456696,P-GPS,,29.4
624,256400,2026-01-13 17:36:34,0.0,5,7.634,0.0,0.0,0.0,34.4,14.9,-8.9,1024,1024,1024,1024,0,0,0,0,80,5.361,71.24,96.456696,P-GPS,,29.4
625,256500,2026-01-13 17:36:34,0.0,5,7.634,0.0,0.0,0.0,34.3,15.3,-7.1,1024,1024,1024,1024,0,0,0,0,80,5.361,71.24,96.128612,P-GPS,,29.3
