index,time(millisecond),timestamp,speed(mph),gpslevel,voltage(v),xSpeed(mph),ySpeed(mph),zSpeed(mph),compass_heading(degrees),pitch(degrees),roll(degrees),rc_elevator,rc_aileron,rc_throttle,rc_rudder,rc_elevator(percent),rc_aileron(percent),rc_throttle(percent),rc_rudder(percent),battery_percent,current(A),battery_temperature(f),ascent(feet),flycState,message,height_above_takeoff(meters)
457,45700,2026-01-11 17:18:29,0.223694,5,7.774,0.0,0.223694,0.0,16.1,12.5,-9.2,1024,1024,1024,1024,0,0,0,0,96,3.586,57.38,99.737536,P-GPS,,30.4
458,45800,2026-01-11 17:18:29,0.0,5,7.774,0.0,0.0,0.0,16.1,12.8,-8.6,1024,1024,1024,1024,0,0,0,0,96,3.586,57.38,99.409452,P-GPS,,30.3
459,45900,2026-01-11 17:18:29,0.0,5,7.774,0.0,0.0,0.0,16.3,12.1,-7.5,1024,1024,1024,1024,0,0,0,0,96,3.586,57.38,99.409452,P-GPS,,30.3
460,46000,2026-01-11 17:18:29,0.0,5,7.774,0.0,0.0,0.0,16.6,11.0,-7.1,1024,1024,1024,1024,0,0,0,0,96,3.586,57.38,99.081368,P-GPS,,30.2
461,46100,2026-01-11 17:18:29,0.0,5,7.774,0.0,0.0,0.0,16.6,10.8,-6.7,1024,1024,1024,1024,0,0,0,0,96,3.586,57.38,99.081368,P-GPS,,30.2
462,46200,2026-01-11 17:18:29,0.0,5,7.774,0.0,0.0,0.0,16.5,10.6,-6.7,1024,1024,1024,1024,0,0,0,0,96,3.586,57.38,99.081368,P-GPS,,30.2
463,46300,2026-01-11 17:18:29,0.0,5,7.774,0.0,0.0,0.0,16.4,11.2,-6.8,1024,1024,1024,1024,0,0,0,0,96,3.586,57.38,99.081368,P-GPS,,30.2
464,46400,2026-01-11 17:18:29,0.0,5,7.774,0.0,0.0,0.0,16.5,10.5,-6.8,1024,1024,1024,1024,0,0,0,0,96,3.586,57.38,99.081368,P-GPS,,30.2
465,46500,2026-01-11 17:18:29,0.0,5,7.774,0.0,0.0,-0.223694,16.4,10.2,-6.8,1024,1024,1024,1024,0,0,0,0,96,3.586,57.38,99.081368,P-GPS,,30.2
466,46600,2026-01-11 17:18:30,0.0,5,7.774,0.0,0.0,-0.223694,16.4,10.2,-7.1,1024,1024,1024,1024,0,0,0,0,96,3.586,57.38,99.081368,P-GPS,,30.2
467,46700,2026-01-11 17:18:30,0.223694,5,7.774,-0.223694,0.0,-0.223694,16.4,10.0,-7.4,1024,1024,1024,1024,0,0,0,0,96,3.586,57.38,99.081368,P-GPS,,30.2
468,46800,2026-01-11 17:18:30,0.0,5,7.755,0.0,0.0,-0.223694,16.3,9.6,-7.6,1024,1024,1024,1024,0,0,0,0,95,4.365,57.38,99.081368,P-GPS,,30.2
469,46900,2026-01-11 17:18:30,0.0,5,7.755,0.0,0.0,-0.223694,16.4,9.9,-7.7,1024,1024,1024,1024,0,0,0,0,95,4.365,57.38,99.081368,P-GPS,,30.2
470,47000,2026-01-11 17:18:30,0.0,5,7.755,0.0,0.0,-0.223694,16.4,9.8,-7.7,1024,1024,1024,1024,0,0,0,0,95,4.365,57.38,99.081368,P-GPS,,30.2
471,47100,2026-01-11 17:18:30,0.223694,5,7.755,-0.223694,0.0,-0.223694,16.3,10.3,-8.1,1024,1024,1024,1024,0,0,0,0,95,4.365,57.38,99.409452,P-GPS,,30.3
472,47200,2026-01-11 17:18:30,0.0,5,7.755,0.0,0.0,-0.223694,16.4,8.2,-7.7,1024,1024,1024,1024,0,0,0,0,95,4.365,57.38,99.409452,P-GPS,,30.3
473,47300,2026-01-11 17:18:30,0.0,5,7.755,0.0,0.0,-0.223694,16.3,8.4,-8.5,1024,1024,1024,1024,0,0,0,0,95,4.365,57.38,99.737536,P-GPS,,30.4
474,47400,2026-01-11 17:18:30,0.0,5,7.755,0.0,0.0,-0.223694,16.3,9.2,-8.9,1024,1024,1024,1024,0,0,0,0,95,4.365,57.38,100.06562,P-GPS,,30.5
475,47500,2026-01-11 17:18:31,0.223694,5,7.755,-0.223694,0.0,-0.223694,16.4,8.4,-8.2,1024,1024,1024,1024,0,0,0,0,95,4.365,57.38,100.06562,P-GPS,,30.5
476,47600,2026-01-11 17:18:31,0.0,5,7.755,0.0,0.0,-0.447388,16.4,7.7,-8.3,1024,1024,1024,1024,0,0,0,0,95,4.365,57.38,100.393704,P-GPS,,30.6
477,47700,2026-01-11 17:18:31,0.0,5,7.755,0.0,0.0,-0.447388,16.2,8.0,-8.7,1024,1024,1024,1024,0,0,0,0,95,4.365,57.38,100.393704,P-GPS,,30.6
478,47800,2026-01-11 17:18:31,0.0,5,7.755,0.0,0.0,-0.223694,16.1,9.3,-9.3,1024,1024,1024,1024,0,0,0,0,95,4.365,57.38,100.721788,P-GPS,,30.7
479,47900,2026-01-11 17:18:31,0.0,5,7.786,0.0,0.0,0.0,16.4,8.9,-9.2,1024,1024,1024,1024,0,0,0,0,95,4.096,57.38,100.721788,P-GPS,,30.7
480,48000,2026-01-11 17:18:31,0.0,5,7.786,0.0,0.0,0.0,16.6,7.9,-8.4,1024,1024,1024,1024,0,0,0,0,95,4.096,57.38,101.049872,P-GPS,Strong wind warning Strong wind warning. Aircraft unable to return to home automatically. Lower altitude immediately and return to home manually (Code: 30149). SD card speed low. Normal use may be affected. Replace SD card (Code: 10028). Gimbal stuck. Make sure gimbal c,30.8
481,48100,2026-01-11 17:18:31,0.0,5,7.786,0.0,0.0,0.0,16.5,8.6,-9.2,1024,1024,1024,1024,0,0,0,0,95,4.096,57.38,101.049872,P-GPS,,30.8
482,48200,2026-01-11 17:18:31,0.223694,5,7.786,0.0,0.223694,0.447388,16.4,8.8,-9.9,1024,1024,1024,1024,0,0,0,0,95,4.096,57.38,101.049872,P-GPS,,30.8
483,48300,2026-01-11 17:18:31,0.223694,5,7.786,0.0,0.223694,0.223694,16.5,8.7,-9.8,1024,1024,1024,1024,0,0,0,0,95,4.096,57.38,101.377956,P-GPS,,30.9
484,48400,2026-01-11 17:18:31,0.223694,5,7.786,0.0,0.223694,0.0,16.4,8.9,-10.4,1024,1024,1024,1024,0,0,0,0,95,4.096,57.38,101.377956,P-GPS,,30.9
485,48500,2026-01-11 17:18:31,0.223694,5,7.786,0.0,0.223694,0.0,16.2,9.9,-11.4,1024,1024,1024,1024,0,0,0,0,95,4.096,57.38,101.70604,P-GPS,,31.0
486,48600,2026-01-11 17:18:32,0.223694,5,7.786,0.0,0.223694,0.223694,16.3,9.8,-10.7,1024,1024,1024,1024,0,0,0,0,95,4.096,57.38,101.70604,P-GPS,,31.0
487,48700,2026-01-11 17:18:32,0.223694,5,7.786,0.0,0.223694,0.0,16.1,10.5,-11.7,1024,1024,1024,1024,0,0,0,0,95,4.096,57.38,101.70604,P-GPS,,31.0
488,48800,2026-01-11 17:18:32,0.223694,5,7.786,0.0,0.223694,0.0,16.1,10.2,-11.2,1024,1024,1024,1024,0,0,0,0,95,4.096,57.38,101.70604,P-GPS,,31.0
489,48900,2026-01-11 17:18:32,0.223694,5,7.786,0.0,0.223694,0.0,15.8,11.6,-11.5,1024,1024,1024,1024,0,0,0,0,95,4.096,57.38,102.034124,P-GPS,,31.1
490,49000,2026-01-11 17:18:32,0.223694,5,7.776,0.0,0.223694,0.223694,15.9,11.6,-11.7,1024,1024,1024,1024,0,0,0,0,95,4.45,57.56,102.034124,P-GPS,,31.1
491,49100,2026-01-11 17:18:32,0.223694,5,7.776,0.0,0.223694,0.447388,16.1,10.9,-12.3,1024,1024,1024,1024,0,0,0,0,95,4.45,57.56,102.034124,P-GPS,,31.1
492,49200,2026-01-11 17:18:32,0.223694,5,7.776,0.0,0.223694,0.671082,16.1,11.1,-12.4,1024,1024,1024,1024,0,0,0,0,95,4.45,57.56,102.034124,P-GPS,,31.1
493,49300,2026-01-11 17:18:32,0.223694,5,7.776,0.0,0.223694,0.671082,16.2,11.2,-11.8,1024,1024,1024,1024,0,0,0,0,95,4.45,57.56,102.034124,P-GPS,,31.1
494,49400,2026-01-11 17:18:32,0.223694,5,7.776,0.0,0.223694,0.447388,15.9,12.0,-12.0,1024,1024,1024,1024,0,0,0,0,95,4.45,57.56,102.034124,P-GPS,,31.1
495,49500,2026-01-11 17:18:32,0.223694,5,7.776,0.0,0.223694,0.447388,15.9,12.1,-12.5,1024,1024,1024,1024,0,0,0,0,95,4.45,57.56,102.034124,P-GPS,,31.1
496,49600,2026-01-11 17:18:33,0.223694,5,7.776,0.0,0.223694,0.447388,15.8,12.1,-12.3,1024,1024,1024,1024,0,0,0,0,95,4.45,57.56,102.034124,P-GPS,,31.1
497,49700,2026-01-11 17:18:33,0.223694,5,7.776,0.0,0.223694,0.447388,15.9,12.1,-12.0,1024,1024,1024,1024,0,0,0,0,95,4.45,57.56,102.034124,P-GPS,,31.1
498,49800,2026-01-11 17:18:33,0.223694,5,7.776,0.0,0.0,0.223694,16.0,11.7,-12.2,1024,1024,1024,1024,0,0,0,0,95,4.45,57.56,101.70604,P-GPS,,31.0
499,49900,2026-01-11 17:18:33,0.0,5,7.776,0.0,0.0,0.223694,16.0,11.5,-12.3,1024,1024,1024,1024,0,0,0,0,95,4.45,57.56,101.70604,P-GPS,,31.0
500,50000,2026-01-11 17:18:33,0.0,5,7.776,0.0,0.0,0.447388,16.1,11.2,-11.9,1024,1024,1024,1024,0,0,0,0,95,4.45,57.56,101.377956,P-GPS,,30.9
501,50100,2026-01-11 17:18:33,0.0,5,7.712,0.0,0.0,0.447388,16.1,11.0,-11.6,1024,1024,1024,1024,0,0,0,0,95,5.124,57.56,101.377956,P-GPS,,30.9
502,50200,2026-01-11 17:18:33,0.0,5,7.712,0.0,0.0,0.447388,16.2,10.4,-10.9,1024,1024,1024,1024,0,0,0,0,95,5.124,57.56,101.049872,P-GPS,,30.8
503,50300,2026-01-11 17:18:33,0.0,5,7.712,0.0,0.0,0.447388,16.1,10.2,-10.4,1024,1024,1024,1024,0,0,0,0,95,5.124,57.56,101.049872,P-GPS,,30.8
504,50400,2026-01-11 17:18:33,0.0,5,7.712,0.0,0.0,0.447388,16.1,9.8,-10.4,1024,1024,1024,1024,0,0,0,0,95,5.124,57.56,100.721788,P-GPS,,30.7
505,50500,2026-01-11 17:18:33,0.0,5,7.712,0.0,0.0,0.447388,16.0,9.9,-10.1,1024,1024,1024,1024,0,0,0,0,95,5.124,57.56,100.721788,P-GPS,,30.7
506,50600,2026-01-11 17:18:34,0.0,5,7.712,0.0,0.0,0.223694,16.2,9.1,-9.6,1024,1024,1024,1024,0,0,0,0,95,5.124,57.56,100.393704,P-GPS,,30.6
507,50700,2026-01-11 17:18:34,0.0,5,7.712,0.0,0.0,0.223694,16.2,9.2,-9.5,1024,1024,1024,1024,0,0,0,0,95,5.124,57.56,100.393704,P-GPS,,30.6
508,50800,2026-01-11 17:18:34,0.0,5,7.712,0.0,0.0,0.223694,16.1,9.4,-9.7,1024,1024,1024,1024,0,0,0,0,95,5.124,57.56,100.06562,P-GPS,,30.5
509,50900,2026-01-11 17:18:34,0.0,5,7.712,0.0,0.0,0.223694,16.1,9.1,-9.9,1024,1024,1024,1024,0,0,0,0,95,5.124,57.56,100.06562,P-GPS,,30.5
510,51000,2026-01-11 17:18:34,0.0,5,7.712,0.0,0.0,0.0,16.4,8.3,-9.5,1024,1024,1024,1024,0,0,0,0,95,5.124,57.56,100.06562,P-GPS,,30.5
511,51100,2026-01-11 17:18:34,0.0,5,7.712,0.0,0.0,0.0,16.2,8.7,-9.8,1024,1024,1024,1024,0,0,0,0,95,5.124,57.56,100.06562,P-GPS,,30.5
512,51200,2026-01-11 17:18:34,0.0,5,7.712,0.0,0.0,0.0,16.3,9.3,-10.1,1024,1024,1024,1024,0,0,0,0,95,5.124,57.56,100.06562,P-GPS,,30.5
513,51300,2026-01-11 17:18:34,0.0,5,7.741,0.0,0.0,0.0,16.3,9.5,-9.9,1024,1024,1024,1024,0,0,0,0,95,4.341,57.56,99.737536,P-GPS,,30.4
514,51400,2026-01-11 17:18:34,0.0,5,7.741,0.0,0.0,0.0,16.3,9.7,-9.6,1024,1024,1024,1024,0,0,0,0,95,4.341,57.56,99.737536,P-GPS,,30.4
515,51500,2026-01-11 17:18:34,0.0,5,7.741,0.0,0.0,0.0,16.1,10.0,-9.7,1024,1024,1024,1024,0,0,0,0,95,4.341,57.56,99.737536,P-GPS,,30.4
516,51600,2026-01-11 17:18:35,0.0,5,7.741,0.0,0.0,0.0,16.3,9.3,-9.5,1024,1024,1024,1024,0,0,0,0,95,4.341,57.56,99.737536,P-GPS,,30.4
517,51700,2026-01-11 17:18:35,0.0,5,7.741,0.0,0.0,0.0,16.3,9.9,-9.7,1024,1024,1024,1024,0,0,0,0,95,4.341,57.56,99.737536,P-GPS,,30.4
518,51800,2026-01-11 17:18:35,0.0,5,7.741,0.0,0.0,0.0,16.4,9.9,-9.3,1024,1024,1024,1024,0,0,0,0,95,4.341,57.56,100.06562,P-GPS,,30.5
519,51900,2026-01-11 17:18:35,0.0,5,7.741,0.0,0.0,0.0,16.4,9.4,-9.0,1024,1024,1024,1024,0,0,0,0,95,4.341,57.56,100.06562,P-GPS,,30.5
520,52000,2026-01-11 17:18:35,0.0,5,7.741,0.0,0.0,0.0,16.3,9.2,-9.0,1024,1024,1024,1024,0,0,0,0,95,4.341,57.56,100.06562,P-GPS,,30.5
521,52100,2026-01-11 17:18:35,0.0,5,7.741,0.0,0.0,-0.223694,16.4,8.8,-9.2,1024,1024,1024,1024,0,0,0,0,95,4.341,57.56,100.06562,P-GPS,,30.5
522,52200,2026-01-11 17:18:35,0.0,5,7.741,0.0,0.0,0.0,16.3,9.2,-9.9,1024,1024,1024,1024,0,0,0,0,95,4.341,57.56,100.06562,P-GPS,,30.5
523,52300,2026-01-11 17:18:35,0.0,5,7.741,0.0,0.0,0.0,16.4,9.0,-10.3,1024,1024,1024,1024,0,0,0,0,95,4.341,57.56,100.393704,P-GPS,,30.6
524,52400,2026-01-11 17:18:35,0.0,5,7.741,0.0,0.0,0.0,16.2,9.6,-10.9,1024,1024,1024,1024,0,0,0,0,95,4.568,57.74,100.393704,P-GPS,,30.6
525,52500,2026-01-11 17:18:35,0.223694,5,7.741,0.0,0.223694,0.0,16.1,9.5,-11.4,1024,1024,1024,1024,0,0,0,0,95,4.568,57.74,100.393704,P-GPS,,30.6
526,52600,2026-01-11 17:18:36,0.223694,5,7.741,0.0,0.223694,0.0,16.2,8.8,-11.9,1024,1024,1024,1024,0,0,0,0,95,4.568,57.74,100.721788,P-GPS,,30.7
527,52700,2026-01-11 17:18:36,0.223694,5,7.741,0.0,0.223694,0.0,16.7,8.8,-12.2,1024,1024,1024,1024,0,0,0,0,95,4.568,57.74,100.721788,P-GPS,,30.7
528,52800,2026-01-11 17:18:36,0.223694,5,7.741,0.0,0.223694,0.0,16.9,9.0,-11.7,1024,1024,1024,1024,0,0,0,0,95,4.568,57.74,100.721788,P-GPS,,30.7
529,52900,2026-01-11 17:18:36,0.0,5,7.741,0.0,0.0,0.0,16.5,9.9,-11.5,1024,1024,1024,1024,0,0,0,0,95,4.568,57.74,100.721788,P-GPS,,30.7
530,53000,2026-01-11 17:18:36,0.0,5,7.741,0.0,0.0,0.0,16.5,9.9,-11.9,1024,1024,1024,1024,0,0,0,0,95,4.568,57.74,100.721788,P-GPS,,30.7
531,53100,2026-01-11 17:18:36,0.0,5,7.741,0.0,0.0,0.0,16.5,10.2,-11.8,1024,1024,1024,1024,0,0,0,0,95,4.568,57.74,100.721788,P-GPS,,30.7
532,53200,2026-01-11 17:18:36,0.0,5,7.741,0.0,0.0,0.0,16.6,9.9,-11.4,1024,1024,1024,1024,0,0,0,0,95,4.568,57.74,100.721788,P-GPS,,30.7
533,53300,2026-01-11 17:18:36,0.0,5,7.741,0.0,0.0,0.0,16.5,10.1,-11.4,1024,1024,1024,1024,0,0,0,0,95,4.568,57.74,100.721788,P-GPS,,30.7
534,53400,2026-01-11 17:18:36,0.0,5,7.741,0.0,0.0,0.223694,16.5,9.5,-11.1,1024,1024,1024,1024,0,0,0,0,95,4.568,57.74,100.721788,P-GPS,,30.7
535,53500,2026-01-11 17:18:36,0.0,5,7.741,0.0,0.0,0.223694,16.4,9.5,-11.1,1024,1024,1024,1024,0,0,0,0,95,4.568,57.74,100.721788,P-GPS,,30.7
536,53600,2026-01-11 17:18:37,0.0,5,7.741,0.0,0.0,0.223694,16.5,8.9,-10.7,1024,1024,1024,1024,0,0,0,0,95,4.568,57.74,100.721788,P-GPS,,30.7
537,53700,2026-01-11 17:18:37,0.0,5,7.741,0.0,0.0,0.223694,16.5,8.8,-10.4,1024,1024,1024,1024,0,0,0,0,95,4.568,57.74,100.393704,P-GPS,,30.6
538,53800,2026-01-11 17:18:37,0.0,5,7.741,0.0,0.0,0.223694,16.4,8.8,-10.6,1024,1024,1024,1024,0,0,0,0,95,4.568,57.74,100.393704,P-GPS,,30.6
539,53900,2026-01-11 17:18:37,0.0,5,7.741,0.0,0.0,0.223694,16.6,8.6,-10.1,1024,1024,1024,1024,0,0,0,0,95,4.568,57.74,100.393704,P-GPS,,30.6
540,54000,2026-01-11 17:18:37,0.0,5,7.741,0.0,0.0,0.0,16.6,8.9,-10.0,1024,1024,1024,1024,0,0,0,0,95,4.568,57.74,100.393704,P-GPS,,30.6
541,54100,2026-01-11 17:18:37,0.0,5,7.741,0.0,0.0,0.0,16.5,9.3,-10.1,1024,1024,1024,1024,0,0,0,0,95,4.568,57.74,100.393704,P-GPS,,30.6
542,54200,2026-01-11 17:18:37,0.0,5,7.741,0.0,0.0,0.0,16.4,10.2,-10.3,1024,1024,1024,1024,0,0,0,0,95,4.568,57.74,100.393704,P-GPS,,30.6
543,54300,2026-01-11 17:18:37,0.0,5,7.741,0.0,0.0,0.0,16.3,10.1,-10.7,1024,1024,1024,1024,0,0,0,0,95,4.568,57.74,100.393704,P-GPS,,30.6
544,54400,2026-01-11 17:18:37,0.0,5,7.741,0.0,0.0,0.0,16.2,10.7,-10.7,1024,1024,1024,1024,0,0,0,0,95,4.568,57.74,100.393704,P-GPS,,30.6
545,54500,2026-01-11 17:18:37,0.0,5,7.741,0.0,0.0,0.0,16.2,10.5,-10.6,1024,1024,1024,1024,0,0,0,0,95,4.568,57.74,100.06562,P-GPS,,30.5
546,54600,2026-01-11 17:18:38,0.0,5,7.75,0.0,0.0,0.0,16.3,10.1,-10.4,1024,1024,1024,1024,0,0,0,0,95,4.575,57.74,100.06562,P-GPS,,30.5
547,54700,2026-01-11 17:18:38,0.0,5,7.75,0.0,0.0,0.0,16.4,9.5,-10.1,1024,1024,1024,1024,0,0,0,0,95,4.575,57.74,100.06562,P-GPS,,30.5
548,54800,2026-01-11 17:18:38,0.0,5,7.75,0.0,0.0,0.0,16.3,9.5,-10.3,1024,1024,1024,1024,0,0,0,0,95,4.575,57.74,100.06562,P-GPS,,30.5
549,54900,2026-01-11 17:18:38,0.0,5,7.75,0.0,0.0,0.0,16.2,9.7,-10.0,1024,1024,1024,1024,0,0,0,0,95,4.575,57.74,100.06562,P-GPS,,30.5
550,55000,2026-01-11 17:18:38,0.0,5,7.75,0.0,0.0,0.0,16.1,10.2,-10.5,1024,1024,1024,1024,0,0,0,0,95,4.575,57.74,100.06562,P-GPS,,30.5
551,55100,2026-01-11 17:18:38,0.0,5,7.75,0.0,0.0,0.0,16.2,10.1,-10.5,1024,1024,1024,1024,0,0,0,0,95,4.575,57.74,100.06562,P-GPS,,30.5
552,55200,2026-01-11 17:18:38,0.0,5,7.75,0.0,0.0,0.0,16.4,9.6,-10.3,1024,1024,1024,1024,0,0,0,0,95,4.575,57.74,100.06562,P-GPS,,30.5
553,55300,2026-01-11 17:18:38,0.0,5,7.75,0.0,0.0,0.0,16.5,9.7,-10.2,1024,1024,1024,1024,0,0,0,0,95,4.575,57.74,99.737536,P-GPS,,30.4
554,55400,2026-01-11 17:18:38,0.0,5,7.75,0.0,0.0,0.0,16.4,9.9,-9.7,1024,1024,1024,1024,0,0,0,0,95,4.575,57.74,99.737536,P-GPS,,30.4
555,55500,2026-01-11 17:18:38,0.0,5,7.75,0.0,0.0,0.0,16.2,10.2,-9.5,1024,1024,1024,1024,0,0,0,0,95,4.575,57.74,99.737536,P-GPS,,30.4
556,55600,2026-01-11 17:18:39,0.0,5,7.75,0.0,0.0,0.0,16.3,10.4,-9.3,1024,1024,1024,1024,0,0,0,0,95,4.575,57.74,99.737536,P-GPS,,30.4
557,55700,2026-01-11 17:18:39,0.0,5,7.739,0.0,0.0,0.0,16.1,10.5,-9.2,1024,1024,1024,1024,0,0,0,0,95,4.333,57.74,99.737536,P-GPS,,30.4
558,55800,2026-01-11 17:18:39,0.0,5,7.739,0.0,0.0,0.0,16.2,10.5,-9.1,1024,1024,1024,1024,0,0,0,0,95,4.333,57.74,99.737536,P-GPS,,30.4
559,55900,2026-01-11 17:18:39,0.0,5,7.739,0.0,0.0,0.0,16.2,10.3,-8.8,1024,1024,1024,1024,0,0,0,0,95,4.333,57.74,99.737536,P-GPS,,30.4
560,56000,2026-01-11 17:18:39,0.0,5,7.739,0.0,0.0,0.0,16.2,10.5,-8.6,1024,1024,1024,1024,0,0,0,0,95,4.333,57.74,99.737536,P-GPS,,30.4
561,56100,2026-01-11 17:18:39,0.0,5,7.739,0.0,0.0,0.0,16.3,10.3,-8.2,1024,1024,1024,1024,0,0,0,0,95,4.333,57.74,99.737536,P-GPS,,30.4
562,56200,2026-01-11 17:18:39,0.0,5,7.739,0.0,0.0,0.0,16.4,9.9,-8.0,1024,1024,1024,1024,0,0,0,0,95,4.333,57.74,99.737536,P-GPS,,30.4
563,56300,2026-01-11 17:18:39,0.0,5,7.739,0.0,0.0,0.0,16.5,8.8,-8.1,1024,1024,1024,1024,0,0,0,0,95,4.333,57.74,99.737536,P-GPS,,30.4
564,56400,2026-01-11 17:18:39,0.0,5,7.739,0.0,0.0,0.0,16.4,9.3,-8.5,1024,1024,1024,1024,0,0,0,0,95,4.333,57.74,99.737536,P-GPS,,30.4
565,56500,2026-01-11 17:18:39,0.0,5,7.739,0.0,0.0,0.0,16.4,9.5,-8.4,1024,1024,1024,1024,0,0,0,0,95,4.333,57.74,99.737536,P-GPS,,30.4
566,56600,2026-01-11 17:18:40,0.0,5,7.739,0.0,0.0,0.0,16.4,9.4,-8.4,1024,1024,1024,1024,0,0,0,0,95,4.333,57.74,99.737536,P-GPS,,30.4
567,56700,2026-01-11 17:18:40,0.0,5,7.739,0.0,0.0,0.0,16.5,9.0,-8.7,1024,1024,1024,1024,0,0,0,0,95,4.333,57.74,99.737536,P-GPS,,30.4
568,56800,2026-01-11 17:18:40,0.0,5,7.755,0.0,0.0,0.0,16.4,9.5,-9.0,1024,1024,1024,1024,0,0,0,0,95,4.355,57.74,100.06562,P-GPS,,30.5
569,56900,2026-01-11 17:18:40,0.0,5,7.755,0.0,0.0,0.0,16.5,8.8,-8.9,1024,1024,1024,1024,0,0,0,0,95,4.355,57.74,100.06562,P-GPS,,30.5
570,57000,2026-01-11 17:18:40,0.0,5,7.755,0.0,0.0,0.0,16.4,8.7,-9.0,1024,1024,1024,1024,0,0,0,0,95,4.355,57.74,100.06562,P-GPS,,30.5
571,57100,2026-01-11 17:18:40,0.0,5,7.755,0.0,0.0,0.0,16.4,8.9,-9.3,1024,1024,1024,1024,0,0,0,0,95,4.355,57.74,100.06562,P-GPS,,30.5
572,57200,2026-01-11 17:18:40,0.0,5,7.755,0.0,0.0,0.0,16.4,9.0,-9.2,1024,1024,1024,1024,0,0,0,0,95,4.355,57.74,100.06562,P-GPS,,30.5
573,57300,2026-01-11 17:18:40,0.0,5,7.755,0.0,0.0,0.0,16.5,8.9,-8.9,1024,1024,1024,1024,0,0,0,0,95,4.355,57.74,100.06562,P-GPS,,30.5
574,57400,2026-01-11 17:18:40,0.0,5,7.755,0.0,0.0,0.0,16.5,9.2,-8.4,1024,1024,1024,1024,0,0,0,0,95,4.355,57.74,100.06562,P-GPS,,30.5
575,57500,2026-01-11 17:18:40,0.0,5,7.755,0.0,0.0,0.0,16.5,9.3,-8.8,1024,1024,1024,1024,0,0,0,0,95,4.355,57.74,100.06562,P-GPS,,30.5
576,57600,2026-01-11 17:18:41,0.0,5,7.755,0.0,0.0,0.0,16.4,9.7,-9.1,1024,1024,1024,1024,0,0,0,0,95,4.355,57.74,100.06562,P-GPS,,30.5
577,57700,2026-01-11 17:18:41,0.0,5,7.755,0.0,0.0,0.0,16.4,9.6,-9.1,1024,1024,1024,1024,0,0,0,0,95,4.355,57.74,100.06562,P-GPS,,30.5
578,57800,2026-01-11 17:18:41,0.0,5,7.755,0.0,0.0,0.0,16.4,9.5,-9.2,1024,1024,1024,1024,0,0,0,0,95,4.355,57.74,100.06562,P-GPS,,30.5
579,57900,2026-01-11 17:18:41,0.0,5,7.733,0.0,0.0,0.0,16.4,9.3,-9.3,1024,1024,1024,1024,0,0,0,0,95,4.536,57.92,100.06562,P-GPS,,30.5
580,58000,2026-01-11 17:18:41,0.0,5,7.733,0.0,0.0,0.0,16.4,9.4,-9.4,1024,1024,1024,1024,0,0,0,0,95,4.536,57.92,100.393704,P-GPS,,30.6
581,58100,2026-01-11 17:18:41,0.0,5,7.733,0.0,0.0,0.0,16.4,9.4,-9.8,1024,1024,1024,1024,0,0,0,0,95,4.536,57.92,100.393704,P-GPS,,30.6
582,58200,2026-01-11 17:18:41,0.0,5,7.733,0.0,0.0,0.0,16.4,9.8,-9.8,1024,1024,1024,1024,0,0,0,0,95,4.536,57.92,100.393704,P-GPS,,30.6
583,58300,2026-01-11 17:18:41,0.0,5,7.733,0.0,0.0,0.0,16.4,9.5,-10.0,1024,1024,1024,1024,0,0,0,0,95,4.536,57.92,100.393704,P-GPS,,30.6
584,58400,2026-01-11 17:18:41,0.0,5,7.733,0.0,0.0,0.0,16.4,9.7,-10.2,1024,1024,1024,1024,0,0,0,0,95,4.536,57.92,100.393704,P-GPS,,30.6
585,58500,2026-01-11 17:18:41,0.0,5,7.733,0.0,0.0,0.223694,16.4,9.3,-10.1,1024,1024,1024,1024,0,0,0,0,95,4.536,57.92,100.393704,P-GPS,,30.6
586,58600,2026-01-11 17:18:41,0.0,5,7.733,0.0,0.0,0.0,16.2,9.5,-10.1,1024,1024,1024,1024,0,0,0,0,95,4.536,57.92,100.393704,P-GPS,,30.6
587,58700,2026-01-11 17:18:42,0.0,5,7.733,0.0,0.0,0.0,16.4,8.8,-9.8,1024,1024,1024,1024,0,0,0,0,95,4.536,57.92,100.393704,P-GPS,,30.6
588,58800,2026-01-11 17:18:42,0.0,5,7.733,0.0,0.0,0.0,16.4,8.2,-10.1,1024,1024,1024,1024,0,0,0,0,95,4.536,57.92,100.393704,P-GPS,,30.6
589,58900,2026-01-11 17:18:42,0.0,5,7.733,0.0,0.0,0.0,16.1,9.1,-10.0,1024,1024,1024,1024,0,0,0,0,95,4.536,57.92,100.721788,P-GPS,,30.7
590,59000,2026-01-11 17:18:42,0.0,5,7.694,0.0,0.0,0.0,16.0,9.5,-10.4,1024,1024,1024,1024,0,0,0,0,95,4.91,57.92,100.721788,P-GPS,,30.7
591,59100,2026-01-11 17:18:42,0.0,5,7.694,0.0,0.0,0.0,16.1,9.1,-10.2,1024,1024,1024,1024,0,0,0,0,95,4.91,57.92,100.721788,P-GPS,,30.7
592,59200,2026-01-11 17:18:42,0.0,5,7.694,0.0,0.0,0.0,16.2,8.9,-10.3,1024,1024,1024,1024,0,0,0,0,95,4.91,57.92,100.721788,P-GPS,,30.7
593,59300,2026-01-11 17:18:42,0.0,5,7.694,0.0,0.0,0.0,16.2,8.4,-10.2,1024,1024,1024,1024,0,0,0,0,95,4.91,57.92,100.721788,P-GPS,,30.7
594,59400,2026-01-11 17:18:42,0.0,5,7.694,0.0,0.0,0.0,16.2,8.4,-10.1,1024,1024,1024,1024,0,0,0,0,95,4.91,57.92,100.721788,P-GPS,,30.7
595,59500,2026-01-11 17:18:42,0.223694,5,7.694,-0.223694,0.0,0.0,16.4,7.1,-9.9,1024,1024,1024,1024,0,0,0,0,95,4.91,57.92,100.721788,P-GPS,,30.7
596,59600,2026-01-11 17:18:43,0.0,5,7.694,0.0,0.0,0.0,16.4,7.0,-9.7,1024,1024,1024,1024,0,0,0,0,95,4.91,57.92,100.393704,P-GPS,,30.6
597,59700,2026-01-11 17:18:43,0.0,5,7.694,0.0,0.0,0.0,16.4,6.5,-9.1,1024,1024,1024,1024,0,0,0,0,95,4.91,57.92,100.393704,P-GPS,,30.6
598,59800,2026-01-11 17:18:43,0.0,5,7.694,0.0,0.0,0.0,16.5,6.6,-8.7,1024,1024,1024,1024,0,0,0,0,95,4.91,57.92,100.393704,P-GPS,,30.6
599,59900,2026-01-11 17:18:43,0.0,5,7.694,0.0,0.0,0.0,16.4,7.3,-8.2,1024,1024,1024,1024,0,0,0,0,95,4.91,57.92,100.393704,P-GPS,,30.6
600,60000,2026-01-11 17:18:43,0.0,5,7.694,0.0,0.0,0.223694,16.5,7.0,-8.3,1024,1024,1024,1024,0,0,0,0,95,4.91,57.92,100.06562,P-GPS,,30.5
601,60100,2026-01-11 17:18:43,0.0,5,7.739,0.0,0.0,0.0,16.4,7.2,-8.3,1024,1024,1024,1024,0,0,0,0,95,4.387,57.92,100.06562,P-GPS,,30.5
602,60200,2026-01-11 17:18:43,0.0,5,7.739,0.0,0.0,0.223694,16.3,7.9,-8.3,1024,1024,1024,1024,0,0,0,0,95,4.387,57.92,100.06562,P-GPS,,30.5
603,60300,2026-01-11 17:18:43,0.0,5,7.739,0.0,0.0,0.0,16.3,7.9,-8.3,1024,1024,1024,1024,0,0,0,0,95,4.387,57.92,100.06562,P-GPS,,30.5
604,60400,2026-01-11 17:18:43,0.0,5,7.739,0.0,0.0,0.0,16.4,7.9,-8.2,1024,1024,1024,1024,0,0,0,0,95,4.387,57.92,100.06562,P-GPS,,30.5
605,60500,2026-01-11 17:18:43,0.0,5,7.739,0.0,0.0,0.0,16.4,8.0,-7.9,1024,1024,1024,1024,0,0,0,0,95,4.387,57.92,100.06562,P-GPS,,30.5
606,60600,2026-01-11 17:18:43,0.0,5,7.739,0.0,0.0,0.0,16.5,7.9,-7.7,1024,1024,1024,1024,0,0,0,0,95,4.387,57.92,100.06562,P-GPS,,30.5
607,60700,2026-01-11 17:18:44,0.0,5,7.739,0.0,0.0,0.0,16.4,8.2,-7.8,1024,1024,1024,1024,0,0,0,0,95,4.387,57.92,100.06562,P-GPS,,30.5
608,60800,2026-01-11 17:18:44,0.0,5,7.739,0.0,0.0,0.0,16.4,7.7,-8.0,1024,1024,1024,1024,0,0,0,0,95,4.387,57.92,100.06562,P-GPS,,30.5
609,60900,2026-01-11 17:18:44,0.0,5,7.739,0.0,0.0,0.0,16.6,6.9,-7.7,1024,1024,1024,1024,0,0,0,0,95,4.387,57.92,100.06562,P-GPS,,30.5
610,61000,2026-01-11 17:18:44,0.0,5,7.739,0.0,0.0,0.0,16.5,7.1,-7.8,1024,1024,1024,1024,0,0,0,0,95,4.387,57.92,100.06562,P-GPS,,30.5
611,61100,2026-01-11 17:18:44,0.0,5,7.739,0.0,0.0,0.0,16.5,7.5,-7.7,1024,1024,1024,1024,0,0,0,0,95,4.387,57.92,100.06562,P-GPS,,30.5
612,61200,2026-01-11 17:18:44,0.0,5,7.757,0.0,0.0,0.0,16.4,8.2,-8.0,1024,1024,1024,1024,0,0,0,0,95,4.373,57.92,100.06562,P-GPS,,30.5
613,61300,2026-01-11 17:18:44,0.0,5,7.757,0.0,0.0,0.0,16.4,7.8,-8.3,1024,1024,1024,1024,0,0,0,0,95,4.373,57.92,100.06562,P-GPS,,30.5
614,61400,2026-01-11 17:18:44,0.0,5,7.757,0.0,0.0,0.0,16.5,7.2,-8.4,1024,1024,1024,1024,0,0,0,0,95,4.373,57.92,100.06562,P-GPS,,30.5
615,61500,2026-01-11 17:18:44,0.0,5,7.757,0.0,0.0,0.0,16.6,6.9,-8.4,1024,1024,1024,1024,0,0,0,0,95,4.373,57.92,100.06562,P-GPS,,30.5
616,61600,2026-01-11 17:18:45,0.0,5,7.757,0.0,0.0,0.0,16.6,6.9,-8.8,1024,1024,1024,1024,0,0,0,0,95,4.373,57.92,99.737536,P-GPS,,30.4
617,61700,2026-01-11 17:18:45,0.0,5,7.757,0.0,0.0,0.0,16.5,7.2,-8.7,1024,1024,1024,1024,0,0,0,0,95,4.373,57.92,99.737536,P-GPS,,30.4
618,61800,2026-01-11 17:18:45,0.0,5,7.757,0.0,0.0,0.0,16.5,7.1,-8.7,1024,1024,1024,1024,0,0,0,0,95,4.373,57.92,99.737536,P-GPS,,30.4
619,61900,2026-01-11 17:18:45,0.0,5,7.757,0.0,0.0,0.0,16.5,6.7,-8.9,1024,1024,1024,1024,0,0,0,0,95,4.373,57.92,99.737536,P-GPS,,30.4
620,62000,2026-01-11 17:18:45,0.0,5,7.757,0.0,0.0,0.0,16.5,6.5,-8.9,1024,1024,1024,1024,0,0,0,0,95,4.373,57.92,99.737536,P-GPS,SD card speed low SD card speed low. Normal use may be affected. Replace SD card (Code: 10028). Gimbal stuck. Make sure gimbal cover is removed and manually check whether gimbal can rotate freely (Code: 40002),30.4
621,62100,2026-01-11 17:18:45,0.0,5,7.757,0.0,0.0,0.0,16.6,5.9,-8.7,1024,1024,1024,1024,0,0,0,0,95,4.373,57.92,99.737536,P-GPS,,30.4
622,62200,2026-01-11 17:18:45,0.0,5,7.757,0.0,0.0,0.0,16.5,5.9,-8.7,1024,1024,1024,1024,0,0,0,0,95,4.373,57.92,99.737536,P-GPS,,30.4
623,62300,2026-01-11 17:18:45,0.0,5,7.757,0.0,0.0,0.0,16.5,6.3,-8.7,1024,1024,1024,1024,0,0,0,0,95,4.373,57.92,99.409452,P-GPS,,30.3
624,62400,2026-01-11 17:18:45,0.0,5,7.769,0.0,0.0,0.0,16.4,6.7,-8.6,1024,1024,1024,1024,0,0,0,0,94,4.025,57.92,99.409452,P-GPS,,30.3
625,62500,2026-01-11 17:18:45,0.0,5,7.769,0.0,0.0,0.0,16.3,6.9,-8.0,1024,1024,1024,1024,0,0,0,0,94,4.025,57.92,99.409452,P-GPS,,30.3
626,62600,2026-01-11 17:18:46,0.0,5,7.769,0.0,0.0,0.0,16.3,6.5,-8.3,1024,1024,1024,1024,0,0,0,0,94,4.025,57.92,99.409452,P-GPS,,30.3
627,62700,2026-01-11 17:18:46,0.0,5,7.769,0.0,0.0,0.0,16.4,6.4,-8.2,1024,1024,1024,1024,0,0,0,0,94,4.025,57.92,99.409452,P-GPS,,30.3
628,62800,2026-01-11 17:18:46,0.0,5,7.769,0.0,0.0,0.0,16.4,6.1,-8.3,1024,1024,1024,1024,0,0,0,0,94,4.025,57.92,99.409452,P-GPS,,30.3
629,62900,2026-01-11 17:18:46,0.0,5,7.769,0.0,0.0,0.0,16.5,5.9,-7.9,1024,1024,1024,1024,0,0,0,0,94,4.025,57.92,99.409452,P-GPS,,30.3
630,63000,2026-01-11 17:18:46,0.0,5,7.769,0.0,0.0,0.0,16.6,5.7,-8.0,1024,1024,1024,1024,0,0,0,0,94,4.025,57.92,99.409452,P-GPS,,30.3
631,63100,2026-01-11 17:18:46,0.0,5,7.769,0.0,0.0,0.0,16.6,5.8,-8.0,1024,1024,1024,1024,0,0,0,0,94,4.025,57.92,99.409452,P-GPS,,30.3
632,63200,2026-01-11 17:18:46,0.0,5,7.769,0.0,0.0,0.0,16.5,6.7,-8.5,1024,1024,1024,1024,0,0,0,0,94,4.025,57.92,99.409452,P-GPS,,30.3
633,63300,2026-01-11 17:18:46,0.0,5,7.769,0.0,0.0,0.0,16.6,6.6,-8.2,1024,1024,1024,1024,0,0,0,0,94,4.025,57.92,99.737536,P-GPS,,30.4
634,63400,2026-01-11 17:18:46,0.0,5,7.769,0.0,0.0,0.0,16.7,6.1,-8.6,1024,1024,1024,1024,0,0,0,0,94,4.025,57.92,99.737536,P-GPS,,30.4
635,63500,2026-01-11 17:18:46,0.0,5,7.769,0.0,0.0,0.0,16.7,6.1,-9.3,1024,1024,1024,1024,0,0,0,0,94,4.058,57.92,99.737536,P-GPS,,30.4
636,63600,2026-01-11 17:18:47,0.0,5,7.769,0.0,0.0,0.0,16.6,6.0,-9.3,1024,1024,1024,1024,0,0,0,0,94,4.058,57.92,99.737536,P-GPS,,30.4
637,63700,2026-01-11 17:18:47,0.0,5,7.769,0.0,0.0,0.0,16.7,5.7,-9.5,1024,1024,1024,1024,0,0,0,0,94,4.058,57.92,100.06562,P-GPS,,30.5
638,63800,2026-01-11 17:18:47,0.0,5,7.769,0.0,0.0,0.0,16.6,5.7,-9.5,1024,1024,1024,1024,0,0,0,0,94,4.058,57.92,100.06562,P-GPS,,30.5
639,63900,2026-01-11 17:18:47,0.0,5,7.769,0.0,0.0,0.0,16.5,5.9,-9.5,1024,1024,1024,1024,0,0,0,0,94,4.058,57.92,100.06562,P-GPS,,30.5
640,64000,2026-01-11 17:18:47,0.0,5,7.769,0.0,0.0,0.0,16.5,5.9,-9.2,1024,1024,1024,1024,0,0,0,0,94,4.058,57.92,100.06562,P-GPS,,30.5
641,64100,2026-01-11 17:18:47,0.0,5,7.769,0.0,0.0,0.0,16.4,6.2,-9.1,1024,1024,1024,1024,0,0,0,0,94,4.058,57.92,100.393704,P-GPS,,30.6
642,64200,2026-01-11 17:18:47,0.0,5,7.769,0.0,0.0,0.0,16.5,6.0,-8.6,1024,1024,1024,1024,0,0,0,0,94,4.058,57.92,100.393704,P-GPS,,30.6
643,64300,2026-01-11 17:18:47,0.0,5,7.769,0.0,0.0,0.0,16.6,5.3,-8.5,1024,1024,1024,1024,0,0,0,0,94,4.058,57.92,100.06562,P-GPS,,30.5
644,64400,2026-01-11 17:18:47,0.0,5,7.769,0.0,0.0,0.0,16.5,5.7,-8.5,1024,1024,1024,1024,0,0,0,0,94,4.058,57.92,100.06562,P-GPS,,30.5
645,64500,2026-01-11 17:18:47,0.0,5,7.769,0.0,0.0,0.0,16.4,6.2,-8.1,1024,1024,1024,1024,0,0,0,0,94,4.058,57.92,100.06562,P-GPS,,30.5
646,64600,2026-01-11 17:18:48,0.0,5,7.769,0.0,0.0,0.0,16.5,5.2,-7.8,1024,1024,1024,1024,0,0,0,0,94,4.058,57.92,100.06562,P-GPS,,30.5
647,64700,2026-01-11 17:18:48,0.0,5,7.769,0.0,0.0,0.0,16.6,4.9,-7.2,1024,1024,1024,1024,0,0,0,0,94,4.058,57.92,100.06562,P-GPS,,30.5
648,64800,2026-01-11 17:18:48,0.0,5,7.769,0.0,0.0,0.0,16.7,4.0,-6.7,1024,1024,1024,1024,0,0,0,0,94,4.058,57.92,100.06562,P-GPS,,30.5
649,64900,2026-01-11 17:18:48,0.0,5,7.769,0.0,0.0,0.0,16.8,3.7,-6.3,1024,1024,1024,1024,0,0,0,0,94,4.058,57.92,100.06562,P-GPS,,30.5
650,65000,2026-01-11 17:18:48,0.0,5,7.769,0.0,0.0,0.0,16.8,4.5,-6.5,1024,1024,1024,1024,0,0,0,0,94,4.058,57.92,100.06562,P-GPS,,30.5
651,65100,2026-01-11 17:18:48,0.0,5,7.769,0.0,0.0,0.0,16.7,4.1,-6.2,1024,1024,1024,1024,0,0,0,0,94,4.058,57.92,100.06562,P-GPS,,30.5
652,65200,2026-01-11 17:18:48,0.0,5,7.769,0.0,0.0,0.0,16.8,3.6,-6.1,1024,1024,1024,1024,0,0,0,0,94,4.058,57.92,100.06562,P-GPS,,30.5
653,65300,2026-01-11 17:18:48,0.0,5,7.769,0.0,0.0,0.0,16.6,5.4,-5.8,1024,1024,1024,1024,0,0,0,0,94,4.058,57.92,100.06562,P-GPS,,30.5
654,65400,2026-01-11 17:18:48,0.0,5,7.769,0.0,0.0,0.0,16.7,4.5,-6.0,1024,1024,1024,1024,0,0,0,0,94,4.058,57.92,100.06562,P-GPS,,30.5
655,65500,2026-01-11 17:18:48,0.0,5,7.769,0.0,0.0,0.0,16.7,4.9,-6.9,1024,1024,1024,1024,0,0,0,0,94,4.058,57.92,100.06562,P-GPS,,30.5
656,65600,2026-01-11 17:18:49,0.0,5,7.769,0.0,0.0,0.0,16.7,4.4,-7.6,1024,1024,1024,1024,0,0,0,0,94,4.058,57.92,100.06562,P-GPS,,30.5
657,65700,2026-01-11 17:18:49,0.0,5,7.802,0.0,0.0,0.0,16.7,5.0,-7.7,1024,1024,1024,1024,0,0,0,0,94,4.073,57.92,100.06562,P-GPS,,30.5
658,65800,2026-01-11 17:18:49,0.0,5,7.802,0.0,0.0,0.0,16.7,5.4,-8.1,1024,1024,1024,1024,0,0,0,0,94,4.073,57.92,100.06562,P-GPS,,30.5
659,65900,2026-01-11 17:18:49,0.0,5,7.802,0.0,0.0,0.0,16.7,4.6,-7.9,1024,1024,1024,1024,0,0,0,0,94,4.073,57.92,100.06562,P-GPS,,30.5
660,66000,2026-01-11 17:18:49,0.0,5,7.802,0.0,0.0,0.0,16.6,5.9,-9.1,1024,1024,1024,1024,0,0,0,0,94,4.073,57.92,100.393704,P-GPS,,30.6
661,66100,2026-01-11 17:18:49,0.0,5,7.802,0.0,0.0,0.0,16.6,6.2,-9.6,1024,1024,1024,1024,0,0,0,0,94,4.073,57.92,100.393704,P-GPS,,30.6
662,66200,2026-01-11 17:18:49,0.0,5,7.802,0.0,0.0,0.0,16.6,6.2,-9.7,1024,1024,1024,1024,0,0,0,0,94,4.073,57.92,100.393704,P-GPS,,30.6
663,66300,2026-01-11 17:18:49,0.223694,5,7.802,0.0,0.223694,0.0,16.7,5.8,-10.0,1024,1024,1024,1024,0,0,0,0,94,4.073,57.92,100.721788,P-GPS,,30.7
664,66400,2026-01-11 17:18:49,0.223694,5,7.802,0.0,0.223694,0.0,16.5,7.0,-10.5,1024,1024,1024,1024,0,0,0,0,94,4.073,57.92,100.721788,P-GPS,,30.7
665,66500,2026-01-11 17:18:49,0.223694,5,7.802,0.0,0.223694,0.0,16.5,7.5,-10.8,1024,1024,1024,1024,0,0,0,0,94,4.073,57.92,100.721788,P-GPS,,30.7
666,66600,2026-01-11 17:18:50,0.223694,5,7.802,0.0,0.223694,0.0,16.4,7.4,-10.8,1024,1024,1024,1024,0,0,0,0,94,4.073,57.92,101.049872,P-GPS,,30.8
667,66700,2026-01-11 17:18:50,0.223694,5,7.802,0.0,0.223694,0.0,16.5,6.9,-10.6,1024,1024,1024,1024,0,0,0,0,94,4.073,57.92,101.049872,P-GPS,,30.8
668,66800,2026-01-11 17:18:50,0.0,5,7.777,0.0,0.0,0.0,16.4,7.4,-10.8,1024,1024,1024,1024,0,0,0,0,94,4.062,58.1,101.049872,P-GPS,,30.8
669,66900,2026-01-11 17:18:50,0.0,5,7.777,0.0,0.0,0.0,16.6,7.0,-10.9,1024,1024,1024,1024,0,0,0,0,94,4.062,58.1,101.049872,P-GPS,,30.8
670,67000,2026-01-11 17:18:50,0.0,5,7.777,0.0,0.0,0.0,16.5,7.2,-11.1,1024,1024,1024,1024,0,0,0,0,94,4.062,58.1,101.049872,P-GPS,,30.8
671,67100,2026-01-11 17:18:50,0.0,5,7.777,0.0,0.0,0.0,16.4,7.6,-11.6,1024,1024,1024,1024,0,0,0,0,94,4.062,58.1,101.049872,P-GPS,,30.8
672,67200,2026-01-11 17:18:50,0.0,5,7.777,0.0,0.0,0.223694,16.4,7.7,-11.4,1024,1024,1024,1024,0,0,0,0,94,4.062,58.1,101.049872,P-GPS,,30.8
673,67300,2026-01-11 17:18:50,0.0,5,7.777,0.0,0.0,0.223694,16.5,7.9,-11.4,1024,1024,1024,1024,0,0,0,0,94,4.062,58.1,101.049872,P-GPS,,30.8
674,67400,2026-01-11 17:18:50,0.0,5,7.777,0.0,0.0,0.223694,16.5,8.1,-11.8,1024,1024,1024,1024,0,0,0,0,94,4.062,58.1,101.049872,P-GPS,,30.8
675,67500,2026-01-11 17:18:50,0.223694,5,7.777,0.0,0.223694,0.223694,16.4,8.6,-11.9,1024,1024,1024,1024,0,0,0,0,94,4.062,58.1,101.049872,P-GPS,,30.8
676,67600,2026-01-11 17:18:51,0.0,5,7.777,0.0,0.0,0.0,16.3,8.8,-12.6,1024,1024,1024,1024,0,0,0,0,94,4.062,58.1,101.049872,P-GPS,,30.8
677,67700,2026-01-11 17:18:51,0.0,5,7.777,0.0,0.0,0.0,16.1,9.4,-12.2,1024,1024,1024,1024,0,0,0,0,94,4.062,58.1,101.049872,P-GPS,,30.8
678,67800,2026-01-11 17:18:51,0.0,5,7.777,0.0,0.0,0.223694,16.2,9.5,-12.2,1024,1024,1024,1024,0,0,0,0,94,4.062,58.1,101.049872,P-GPS,,30.8
679,67900,2026-01-11 17:18:51,0.0,5,7.757,0.0,0.0,0.223694,16.2,9.4,-11.9,1024,1024,1024,1024,0,0,0,0,94,4.281,58.1,101.049872,P-GPS,,30.8
680,68000,2026-01-11 17:18:51,0.0,5,7.757,0.0,0.0,0.223694,16.5,8.4,-11.4,1024,1024,1024,1024,0,0,0,0,94,4.281,58.1,101.049872,P-GPS,,30.8
681,68100,2026-01-11 17:18:51,0.0,5,7.757,0.0,0.0,0.0,16.8,7.9,-11.3,1024,1024,1024,1024,0,0,0,0,94,4.281,58.1,101.049872,P-GPS,,30.8
