index,time(millisecond),timestamp,speed(mph),gpslevel,voltage(v),xSpeed(mph),ySpeed(mph),zSpeed(mph),compass_heading(degrees),pitch(degrees),roll(degrees),rc_elevator,rc_aileron,rc_throttle,rc_rudder,rc_elevator(percent),rc_aileron(percent),rc_throttle(percent),rc_rudder(percent),battery_percent,current(A),battery_temperature(f),ascent(feet),flycState,message,height_above_takeoff(meters)
94,433800,2026-01-13 12:28:32,0.0,5,7.517,0.223694,0.0,0.0,8.4,0.0,-8.3,1024,1024,1024,1024,0,0,0,0,71,5.627,75.74,36.08924,P-GPS,,11.0
95,433900,2026-01-13 12:28:32,0.3131716,5,7.517,0.223694,0.223694,0.0,8.2,2.6,-7.3,1024,1024,1024,1024,0,0,0,0,71,5.627,75.74,36.08924,P-GPS,,11.0
96,434000,2026-01-13 12:28:33,0.223694,5,7.501,0.0,0.223694,-0.223694,8.7,1.7,-9.1,1024,1024,1024,1024,0,0,0,0,71,5.277,75.74,36.417324,P-GPS,,11.1
97,434100,2026-01-13 12:28:33,0.447388,5,7.501,0.0,0.447388,-0.447388,9.2,-0.9,-11.2,1024,1024,1024,1024,0,0,0,0,71,5.277,75.74,36.745408,P-GPS,,11.2
98,434200,2026-01-13 12:28:33,0.447388,5,7.501,0.0,0.447388,-0.223694,8.7,0.1,-14.2,1024,1024,1024,1024,0,0,0,0,71,5.277,75.74,36.745408,P-GPS,,11.2
99,434300,2026-01-13 12:28:33,0.447388,5,7.501,0.0,0.447388,0.0,8.1,1.6,-15.0,1024,1024,1024,1024,0,0,0,0,71,5.277,75.74,36.745408,P-GPS,,11.2
100,434400,2026-01-13 12:28:33,0.223694,5,7.501,0.0,0.223694,0.0,8.1,1.3,-14.5,1024,1024,1024,1024,0,0,0,0,71,5.277,75.74,36.745408,P-GPS,,11.2
101,434500,2026-01-13 12:28:33,0.0,5,7.501,0.0,0.0,0.0,8.4,0.5,-12.7,1024,1024,1024,1024,0,0,0,0,71,5.277,75.74,36.745408,P-GPS,,11.2
102,434600,2026-01-13 12:28:33,0.223694,5,7.501,-0.223694,0.0,0.0,9.1,-0.8,-11.2,1024,1024,1024,1024,0,0,0,0,71,5.277,75.74,36.745408,P-GPS,,11.2
103,434700,2026-01-13 12:28:33,0.223694,5,7.501,-0.223694,0.0,0.0,9.4,-2.1,-12.0,1024,1024,1024,1024,0,0,0,0,71,5.277,75.74,36.745408,P-GPS,,11.2
104,434800,2026-01-13 12:28:33,0.0,5,7.501,0.0,0.0,0.0,9.6,-4.1,-11.4,1024,1024,1024,1024,0,0,0,0,71,5.277,75.74,37.073492,P-GPS,,11.3
105,434900,2026-01-13 12:28:33,0.0,5,7.501,0.0,0.0,-0.223694,9.0,-2.6,-11.9,1024,1024,1024,1024,0,0,0,0,71,5.277,75.74,37.073492,P-GPS,,11.3
106,435000,2026-01-13 12:28:34,0.0,5,7.501,0.0,0.0,0.0,8.8,-1.5,-12.6,1024,1024,1024,1024,0,0,0,0,71,5.277,75.74,36.745408,P-GPS,,11.2
107,435100,2026-01-13 12:28:34,0.0,5,7.547,0.0,0.0,0.0,8.8,-0.7,-12.7,1024,1024,1024,1024,0,0,0,0,71,5.166,75.74,36.745408,P-GPS,Home Point updated. RTH altitude adjusted to 90 m (Code: 120852),11.2
108,435200,2026-01-13 12:28:34,0.0,5,7.547,0.0,0.0,0.0,8.8,-0.4,-11.8,1024,1024,1024,1024,0,0,0,0,71,5.166,75.74,36.417324,P-GPS,,11.1
109,435300,2026-01-13 12:28:34,0.0,5,7.547,0.0,0.0,0.0,8.7,-0.4,-11.4,1024,1024,1024,1024,0,0,0,0,71,5.166,75.74,36.417324,P-GPS,,11.1
110,435400,2026-01-13 12:28:34,0.0,5,7.547,0.0,0.0,0.0,8.8,-0.6,-10.7,1024,1024,1024,1024,0,0,0,0,71,5.166,75.74,36.08924,P-GPS,,11.0
111,435500,2026-01-13 12:28:34,0.0,5,7.547,0.0,0.0,0.0,9.1,-2.0,-10.6,1024,1024,1024,1024,0,0,0,0,71,5.166,75.74,36.08924,P-GPS,,11.0
112,435600,2026-01-13 12:28:34,0.0,5,7.547,0.0,0.0,0.0,8.8,-1.1,-11.9,1024,1024,1024,1024,0,0,0,0,71,5.166,75.74,36.08924,P-GPS,,11.0
113,435700,2026-01-13 12:28:34,0.0,5,7.547,0.0,0.0,0.223694,8.2,0.5,-12.0,1024,1024,1024,1024,0,0,0,0,71,5.166,75.74,35.761156,P-GPS,,10.9
114,435800,2026-01-13 12:28:34,0.223694,5,7.547,0.0,-0.223694,0.0,8.6,-0.2,-10.4,1024,1024,1024,1024,0,0,0,0,71,5.166,75.74,35.761156,P-GPS,,10.9
115,435900,2026-01-13 12:28:34,0.223694,5,7.547,0.0,-0.223694,0.0,8.7,-0.7,-9.8,1024,1024,1024,1024,0,0,0,0,71,5.166,75.74,35.433072,P-GPS,,10.8
116,436000,2026-01-13 12:28:35,0.223694,5,7.547,0.0,-0.223694,0.0,9.3,-2.9,-8.4,1024,1024,1024,1024,0,0,0,0,71,5.166,75.74,35.433072,P-GPS,,10.8
117,436100,2026-01-13 12:28:35,0.223694,5,7.547,0.0,-0.223694,0.0,8.9,-2.6,-9.0,1024,1024,1024,1024,0,0,0,0,71,5.166,75.74,35.104988,P-GPS,,10.7
118,436200,2026-01-13 12:28:35,0.3131716,5,7.514,0.223694,-0.223694,0.0,8.2,-0.5,-9.6,1024,1024,1024,1024,0,0,0,0,70,5.093,75.74,35.104988,P-GPS,,10.7
119,436300,2026-01-13 12:28:35,0.3131716,5,7.514,0.223694,-0.223694,0.0,7.9,1.0,-8.8,1024,1024,1024,1024,0,0,0,0,70,5.093,75.74,35.104988,P-GPS,,10.7
120,436400,2026-01-13 12:28:35,0.3131716,5,7.514,0.223694,-0.223694,0.0,8.1,0.3,-7.9,1024,1024,1024,1024,0,0,0,0,70,5.093,75.74,34.776904,P-GPS,,10.6
121,436500,2026-01-13 12:28:35,0.223694,5,7.514,0.0,-0.223694,0.0,8.1,0.4,-7.6,1024,1024,1024,1024,0,0,0,0,70,5.093,75.74,34.776904,P-GPS,,10.6
122,436600,2026-01-13 12:28:35,0.3131716,5,7.514,0.223694,-0.223694,0.0,8.4,0.2,-7.1,1024,1024,1024,1024,0,0,0,0,70,5.093,75.74,34.44882,P-GPS,,10.5
123,436700,2026-01-13 12:28:35,0.3131716,5,7.514,0.223694,-0.223694,0.0,8.2,0.7,-6.7,1024,1024,1024,1024,0,0,0,0,70,5.093,75.74,34.44882,P-GPS,,10.5
124,436800,2026-01-13 12:28:35,0.3131716,5,7.514,0.223694,-0.223694,-0.223694,8.0,1.9,-7.0,1024,1024,1024,1024,0,0,0,0,70,5.093,75.74,34.120736,P-GPS,,10.4
125,436900,2026-01-13 12:28:35,0.223694,5,7.514,0.223694,0.0,0.0,8.0,2.8,-7.2,1024,1024,1024,1024,0,0,0,0,70,5.093,75.74,34.120736,P-GPS,,10.4
126,437000,2026-01-13 12:28:36,0.223694,5,7.514,0.223694,0.0,0.0,8.1,3.2,-7.2,1024,1024,1024,1024,0,0,0,0,70,5.093,75.74,34.120736,P-GPS,,10.4
127,437100,2026-01-13 12:28:36,0.0,5,7.514,0.0,0.0,0.0,8.1,1.9,-8.2,1024,1024,1024,1024,0,0,0,0,70,5.093,75.74,33.792652,P-GPS,,10.3
128,437200,2026-01-13 12:28:36,0.0,5,7.514,0.0,0.0,0.0,7.8,3.5,-8.8,1024,1024,1024,1024,0,0,0,0,70,5.093,75.74,33.792652,P-GPS,,10.3
129,437300,2026-01-13 12:28:36,0.0,5,7.534,0.0,-0.223694,0.0,8.1,1.6,-7.0,1024,1024,1024,1024,0,0,0,0,70,5.189,75.74,33.464568,P-GPS,,10.2
130,437400,2026-01-13 12:28:36,0.223694,5,7.534,0.0,-0.223694,0.0,8.1,1.1,-5.5,1024,1024,1024,1024,0,0,0,0,70,5.189,75.74,33.464568,P-GPS,,10.2
131,437500,2026-01-13 12:28:36,0.223694,5,7.534,0.0,-0.223694,0.0,7.9,2.7,-4.8,1024,1024,1024,1024,0,0,0,0,70,5.189,75.74,33.136484,P-GPS,,10.1
132,437600,2026-01-13 12:28:36,0.0,5,7.534,0.0,0.0,-0.223694,8.4,2.0,-4.6,1024,1024,1024,1024,0,0,0,0,70,5.189,75.74,33.136484,P-GPS,,10.1
133,437700,2026-01-13 12:28:36,0.0,5,7.534,0.0,0.0,0.0,8.3,2.0,-5.8,1024,1024,1024,1024,0,0,0,0,70,5.189,75.74,32.8084,P-GPS,,10.0
134,437800,2026-01-13 12:28:36,0.0,5,7.534,0.0,0.0,0.0,8.3,1.4,-5.1,1024,1024,1024,1024,0,0,0,0,70,5.189,75.74,32.8084,P-GPS,,10.0
135,437900,2026-01-13 12:28:36,0.0,5,7.534,0.0,0.0,-0.223694,8.3,2.0,-5.8,1024,1024,1024,1024,0,0,0,0,70,5.189,75.74,32.8084,P-GPS,,10.0
136,438000,2026-01-13 12:28:37,0.0,5,7.534,0.0,0.0,-0.223694,8.3,1.2,-6.4,1024,1024,1024,1024,0,0,0,0,70,5.189,75.74,32.8084,P-GPS,,10.0
137,438100,2026-01-13 12:28:37,0.0,5,7.534,0.0,0.0,0.0,8.3,1.1,-6.8,1024,1024,1024,1024,0,0,0,0,70,5.189,75.74,32.8084,P-GPS,,10.0
138,438200,2026-01-13 12:28:37,0.0,5,7.534,0.0,0.0,0.0,8.2,1.2,-6.9,1024,1024,1024,1024,0,0,0,0,70,5.189,75.74,32.8084,P-GPS,,10.0
139,438300,2026-01-13 12:28:37,0.0,5,7.534,0.0,0.0,0.0,8.2,0.9,-6.9,1024,1024,1024,1024,0,0,0,0,70,5.189,75.74,32.8084,P-GPS,,10.0
140,438400,2026-01-13 12:28:37,0.0,5,7.532,0.0,0.0,-0.223694,8.5,0.5,-6.7,1024,1024,1024,1024,0,0,0,0,70,5.384,75.74,32.8084,P-GPS,,10.0
141,438500,2026-01-13 12:28:37,0.0,5,7.532,0.0,0.0,-0.223694,8.4,0.6,-7.3,1024,1024,1024,1024,0,0,0,0,70,5.384,75.74,32.8084,P-GPS,,10.0
142,438600,2026-01-13 12:28:37,0.0,5,7.532,0.0,0.0,0.0,8.2,2.5,-7.9,1024,1024,1024,1024,0,0,0,0,70,5.384,75.74,32.8084,P-GPS,,10.0
143,438700,2026-01-13 12:28:37,0.0,5,7.532,0.0,0.0,0.0,8.2,2.6,-8.1,1024,1024,1024,1024,0,0,0,0,70,5.384,75.74,32.8084,P-GPS,,10.0
144,438800,2026-01-13 12:28:37,0.0,5,7.532,0.0,0.0,0.0,8.1,2.6,-8.4,1024,1024,1024,1024,0,0,0,0,70,5.384,75.74,32.8084,P-GPS,,10.0
145,438900,2026-01-13 12:28:37,0.0,5,7.532,0.0,0.0,0.0,8.4,1.7,-8.4,1024,1024,1024,1024,0,0,0,0,70,5.384,75.74,32.8084,P-GPS,,10.0
146,439000,2026-01-13 12:28:38,0.223694,5,7.532,-0.223694,0.0,0.0,8.4,1.1,-8.6,1024,1024,1024,1024,0,0,0,0,70,5.384,75.74,32.8084,P-GPS,,10.0
147,439100,2026-01-13 12:28:38,0.223694,5,7.532,-0.223694,0.0,0.0,8.4,0.7,-8.2,1024,1024,1024,1024,0,0,0,0,70,5.384,75.74,32.8084,P-GPS,,10.0
148,439200,2026-01-13 12:28:38,0.223694,5,7.532,-0.223694,0.0,0.0,8.5,0.5,-7.7,1024,1024,1024,1024,0,0,0,0,70,5.384,75.74,32.8084,P-GPS,,10.0
149,439300,2026-01-13 12:28:38,0.223694,5,7.532,-0.223694,0.0,0.0,8.6,-0.7,-7.3,1024,1024,1024,1024,0,0,0,0,70,5.384,75.74,32.8084,P-GPS,,10.0
150,439400,2026-01-13 12:28:38,0.223694,5,7.532,-0.223694,0.0,0.0,8.6,-0.5,-6.7,1024,1024,1024,1024,0,0,0,0,70,5.384,75.74,32.8084,P-GPS,,10.0
151,439500,2026-01-13 12:28:38,0.223694,5,7.536,-0.223694,0.0,0.0,8.6,-0.6,-6.2,1024,1024,1024,1024,0,0,0,0,70,4.756,75.74,32.8084,P-GPS,,10.0
152,439600,2026-01-13 12:28:38,0.223694,5,7.536,-0.223694,0.0,0.0,8.6,-1.6,-6.6,1024,1024,1024,1024,0,0,0,0,70,4.756,75.74,32.8084,P-GPS,,10.0
153,439700,2026-01-13 12:28:38,0.0,5,7.536,0.0,0.0,0.0,8.5,-1.4,-6.6,1024,1024,1024,1024,0,0,0,0,70,4.756,75.74,32.8084,P-GPS,,10.0
154,439800,2026-01-13 12:28:38,0.0,5,7.536,0.0,0.0,0.0,8.4,-0.6,-6.5,1024,1024,1024,1024,0,0,0,0,70,4.756,75.74,32.8084,P-GPS,,10.0
155,439900,2026-01-13 12:28:38,0.0,5,7.536,0.0,0.0,0.0,8.2,0.2,-6.5,1024,1024,1024,1024,0,0,0,0,70,4.756,75.74,32.8084,P-GPS,,10.0
156,440000,2026-01-13 12:28:39,0.0,5,7.536,0.0,0.0,0.0,8.1,1.1,-6.5,1024,1024,1024,1024,0,0,0,0,70,4.756,75.74,32.8084,P-GPS,,10.0
157,440100,2026-01-13 12:28:39,0.0,5,7.536,0.0,0.0,0.0,8.0,2.0,-6.4,1024,1024,1024,1024,0,0,0,0,70,4.756,75.74,32.480316,P-GPS,,9.9
158,440200,2026-01-13 12:28:39,0.0,5,7.536,0.0,0.0,0.0,8.1,2.2,-5.9,1024,1024,1024,1024,0,0,0,0,70,4.756,75.74,32.480316,P-GPS,,9.9
159,440300,2026-01-13 12:28:39,0.0,5,7.536,0.0,0.0,0.0,8.2,1.8,-6.2,1024,1024,1024,1024,0,0,0,0,70,4.756,75.74,32.480316,P-GPS,,9.9
160,440400,2026-01-13 12:28:39,0.0,5,7.536,0.0,0.0,0.0,8.2,1.9,-5.4,1024,1024,1024,1024,0,0,0,0,70,4.756,75.74,32.480316,P-GPS,,9.9
161,440500,2026-01-13 12:28:39,0.0,5,7.536,0.0,0.0,0.0,8.4,1.6,-5.3,1024,1024,1024,1024,0,0,0,0,70,4.756,75.74,32.480316,P-GPS,,9.9
162,440600,2026-01-13 12:28:39,0.0,5,7.525,0.0,0.0,0.0,8.5,2.1,-4.9,1024,1024,1024,1024,0,0,0,0,70,4.847,75.74,32.152232,P-GPS,,9.8
163,440700,2026-01-13 12:28:39,0.0,5,7.525,0.0,0.0,0.0,8.6,2.7,-5.1,1024,1024,1024,1024,0,0,0,0,70,4.847,75.74,32.152232,P-GPS,,9.8
164,440800,2026-01-13 12:28:39,0.0,5,7.525,0.0,0.0,0.0,8.7,3.2,-4.7,1024,1024,1024,1024,0,0,0,0,70,4.847,75.74,32.152232,P-GPS,,9.8
165,440900,2026-01-13 12:28:39,0.223694,5,7.525,0.223694,0.0,0.0,8.6,3.7,-4.7,1024,1024,1024,1024,0,0,0,0,70,4.847,75.74,32.152232,P-GPS,,9.8
166,441000,2026-01-13 12:28:39,0.223694,5,7.525,0.223694,0.0,0.0,8.6,3.8,-4.8,1024,1024,1024,1024,0,0,0,0,70,4.847,75.74,32.152232,P-GPS,,9.8
167,441100,2026-01-13 12:28:40,0.223694,5,7.525,0.223694,0.0,0.0,8.5,4.2,-4.7,1024,1024,1024,1024,0,0,0,0,70,4.847,75.74,32.152232,P-GPS,,9.8
168,441200,2026-01-13 12:28:40,0.223694,5,7.525,0.223694,0.0,0.0,8.5,4.7,-4.5,1024,1024,1024,1024,0,0,0,0,70,4.847,75.74,32.152232,P-GPS,,9.8
169,441300,2026-01-13 12:28:40,0.223694,5,7.525,0.223694,0.0,0.0,8.5,4.8,-4.4,1024,1024,1024,1024,0,0,0,0,70,4.847,75.74,31.824148,P-GPS,,9.7
170,441400,2026-01-13 12:28:40,0.223694,5,7.525,0.223694,0.0,0.0,8.3,5.8,-4.1,1024,1024,1024,1024,0,0,0,0,70,4.847,75.74,31.824148,P-GPS,,9.7
171,441500,2026-01-13 12:28:40,0.0,5,7.525,0.0,0.0,0.0,8.2,5.6,-3.9,1024,1024,1024,1024,0,0,0,0,70,4.847,75.74,31.824148,P-GPS,,9.7
172,441600,2026-01-13 12:28:40,0.0,5,7.525,0.0,0.0,0.0,8.2,4.6,-3.4,1024,1024,1024,1024,0,0,0,0,70,4.847,75.74,31.496064,P-GPS,,9.6
173,441700,2026-01-13 12:28:40,0.0,5,7.507,0.0,0.0,0.0,8.4,2.8,-2.6,1024,1024,1024,1024,0,0,0,0,70,5.177,75.74,31.496064,P-GPS,,9.6
174,441800,2026-01-13 12:28:40,0.223694,5,7.507,-0.223694,0.0,0.0,8.2,2.4,-3.2,1024,1024,1024,1024,0,0,0,0,70,5.177,75.74,31.496064,P-GPS,,9.6
175,441900,2026-01-13 12:28:40,0.223694,5,7.507,-0.223694,0.0,0.0,8.1,2.0,-2.9,1024,1024,1024,1024,0,0,0,0,70,5.177,75.74,31.496064,P-GPS,,9.6
176,442000,2026-01-13 12:28:41,0.223694,5,7.507,-0.223694,0.0,0.0,8.3,1.5,-2.6,1024,1024,1024,1024,0,0,0,0,70,5.177,75.74,31.496064,P-GPS,,9.6
177,442100,2026-01-13 12:28:41,0.223694,5,7.507,-0.223694,0.0,0.0,8.4,1.2,-2.4,1024,1024,1024,1024,0,0,0,0,70,5.177,75.74,31.16798,P-GPS,,9.5
178,442200,2026-01-13 12:28:41,0.223694,5,7.507,-0.223694,0.0,0.0,8.5,0.4,-2.3,1024,1024,1024,1024,0,0,0,0,70,5.177,75.74,31.16798,P-GPS,,9.5
179,442300,2026-01-13 12:28:41,0.223694,5,7.507,-0.223694,0.0,0.0,8.4,0.6,-2.4,1024,1024,1024,1024,0,0,0,0,70,5.177,75.74,31.16798,P-GPS,,9.5
180,442400,2026-01-13 12:28:41,0.0,5,7.507,0.0,0.0,0.0,8.3,0.6,-2.6,1024,1024,1024,1024,0,0,0,0,70,5.177,75.74,31.16798,P-GPS,,9.5
181,442500,2026-01-13 12:28:41,0.0,5,7.507,0.0,0.0,0.0,8.4,0.7,-2.1,1024,1024,1024,1024,0,0,0,0,70,5.177,75.74,31.16798,P-GPS,,9.5
182,442600,2026-01-13 12:28:41,0.0,5,7.507,0.0,0.0,0.0,8.4,0.4,-1.4,1024,1024,1024,1024,0,0,0,0,70,5.177,75.74,31.16798,P-GPS,,9.5
183,442700,2026-01-13 12:28:41,0.0,5,7.507,0.0,0.0,0.0,8.5,0.6,-1.8,1024,1024,1024,1024,0,0,0,0,70,5.177,75.74,31.16798,P-GPS,,9.5
184,442800,2026-01-13 12:28:41,0.0,5,7.488,0.0,0.0,0.0,8.4,1.1,-2.5,1024,1024,1024,1024,0,0,0,0,70,5.53,75.74,31.16798,P-GPS,,9.5
185,442900,2026-01-13 12:28:41,0.0,5,7.488,0.0,0.0,0.0,8.5,0.7,-2.7,1024,1024,1024,1024,0,0,0,0,70,5.53,75.74,31.496064,P-GPS,,9.6
186,443000,2026-01-13 12:28:42,0.0,5,7.488,0.0,0.0,0.0,8.5,0.7,-2.5,1024,1024,1024,1024,0,0,0,0,70,5.53,75.74,31.496064,P-GPS,,9.6
187,443100,2026-01-13 12:28:42,0.0,5,7.488,0.0,0.0,0.0,8.6,0.0,-3.3,1024,1024,1024,1024,0,0,0,0,70,5.53,75.74,31.496064,P-GPS,,9.6
188,443200,2026-01-13 12:28:42,0.0,5,7.488,0.0,0.0,0.0,8.8,0.5,-3.5,1024,1024,1024,1024,0,0,0,0,70,5.53,75.74,31.496064,P-GPS,,9.6
189,443300,2026-01-13 12:28:42,0.223694,5,7.488,0.0,0.223694,0.0,8.9,1.9,-3.9,1024,1024,1024,1024,0,0,0,0,70,5.53,75.74,31.824148,P-GPS,,9.7
190,443400,2026-01-13 12:28:42,0.223694,5,7.488,0.0,0.223694,0.0,8.7,3.3,-4.7,1024,1024,1024,1024,0,0,0,0,70,5.53,75.74,31.824148,P-GPS,,9.7
191,443500,2026-01-13 12:28:42,0.223694,5,7.488,0.0,0.223694,0.0,8.3,4.5,-4.8,1024,1024,1024,1024,0,0,0,0,70,5.53,75.74,32.152232,P-GPS,,9.8
192,443600,2026-01-13 12:28:42,0.0,5,7.488,0.0,0.0,0.0,8.4,4.1,-4.5,1024,1024,1024,1024,0,0,0,0,70,5.53,75.74,32.152232,P-GPS,,9.8
193,443700,2026-01-13 12:28:42,0.0,5,7.488,0.0,0.0,0.0,8.5,3.6,-4.5,1024,1024,1024,1024,0,0,0,0,70,5.53,75.74,32.152232,P-GPS,,9.8
194,443800,2026-01-13 12:28:42,0.0,5,7.488,0.0,0.0,0.0,8.6,3.9,-4.1,1024,1024,1024,1024,0,0,0,0,70,5.53,75.74,32.480316,P-GPS,,9.9
195,443900,2026-01-13 12:28:42,0.0,5,7.488,0.0,0.0,0.0,8.3,4.8,-4.0,1024,1024,1024,1024,0,0,0,0,70,5.53,75.74,32.480316,P-GPS,,9.9
196,444000,2026-01-13 12:28:43,0.0,5,7.488,0.0,0.0,0.0,8.6,3.5,-3.8,1024,1024,1024,1024,0,0,0,0,70,5.53,75.74,32.480316,P-GPS,,9.9
197,444100,2026-01-13 12:28:43,0.0,5,7.488,0.0,0.0,0.0,8.4,4.7,-3.4,1024,1024,1024,1024,0,0,0,0,70,5.53,75.74,32.480316,P-GPS,,9.9
198,444200,2026-01-13 12:28:43,0.0,5,7.488,0.0,0.0,0.0,8.2,4.4,-4.6,1024,1024,1024,1024,0,0,0,0,70,5.53,75.74,32.8084,P-GPS,,10.0
199,444300,2026-01-13 12:28:43,0.0,5,7.488,0.0,0.0,0.0,8.6,4.2,-3.0,1024,1024,1024,1024,0,0,0,0,70,5.53,75.74,32.8084,P-GPS,,10.0
200,444400,2026-01-13 12:28:43,0.0,5,7.488,0.0,0.0,0.0,8.6,3.8,-3.2,1024,1024,1024,1024,0,0,0,0,70,5.53,75.74,32.8084,P-GPS,,10.0
201,444500,2026-01-13 12:28:43,0.0,5,7.488,0.0,0.0,0.0,8.5,2.7,-3.5,1024,1024,1024,1024,0,0,0,0,70,5.53,75.74,32.8084,P-GPS,,10.0
202,444600,2026-01-13 12:28:43,0.0,5,7.488,0.0,0.0,0.0,8.5,2.7,-3.2,1024,1024,1024,1024,0,0,0,0,70,5.53,75.74,32.8084,P-GPS,,10.0
203,444700,2026-01-13 12:28:43,0.0,5,7.488,0.0,0.0,0.0,8.2,2.9,-3.5,1024,1024,1024,1024,0,0,0,0,70,5.53,75.74,32.8084,P-GPS,,10.0
204,444800,2026-01-13 12:28:43,0.0,5,7.488,0.0,0.0,0.0,8.1,2.6,-2.9,1024,1024,1024,1024,0,0,0,0,70,5.53,75.74,32.480316,P-GPS,,9.9
205,444900,2026-01-13 12:28:43,0.0,5,7.488,0.0,0.0,0.0,8.2,2.7,-2.6,1024,1024,1024,1024,0,0,0,0,70,5.53,75.74,32.480316,P-GPS,,9.9
206,445000,2026-01-13 12:28:44,0.0,5,7.482,0.0,0.0,0.0,8.2,2.3,-2.1,1024,1024,1024,1024,0,0,0,0,70,6.019,75.74,32.480316,P-GPS,,9.9
207,445100,2026-01-13 12:28:44,0.0,5,7.482,0.0,0.0,0.0,8.2,1.9,-2.0,1024,1024,1024,1024,0,0,0,0,70,6.019,75.74,32.480316,P-GPS,,9.9
208,445200,2026-01-13 12:28:44,0.0,5,7.482,-0.223694,0.0,0.0,8.3,1.0,-2.5,1024,1024,1024,1024,0,0,0,0,70,6.019,75.74,32.480316,P-GPS,,9.9
209,445300,2026-01-13 12:28:44,0.223694,5,7.482,-0.223694,0.0,0.0,8.5,0.3,-2.9,1024,1024,1024,1024,0,0,0,0,70,6.019,75.74,32.480316,P-GPS,,9.9
210,445400,2026-01-13 12:28:44,0.0,5,7.482,0.0,0.0,0.0,8.6,0.5,-3.1,1024,1024,1024,1024,0,0,0,0,70,6.019,75.74,32.480316,P-GPS,,9.9
211,445500,2026-01-13 12:28:44,0.0,5,7.482,0.0,0.0,0.0,8.5,1.1,-2.8,1024,1024,1024,1024,0,0,0,0,70,6.019,75.74,32.480316,P-GPS,,9.9
212,445600,2026-01-13 12:28:44,0.0,5,7.482,0.0,0.0,0.0,8.4,1.3,-2.3,1024,1024,1024,1024,0,0,0,0,70,6.019,75.74,32.480316,P-GPS,,9.9
213,445700,2026-01-13 12:28:44,0.0,5,7.482,0.0,0.0,0.0,8.1,1.4,-2.2,1024,1024,1024,1024,0,0,0,0,70,6.019,75.74,32.480316,P-GPS,,9.9
214,445800,2026-01-13 12:28:44,0.0,5,7.482,0.0,0.0,0.0,8.2,1.5,-2.4,1024,1024,1024,1024,0,0,0,0,70,6.019,75.74,32.480316,P-GPS,,9.9
215,445900,2026-01-13 12:28:44,0.0,5,7.482,0.0,0.0,0.0,8.2,1.0,-2.8,1024,1024,1024,1024,0,0,0,0,70,6.019,75.74,32.8084,P-GPS,,10.0
216,446000,2026-01-13 12:28:45,0.0,5,7.482,0.0,0.0,0.0,8.5,0.4,-3.3,1024,1024,1024,1024,0,0,0,0,70,6.019,75.74,32.8084,P-GPS,,10.0
217,446100,2026-01-13 12:28:45,0.0,5,7.5,0.0,0.0,0.0,8.6,-0.6,-3.8,1024,1024,1024,1024,0,0,0,0,70,5.131,75.74,32.8084,P-GPS,,10.0
218,446200,2026-01-13 12:28:45,0.223694,5,7.5,0.0,0.223694,0.0,8.5,-0.1,-4.7,1024,1024,1024,1024,0,0,0,0,70,5.131,75.74,33.136484,P-GPS,,10.1
219,446300,2026-01-13 12:28:45,0.223694,5,7.5,0.0,0.223694,0.0,8.3,1.0,-4.9,1024,1024,1024,1024,0,0,0,0,70,5.131,75.74,33.136484,P-GPS,,10.1
220,446400,2026-01-13 12:28:45,0.223694,5,7.5,0.0,0.0,0.0,8.3,1.8,-5.6,1024,1024,1024,1024,0,0,0,0,70,5.131,75.74,33.136484,P-GPS,,10.1
221,446500,2026-01-13 12:28:45,0.0,5,7.5,0.0,0.0,0.0,8.6,1.5,-5.5,1024,1024,1024,1024,0,0,0,0,70,5.131,75.74,33.464568,P-GPS,,10.2
222,446600,2026-01-13 12:28:45,0.0,5,7.5,0.0,0.0,0.0,8.7,2.0,-4.8,1024,1024,1024,1024,0,0,0,0,70,5.131,75.74,33.464568,P-GPS,,10.2
223,446700,2026-01-13 12:28:45,0.223694,5,7.5,0.223694,0.0,0.0,8.8,2.4,-4.6,1024,1024,1024,1024,0,0,0,0,70,5.131,75.74,33.464568,P-GPS,,10.2
224,446800,2026-01-13 12:28:45,0.223694,5,7.5,0.223694,0.0,0.0,8.7,2.8,-4.4,1024,1024,1024,1024,0,0,0,0,70,5.131,75.74,33.464568,P-GPS,,10.2
225,446900,2026-01-13 12:28:45,0.223694,5,7.5,0.223694,0.0,0.0,8.5,4.6,-4.9,1024,1024,1024,1024,0,0,0,0,70,5.131,75.74,33.792652,P-GPS,,10.3
226,447000,2026-01-13 12:28:46,0.223694,5,7.5,0.223694,0.0,0.0,8.5,5.1,-4.4,1024,1024,1024,1024,0,0,0,0,70,5.131,75.74,33.792652,P-GPS,,10.3
227,447100,2026-01-13 12:28:46,0.223694,5,7.5,0.223694,0.0,0.0,8.6,5.0,-4.3,1024,1024,1024,1024,0,0,0,0,70,5.131,75.74,33.792652,P-GPS,,10.3
228,447200,2026-01-13 12:28:46,0.0,5,7.493,0.0,0.0,0.0,8.5,5.0,-4.3,1024,1024,1024,1024,0,0,0,0,70,5.179,75.74,33.792652,P-GPS,,10.3
229,447300,2026-01-13 12:28:46,0.0,5,7.493,0.0,0.0,0.0,8.3,5.2,-4.4,1024,1024,1024,1024,0,0,0,0,70,5.179,75.74,33.792652,P-GPS,,10.3
230,447400,2026-01-13 12:28:46,0.0,5,7.493,0.0,0.0,0.0,8.4,4.5,-4.5,1024,1024,1024,1024,0,0,0,0,70,5.179,75.74,33.792652,P-GPS,,10.3
231,447500,2026-01-13 12:28:46,0.0,5,7.493,0.0,0.0,0.0,8.3,3.8,-4.8,1024,1024,1024,1024,0,0,0,0,70,5.179,75.74,34.120736,P-GPS,,10.4
232,447600,2026-01-13 12:28:46,0.0,5,7.493,0.0,0.0,0.0,8.4,3.8,-4.8,1024,1024,1024,1024,0,0,0,0,70,5.179,75.74,34.120736,P-GPS,,10.4
233,447700,2026-01-13 12:28:46,0.0,5,7.493,0.0,0.0,0.0,8.7,3.3,-4.6,1024,1024,1024,1024,0,0,0,0,70,5.179,75.74,34.120736,P-GPS,,10.4
234,447800,2026-01-13 12:28:46,0.0,5,7.493,0.0,0.0,0.0,8.7,3.2,-4.2,1024,1024,1024,1024,0,0,0,0,70,5.179,75.74,34.120736,P-GPS,,10.4
235,447900,2026-01-13 12:28:47,0.0,5,7.493,0.0,0.0,0.0,8.7,3.5,-4.6,1024,1024,1024,1024,0,0,0,0,70,5.179,75.74,34.120736,P-GPS,,10.4
236,448000,2026-01-13 12:28:47,0.0,5,7.493,0.0,0.0,0.0,8.6,4.1,-4.3,1024,1024,1024,1024,0,0,0,0,70,5.179,75.74,34.120736,P-GPS,,10.4
237,448100,2026-01-13 12:28:47,0.0,5,7.493,0.0,0.0,0.0,8.5,4.6,-4.6,1024,1024,1024,1024,0,0,0,0,70,5.179,75.74,34.120736,P-GPS,,10.4
238,448200,2026-01-13 12:28:47,0.0,5,7.493,0.0,0.0,0.0,8.4,5.7,-4.7,1024,1024,1024,1024,0,0,0,0,70,5.179,75.74,34.44882,P-GPS,,10.5
239,448300,2026-01-13 12:28:47,0.0,5,7.496,0.0,0.0,0.0,8.3,6.6,-4.5,1024,1024,1024,1024,0,0,0,0,70,5.105,75.74,34.44882,P-GPS,,10.5
240,448400,2026-01-13 12:28:47,0.0,5,7.496,0.0,0.0,0.0,8.3,6.2,-4.9,1024,1024,1024,1024,0,0,0,0,70,5.105,75.74,34.44882,P-GPS,,10.5
241,448500,2026-01-13 12:28:47,0.0,5,7.496,0.0,0.0,0.0,8.4,6.0,-5.2,1024,1024,1024,1024,0,0,0,0,70,5.105,75.74,34.44882,P-GPS,,10.5
242,448600,2026-01-13 12:28:47,0.0,5,7.496,0.0,0.0,0.0,8.4,5.4,-5.3,1024,1024,1024,1024,0,0,0,0,70,5.105,75.74,34.44882,P-GPS,,10.5
243,448700,2026-01-13 12:28:47,0.0,5,7.496,0.0,0.0,0.0,8.4,5.5,-5.0,1024,1024,1024,1024,0,0,0,0,70,5.105,75.74,34.120736,P-GPS,,10.4
244,448800,2026-01-13 12:28:47,0.0,5,7.496,0.0,0.0,0.0,8.3,4.9,-5.1,1024,1024,1024,1024,0,0,0,0,70,5.105,75.74,34.120736,P-GPS,,10.4
245,448900,2026-01-13 12:28:47,0.0,5,7.496,0.0,0.0,0.0,8.4,4.5,-4.6,1024,1024,1024,1024,0,0,0,0,70,5.105,75.74,34.120736,P-GPS,,10.4
246,449000,2026-01-13 12:28:48,0.0,5,7.496,0.0,0.0,0.0,8.5,3.8,-4.7,1024,1024,1024,1024,0,0,0,0,70,5.105,75.74,34.120736,P-GPS,,10.4
247,449100,2026-01-13 12:28:48,0.0,5,7.496,0.0,0.0,0.0,8.5,3.5,-4.2,1024,1024,1024,1024,0,0,0,0,70,5.105,75.74,34.120736,P-GPS,,10.4
248,449200,2026-01-13 12:28:48,0.0,5,7.496,0.0,0.0,0.0,8.5,4.0,-3.7,1024,1024,1024,1024,0,0,0,0,70,5.105,75.74,34.120736,P-GPS,,10.4
249,449300,2026-01-13 12:28:48,0.0,5,7.496,0.0,0.0,0.0,8.4,3.4,-3.6,1024,1024,1024,1024,0,0,0,0,70,5.105,75.74,34.120736,P-GPS,,10.4
250,449400,2026-01-13 12:28:48,0.0,5,7.471,0.0,0.0,0.0,8.5,2.8,-3.8,1024,1024,1024,1024,0,0,0,0,70,5.595,75.92,33.792652,P-GPS,,10.3
251,449500,2026-01-13 12:28:48,0.0,5,7.471,0.0,0.0,0.0,8.6,2.7,-3.2,1024,1024,1024,1024,0,0,0,0,70,5.595,75.92,33.792652,P-GPS,,10.3
252,449600,2026-01-13 12:28:48,0.0,5,7.471,0.0,0.0,0.0,8.6,3.3,-3.2,1024,1024,1024,1024,0,0,0,0,70,5.595,75.92,33.792652,P-GPS,,10.3
253,449700,2026-01-13 12:28:48,0.0,5,7.471,0.0,0.0,0.0,8.5,3.5,-3.9,1024,1024,1024,1024,0,0,0,0,70,5.595,75.92,33.792652,P-GPS,,10.3
254,449800,2026-01-13 12:28:48,0.0,5,7.471,0.0,0.0,0.0,8.5,3.3,-4.1,1024,1024,1024,1024,0,0,0,0,70,5.595,75.92,33.792652,P-GPS,,10.3
255,449900,2026-01-13 12:28:49,0.0,5,7.471,0.0,0.0,0.0,8.6,3.4,-3.5,1024,1024,1024,1024,0,0,0,0,70,5.595,75.92,33.792652,P-GPS,,10.3
256,450000,2026-01-13 12:28:49,0.0,5,7.471,0.0,0.0,0.0,8.6,3.5,-3.4,1024,1024,1024,1024,0,0,0,0,70,5.595,75.92,33.464568,P-GPS,,10.2
257,450100,2026-01-13 12:28:49,0.0,5,7.471,0.0,0.0,0.0,8.5,3.5,-3.4,1024,1024,1024,1024,0,0,0,0,70,5.595,75.92,33.464568,P-GPS,,10.2
258,450200,2026-01-13 12:28:49,0.0,5,7.471,0.0,0.0,0.0,8.4,3.8,-3.3,1024,1024,1024,1024,0,0,0,0,70,5.595,75.92,33.464568,P-GPS,,10.2
259,450300,2026-01-13 12:28:49,0.0,5,7.471,0.0,0.0,0.0,8.4,3.7,-2.8,1024,1024,1024,1024,0,0,0,0,70,5.595,75.92,33.464568,P-GPS,,10.2
260,450400,2026-01-13 12:28:49,0.0,5,7.471,0.0,0.0,0.0,8.3,3.1,-3.0,1024,1024,1024,1024,0,0,0,0,70,5.595,75.92,33.464568,P-GPS,,10.2
261,450500,2026-01-13 12:28:49,0.0,5,7.471,0.0,0.0,0.0,8.3,2.7,-2.8,1024,1024,1024,1024,0,0,0,0,70,5.595,75.92,33.136484,P-GPS,,10.1
262,450600,2026-01-13 12:28:49,0.0,5,7.486,0.0,0.0,0.0,8.4,2.2,-2.6,1024,1024,1024,1024,0,0,0,0,69,5.222,75.92,33.136484,P-GPS,,10.1
263,450700,2026-01-13 12:28:49,0.0,5,7.486,0.0,0.0,0.0,8.5,2.2,-2.8,1024,1024,1024,1024,0,0,0,0,69,5.222,75.92,33.136484,P-GPS,,10.1
264,450800,2026-01-13 12:28:49,0.0,5,7.486,0.0,0.0,0.0,8.5,2.3,-2.9,1024,1024,1024,1024,0,0,0,0,69,5.222,75.92,33.136484,P-GPS,,10.1
265,450900,2026-01-13 12:28:49,0.0,5,7.486,0.0,0.0,0.0,8.3,3.1,-3.8,1024,1024,1024,1024,0,0,0,0,69,5.222,75.92,33.464568,P-GPS,,10.2
266,451000,2026-01-13 12:28:50,0.0,5,7.486,0.0,0.0,0.0,8.3,3.4,-4.5,1024,1024,1024,1024,0,0,0,0,69,5.222,75.92,33.464568,P-GPS,,10.2
267,451100,2026-01-13 12:28:50,0.0,5,7.486,0.0,0.0,0.0,8.2,3.8,-4.3,1024,1024,1024,1024,0,0,0,0,69,5.222,75.92,33.464568,P-GPS,,10.2
268,451200,2026-01-13 12:28:50,0.0,5,7.486,0.0,0.0,0.0,8.2,3.4,-4.9,1024,1024,1024,1024,0,0,0,0,69,5.222,75.92,33.464568,P-GPS,,10.2
269,451300,2026-01-13 12:28:50,0.0,5,7.486,0.0,0.0,0.0,8.3,3.2,-5.1,1024,1024,1024,1024,0,0,0,0,69,5.222,75.92,33.464568,P-GPS,,10.2
270,451400,2026-01-13 12:28:50,0.0,5,7.486,0.0,0.0,0.0,8.2,3.2,-5.1,1024,1024,1024,1024,0,0,0,0,69,5.222,75.92,33.464568,P-GPS,,10.2
271,451500,2026-01-13 12:28:50,0.0,5,7.486,0.0,0.0,0.0,8.2,2.4,-5.1,1024,1024,1024,1024,0,0,0,0,69,5.222,75.92,33.792652,P-GPS,,10.3
272,451600,2026-01-13 12:28:50,0.0,5,7.486,0.0,0.0,0.0,8.2,2.4,-5.1,1024,1024,1024,1024,0,0,0,0,69,5.222,75.92,33.792652,P-GPS,,10.3
273,451700,2026-01-13 12:28:50,0.0,5,7.482,0.0,0.0,0.0,8.2,2.4,-4.7,1024,1024,1024,1024,0,0,0,0,69,5.34,75.92,33.792652,P-GPS,,10.3
274,451800,2026-01-13 12:28:50,0.0,5,7.482,0.0,0.0,0.0,8.1,2.7,-4.8,1024,1024,1024,1024,0,0,0,0,69,5.34,75.92,33.792652,P-GPS,,10.3
275,451900,2026-01-13 12:28:50,0.0,5,7.482,0.0,0.0,0.0,8.1,2.5,-4.7,1024,1024,1024,1024,0,0,0,0,69,5.34,75.92,33.792652,P-GPS,,10.3
276,452000,2026-01-13 12:28:51,0.0,5,7.482,0.0,0.0,0.0,8.2,2.3,-4.6,1024,1024,1024,1024,0,0,0,0,69,5.34,75.92,33.792652,P-GPS,,10.3
277,452100,2026-01-13 12:28:51,0.0,5,7.482,0.0,0.0,0.0,8.2,2.4,-4.6,1024,1024,1024,1024,0,0,0,0,69,5.34,75.92,33.792652,P-GPS,,10.3
278,452200,2026-01-13 12:28:51,0.0,5,7.482,0.0,0.0,0.0,8.2,2.0,-4.7,1024,1024,1024,1024,0,0,0,0,69,5.34,75.92,33.792652,P-GPS,,10.3
279,452300,2026-01-13 12:28:51,0.0,5,7.482,0.0,0.0,0.0,8.2,2.1,-4.7,1024,1024,1024,1024,0,0,0,0,69,5.34,75.92,33.792652,P-GPS,,10.3
280,452400,2026-01-13 12:28:51,0.0,5,7.482,0.0,0.0,0.0,8.3,2.0,-4.6,1024,1024,1024,1024,0,0,0,0,69,5.34,75.92,33.792652,P-GPS,,10.3
281,452500,2026-01-13 12:28:51,0.0,5,7.482,0.0,0.0,0.0,8.4,2.5,-5.0,1024,1024,1024,1024,0,0,0,0,69,5.34,75.92,33.792652,P-GPS,,10.3
282,452600,2026-01-13 12:28:51,0.0,5,7.482,0.0,0.0,0.0,8.3,3.3,-4.7,1024,1024,1024,1024,0,0,0,0,69,5.34,75.92,33.792652,P-GPS,,10.3
283,452700,2026-01-13 12:28:51,0.0,5,7.482,0.0,0.0,0.0,8.3,3.6,-4.9,1024,1024,1024,1024,0,0,0,0,69,5.34,75.92,33.792652,P-GPS,,10.3
284,452800,2026-01-13 12:28:51,0.0,5,7.482,0.0,0.0,0.0,8.3,3.4,-4.9,1024,1024,1024,1024,0,0,0,0,69,5.34,75.92,33.792652,P-GPS,,10.3
285,452900,2026-01-13 12:28:51,0.0,5,7.482,0.0,0.0,0.0,8.3,3.4,-5.0,1024,1024,1024,1024,0,0,0,0,69,5.34,75.92,33.792652,P-GPS,,10.3
286,453000,2026-01-13 12:28:52,0.0,5,7.482,0.0,0.0,0.0,8.4,3.4,-4.8,1024,1024,1024,1024,0,0,0,0,69,5.34,75.92,33.792652,P-GPS,,10.3
287,453100,2026-01-13 12:28:52,0.0,5,7.482,0.0,0.0,0.0,8.3,3.6,-4.9,1024,1024,1024,1024,0,0,0,0,69,5.34,75.92,33.792652,P-GPS,,10.3
288,453200,2026-01-13 12:28:52,0.0,5,7.482,0.0,0.0,0.0,8.2,3.4,-4.5,1024,1024,1024,1024,0,0,0,0,69,5.34,75.92,33.792652,P-GPS,,10.3
289,453300,2026-01-13 12:28:52,0.0,5,7.482,0.0,0.0,0.0,8.1,3.4,-4.7,1024,1024,1024,1024,0,0,0,0,69,5.34,75.92,33.792652,P-GPS,,10.3
290,453400,2026-01-13 12:28:52,0.0,5,7.482,0.0,0.0,0.0,8.2,2.8,-4.7,1024,1024,1024,1024,0,0,0,0,69,5.34,75.92,33.792652,P-GPS,,10.3
291,453500,2026-01-13 12:28:52,0.0,5,7.482,0.0,0.0,0.0,8.4,2.1,-4.6,1024,1024,1024,1024,0,0,0,0,69,5.34,75.92,33.792652,P-GPS,,10.3
292,453600,2026-01-13 12:28:52,0.0,5,7.482,0.0,0.0,0.0,8.4,2.1,-4.8,1024,1024,1024,1024,0,0,0,0,69,5.34,75.92,33.792652,P-GPS,,10.3
293,453700,2026-01-13 12:28:52,0.0,5,7.482,0.0,0.0,0.0,8.5,1.9,-4.7,1024,1024,1024,1024,0,0,0,0,69,5.34,75.92,33.792652,P-GPS,,10.3
294,453800,2026-01-13 12:28:52,0.0,5,7.5,0.0,0.0,0.0,8.7,2.5,-4.3,1024,1024,1024,1024,0,0,0,0,69,5.031,75.92,33.792652,P-GPS,,10.3
295,453900,2026-01-13 12:28:52,0.0,5,7.5,0.0,0.0,0.0,8.7,2.9,-3.8,1024,1024,1024,1024,0,0,0,0,69,5.031,75.92,33.792652,P-GPS,,10.3
296,454000,2026-01-13 12:28:53,0.0,5,7.5,0.0,0.0,0.0,8.7,3.3,-3.1,1024,1024,1024,1024,0,0,0,0,69,5.031,75.92,33.464568,P-GPS,,10.2
297,454100,2026-01-13 12:28:53,0.0,5,7.5,0.0,0.0,0.0,8.6,3.9,-2.9,1024,1024,1024,1024,0,0,0,0,69,5.031,75.92,33.464568,P-GPS,,10.2
298,454200,2026-01-13 12:28:53,0.0,5,7.5,0.0,0.0,0.0,8.4,3.4,-3.0,1024,1024,1024,1024,0,0,0,0,69,5.031,75.92,33.464568,P-GPS,,10.2
299,454300,2026-01-13 12:28:53,0.0,5,7.5,0.0,0.0,0.0,8.3,2.9,-3.1,1024,1024,1024,1024,0,0,0,0,69,5.031,75.92,33.464568,P-GPS,,10.2
300,454400,2026-01-13 12:28:53,0.0,5,7.5,0.0,0.0,0.0,8.1,2.8,-3.1,1024,1024,1024,1024,0,0,0,0,69,5.031,75.92,33.136484,P-GPS,,10.1
301,454500,2026-01-13 12:28:53,0.0,5,7.5,0.0,0.0,0.0,8.0,2.9,-3.7,1024,1024,1024,1024,0,0,0,0,69,5.031,75.92,33.464568,P-GPS,,10.2
302,454600,2026-01-13 12:28:53,0.0,5,7.5,0.0,0.0,0.0,7.9,2.7,-4.2,1024,1024,1024,1024,0,0,0,0,69,5.031,75.92,33.464568,P-GPS,,10.2
303,454700,2026-01-13 12:28:53,0.223694,5,7.5,-0.223694,0.0,0.0,8.3,0.8,-4.6,1024,1024,1024,1024,0,0,0,0,69,5.031,75.92,33.464568,P-GPS,,10.2
304,454800,2026-01-13 12:28:53,0.0,5,7.5,0.0,0.0,0.0,8.5,0.2,-5.4,1024,1024,1024,1024,0,0,0,0,69,5.031,75.92,33.464568,P-GPS,,10.2
305,454900,2026-01-13 12:28:53,0.0,5,7.5,0.0,0.0,0.0,8.5,1.2,-5.8,1024,1024,1024,1024,0,0,0,0,69,5.031,75.92,33.792652,P-GPS,,10.3
306,455000,2026-01-13 12:28:53,0.0,5,7.489,0.0,0.0,0.0,8.6,0.6,-6.2,1024,1024,1024,1024,0,0,0,0,69,4.95,75.92,33.792652,P-GPS,,10.3
307,455100,2026-01-13 12:28:54,0.0,5,7.489,0.0,0.0,0.0,8.6,1.5,-7.1,1024,1024,1024,1024,0,0,0,0,69,4.95,75.92,33.792652,P-GPS,,10.3
308,455200,2026-01-13 12:28:54,0.0,5,7.489,0.0,0.0,0.0,8.4,2.9,-6.5,1024,1024,1024,1024,0,0,0,0,69,4.95,75.92,33.792652,P-GPS,,10.3
309,455300,2026-01-13 12:28:54,0.0,5,7.489,0.0,0.0,0.0,8.5,3.2,-5.3,1024,1024,1024,1024,0,0,0,0,69,4.95,75.92,33.792652,P-GPS,,10.3
310,455400,2026-01-13 12:28:54,0.0,5,7.489,0.223694,0.0,0.0,8.5,3.9,-5.1,1024,1024,1024,1024,0,0,0,0,69,4.95,75.92,33.792652,P-GPS,,10.3
311,455500,2026-01-13 12:28:54,0.223694,5,7.489,0.223694,0.0,0.0,8.4,4.5,-5.2,1024,1024,1024,1024,0,0,0,0,69,4.95,75.92,33.792652,P-GPS,,10.3
312,455600,2026-01-13 12:28:54,0.223694,5,7.489,0.223694,0.0,0.0,8.3,5.0,-5.1,1024,1024,1024,1024,0,0,0,0,69,4.95,75.92,33.792652,P-GPS,,10.3
313,455700,2026-01-13 12:28:54,0.223694,5,7.489,0.223694,0.0,0.0,8.4,5.2,-4.9,1024,1024,1024,1024,0,0,0,0,69,4.95,75.92,33.792652,P-GPS,,10.3
314,455800,2026-01-13 12:28:54,0.0,5,7.489,0.0,0.0,0.0,8.3,5.0,-5.6,1024,1024,1024,1024,0,0,0,0,69,4.95,75.92,33.792652,P-GPS,,10.3
315,455900,2026-01-13 12:28:54,0.0,5,7.489,0.0,0.0,0.0,8.1,5.2,-5.3,1024,1024,1024,1024,0,0,0,0,69,4.95,75.92,33.792652,P-GPS,,10.3
316,456000,2026-01-13 12:28:55,0.0,5,7.489,0.0,0.0,0.0,8.1,4.7,-5.5,1024,1024,1024,1024,0,0,0,0,69,4.95,75.92,33.792652,P-GPS,,10.3
317,456100,2026-01-13 12:28:55,0.0,5,7.485,0.0,0.0,0.0,8.2,4.4,-5.6,1024,1024,1024,1024,0,0,0,0,69,4.972,75.92,33.792652,P-GPS,,10.3
318,456200,2026-01-13 12:28:55,0.0,5,7.485,0.0,0.0,0.0,8.3,4.1,-4.9,1024,1024,1024,1024,0,0,0,0,69,4.972,75.92,33.792652,P-GPS,,10.3
319,456300,2026-01-13 12:28:55,0.0,5,7.485,0.0,0.0,0.0,8.3,3.8,-5.4,1024,1024,1024,1024,0,0,0,0,69,4.972,75.92,33.792652,P-GPS,,10.3
320,456400,2026-01-13 12:28:55,0.0,5,7.485,0.0,0.0,0.0,8.3,4.6,-5.5,1024,1024,1024,1024,0,0,0,0,69,4.972,75.92,33.792652,P-GPS,,10.3
321,456500,2026-01-13 12:28:55,0.0,5,7.485,0.0,0.0,0.0,8.3,4.4,-5.5,1024,1024,1024,1024,0,0,0,0,69,4.972,75.92,33.792652,P-GPS,,10.3
322,456600,2026-01-13 12:28:55,0.0,5,7.485,0.0,0.0,0.0,8.4,4.1,-5.5,1024,1024,1024,1024,0,0,0,0,69,4.972,75.92,33.792652,P-GPS,,10.3
323,456700,2026-01-13 12:28:55,0.0,5,7.485,0.0,0.0,0.0,8.4,3.4,-4.9,1024,1024,1024,1024,0,0,0,0,69,4.972,75.92,33.792652,P-GPS,,10.3
324,456800,2026-01-13 12:28:55,0.0,5,7.485,0.0,0.0,0.0,8.2,3.3,-5.5,1024,1024,1024,1024,0,0,0,0,69,4.972,75.92,33.792652,P-GPS,,10.3
325,456900,2026-01-13 12:28:55,0.0,5,7.485,0.0,0.0,0.0,8.4,2.5,-4.9,1024,1024,1024,1024,0,0,0,0,69,4.972,75.92,33.792652,P-GPS,,10.3
326,457000,2026-01-13 12:28:56,0.0,5,7.485,0.0,0.0,0.0,8.4,2.4,-5.6,1024,1024,1024,1024,0,0,0,0,69,4.972,75.92,33.792652,P-GPS,,10.3
327,457100,2026-01-13 12:28:56,0.0,5,7.485,0.0,0.0,0.0,8.5,2.3,-5.9,1024,1024,1024,1024,0,0,0,0,69,4.972,75.92,33.792652,P-GPS,,10.3
328,457200,2026-01-13 12:28:56,0.0,5,7.489,0.0,0.0,0.0,8.6,2.5,-5.8,1024,1024,1024,1024,0,0,0,0,69,5.173,76.1,33.792652,P-GPS,,10.3
329,457300,2026-01-13 12:28:56,0.0,5,7.489,0.0,0.0,0.0,8.5,3.2,-5.3,1024,1024,1024,1024,0,0,0,0,69,5.173,76.1,33.464568,P-GPS,,10.2
330,457400,2026-01-13 12:28:56,0.0,5,7.489,0.0,0.0,0.0,8.2,4.1,-5.4,1024,1024,1024,1024,0,0,0,0,69,5.173,76.1,33.464568,P-GPS,,10.2
331,457500,2026-01-13 12:28:56,0.0,5,7.489,0.0,0.0,0.0,8.3,3.7,-5.2,1024,1024,1024,1024,0,0,0,0,69,5.173,76.1,33.464568,P-GPS,,10.2
332,457600,2026-01-13 12:28:56,0.0,5,7.489,0.0,0.0,0.0,8.2,3.1,-4.6,1024,1024,1024,1024,0,0,0,0,69,5.173,76.1,33.464568,P-GPS,,10.2
333,457700,2026-01-13 12:28:56,0.0,5,7.489,0.0,0.0,0.0,8.5,3.2,-4.2,1024,1024,1024,1024,0,0,0,0,69,5.173,76.1,33.464568,P-GPS,,10.2
334,457800,2026-01-13 12:28:56,0.0,5,7.489,0.0,0.0,0.0,8.7,2.7,-3.8,1024,1024,1024,1024,0,0,0,0,69,5.173,76.1,33.464568,P-GPS,,10.2
335,457900,2026-01-13 12:28:56,0.0,5,7.489,0.0,0.0,0.0,8.5,3.6,-3.7,1024,1024,1024,1024,0,0,0,0,69,5.173,76.1,33.464568,P-GPS,,10.2
336,458000,2026-01-13 12:28:57,0.0,5,7.489,0.0,0.0,0.0,8.5,3.8,-3.7,1024,1024,1024,1024,0,0,0,0,69,5.173,76.1,33.464568,P-GPS,,10.2
