index,time(millisecond),timestamp,speed(mph),gpslevel,voltage(v),xSpeed(mph),ySpeed(mph),zSpeed(mph),compass_heading(degrees),pitch(degrees),roll(degrees),rc_elevator,rc_aileron,rc_throttle,rc_rudder,rc_elevator(percent),rc_aileron(percent),rc_throttle(percent),rc_rudder(percent),battery_percent,current(A),battery_temperature(f),ascent(feet),flycState,message,height_above_takeoff(meters)
432,454300,2026-01-11 17:25:34,0.0,5,7.211,0.0,0.0,0.0,36.5,16.4,-7.6,1024,1024,1024,1024,0,0,0,0,69,8.351,63.14,99.409452,P-GPS,,30.3
433,454400,2026-01-11 17:25:34,0.0,5,7.211,0.0,0.0,0.0,36.6,16.2,-7.3,1024,1024,1024,1024,0,0,0,0,69,8.351,63.14,99.409452,P-GPS,,30.3
434,454500,2026-01-11 17:25:34,0.0,5,7.211,0.0,0.0,0.0,36.7,16.3,-6.8,1024,1024,1024,1024,0,0,0,0,69,8.351,63.14,99.409452,P-GPS,,30.3
435,454600,2026-01-11 17:25:34,0.0,5,7.337,0.0,0.0,0.0,36.6,16.3,-6.8,1024,1024,1024,1024,0,0,0,0,69,5.683,63.32,99.081368,P-GPS,,30.2
436,454700,2026-01-11 17:25:34,0.0,5,7.337,0.0,0.0,0.0,36.6,16.2,-6.4,1024,1024,1024,1024,0,0,0,0,69,5.683,63.32,99.081368,P-GPS,,30.2
437,454800,2026-01-11 17:25:35,0.223694,5,7.337,0.0,-0.223694,0.0,36.8,15.7,-6.4,1024,1024,1024,1024,0,0,0,0,69,5.683,63.32,98.753284,P-GPS,,30.1
438,454900,2026-01-11 17:25:35,0.223694,5,7.337,0.0,-0.223694,0.0,36.9,15.4,-6.2,1024,1024,1024,1024,0,0,0,0,69,5.683,63.32,98.753284,P-GPS,,30.1
439,455000,2026-01-11 17:25:35,0.223694,5,7.337,0.0,-0.223694,0.0,36.9,14.7,-6.3,1024,1024,1024,1024,0,0,0,0,69,5.683,63.32,98.753284,P-GPS,,30.1
440,455100,2026-01-11 17:25:35,0.223694,5,7.337,0.0,-0.223694,0.0,36.8,15.0,-6.3,1024,1024,1024,1024,0,0,0,0,69,5.683,63.32,98.4252,P-GPS,,30.0
441,455200,2026-01-11 17:25:35,0.0,5,7.337,0.0,0.0,0.0,36.8,15.1,-6.6,1024,1024,1024,1024,0,0,0,0,69,5.683,63.32,98.4252,P-GPS,,30.0
442,455300,2026-01-11 17:25:35,0.0,5,7.337,0.0,0.0,0.0,36.9,15.0,-7.2,1024,1024,1024,1024,0,0,0,0,69,5.683,63.32,98.4252,P-GPS,,30.0
443,455400,2026-01-11 17:25:35,0.0,5,7.337,0.0,0.0,0.0,36.8,15.2,-7.7,1024,1024,1024,1024,0,0,0,0,69,5.683,63.32,98.4252,P-GPS,,30.0
444,455500,2026-01-11 17:25:35,0.0,5,7.337,0.0,0.0,0.0,36.9,15.4,-7.9,1024,1024,1024,1024,0,0,0,0,69,5.683,63.32,98.4252,P-GPS,,30.0
445,455600,2026-01-11 17:25:35,0.0,5,7.337,0.0,0.0,0.0,36.9,15.3,-8.3,1024,1024,1024,1024,0,0,0,0,69,5.683,63.32,98.4252,P-GPS,,30.0
446,455700,2026-01-11 17:25:35,0.0,5,7.337,0.0,0.0,0.0,36.9,15.3,-7.8,1024,1024,1024,1024,0,0,0,0,69,5.683,63.32,98.4252,P-GPS,,30.0
447,455800,2026-01-11 17:25:35,0.0,5,7.337,0.0,0.0,0.0,36.9,15.1,-8.0,1024,1024,1024,1024,0,0,0,0,69,5.683,63.32,98.4252,P-GPS,,30.0
448,455900,2026-01-11 17:25:36,0.0,5,7.337,0.0,0.0,0.0,36.9,15.3,-8.3,1024,1024,1024,1024,0,0,0,0,69,5.683,63.32,98.753284,P-GPS,,30.1
449,456000,2026-01-11 17:25:36,0.0,5,7.337,0.0,0.0,0.0,36.7,15.2,-7.1,1024,1024,1024,1024,0,0,0,0,69,5.683,63.32,98.753284,P-GPS,,30.1
450,456100,2026-01-11 17:25:36,0.223694,5,7.337,-0.223694,0.0,-0.223694,36.7,14.2,-8.1,1024,1024,1024,1024,0,0,0,0,69,5.683,63.32,98.753284,P-GPS,,30.1
451,456200,2026-01-11 17:25:36,0.223694,5,7.337,-0.223694,0.0,0.0,36.8,12.7,-8.9,1024,1024,1024,1024,0,0,0,0,69,5.683,63.32,98.753284,P-GPS,,30.1
452,456300,2026-01-11 17:25:36,0.223694,5,7.337,-0.223694,-0.223694,0.0,36.9,11.7,-8.6,1024,1024,1024,1024,0,0,0,0,69,5.683,63.32,98.753284,P-GPS,,30.1
453,456400,2026-01-11 17:25:36,0.3131716,5,7.337,-0.223694,-0.223694,0.0,36.8,11.1,-8.9,1024,1024,1024,1024,0,0,0,0,69,5.683,63.32,98.753284,P-GPS,,30.1
454,456500,2026-01-11 17:25:36,0.223694,5,7.337,0.0,-0.223694,0.0,37.1,10.7,-7.7,1024,1024,1024,1024,0,0,0,0,69,5.683,63.32,98.753284,P-GPS,,30.1
455,456600,2026-01-11 17:25:36,0.223694,5,7.337,0.0,-0.223694,0.0,37.0,11.4,-7.0,1024,1024,1024,1024,0,0,0,0,69,5.683,63.32,98.753284,P-GPS,,30.1
456,456700,2026-01-11 17:25:36,0.223694,5,7.337,0.0,-0.223694,0.0,37.3,10.6,-7.3,1024,1024,1024,1024,0,0,0,0,69,5.683,63.32,98.753284,P-GPS,,30.1
457,456800,2026-01-11 17:25:37,0.0,5,7.338,0.0,0.0,0.0,37.2,11.5,-8.6,1024,1024,1024,1024,0,0,0,0,69,6.213,63.32,98.4252,P-GPS,,30.0
458,456900,2026-01-11 17:25:37,0.0,5,7.338,0.0,0.0,0.0,37.0,12.7,-8.8,1024,1024,1024,1024,0,0,0,0,69,6.213,63.32,98.4252,P-GPS,,30.0
459,457000,2026-01-11 17:25:37,0.0,5,7.338,0.0,0.0,0.223694,37.2,12.2,-8.4,1024,1024,1024,1024,0,0,0,0,69,6.213,63.32,98.4252,P-GPS,,30.0
460,457100,2026-01-11 17:25:37,0.0,5,7.338,0.0,0.0,0.223694,37.1,11.5,-8.5,1024,1024,1024,1024,0,0,0,0,69,6.213,63.32,98.097116,P-GPS,,29.9
461,457200,2026-01-11 17:25:37,0.0,5,7.338,0.0,0.0,0.0,37.0,11.7,-8.3,1024,1024,1024,1024,0,0,0,0,69,6.213,63.32,98.097116,P-GPS,,29.9
462,457300,2026-01-11 17:25:37,0.0,5,7.338,0.0,0.0,0.0,36.9,11.8,-8.1,1024,1024,1024,1024,0,0,0,0,69,6.213,63.32,98.097116,P-GPS,,29.9
463,457400,2026-01-11 17:25:37,0.0,5,7.338,0.0,0.0,0.0,36.9,12.1,-7.7,1024,1024,1024,1024,0,0,0,0,69,6.213,63.32,97.769032,P-GPS,,29.8
464,457500,2026-01-11 17:25:37,0.223694,5,7.338,0.0,-0.223694,0.0,37.0,11.3,-7.7,1024,1024,1024,1024,0,0,0,0,69,6.213,63.32,97.769032,P-GPS,,29.8
465,457600,2026-01-11 17:25:37,0.223694,5,7.338,0.0,-0.223694,0.0,37.1,10.3,-7.6,1024,1024,1024,1024,0,0,0,0,69,6.213,63.32,97.769032,P-GPS,,29.8
466,457700,2026-01-11 17:25:38,0.223694,5,7.338,0.0,-0.223694,0.0,37.1,10.3,-7.6,1024,1024,1024,1024,0,0,0,0,69,6.213,63.32,97.440948,P-GPS,,29.7
467,457800,2026-01-11 17:25:38,0.223694,5,7.338,0.0,-0.223694,0.0,37.2,9.5,-7.1,1024,1024,1024,1024,0,0,0,0,69,6.213,63.32,97.440948,P-GPS,,29.7
468,457900,2026-01-11 17:25:38,0.223694,5,7.416,0.0,-0.223694,0.0,37.3,9.4,-6.9,1024,1024,1024,1024,0,0,0,0,69,5.411,63.32,97.440948,P-GPS,,29.7
469,458000,2026-01-11 17:25:38,0.223694,5,7.416,0.0,-0.223694,0.0,37.3,9.5,-7.2,1024,1024,1024,1024,0,0,0,0,69,5.411,63.32,97.440948,P-GPS,,29.7
470,458100,2026-01-11 17:25:38,0.0,5,7.416,0.0,0.0,0.0,37.1,11.7,-7.1,1024,1024,1024,1024,0,0,0,0,69,5.411,63.32,97.112864,P-GPS,,29.6
471,458200,2026-01-11 17:25:38,0.0,5,7.416,0.0,0.0,0.223694,37.2,10.8,-6.4,1024,1024,1024,1024,0,0,0,0,69,5.411,63.32,97.112864,P-GPS,,29.6
472,458300,2026-01-11 17:25:38,0.223694,5,7.416,0.0,-0.223694,0.0,36.9,10.4,-6.2,1024,1024,1024,1024,0,0,0,0,69,5.411,63.32,97.440948,P-GPS,,29.7
473,458400,2026-01-11 17:25:38,0.223694,5,7.416,0.0,-0.223694,0.0,37.0,9.1,-5.9,1024,1024,1024,1024,0,0,0,0,69,5.411,63.32,97.769032,P-GPS,Strong wind warning Strong wind warning. Aircraft unable to return to home automatically. Lower altitude immediately and return to home manually (Code: 30149). SD card speed low. Normal use may be affected. Replace SD card (Code: 10028). Gimbal stuck. Make sure gimbal c,29.8
474,458500,2026-01-11 17:25:38,0.3131716,5,7.416,-0.223694,-0.223694,-0.223694,37.2,6.9,-6.0,1024,1024,1024,1024,0,0,0,0,69,5.411,63.32,97.769032,P-GPS,,29.8
475,458600,2026-01-11 17:25:38,0.3131716,5,7.416,-0.223694,-0.223694,-0.223694,37.2,6.0,-7.2,1024,1024,1024,1024,0,0,0,0,69,5.411,63.32,97.769032,P-GPS,,29.8
476,458700,2026-01-11 17:25:38,0.3131716,5,7.416,-0.223694,-0.223694,-0.223694,37.2,6.4,-7.7,1024,1024,1024,1024,0,0,0,0,69,5.411,63.32,98.097116,P-GPS,,29.9
477,458800,2026-01-11 17:25:39,0.3131716,5,7.416,-0.223694,-0.223694,-0.223694,37.1,6.4,-8.4,1024,1024,1024,1024,0,0,0,0,69,5.411,63.32,98.097116,P-GPS,,29.9
478,458900,2026-01-11 17:25:39,0.223694,5,7.416,0.0,-0.223694,0.0,37.3,6.1,-8.3,1024,1024,1024,1024,0,0,0,0,69,5.411,63.32,98.097116,P-GPS,,29.9
479,459000,2026-01-11 17:25:39,0.223694,5,7.459,0.0,-0.223694,0.0,37.5,5.5,-7.6,1024,1024,1024,1024,0,0,0,0,69,4.512,63.32,98.097116,P-GPS,,29.9
480,459100,2026-01-11 17:25:39,0.223694,5,7.459,0.0,-0.223694,0.0,37.5,6.1,-7.3,1024,1024,1024,1024,0,0,0,0,69,4.512,63.32,98.097116,P-GPS,,29.9
481,459200,2026-01-11 17:25:39,0.223694,5,7.459,0.0,-0.223694,0.223694,37.4,6.8,-6.6,1024,1024,1024,1024,0,0,0,0,69,4.512,63.32,98.097116,P-GPS,,29.9
482,459300,2026-01-11 17:25:39,0.0,5,7.459,0.0,0.0,0.223694,37.5,6.3,-6.0,1024,1024,1024,1024,0,0,0,0,69,4.512,63.32,98.097116,P-GPS,,29.9
483,459400,2026-01-11 17:25:39,0.0,5,7.459,0.0,0.0,0.0,37.5,4.5,-6.5,1024,1024,1024,1024,0,0,0,0,69,4.512,63.32,98.097116,P-GPS,,29.9
484,459500,2026-01-11 17:25:39,0.0,5,7.459,0.0,0.0,0.0,37.4,6.3,-7.1,1024,1024,1024,1024,0,0,0,0,69,4.512,63.32,98.097116,P-GPS,,29.9
485,459600,2026-01-11 17:25:39,0.0,5,7.459,0.0,0.0,0.0,37.4,8.2,-6.6,1024,1024,1024,1024,0,0,0,0,69,4.512,63.32,98.4252,P-GPS,,30.0
486,459700,2026-01-11 17:25:39,0.0,5,7.459,0.0,0.0,0.0,37.3,8.2,-6.7,1024,1024,1024,1024,0,0,0,0,69,4.512,63.32,98.4252,P-GPS,,30.0
487,459800,2026-01-11 17:25:40,0.0,5,7.459,0.0,0.0,0.0,37.6,7.2,-7.1,1024,1024,1024,1024,0,0,0,0,69,4.512,63.32,98.4252,P-GPS,,30.0
488,459900,2026-01-11 17:25:40,0.0,5,7.459,0.0,0.0,0.0,37.6,7.7,-7.0,1024,1024,1024,1024,0,0,0,0,69,4.512,63.32,98.4252,P-GPS,,30.0
489,460000,2026-01-11 17:25:40,0.0,5,7.459,0.0,0.0,0.0,37.5,8.7,-7.7,1024,1024,1024,1024,0,0,0,0,69,4.512,63.32,98.753284,P-GPS,,30.1
490,460100,2026-01-11 17:25:40,0.0,5,7.401,0.0,0.0,0.0,37.4,9.0,-7.4,1024,1024,1024,1024,0,0,0,0,69,5.133,63.5,98.753284,P-GPS,,30.1
491,460200,2026-01-11 17:25:40,0.0,5,7.401,0.0,0.0,0.0,37.4,8.4,-7.5,1024,1024,1024,1024,0,0,0,0,69,5.133,63.5,98.753284,P-GPS,,30.1
492,460300,2026-01-11 17:25:40,0.0,5,7.401,0.0,0.0,0.0,37.3,9.0,-8.0,1024,1024,1024,1024,0,0,0,0,69,5.133,63.5,99.081368,P-GPS,,30.2
493,460400,2026-01-11 17:25:40,0.0,5,7.401,0.0,0.0,0.0,37.1,9.6,-7.9,1024,1024,1024,1024,0,0,0,0,69,5.133,63.5,99.081368,P-GPS,,30.2
494,460500,2026-01-11 17:25:40,0.0,5,7.401,0.0,0.0,0.0,37.2,9.1,-8.1,1024,1024,1024,1024,0,0,0,0,69,5.133,63.5,99.081368,P-GPS,,30.2
495,460600,2026-01-11 17:25:40,0.0,5,7.401,0.0,0.0,0.0,37.1,8.8,-7.9,1024,1024,1024,1024,0,0,0,0,69,5.133,63.5,99.081368,P-GPS,,30.2
496,460700,2026-01-11 17:25:40,0.0,5,7.401,0.0,0.0,0.0,37.2,8.0,-7.4,1024,1024,1024,1024,0,0,0,0,69,5.133,63.5,99.081368,P-GPS,,30.2
497,460800,2026-01-11 17:25:41,0.0,5,7.401,0.0,0.0,0.0,37.3,7.5,-7.3,1024,1024,1024,1024,0,0,0,0,69,5.133,63.5,99.081368,P-GPS,,30.2
498,460900,2026-01-11 17:25:41,0.0,5,7.401,0.0,0.0,0.0,37.3,7.7,-7.2,1024,1024,1024,1024,0,0,0,0,69,5.133,63.5,99.081368,P-GPS,,30.2
499,461000,2026-01-11 17:25:41,0.0,5,7.401,0.0,0.0,0.0,37.4,7.7,-6.8,1024,1024,1024,1024,0,0,0,0,69,5.133,63.5,99.081368,P-GPS,,30.2
500,461100,2026-01-11 17:25:41,0.0,5,7.401,0.0,0.0,0.0,37.5,7.7,-6.8,1024,1024,1024,1024,0,0,0,0,69,5.133,63.5,99.081368,P-GPS,,30.2
501,461200,2026-01-11 17:25:41,0.0,5,7.42,0.0,0.0,0.223694,37.5,8.0,-6.5,1024,1024,1024,1024,0,0,0,0,68,4.795,63.5,99.081368,P-GPS,,30.2
502,461300,2026-01-11 17:25:41,0.0,5,7.42,0.0,0.0,0.0,37.5,7.9,-6.6,1024,1024,1024,1024,0,0,0,0,68,4.795,63.5,99.081368,P-GPS,,30.2
503,461400,2026-01-11 17:25:41,0.0,5,7.42,0.0,0.0,0.0,37.5,8.0,-6.7,1024,1024,1024,1024,0,0,0,0,68,4.795,63.5,99.081368,P-GPS,,30.2
504,461500,2026-01-11 17:25:41,0.0,5,7.42,0.0,0.0,0.0,37.6,7.8,-6.6,1024,1024,1024,1024,0,0,0,0,68,4.795,63.5,99.081368,P-GPS,,30.2
505,461600,2026-01-11 17:25:41,0.0,5,7.42,0.0,0.0,0.0,37.6,7.3,-6.4,1024,1024,1024,1024,0,0,0,0,68,4.795,63.5,99.081368,P-GPS,,30.2
506,461700,2026-01-11 17:25:41,0.0,5,7.42,0.0,0.0,0.0,37.5,8.0,-6.0,1024,1024,1024,1024,0,0,0,0,68,4.795,63.5,99.081368,P-GPS,,30.2
507,461800,2026-01-11 17:25:42,0.0,5,7.42,0.0,0.0,0.0,37.5,7.9,-6.1,1024,1024,1024,1024,0,0,0,0,68,4.795,63.5,99.081368,P-GPS,,30.2
508,461900,2026-01-11 17:25:42,0.0,5,7.42,0.0,0.0,0.0,37.4,8.5,-6.2,1024,1024,1024,1024,0,0,0,0,68,4.795,63.5,98.753284,P-GPS,,30.1
509,462000,2026-01-11 17:25:42,0.0,5,7.42,0.0,0.0,0.0,37.6,7.9,-5.9,1024,1024,1024,1024,0,0,0,0,68,4.795,63.5,98.753284,P-GPS,,30.1
510,462100,2026-01-11 17:25:42,0.0,5,7.42,0.0,0.0,0.0,37.7,7.4,-5.7,1024,1024,1024,1024,0,0,0,0,68,4.795,63.5,98.753284,P-GPS,,30.1
511,462200,2026-01-11 17:25:42,0.0,5,7.42,0.0,0.0,0.0,37.7,7.0,-5.3,1024,1024,1024,1024,0,0,0,0,68,4.795,63.5,98.753284,P-GPS,,30.1
512,462300,2026-01-11 17:25:42,0.0,5,7.431,0.0,0.0,0.0,37.5,8.1,-5.2,1024,1024,1024,1024,0,0,0,0,68,4.605,63.5,98.4252,P-GPS,,30.0
513,462400,2026-01-11 17:25:42,0.0,5,7.431,0.0,0.0,0.0,37.4,9.0,-5.4,1024,1024,1024,1024,0,0,0,0,68,4.605,63.5,98.4252,P-GPS,,30.0
514,462500,2026-01-11 17:25:42,0.0,5,7.431,0.0,0.0,0.0,37.5,8.9,-5.2,1024,1024,1024,1024,0,0,0,0,68,4.605,63.5,98.097116,P-GPS,,29.9
515,462600,2026-01-11 17:25:42,0.0,5,7.431,0.0,0.0,0.0,37.3,9.7,-4.2,1024,1024,1024,1024,0,0,0,0,68,4.605,63.5,98.097116,P-GPS,,29.9
516,462700,2026-01-11 17:25:42,0.0,5,7.431,0.0,0.0,0.0,37.3,7.8,-4.1,1024,1024,1024,1024,0,0,0,0,68,4.605,63.5,98.097116,P-GPS,,29.9
517,462800,2026-01-11 17:25:43,0.0,5,7.431,0.0,0.0,0.0,37.5,7.5,-4.4,1024,1024,1024,1024,0,0,0,0,68,4.605,63.5,98.097116,P-GPS,,29.9
518,462900,2026-01-11 17:25:43,0.0,5,7.431,0.0,0.0,0.0,37.5,7.5,-4.4,1024,1024,1024,1024,0,0,0,0,68,4.605,63.5,98.097116,P-GPS,,29.9
519,463000,2026-01-11 17:25:43,0.0,5,7.431,0.0,0.0,0.0,37.6,6.9,-4.6,1024,1024,1024,1024,0,0,0,0,68,4.605,63.5,98.097116,P-GPS,,29.9
520,463100,2026-01-11 17:25:43,0.0,5,7.431,0.0,0.0,-0.223694,37.5,6.7,-4.8,1024,1024,1024,1024,0,0,0,0,68,4.605,63.5,98.097116,P-GPS,,29.9
521,463200,2026-01-11 17:25:43,0.0,5,7.431,0.0,0.0,-0.223694,37.5,5.8,-5.2,1024,1024,1024,1024,0,0,0,0,68,4.605,63.5,97.769032,P-GPS,,29.8
522,463300,2026-01-11 17:25:43,0.0,5,7.431,0.0,0.0,0.0,37.5,6.0,-5.0,1024,1024,1024,1024,0,0,0,0,68,4.605,63.5,97.769032,P-GPS,,29.8
523,463400,2026-01-11 17:25:43,0.0,5,7.468,0.0,0.0,0.0,37.4,6.9,-4.6,1024,1024,1024,1024,0,0,0,0,68,3.975,63.5,97.769032,P-GPS,SD card speed low SD card speed low. Normal use may be affected. Replace SD card (Code: 10028). Gimbal stuck. Make sure gimbal cover is removed and manually check whether gimbal can rotate freely (Code: 40002),29.8
524,463500,2026-01-11 17:25:43,0.0,5,7.468,0.0,0.0,0.0,37.5,6.6,-4.1,1024,1024,1024,1024,0,0,0,0,68,3.975,63.5,97.769032,P-GPS,,29.8
525,463600,2026-01-11 17:25:43,0.0,5,7.468,0.0,0.0,0.0,37.5,6.2,-4.2,1024,1024,1024,1024,0,0,0,0,68,3.975,63.5,97.769032,P-GPS,,29.8
526,463700,2026-01-11 17:25:43,0.0,5,7.468,0.0,0.0,0.0,37.6,6.5,-4.5,1024,1024,1024,1024,0,0,0,0,68,3.975,63.5,97.769032,P-GPS,,29.8
527,463800,2026-01-11 17:25:44,0.0,5,7.468,0.0,0.0,0.0,37.7,6.7,-4.8,1024,1024,1024,1024,0,0,0,0,68,3.975,63.5,97.769032,P-GPS,,29.8
528,463900,2026-01-11 17:25:44,0.0,5,7.468,0.0,0.0,0.0,37.8,6.9,-4.9,1024,1024,1024,1024,0,0,0,0,68,3.975,63.5,97.769032,P-GPS,,29.8
529,464000,2026-01-11 17:25:44,0.0,5,7.468,0.0,0.0,0.0,37.7,7.4,-5.1,1024,1024,1024,1024,0,0,0,0,68,3.975,63.5,97.769032,P-GPS,,29.8
530,464100,2026-01-11 17:25:44,0.0,5,7.468,0.0,0.0,0.0,37.7,7.5,-5.1,1024,1024,1024,1024,0,0,0,0,68,3.975,63.5,97.769032,P-GPS,,29.8
531,464200,2026-01-11 17:25:44,0.0,5,7.468,0.0,0.0,0.0,37.7,7.7,-5.2,1024,1024,1024,1024,0,0,0,0,68,3.975,63.5,97.769032,P-GPS,,29.8
532,464300,2026-01-11 17:25:44,0.0,5,7.468,0.0,0.0,0.0,37.7,8.6,-5.5,1024,1024,1024,1024,0,0,0,0,68,3.975,63.5,98.097116,P-GPS,,29.9
533,464400,2026-01-11 17:25:44,0.0,5,7.468,0.0,0.0,0.0,37.7,8.7,-5.4,1024,1024,1024,1024,0,0,0,0,68,3.975,63.5,98.097116,P-GPS,,29.9
534,464500,2026-01-11 17:25:44,0.0,5,7.455,0.0,0.0,0.0,37.7,8.6,-5.6,1024,1024,1024,1024,0,0,0,0,68,3.827,63.5,98.097116,P-GPS,,29.9
535,464600,2026-01-11 17:25:44,0.0,5,7.455,0.0,0.0,0.0,37.6,9.9,-5.8,1024,1024,1024,1024,0,0,0,0,68,3.827,63.5,98.097116,P-GPS,,29.9
536,464700,2026-01-11 17:25:44,0.0,5,7.455,0.0,0.0,0.0,37.6,10.3,-5.9,1024,1024,1024,1024,0,0,0,0,68,3.827,63.5,98.097116,P-GPS,,29.9
537,464800,2026-01-11 17:25:45,0.0,5,7.455,0.0,0.0,0.223694,37.7,9.9,-5.8,1024,1024,1024,1024,0,0,0,0,68,3.827,63.5,98.4252,P-GPS,,30.0
538,464900,2026-01-11 17:25:45,0.0,5,7.455,0.0,0.0,0.0,37.5,9.7,-6.1,1024,1024,1024,1024,0,0,0,0,68,3.827,63.5,98.4252,P-GPS,,30.0
539,465000,2026-01-11 17:25:45,0.0,5,7.455,0.0,0.0,0.0,37.6,9.3,-5.5,1024,1024,1024,1024,0,0,0,0,68,3.827,63.5,98.4252,P-GPS,,30.0
540,465100,2026-01-11 17:25:45,0.0,5,7.455,0.0,0.0,0.0,37.5,9.7,-5.7,1024,1024,1024,1024,0,0,0,0,68,3.827,63.5,98.4252,P-GPS,,30.0
541,465200,2026-01-11 17:25:45,0.0,5,7.455,0.0,0.0,0.0,37.4,10.8,-6.4,1024,1024,1024,1024,0,0,0,0,68,3.827,63.5,98.753284,P-GPS,,30.1
542,465300,2026-01-11 17:25:45,0.0,5,7.455,0.0,0.0,0.223694,37.5,9.9,-7.0,1024,1024,1024,1024,0,0,0,0,68,3.827,63.5,99.081368,P-GPS,,30.2
543,465400,2026-01-11 17:25:45,0.0,5,7.455,0.0,0.0,0.0,37.5,10.0,-6.9,1024,1024,1024,1024,0,0,0,0,68,3.827,63.5,99.081368,P-GPS,,30.2
544,465500,2026-01-11 17:25:45,0.0,5,7.455,0.0,0.0,0.0,37.5,9.7,-6.8,1024,1024,1024,1024,0,0,0,0,68,3.827,63.5,99.081368,P-GPS,,30.2
545,465600,2026-01-11 17:25:45,0.0,5,7.375,0.0,0.0,0.0,37.6,9.5,-6.7,1024,1024,1024,1024,0,0,0,0,68,4.917,63.5,99.409452,P-GPS,,30.3
546,465700,2026-01-11 17:25:45,0.0,5,7.375,0.0,0.0,0.0,37.6,9.4,-6.3,1024,1024,1024,1024,0,0,0,0,68,4.917,63.5,99.409452,P-GPS,,30.3
547,465800,2026-01-11 17:25:46,0.0,5,7.375,0.0,0.0,0.0,37.5,9.6,-6.4,1024,1024,1024,1024,0,0,0,0,68,4.917,63.5,99.409452,P-GPS,,30.3
548,465900,2026-01-11 17:25:46,0.0,5,7.375,0.0,0.0,0.0,37.5,9.5,-6.4,1024,1024,1024,1024,0,0,0,0,68,4.917,63.5,99.737536,P-GPS,,30.4
549,466000,2026-01-11 17:25:46,0.0,5,7.375,0.0,0.0,0.0,37.5,9.3,-6.3,1024,1024,1024,1024,0,0,0,0,68,4.917,63.5,99.737536,P-GPS,,30.4
550,466100,2026-01-11 17:25:46,0.0,5,7.375,0.0,0.0,0.223694,37.5,9.2,-6.3,1024,1024,1024,1024,0,0,0,0,68,4.917,63.5,99.737536,P-GPS,,30.4
551,466200,2026-01-11 17:25:46,0.0,5,7.375,0.0,0.0,0.223694,37.6,9.1,-6.1,1024,1024,1024,1024,0,0,0,0,68,4.917,63.5,99.737536,P-GPS,,30.4
552,466300,2026-01-11 17:25:46,0.0,5,7.375,0.0,0.0,0.0,37.5,9.0,-6.4,1024,1024,1024,1024,0,0,0,0,68,4.917,63.5,99.737536,P-GPS,,30.4
553,466400,2026-01-11 17:25:46,0.0,5,7.375,0.0,0.0,0.0,37.5,9.2,-6.5,1024,1024,1024,1024,0,0,0,0,68,4.917,63.5,99.737536,P-GPS,,30.4
554,466500,2026-01-11 17:25:46,0.0,5,7.375,0.0,0.0,0.0,37.5,9.5,-6.3,1024,1024,1024,1024,0,0,0,0,68,4.917,63.5,99.737536,P-GPS,,30.4
555,466600,2026-01-11 17:25:46,0.0,5,7.375,0.0,0.0,0.0,37.4,9.4,-6.1,1024,1024,1024,1024,0,0,0,0,68,4.917,63.5,99.737536,P-GPS,,30.4
556,466700,2026-01-11 17:25:47,0.0,5,7.375,0.0,0.0,0.223694,37.6,9.0,-6.4,1024,1024,1024,1024,0,0,0,0,68,4.917,63.5,99.737536,P-GPS,,30.4
557,466800,2026-01-11 17:25:47,0.0,5,7.375,0.0,0.0,0.223694,37.6,8.3,-6.0,1024,1024,1024,1024,0,0,0,0,68,4.917,63.5,99.737536,P-GPS,,30.4
558,466900,2026-01-11 17:25:47,0.0,5,7.375,0.0,0.0,0.0,37.6,8.4,-6.0,1024,1024,1024,1024,0,0,0,0,68,4.917,63.5,99.737536,P-GPS,,30.4
559,467000,2026-01-11 17:25:47,0.0,5,7.375,0.0,0.0,0.0,37.5,10.0,-6.4,1024,1024,1024,1024,0,0,0,0,68,4.917,63.5,99.737536,P-GPS,,30.4
560,467100,2026-01-11 17:25:47,0.0,5,7.375,0.0,0.0,0.223694,37.3,11.3,-6.0,1024,1024,1024,1024,0,0,0,0,68,4.917,63.5,99.737536,P-GPS,,30.4
561,467200,2026-01-11 17:25:47,0.0,5,7.375,0.0,0.0,0.223694,37.6,10.5,-7.3,1024,1024,1024,1024,0,0,0,0,68,4.917,63.5,99.737536,P-GPS,,30.4
562,467300,2026-01-11 17:25:47,0.0,5,7.375,0.0,0.0,0.223694,37.8,10.2,-6.3,1024,1024,1024,1024,0,0,0,0,68,4.917,63.5,99.737536,P-GPS,,30.4
563,467400,2026-01-11 17:25:47,0.223694,5,7.375,0.223694,0.0,0.223694,37.7,10.3,-5.5,1024,1024,1024,1024,0,0,0,0,68,4.917,63.5,99.737536,P-GPS,,30.4
564,467500,2026-01-11 17:25:47,0.223694,5,7.375,0.223694,0.0,0.0,37.5,11.4,-4.5,1024,1024,1024,1024,0,0,0,0,68,4.917,63.5,99.409452,P-GPS,,30.3
565,467600,2026-01-11 17:25:47,0.223694,5,7.375,0.223694,0.0,0.0,37.4,12.2,-4.0,1024,1024,1024,1024,0,0,0,0,68,4.917,63.5,99.409452,P-GPS,,30.3
566,467700,2026-01-11 17:25:47,0.223694,5,7.375,0.223694,0.0,0.0,37.4,13.1,-2.9,1024,1024,1024,1024,0,0,0,0,68,4.917,63.5,99.409452,P-GPS,,30.3
567,467800,2026-01-11 17:25:48,0.223694,5,7.418,0.223694,0.0,0.0,37.6,13.0,-2.3,1024,1024,1024,1024,0,0,0,0,68,4.934,63.5,99.409452,P-GPS,,30.3
568,467900,2026-01-11 17:25:48,0.223694,5,7.418,0.223694,0.0,0.0,37.7,12.7,-2.5,1024,1024,1024,1024,0,0,0,0,68,4.934,63.5,99.409452,P-GPS,,30.3
569,468000,2026-01-11 17:25:48,0.223694,5,7.418,0.223694,0.0,0.0,37.6,12.6,-2.6,1024,1024,1024,1024,0,0,0,0,68,4.934,63.5,99.081368,P-GPS,,30.2
570,468100,2026-01-11 17:25:48,0.223694,5,7.418,0.223694,0.0,0.0,37.5,13.2,-2.1,1024,1024,1024,1024,0,0,0,0,68,4.934,63.5,99.081368,P-GPS,,30.2
571,468200,2026-01-11 17:25:48,0.223694,5,7.418,0.223694,0.0,0.0,37.6,13.4,-1.4,1024,1024,1024,1024,0,0,0,0,68,4.934,63.5,99.081368,P-GPS,,30.2
572,468300,2026-01-11 17:25:48,0.223694,5,7.418,0.0,0.0,0.0,37.6,13.5,-2.7,1024,1024,1024,1024,0,0,0,0,68,4.934,63.5,99.081368,P-GPS,,30.2
573,468400,2026-01-11 17:25:48,0.0,5,7.418,0.0,0.0,0.0,37.6,13.3,-3.6,1024,1024,1024,1024,0,0,0,0,68,4.934,63.5,99.081368,P-GPS,,30.2
574,468500,2026-01-11 17:25:48,0.0,5,7.418,0.0,0.0,0.0,37.5,12.3,-5.0,1024,1024,1024,1024,0,0,0,0,68,4.934,63.5,99.081368,P-GPS,,30.2
575,468600,2026-01-11 17:25:48,0.0,5,7.418,-0.223694,0.0,0.0,37.4,11.8,-5.4,1024,1024,1024,1024,0,0,0,0,68,4.934,63.5,99.081368,P-GPS,,30.2
576,468700,2026-01-11 17:25:49,0.223694,5,7.418,-0.223694,0.0,0.0,37.5,10.8,-6.1,1024,1024,1024,1024,0,0,0,0,68,4.934,63.5,99.409452,P-GPS,,30.3
577,468800,2026-01-11 17:25:49,0.223694,5,7.418,-0.223694,0.0,0.0,37.6,9.2,-6.1,1024,1024,1024,1024,0,0,0,0,68,4.934,63.5,99.409452,P-GPS,,30.3
578,468900,2026-01-11 17:25:49,0.223694,5,7.387,-0.223694,0.0,-0.223694,37.5,8.3,-5.8,1024,1024,1024,1024,0,0,0,0,68,5.097,63.68,99.409452,P-GPS,,30.3
579,469000,2026-01-11 17:25:49,0.0,5,7.387,0.0,0.0,-0.223694,37.4,9.4,-6.3,1024,1024,1024,1024,0,0,0,0,68,5.097,63.68,99.081368,P-GPS,,30.2
580,469100,2026-01-11 17:25:49,0.0,5,7.387,0.0,0.0,0.0,37.2,10.5,-5.7,1024,1024,1024,1024,0,0,0,0,68,5.097,63.68,99.081368,P-GPS,,30.2
581,469200,2026-01-11 17:25:49,0.0,5,7.387,0.0,0.0,0.0,37.4,10.2,-4.7,1024,1024,1024,1024,0,0,0,0,68,5.097,63.68,98.753284,P-GPS,,30.1
582,469300,2026-01-11 17:25:49,0.223694,5,7.387,0.223694,0.0,-0.223694,37.4,11.4,-3.9,1024,1024,1024,1024,0,0,0,0,68,5.097,63.68,98.753284,P-GPS,,30.1
583,469400,2026-01-11 17:25:49,0.223694,5,7.387,0.223694,0.0,0.0,37.3,13.3,-2.6,1024,1024,1024,1024,0,0,0,0,68,5.097,63.68,98.4252,P-GPS,,30.0
584,469500,2026-01-11 17:25:49,0.223694,5,7.387,0.223694,0.0,0.0,37.4,14.1,-2.4,1024,1024,1024,1024,0,0,0,0,68,5.097,63.68,98.4252,P-GPS,,30.0
585,469600,2026-01-11 17:25:49,0.223694,5,7.387,0.223694,0.0,0.447388,37.4,16.0,-3.5,1024,1024,1024,1024,0,0,0,0,68,5.097,63.68,98.4252,P-GPS,,30.0
586,469700,2026-01-11 17:25:49,0.223694,5,7.387,0.223694,0.0,0.671082,37.4,14.8,-3.3,1024,1024,1024,1024,0,0,0,0,68,5.097,63.68,98.4252,P-GPS,,30.0
587,469800,2026-01-11 17:25:50,0.223694,5,7.387,0.223694,0.0,0.223694,37.4,15.1,-3.9,1024,1024,1024,1024,0,0,0,0,68,5.097,63.68,98.4252,P-GPS,,30.0
588,469900,2026-01-11 17:25:50,0.0,5,7.387,0.0,0.0,0.0,37.4,13.4,-2.4,1024,1024,1024,1024,0,0,0,0,68,5.097,63.68,98.4252,P-GPS,,30.0
589,470000,2026-01-11 17:25:50,0.0,5,7.336,0.0,0.0,-0.223694,37.4,13.4,-3.0,1024,1024,1024,1024,0,0,0,0,68,4.302,63.68,98.4252,P-GPS,,30.0
590,470100,2026-01-11 17:25:50,0.0,5,7.336,0.0,0.0,0.0,37.3,14.0,-4.6,1024,1024,1024,1024,0,0,0,0,68,4.302,63.68,98.4252,P-GPS,,30.0
591,470200,2026-01-11 17:25:50,0.0,5,7.336,0.0,0.0,0.0,37.3,12.8,-4.0,1024,1024,1024,1024,0,0,0,0,68,4.302,63.68,98.4252,P-GPS,,30.0
592,470300,2026-01-11 17:25:50,0.223694,5,7.336,-0.223694,0.0,0.0,37.5,10.9,-4.2,1024,1024,1024,1024,0,0,0,0,68,4.302,63.68,98.4252,P-GPS,,30.0
593,470400,2026-01-11 17:25:50,0.223694,5,7.336,-0.223694,-0.223694,0.0,37.6,9.0,-4.3,1024,1024,1024,1024,0,0,0,0,68,4.302,63.68,98.4252,P-GPS,,30.0
594,470500,2026-01-11 17:25:50,0.3131716,5,7.336,-0.223694,-0.223694,0.0,37.7,8.9,-3.7,1024,1024,1024,1024,0,0,0,0,68,4.302,63.68,98.097116,P-GPS,,29.9
595,470600,2026-01-11 17:25:50,0.0,5,7.336,0.0,0.0,0.0,37.5,9.4,-3.3,1024,1024,1024,1024,0,0,0,0,68,4.302,63.68,98.4252,P-GPS,,30.0
596,470700,2026-01-11 17:25:51,0.0,5,7.336,0.0,0.0,0.0,37.6,8.7,-3.3,1024,1024,1024,1024,0,0,0,0,68,4.302,63.68,98.4252,P-GPS,,30.0
597,470800,2026-01-11 17:25:51,0.0,5,7.336,-0.223694,0.0,0.0,37.7,6.0,-3.1,1024,1024,1024,1024,0,0,0,0,68,4.302,63.68,98.4252,P-GPS,,30.0
598,470900,2026-01-11 17:25:51,0.223694,5,7.336,-0.223694,0.0,-0.223694,37.5,6.8,-3.8,1024,1024,1024,1024,0,0,0,0,68,4.302,63.68,98.4252,P-GPS,,30.0
599,471000,2026-01-11 17:25:51,0.223694,5,7.336,-0.223694,0.0,-0.223694,37.3,8.3,-4.6,1024,1024,1024,1024,0,0,0,0,68,4.302,63.68,98.4252,P-GPS,,30.0
600,471100,2026-01-11 17:25:51,0.223694,5,7.475,-0.223694,0.0,-0.223694,36.9,7.8,-5.3,1024,1024,1024,1024,0,0,0,0,68,4.382,63.68,98.753284,P-GPS,,30.1
601,471200,2026-01-11 17:25:51,0.447388,5,7.475,-0.447388,0.0,0.0,36.9,6.3,-5.8,1024,1024,1024,1024,0,0,0,0,68,4.382,63.68,98.753284,P-GPS,,30.1
602,471300,2026-01-11 17:25:51,0.223694,5,7.475,-0.223694,0.0,0.0,37.0,5.0,-5.6,1024,1024,1024,1024,0,0,0,0,68,4.382,63.68,98.4252,P-GPS,,30.0
603,471400,2026-01-11 17:25:51,0.223694,5,7.475,-0.223694,0.0,0.223694,37.1,4.0,-5.3,1024,1024,1024,1024,0,0,0,0,68,4.382,63.68,98.4252,P-GPS,,30.0
604,471500,2026-01-11 17:25:51,0.223694,5,7.475,-0.223694,0.0,0.0,37.3,3.5,-5.0,1024,1024,1024,1024,0,0,0,0,68,4.382,63.68,98.4252,P-GPS,,30.0
605,471600,2026-01-11 17:25:51,0.223694,5,7.475,-0.223694,0.0,0.0,37.3,3.2,-4.7,1024,1024,1024,1024,0,0,0,0,68,4.382,63.68,98.4252,P-GPS,,30.0
606,471700,2026-01-11 17:25:51,0.223694,5,7.475,-0.223694,0.0,0.0,37.4,2.2,-4.8,1024,1024,1024,1024,0,0,0,0,68,4.382,63.68,98.4252,P-GPS,,30.0
607,471800,2026-01-11 17:25:51,0.223694,5,7.475,0.0,0.0,0.0,37.5,2.4,-4.3,1024,1024,1024,1024,0,0,0,0,68,4.382,63.68,98.4252,P-GPS,,30.0
608,471900,2026-01-11 17:25:52,0.0,5,7.475,0.0,0.0,0.0,37.8,1.3,-5.1,1024,1024,1024,1024,0,0,0,0,68,4.382,63.68,98.4252,P-GPS,,30.0
609,472000,2026-01-11 17:25:52,0.0,5,7.475,0.0,0.0,0.0,38.1,1.7,-3.9,1024,1024,1024,1024,0,0,0,0,68,4.382,63.68,98.097116,P-GPS,,29.9
610,472100,2026-01-11 17:25:52,0.0,5,7.475,0.0,0.0,0.0,38.1,3.8,-2.7,1024,1024,1024,1024,0,0,0,0,68,4.382,63.68,98.097116,P-GPS,,29.9
611,472200,2026-01-11 17:25:52,0.0,5,7.462,0.0,0.0,0.0,38.1,4.3,-2.0,1024,1024,1024,1024,0,0,0,0,68,3.754,63.68,98.097116,P-GPS,,29.9
612,472300,2026-01-11 17:25:52,0.0,5,7.462,0.0,0.0,0.0,38.1,3.6,-2.2,1024,1024,1024,1024,0,0,0,0,68,3.754,63.68,98.097116,P-GPS,,29.9
613,472400,2026-01-11 17:25:52,0.0,5,7.462,0.0,0.0,0.0,37.9,4.6,-2.0,1024,1024,1024,1024,0,0,0,0,68,3.754,63.68,97.769032,P-GPS,,29.8
614,472500,2026-01-11 17:25:52,0.0,5,7.462,0.0,0.0,0.0,37.6,4.2,-2.4,1024,1024,1024,1024,0,0,0,0,68,3.754,63.68,97.769032,P-GPS,,29.8
615,472600,2026-01-11 17:25:52,0.223694,5,7.462,0.0,-0.223694,-0.223694,37.3,3.8,-2.8,1024,1024,1024,1024,0,0,0,0,68,3.754,63.68,98.097116,P-GPS,,29.9
616,472700,2026-01-11 17:25:52,0.0,5,7.462,0.0,0.0,0.0,37.2,3.6,-2.0,1024,1024,1024,1024,0,0,0,0,68,3.754,63.68,98.097116,P-GPS,,29.9
617,472800,2026-01-11 17:25:53,0.0,5,7.462,0.0,0.0,0.0,37.2,2.5,-1.3,1024,1024,1024,1024,0,0,0,0,68,3.754,63.68,98.097116,P-GPS,,29.9
618,472900,2026-01-11 17:25:53,0.0,5,7.462,0.0,0.0,0.0,37.3,1.5,-3.0,1024,1024,1024,1024,0,0,0,0,68,3.754,63.68,98.097116,P-GPS,,29.9
619,473000,2026-01-11 17:25:53,0.0,5,7.462,0.0,0.0,0.0,37.3,2.4,-2.9,1024,1024,1024,1024,0,0,0,0,68,3.754,63.68,98.4252,P-GPS,,30.0
620,473100,2026-01-11 17:25:53,0.0,5,7.462,0.0,0.0,0.0,37.3,2.3,-2.4,1024,1024,1024,1024,0,0,0,0,68,3.754,63.68,98.4252,P-GPS,,30.0
621,473200,2026-01-11 17:25:53,0.0,5,7.462,0.0,0.0,0.0,37.3,2.7,-2.6,1024,1024,1024,1024,0,0,0,0,68,3.754,63.68,98.753284,P-GPS,,30.1
622,473300,2026-01-11 17:25:53,0.0,5,7.504,0.0,0.0,0.223694,37.3,3.3,-2.8,1024,1024,1024,1024,0,0,0,0,68,3.273,63.68,98.753284,P-GPS,,30.1
623,473400,2026-01-11 17:25:53,0.0,5,7.504,0.0,0.0,0.0,37.3,3.5,-3.3,1024,1024,1024,1024,0,0,0,0,68,3.273,63.68,99.081368,P-GPS,,30.2
624,473500,2026-01-11 17:25:53,0.223694,5,7.504,0.0,0.223694,0.0,37.4,3.9,-3.7,1024,1024,1024,1024,0,0,0,0,68,3.273,63.68,99.081368,P-GPS,,30.2
625,473600,2026-01-11 17:25:53,0.223694,5,7.504,0.0,0.223694,0.0,37.5,4.5,-3.8,1024,1024,1024,1024,0,0,0,0,68,3.273,63.68,99.409452,P-GPS,,30.3
626,473700,2026-01-11 17:25:54,0.223694,5,7.504,0.0,0.223694,0.0,37.6,6.1,-4.0,1024,1024,1024,1024,0,0,0,0,68,3.273,63.68,99.737536,P-GPS,,30.4
627,473800,2026-01-11 17:25:54,0.223694,5,7.504,0.0,0.223694,0.0,37.8,5.7,-3.8,1024,1024,1024,1024,0,0,0,0,68,3.273,63.68,100.06562,P-GPS,,30.5
628,473900,2026-01-11 17:25:54,0.223694,5,7.504,0.0,0.223694,0.0,37.7,5.0,-4.3,1024,1024,1024,1024,0,0,0,0,68,3.273,63.68,100.06562,P-GPS,,30.5
629,474000,2026-01-11 17:25:54,0.223694,5,7.504,0.0,0.223694,0.0,37.5,6.1,-4.8,1024,1024,1024,1024,0,0,0,0,68,3.273,63.68,100.393704,P-GPS,,30.6
630,474100,2026-01-11 17:25:54,0.223694,5,7.504,0.0,0.223694,0.0,37.6,5.8,-4.6,1024,1024,1024,1024,0,0,0,0,68,3.273,63.68,100.721788,P-GPS,,30.7
631,474200,2026-01-11 17:25:54,0.0,5,7.504,0.0,0.0,0.0,37.7,5.9,-4.4,1024,1024,1024,1024,0,0,0,0,68,3.273,63.68,100.721788,P-GPS,,30.7
632,474300,2026-01-11 17:25:54,0.0,5,7.504,0.0,0.0,0.0,37.9,6.1,-4.2,1024,1024,1024,1024,0,0,0,0,68,3.273,63.68,101.049872,P-GPS,,30.8
633,474400,2026-01-11 17:25:54,0.0,5,7.439,0.0,0.0,0.223694,38.1,6.6,-4.0,1024,1024,1024,1024,0,0,0,0,68,4.165,63.68,101.049872,P-GPS,,30.8
634,474500,2026-01-11 17:25:54,0.0,5,7.439,0.0,0.0,0.223694,38.2,6.0,-3.6,1024,1024,1024,1024,0,0,0,0,68,4.165,63.68,101.377956,P-GPS,,30.9
635,474600,2026-01-11 17:25:54,0.0,5,7.439,0.0,0.0,0.223694,38.2,6.3,-3.1,1024,1024,1024,1024,0,0,0,0,68,4.165,63.68,101.377956,P-GPS,,30.9
636,474700,2026-01-11 17:25:54,0.0,5,7.439,0.0,0.0,0.223694,38.2,5.9,-3.1,1024,1024,1024,1024,0,0,0,0,68,4.165,63.68,101.377956,P-GPS,,30.9
637,474800,2026-01-11 17:25:55,0.0,5,7.439,0.0,0.0,0.0,38.3,5.3,-2.9,1024,1024,1024,1024,0,0,0,0,68,4.165,63.68,101.70604,P-GPS,,31.0
638,474900,2026-01-11 17:25:55,0.0,5,7.439,0.0,0.0,0.0,38.2,5.1,-2.4,1024,1024,1024,1024,0,0,0,0,68,4.165,63.68,101.70604,P-GPS,,31.0
639,475000,2026-01-11 17:25:55,0.0,5,7.439,0.0,0.0,0.0,38.0,6.5,-2.7,1024,1024,1024,1024,0,0,0,0,68,4.165,63.68,101.70604,P-GPS,,31.0
640,475100,2026-01-11 17:25:55,0.0,5,7.439,0.0,0.0,0.223694,37.8,7.3,-2.4,1024,1024,1024,1024,0,0,0,0,68,4.165,63.68,102.034124,P-GPS,,31.1
641,475200,2026-01-11 17:25:55,0.0,5,7.439,0.0,0.0,0.223694,37.8,5.5,-2.3,1024,1024,1024,1024,0,0,0,0,68,4.165,63.68,102.034124,P-GPS,,31.1
642,475300,2026-01-11 17:25:55,0.0,5,7.439,0.0,0.0,0.0,37.9,2.1,-3.3,1024,1024,1024,1024,0,0,0,0,68,4.165,63.68,102.034124,P-GPS,,31.1
643,475400,2026-01-11 17:25:55,0.0,5,7.439,0.0,0.0,0.0,37.6,2.9,-2.8,1024,1024,1024,1024,0,0,0,0,68,4.165,63.68,102.034124,P-GPS,,31.1
644,475500,2026-01-11 17:25:55,0.0,5,7.398,0.0,0.0,-0.223694,37.2,5.0,-3.4,1024,1024,1024,1024,0,0,0,0,68,4.733,63.68,102.034124,P-GPS,,31.1
645,475600,2026-01-11 17:25:55,0.0,5,7.398,0.0,0.0,-0.223694,37.1,4.4,-4.4,1024,1024,1024,1024,0,0,0,0,68,4.733,63.68,101.70604,P-GPS,,31.0
646,475700,2026-01-11 17:25:55,0.223694,5,7.398,-0.223694,0.0,0.0,37.2,4.0,-4.6,1024,1024,1024,1024,0,0,0,0,68,4.733,63.68,101.70604,P-GPS,,31.0
647,475800,2026-01-11 17:25:56,0.223694,5,7.398,-0.223694,0.0,0.0,37.3,3.7,-4.1,1024,1024,1024,1024,0,0,0,0,68,4.733,63.68,101.377956,P-GPS,,30.9
648,475900,2026-01-11 17:25:56,0.223694,5,7.398,-0.223694,0.0,0.223694,37.5,2.3,-3.7,1024,1024,1024,1024,0,0,0,0,68,4.733,63.68,101.049872,P-GPS,,30.8
649,476000,2026-01-11 17:25:56,0.0,5,7.398,0.0,0.0,0.0,37.7,1.3,-6.1,1024,1024,1024,1024,0,0,0,0,68,4.733,63.68,101.049872,P-GPS,,30.8
650,476100,2026-01-11 17:25:56,0.0,5,7.398,0.0,0.0,0.223694,37.8,1.4,-4.3,1024,1024,1024,1024,0,0,0,0,68,4.733,63.68,100.721788,P-GPS,,30.7
651,476200,2026-01-11 17:25:56,0.0,5,7.398,0.0,0.0,0.0,37.8,3.7,-3.3,1024,1024,1024,1024,0,0,0,0,68,4.733,63.68,100.721788,P-GPS,,30.7
652,476300,2026-01-11 17:25:56,0.0,5,7.398,0.0,0.0,0.223694,37.9,4.1,-2.5,1024,1024,1024,1024,0,0,0,0,68,4.733,63.68,100.393704,P-GPS,,30.6
653,476400,2026-01-11 17:25:56,0.0,5,7.398,0.0,0.0,0.447388,37.9,2.2,-2.9,1024,1024,1024,1024,0,0,0,0,68,4.733,63.68,100.393704,P-GPS,,30.6
654,476500,2026-01-11 17:25:56,0.0,5,7.398,0.0,0.0,0.223694,37.8,0.9,-4.7,1024,1024,1024,1024,0,0,0,0,68,4.733,63.68,100.06562,P-GPS,,30.5
655,476600,2026-01-11 17:25:56,0.0,5,7.451,0.0,0.0,0.223694,37.7,1.8,-5.0,1024,1024,1024,1024,0,0,0,0,68,3.566,63.68,100.06562,P-GPS,,30.5
656,476700,2026-01-11 17:25:56,0.0,5,7.451,0.0,0.0,0.0,37.7,1.9,-4.7,1024,1024,1024,1024,0,0,0,0,68,3.566,63.68,100.06562,P-GPS,,30.5
657,476800,2026-01-11 17:25:57,0.0,5,7.451,0.0,0.0,0.0,37.6,2.1,-5.3,1024,1024,1024,1024,0,0,0,0,68,3.566,63.68,100.06562,P-GPS,,30.5
658,476900,2026-01-11 17:25:57,0.0,5,7.451,0.0,0.0,0.0,37.7,2.3,-5.0,1024,1024,1024,1024,0,0,0,0,68,3.566,63.68,100.393704,P-GPS,,30.6
659,477000,2026-01-11 17:25:57,0.0,5,7.451,0.0,0.0,0.0,37.9,2.8,-4.3,1024,1024,1024,1024,0,0,0,0,68,3.566,63.68,100.393704,P-GPS,,30.6
660,477100,2026-01-11 17:25:57,0.0,5,7.451,0.0,0.0,0.0,37.8,2.5,-4.3,1024,1024,1024,1024,0,0,0,0,68,3.566,63.68,100.393704,P-GPS,,30.6
661,477200,2026-01-11 17:25:57,0.0,5,7.451,0.0,0.0,0.0,37.8,4.0,-3.9,1024,1024,1024,1024,0,0,0,0,68,3.566,63.68,100.393704,P-GPS,,30.6
662,477300,2026-01-11 17:25:57,0.0,5,7.451,0.0,0.0,0.0,37.7,3.7,-3.7,1024,1024,1024,1024,0,0,0,0,68,3.566,63.68,100.393704,P-GPS,,30.6
663,477400,2026-01-11 17:25:57,0.0,5,7.451,0.0,0.0,0.0,37.7,3.7,-4.1,1024,1024,1024,1024,0,0,0,0,68,3.566,63.68,100.393704,P-GPS,,30.6
664,477500,2026-01-11 17:25:57,0.0,5,7.451,0.0,0.0,0.0,37.7,3.5,-3.9,1024,1024,1024,1024,0,0,0,0,68,3.566,63.68,100.393704,P-GPS,,30.6
