index,time(millisecond),timestamp,speed(mph),gpslevel,voltage(v),xSpeed(mph),ySpeed(mph),zSpeed(mph),compass_heading(degrees),pitch(degrees),roll(degrees),rc_elevator,rc_aileron,rc_throttle,rc_rudder,rc_elevator(percent),rc_aileron(percent),rc_throttle(percent),rc_rudder(percent),battery_percent,current(A),battery_temperature(f),ascent(feet),flycState,message,height_above_takeoff(meters)
461,188900,2026-01-12 12:09:04,0.0,5,7.612,0.0,0.0,0.0,18.9,3.4,-5.0,1024,1024,1024,1024,0,0,0,0,87,6.684,67.1,98.097116,P-GPS,,29.9
462,189000,2026-01-12 12:09:04,0.0,5,7.612,0.0,0.0,0.0,18.9,3.9,-5.2,1024,1024,1024,1024,0,0,0,0,87,6.684,67.1,98.4252,P-GPS,,30.0
463,189100,2026-01-12 12:09:04,0.223694,5,7.751,0.223694,0.0,0.0,18.7,5.4,-5.2,1024,1024,1024,1024,0,0,0,0,87,3.871,67.28,98.4252,P-GPS,,30.0
464,189200,2026-01-12 12:09:04,0.223694,5,7.751,0.223694,0.0,0.0,18.6,5.6,-5.0,1024,1024,1024,1024,0,0,0,0,87,3.871,67.28,98.4252,P-GPS,,30.0
465,189300,2026-01-12 12:09:04,0.0,5,7.751,0.0,0.0,0.0,18.5,5.9,-4.9,1024,1024,1024,1024,0,0,0,0,87,3.871,67.28,98.753284,P-GPS,,30.1
466,189400,2026-01-12 12:09:04,0.0,5,7.751,0.0,0.0,0.0,18.7,4.9,-4.9,1024,1024,1024,1024,0,0,0,0,87,3.871,67.28,98.753284,P-GPS,,30.1
467,189500,2026-01-12 12:09:04,0.0,5,7.751,0.0,0.0,0.0,18.7,4.7,-5.3,1024,1024,1024,1024,0,0,0,0,87,3.871,67.28,98.753284,P-GPS,,30.1
468,189600,2026-01-12 12:09:05,0.0,5,7.751,0.0,0.0,0.0,18.8,4.9,-5.2,1024,1024,1024,1024,0,0,0,0,87,3.871,67.28,98.753284,P-GPS,,30.1
469,189700,2026-01-12 12:09:05,0.0,5,7.751,0.0,0.0,0.0,18.8,5.1,-5.0,1024,1024,1024,1024,0,0,0,0,87,3.871,67.28,98.753284,P-GPS,,30.1
470,189800,2026-01-12 12:09:05,0.0,5,7.751,0.0,0.0,0.0,18.9,5.4,-4.9,1024,1024,1024,1024,0,0,0,0,87,3.871,67.28,98.753284,P-GPS,,30.1
471,189900,2026-01-12 12:09:05,0.0,5,7.751,0.0,0.0,0.223694,18.9,5.4,-4.4,1024,1024,1024,1024,0,0,0,0,87,3.871,67.28,98.753284,P-GPS,,30.1
472,190000,2026-01-12 12:09:05,0.0,5,7.751,0.0,0.0,0.223694,19.1,5.3,-4.1,1024,1024,1024,1024,0,0,0,0,87,3.871,67.28,98.753284,P-GPS,,30.1
473,190100,2026-01-12 12:09:05,0.0,5,7.751,0.0,0.0,0.223694,19.0,5.2,-3.8,1024,1024,1024,1024,0,0,0,0,87,3.871,67.28,98.4252,P-GPS,,30.0
474,190200,2026-01-12 12:09:05,0.0,5,7.73,0.0,0.0,0.223694,19.0,4.7,-3.6,1024,1024,1024,1024,0,0,0,0,87,4.467,67.28,98.4252,P-GPS,,30.0
475,190300,2026-01-12 12:09:05,0.0,5,7.73,0.0,0.0,0.223694,19.0,4.7,-3.7,1024,1024,1024,1024,0,0,0,0,87,4.467,67.28,98.4252,P-GPS,,30.0
476,190400,2026-01-12 12:09:05,0.0,5,7.73,0.0,0.0,0.0,19.1,4.5,-3.7,1024,1024,1024,1024,0,0,0,0,87,4.467,67.28,98.4252,P-GPS,,30.0
477,190500,2026-01-12 12:09:05,0.0,5,7.73,0.0,0.0,0.0,19.1,3.9,-3.6,1024,1024,1024,1024,0,0,0,0,87,4.467,67.28,98.4252,P-GPS,,30.0
478,190600,2026-01-12 12:09:05,0.0,5,7.73,0.0,0.0,0.0,19.0,4.3,-3.5,1024,1024,1024,1024,0,0,0,0,87,4.467,67.28,98.4252,P-GPS,,30.0
479,190700,2026-01-12 12:09:06,0.0,5,7.73,0.0,0.0,0.0,18.8,4.7,-3.6,1024,1024,1024,1024,0,0,0,0,87,4.467,67.28,98.4252,P-GPS,,30.0
480,190800,2026-01-12 12:09:06,0.0,5,7.73,0.0,0.0,0.0,18.8,5.0,-4.1,1024,1024,1024,1024,0,0,0,0,87,4.467,67.28,98.4252,P-GPS,,30.0
481,190900,2026-01-12 12:09:06,0.0,5,7.73,0.0,0.0,0.0,18.8,4.7,-4.3,1024,1024,1024,1024,0,0,0,0,87,4.467,67.28,98.4252,P-GPS,,30.0
482,191000,2026-01-12 12:09:06,0.0,5,7.73,0.0,0.0,0.0,18.8,4.8,-4.6,1024,1024,1024,1024,0,0,0,0,87,4.467,67.28,98.4252,P-GPS,,30.0
483,191100,2026-01-12 12:09:06,0.0,5,7.73,0.0,0.0,0.0,18.8,4.9,-4.9,1024,1024,1024,1024,0,0,0,0,87,4.467,67.28,98.4252,P-GPS,,30.0
484,191200,2026-01-12 12:09:06,0.0,5,7.73,0.0,0.0,0.0,18.8,5.3,-5.0,1024,1024,1024,1024,0,0,0,0,87,4.467,67.28,98.4252,P-GPS,,30.0
485,191300,2026-01-12 12:09:06,0.0,5,7.742,0.0,0.0,0.0,18.8,5.4,-4.8,1024,1024,1024,1024,0,0,0,0,87,4.501,67.28,98.4252,P-GPS,,30.0
486,191400,2026-01-12 12:09:06,0.0,5,7.742,0.0,0.0,0.0,18.8,5.3,-4.6,1024,1024,1024,1024,0,0,0,0,87,4.501,67.28,98.4252,P-GPS,,30.0
487,191500,2026-01-12 12:09:06,0.0,5,7.742,0.0,0.0,0.0,18.8,5.7,-4.7,1024,1024,1024,1024,0,0,0,0,87,4.501,67.28,98.4252,P-GPS,,30.0
488,191600,2026-01-12 12:09:07,0.0,5,7.742,0.0,0.0,0.0,18.8,5.6,-4.9,1024,1024,1024,1024,0,0,0,0,87,4.501,67.28,98.4252,P-GPS,,30.0
489,191700,2026-01-12 12:09:07,0.0,5,7.742,0.0,0.0,0.0,18.8,5.9,-4.9,1024,1024,1024,1024,0,0,0,0,87,4.501,67.28,98.4252,P-GPS,,30.0
490,191800,2026-01-12 12:09:07,0.0,5,7.742,0.0,0.0,0.0,18.8,5.7,-4.8,1024,1024,1024,1024,0,0,0,0,87,4.501,67.28,98.4252,P-GPS,,30.0
491,191900,2026-01-12 12:09:07,0.0,5,7.742,0.0,0.0,0.0,18.8,5.9,-4.8,1024,1024,1024,1024,0,0,0,0,87,4.501,67.28,98.4252,P-GPS,,30.0
492,192000,2026-01-12 12:09:07,0.0,5,7.742,0.0,0.0,0.0,18.8,5.9,-4.9,1024,1024,1024,1024,0,0,0,0,87,4.501,67.28,98.097116,P-GPS,,29.9
493,192100,2026-01-12 12:09:07,0.0,5,7.742,0.0,0.0,0.0,18.9,5.4,-4.9,1024,1024,1024,1024,0,0,0,0,87,4.501,67.28,98.097116,P-GPS,,29.9
494,192200,2026-01-12 12:09:07,0.0,5,7.742,0.0,0.0,0.0,18.8,5.9,-5.1,1024,1024,1024,1024,0,0,0,0,87,4.501,67.28,98.097116,P-GPS,,29.9
495,192300,2026-01-12 12:09:07,0.0,5,7.742,0.0,0.0,0.0,18.7,6.1,-5.2,1024,1024,1024,1024,0,0,0,0,87,4.501,67.28,98.097116,P-GPS,,29.9
496,192400,2026-01-12 12:09:07,0.0,5,7.742,0.0,0.0,0.0,18.8,6.2,-5.2,1024,1024,1024,1024,0,0,0,0,87,4.501,67.28,98.097116,P-GPS,,29.9
497,192500,2026-01-12 12:09:07,0.0,5,7.742,0.0,0.0,0.0,18.8,6.0,-5.2,1024,1024,1024,1024,0,0,0,0,87,4.501,67.28,98.097116,P-GPS,,29.9
498,192600,2026-01-12 12:09:08,0.0,5,7.742,0.0,0.0,0.0,18.8,6.1,-5.3,1024,1024,1024,1024,0,0,0,0,87,4.501,67.28,98.097116,P-GPS,,29.9
499,192700,2026-01-12 12:09:08,0.0,5,7.742,0.0,0.0,0.0,18.8,6.0,-5.3,1024,1024,1024,1024,0,0,0,0,87,4.501,67.28,98.097116,P-GPS,,29.9
500,192800,2026-01-12 12:09:08,0.0,5,7.742,0.0,0.0,0.0,18.8,6.0,-5.5,1024,1024,1024,1024,0,0,0,0,87,4.501,67.28,98.097116,P-GPS,,29.9
501,192900,2026-01-12 12:09:08,0.0,5,7.742,0.0,0.0,0.0,18.7,6.1,-5.7,1024,1024,1024,1024,0,0,0,0,87,4.501,67.28,98.097116,P-GPS,,29.9
502,193000,2026-01-12 12:09:08,0.0,5,7.742,0.0,0.0,0.0,18.8,5.7,-5.9,1024,1024,1024,1024,0,0,0,0,87,4.501,67.28,98.097116,P-GPS,,29.9
503,193100,2026-01-12 12:09:08,0.0,5,7.742,0.0,0.0,0.0,18.8,5.6,-5.6,1024,1024,1024,1024,0,0,0,0,87,4.501,67.28,98.097116,P-GPS,,29.9
504,193200,2026-01-12 12:09:08,0.0,5,7.742,0.0,0.0,0.0,18.8,5.6,-5.4,1024,1024,1024,1024,0,0,0,0,87,4.501,67.28,98.097116,P-GPS,,29.9
505,193300,2026-01-12 12:09:08,0.0,5,7.742,0.0,0.0,0.0,18.8,5.6,-5.3,1024,1024,1024,1024,0,0,0,0,87,4.501,67.28,98.097116,P-GPS,,29.9
506,193400,2026-01-12 12:09:08,0.0,5,7.742,0.0,0.0,0.0,18.9,4.9,-4.8,1024,1024,1024,1024,0,0,0,0,87,4.501,67.28,98.097116,P-GPS,,29.9
507,193500,2026-01-12 12:09:08,0.0,5,7.736,0.0,0.0,0.0,18.7,5.7,-5.2,1024,1024,1024,1024,0,0,0,0,87,4.581,67.28,97.769032,P-GPS,,29.8
508,193600,2026-01-12 12:09:09,0.0,5,7.736,0.0,0.0,0.0,18.7,6.4,-5.2,1024,1024,1024,1024,0,0,0,0,87,4.581,67.28,97.769032,P-GPS,,29.8
509,193700,2026-01-12 12:09:09,0.0,5,7.736,0.0,0.0,0.0,18.9,5.9,-5.1,1024,1024,1024,1024,0,0,0,0,87,4.581,67.28,97.769032,P-GPS,,29.8
510,193800,2026-01-12 12:09:09,0.0,5,7.736,0.0,0.0,0.0,18.9,5.6,-5.1,1024,1024,1024,1024,0,0,0,0,87,4.581,67.28,97.769032,P-GPS,,29.8
511,193900,2026-01-12 12:09:09,0.0,5,7.736,0.0,0.0,0.0,19.0,5.8,-5.2,1024,1024,1024,1024,0,0,0,0,87,4.581,67.28,97.769032,P-GPS,,29.8
512,194000,2026-01-12 12:09:09,0.0,5,7.736,0.0,0.0,0.0,18.8,6.8,-5.2,1024,1024,1024,1024,0,0,0,0,87,4.581,67.28,97.769032,P-GPS,,29.8
513,194100,2026-01-12 12:09:09,0.0,5,7.736,0.0,0.0,0.0,18.6,6.7,-5.3,1024,1024,1024,1024,0,0,0,0,87,4.581,67.28,97.769032,P-GPS,,29.8
514,194200,2026-01-12 12:09:09,0.0,5,7.736,0.0,0.0,0.0,18.8,5.9,-5.1,1024,1024,1024,1024,0,0,0,0,87,4.581,67.28,97.769032,P-GPS,,29.8
515,194300,2026-01-12 12:09:09,0.0,5,7.736,0.0,0.0,0.0,18.9,4.9,-5.0,1024,1024,1024,1024,0,0,0,0,87,4.581,67.28,97.769032,P-GPS,,29.8
516,194400,2026-01-12 12:09:09,0.0,5,7.736,0.0,0.0,0.0,18.9,5.0,-4.8,1024,1024,1024,1024,0,0,0,0,87,4.581,67.28,97.440948,P-GPS,,29.7
517,194500,2026-01-12 12:09:09,0.0,5,7.736,0.0,0.0,0.0,18.8,4.6,-4.7,1024,1024,1024,1024,0,0,0,0,87,4.581,67.28,97.440948,P-GPS,,29.7
518,194600,2026-01-12 12:09:10,0.0,5,7.739,0.0,0.0,0.0,18.7,4.7,-4.8,1024,1024,1024,1024,0,0,0,0,87,4.574,67.46,97.440948,P-GPS,,29.7
519,194700,2026-01-12 12:09:10,0.0,5,7.739,0.0,0.0,0.0,18.7,4.5,-4.9,1024,1024,1024,1024,0,0,0,0,87,4.574,67.46,97.440948,P-GPS,,29.7
520,194800,2026-01-12 12:09:10,0.0,5,7.739,0.0,0.0,0.0,18.7,4.2,-5.0,1024,1024,1024,1024,0,0,0,0,87,4.574,67.46,97.440948,P-GPS,,29.7
521,194900,2026-01-12 12:09:10,0.0,5,7.739,0.0,0.0,0.0,18.7,4.6,-5.1,1024,1024,1024,1024,0,0,0,0,87,4.574,67.46,97.440948,P-GPS,,29.7
522,195000,2026-01-12 12:09:10,0.0,5,7.739,0.0,0.0,0.0,18.7,4.9,-5.1,1024,1024,1024,1024,0,0,0,0,87,4.574,67.46,97.440948,P-GPS,,29.7
523,195100,2026-01-12 12:09:10,0.0,5,7.739,0.0,0.0,0.0,18.8,4.9,-5.0,1024,1024,1024,1024,0,0,0,0,87,4.574,67.46,97.440948,P-GPS,,29.7
524,195200,2026-01-12 12:09:10,0.0,5,7.739,0.0,0.0,0.0,18.8,4.8,-4.6,1024,1024,1024,1024,0,0,0,0,87,4.574,67.46,97.440948,P-GPS,,29.7
525,195300,2026-01-12 12:09:10,0.0,5,7.739,0.0,0.0,0.0,18.8,4.4,-4.5,1024,1024,1024,1024,0,0,0,0,87,4.574,67.46,97.440948,P-GPS,,29.7
526,195400,2026-01-12 12:09:10,0.0,5,7.739,0.0,0.0,0.0,18.8,5.0,-4.8,1024,1024,1024,1024,0,0,0,0,87,4.574,67.46,97.440948,P-GPS,,29.7
527,195500,2026-01-12 12:09:10,0.0,5,7.739,0.0,0.0,0.0,18.9,4.8,-4.5,1024,1024,1024,1024,0,0,0,0,87,4.574,67.46,97.440948,P-GPS,,29.7
528,195600,2026-01-12 12:09:11,0.0,5,7.739,0.0,0.0,0.0,19.0,4.5,-4.5,1024,1024,1024,1024,0,0,0,0,87,4.574,67.46,97.440948,P-GPS,,29.7
529,195700,2026-01-12 12:09:11,0.0,5,7.738,0.0,0.0,0.0,18.8,4.3,-4.4,1024,1024,1024,1024,0,0,0,0,87,4.323,67.46,97.112864,P-GPS,,29.6
530,195800,2026-01-12 12:09:11,0.223694,5,7.738,-0.223694,0.0,0.0,18.8,3.4,-4.3,1024,1024,1024,1024,0,0,0,0,87,4.323,67.46,97.112864,P-GPS,,29.6
531,195900,2026-01-12 12:09:11,0.223694,5,7.738,-0.223694,0.0,0.0,18.9,2.0,-4.3,1024,1024,1024,1024,0,0,0,0,87,4.323,67.46,97.112864,P-GPS,,29.6
532,196000,2026-01-12 12:09:11,0.223694,5,7.738,-0.223694,0.0,0.0,18.8,1.4,-4.7,1024,1024,1024,1024,0,0,0,0,87,4.323,67.46,97.112864,P-GPS,,29.6
533,196100,2026-01-12 12:09:11,0.223694,5,7.738,-0.223694,0.0,0.0,18.9,0.4,-4.5,1024,1024,1024,1024,0,0,0,0,87,4.323,67.46,97.112864,P-GPS,,29.6
534,196200,2026-01-12 12:09:11,0.223694,5,7.738,-0.223694,0.0,0.0,19.0,0.2,-4.2,1024,1024,1024,1024,0,0,0,0,87,4.323,67.46,97.112864,P-GPS,,29.6
535,196300,2026-01-12 12:09:11,0.0,5,7.738,0.0,0.0,0.0,19.2,0.5,-4.3,1024,1024,1024,1024,0,0,0,0,87,4.323,67.46,97.112864,P-GPS,,29.6
536,196400,2026-01-12 12:09:11,0.0,5,7.738,0.0,0.0,0.0,19.3,1.4,-4.3,1024,1024,1024,1024,0,0,0,0,87,4.323,67.46,97.112864,P-GPS,,29.6
537,196500,2026-01-12 12:09:11,0.0,5,7.738,0.0,0.0,0.0,19.5,1.4,-3.9,1024,1024,1024,1024,0,0,0,0,87,4.323,67.46,97.112864,P-GPS,,29.6
538,196600,2026-01-12 12:09:12,0.223694,5,7.738,0.223694,0.0,0.0,19.3,4.0,-3.8,1024,1024,1024,1024,0,0,0,0,87,4.323,67.46,97.440948,P-GPS,,29.7
539,196700,2026-01-12 12:09:12,0.223694,5,7.738,0.223694,0.0,0.0,19.2,5.8,-4.3,1024,1024,1024,1024,0,0,0,0,87,4.323,67.46,97.440948,P-GPS,,29.7
540,196800,2026-01-12 12:09:12,0.223694,5,7.714,0.223694,0.0,0.0,19.1,6.8,-4.2,1024,1024,1024,1024,0,0,0,0,86,4.759,67.46,97.440948,P-GPS,,29.7
541,196900,2026-01-12 12:09:12,0.223694,5,7.714,0.223694,0.0,0.0,19.1,7.0,-4.2,1024,1024,1024,1024,0,0,0,0,86,4.759,67.46,97.440948,P-GPS,,29.7
542,197000,2026-01-12 12:09:12,0.223694,5,7.714,0.223694,0.0,0.0,19.1,6.8,-4.1,1024,1024,1024,1024,0,0,0,0,86,4.759,67.46,97.440948,P-GPS,,29.7
543,197100,2026-01-12 12:09:12,0.223694,5,7.714,0.223694,0.0,0.0,19.0,7.0,-4.2,1024,1024,1024,1024,0,0,0,0,86,4.759,67.46,97.440948,P-GPS,,29.7
544,197200,2026-01-12 12:09:12,0.223694,5,7.714,0.223694,0.0,0.0,18.9,7.5,-4.0,1024,1024,1024,1024,0,0,0,0,86,4.759,67.46,97.440948,P-GPS,,29.7
545,197300,2026-01-12 12:09:12,0.223694,5,7.714,0.223694,0.0,0.0,18.8,7.4,-3.7,1024,1024,1024,1024,0,0,0,0,86,4.759,67.46,97.440948,P-GPS,,29.7
546,197400,2026-01-12 12:09:12,0.223694,5,7.714,0.223694,0.0,0.0,18.7,7.1,-3.7,1024,1024,1024,1024,0,0,0,0,86,4.759,67.46,97.769032,P-GPS,,29.8
547,197500,2026-01-12 12:09:12,0.0,5,7.714,0.0,0.0,0.0,18.6,7.3,-3.8,1024,1024,1024,1024,0,0,0,0,86,4.759,67.46,97.769032,P-GPS,,29.8
548,197600,2026-01-12 12:09:12,0.0,5,7.714,0.0,0.0,0.0,18.5,7.3,-4.2,1024,1024,1024,1024,0,0,0,0,86,4.759,67.46,97.769032,P-GPS,,29.8
549,197700,2026-01-12 12:09:13,0.0,5,7.714,0.0,0.0,0.0,18.4,7.3,-4.3,1024,1024,1024,1024,0,0,0,0,86,4.759,67.46,97.769032,P-GPS,,29.8
550,197800,2026-01-12 12:09:13,0.0,5,7.714,0.0,0.0,0.0,18.4,7.1,-4.4,1024,1024,1024,1024,0,0,0,0,86,4.759,67.46,97.769032,P-GPS,,29.8
551,197900,2026-01-12 12:09:13,0.0,5,7.735,0.0,0.0,0.0,18.3,7.5,-4.8,1024,1024,1024,1024,0,0,0,0,86,4.521,67.64,98.097116,P-GPS,,29.9
552,198000,2026-01-12 12:09:13,0.0,5,7.735,0.0,0.0,0.0,18.3,7.1,-4.9,1024,1024,1024,1024,0,0,0,0,86,4.521,67.64,98.097116,P-GPS,,29.9
553,198100,2026-01-12 12:09:13,0.0,5,7.735,0.0,0.0,0.0,18.3,7.0,-5.1,1024,1024,1024,1024,0,0,0,0,86,4.521,67.64,98.097116,P-GPS,,29.9
554,198200,2026-01-12 12:09:13,0.223694,5,7.735,0.0,0.223694,0.0,18.3,7.0,-4.9,1024,1024,1024,1024,0,0,0,0,86,4.521,67.64,98.097116,P-GPS,,29.9
555,198300,2026-01-12 12:09:13,0.223694,5,7.735,0.0,0.223694,0.0,18.2,6.8,-5.1,1024,1024,1024,1024,0,0,0,0,86,4.521,67.64,98.097116,P-GPS,,29.9
556,198400,2026-01-12 12:09:13,0.223694,5,7.735,0.0,0.223694,0.0,18.2,6.5,-5.2,1024,1024,1024,1024,0,0,0,0,86,4.521,67.64,98.4252,P-GPS,,30.0
557,198500,2026-01-12 12:09:13,0.0,5,7.735,0.0,0.0,0.0,18.2,6.2,-5.3,1024,1024,1024,1024,0,0,0,0,86,4.521,67.64,98.4252,P-GPS,,30.0
558,198600,2026-01-12 12:09:14,0.0,5,7.735,0.0,0.0,0.0,18.1,6.7,-5.5,1024,1024,1024,1024,0,0,0,0,86,4.521,67.64,98.4252,P-GPS,,30.0
559,198700,2026-01-12 12:09:14,0.0,5,7.735,0.0,0.0,0.0,18.2,6.9,-5.8,1024,1024,1024,1024,0,0,0,0,86,4.521,67.64,98.4252,P-GPS,,30.0
560,198800,2026-01-12 12:09:14,0.0,5,7.735,0.0,0.0,0.0,18.2,6.9,-5.6,1024,1024,1024,1024,0,0,0,0,86,4.521,67.64,98.4252,P-GPS,,30.0
561,198900,2026-01-12 12:09:14,0.0,5,7.735,0.0,0.0,0.223694,18.2,7.1,-5.3,1024,1024,1024,1024,0,0,0,0,86,4.521,67.64,98.097116,P-GPS,,29.9
562,199000,2026-01-12 12:09:14,0.0,5,7.751,0.0,0.0,0.223694,18.2,6.7,-5.2,1024,1024,1024,1024,0,0,0,0,86,4.293,67.64,98.097116,P-GPS,,29.9
563,199100,2026-01-12 12:09:14,0.0,5,7.751,0.0,0.0,0.0,18.1,6.2,-5.0,1024,1024,1024,1024,0,0,0,0,86,4.293,67.64,98.097116,P-GPS,,29.9
564,199200,2026-01-12 12:09:14,0.0,5,7.751,0.0,0.0,0.0,18.0,6.5,-5.1,1024,1024,1024,1024,0,0,0,0,86,4.293,67.64,98.097116,P-GPS,,29.9
565,199300,2026-01-12 12:09:14,0.0,5,7.751,0.0,0.0,0.0,18.0,6.4,-5.5,1024,1024,1024,1024,0,0,0,0,86,4.293,67.64,98.097116,P-GPS,,29.9
566,199400,2026-01-12 12:09:14,0.0,5,7.751,0.0,0.0,0.0,18.0,6.8,-5.2,1024,1024,1024,1024,0,0,0,0,86,4.293,67.64,98.097116,P-GPS,,29.9
567,199500,2026-01-12 12:09:14,0.0,5,7.751,0.0,0.0,0.0,18.1,6.5,-4.9,1024,1024,1024,1024,0,0,0,0,86,4.293,67.64,97.769032,P-GPS,,29.8
568,199600,2026-01-12 12:09:14,0.0,5,7.751,0.0,0.0,0.0,18.1,6.2,-4.5,1024,1024,1024,1024,0,0,0,0,86,4.293,67.64,97.769032,P-GPS,,29.8
569,199700,2026-01-12 12:09:15,0.0,5,7.751,0.0,0.0,0.0,18.1,6.0,-4.9,1024,1024,1024,1024,0,0,0,0,86,4.293,67.64,97.769032,P-GPS,,29.8
570,199800,2026-01-12 12:09:15,0.0,5,7.751,0.0,0.0,0.0,18.1,5.5,-4.5,1024,1024,1024,1024,0,0,0,0,86,4.293,67.64,97.769032,P-GPS,,29.8
571,199900,2026-01-12 12:09:15,0.0,5,7.751,0.0,0.0,0.0,18.0,5.5,-4.6,1024,1024,1024,1024,0,0,0,0,86,4.293,67.64,97.769032,P-GPS,,29.8
572,200000,2026-01-12 12:09:15,0.0,5,7.751,0.0,0.0,0.0,17.9,5.9,-4.9,1024,1024,1024,1024,0,0,0,0,86,4.293,67.64,97.769032,P-GPS,,29.8
573,200100,2026-01-12 12:09:15,0.0,5,7.751,0.0,0.0,0.0,18.0,5.9,-4.6,1024,1024,1024,1024,0,0,0,0,86,4.293,67.64,97.769032,P-GPS,,29.8
574,200200,2026-01-12 12:09:15,0.0,5,7.759,0.0,0.0,0.0,18.1,6.4,-4.5,1024,1024,1024,1024,0,0,0,0,86,4.247,67.64,97.769032,P-GPS,,29.8
575,200300,2026-01-12 12:09:15,0.0,5,7.759,0.0,0.0,0.0,18.1,6.1,-4.6,1024,1024,1024,1024,0,0,0,0,86,4.247,67.64,97.769032,P-GPS,,29.8
576,200400,2026-01-12 12:09:15,0.0,5,7.759,0.0,0.0,0.0,18.1,6.3,-4.8,1024,1024,1024,1024,0,0,0,0,86,4.247,67.64,97.769032,P-GPS,,29.8
577,200500,2026-01-12 12:09:15,0.0,5,7.759,0.0,0.0,0.0,18.2,6.2,-5.1,1024,1024,1024,1024,0,0,0,0,86,4.247,67.64,97.769032,P-GPS,,29.8
578,200600,2026-01-12 12:09:16,0.0,5,7.759,0.0,0.0,0.0,18.2,6.8,-4.7,1024,1024,1024,1024,0,0,0,0,86,4.247,67.64,97.769032,P-GPS,,29.8
579,200700,2026-01-12 12:09:16,0.0,5,7.759,0.0,0.0,0.0,18.2,7.3,-4.8,1024,1024,1024,1024,0,0,0,0,86,4.247,67.64,97.440948,P-GPS,,29.7
580,200800,2026-01-12 12:09:16,0.0,5,7.759,0.0,0.0,0.0,18.1,7.6,-5.1,1024,1024,1024,1024,0,0,0,0,86,4.247,67.64,97.440948,P-GPS,,29.7
581,200900,2026-01-12 12:09:16,0.0,5,7.759,0.0,0.0,0.0,18.1,7.6,-4.8,1024,1024,1024,1024,0,0,0,0,86,4.247,67.64,97.440948,P-GPS,,29.7
582,201000,2026-01-12 12:09:16,0.0,5,7.759,0.0,0.0,0.0,18.1,7.6,-4.8,1024,1024,1024,1024,0,0,0,0,86,4.247,67.64,97.440948,P-GPS,,29.7
583,201100,2026-01-12 12:09:16,0.0,5,7.759,0.0,0.0,0.0,18.1,7.3,-4.8,1024,1024,1024,1024,0,0,0,0,86,4.247,67.64,97.440948,P-GPS,,29.7
584,201200,2026-01-12 12:09:16,0.0,5,7.759,0.0,0.0,0.0,18.2,6.8,-4.9,1024,1024,1024,1024,0,0,0,0,86,4.247,67.64,97.440948,P-GPS,,29.7
585,201300,2026-01-12 12:09:16,0.0,5,7.737,0.0,0.0,0.0,18.0,7.4,-5.3,1024,1024,1024,1024,0,0,0,0,86,4.462,67.64,97.440948,P-GPS,,29.7
586,201400,2026-01-12 12:09:16,0.0,5,7.737,0.0,0.0,0.0,18.0,7.5,-5.3,1024,1024,1024,1024,0,0,0,0,86,4.462,67.64,97.440948,P-GPS,,29.7
587,201500,2026-01-12 12:09:16,0.0,5,7.737,0.0,0.0,0.0,18.0,7.4,-5.2,1024,1024,1024,1024,0,0,0,0,86,4.462,67.64,97.440948,P-GPS,,29.7
588,201600,2026-01-12 12:09:17,0.0,5,7.737,0.0,0.0,0.0,18.1,6.7,-4.8,1024,1024,1024,1024,0,0,0,0,86,4.462,67.64,97.440948,P-GPS,,29.7
589,201700,2026-01-12 12:09:17,0.0,5,7.737,0.0,0.0,0.0,18.1,6.8,-4.9,1024,1024,1024,1024,0,0,0,0,86,4.462,67.64,97.440948,P-GPS,,29.7
590,201800,2026-01-12 12:09:17,0.0,5,7.737,0.0,0.0,0.0,18.1,7.1,-5.1,1024,1024,1024,1024,0,0,0,0,86,4.462,67.64,97.112864,P-GPS,,29.6
591,201900,2026-01-12 12:09:17,0.0,5,7.737,0.0,0.0,0.0,18.1,7.8,-4.8,1024,1024,1024,1024,0,0,0,0,86,4.462,67.64,97.112864,P-GPS,,29.6
592,202000,2026-01-12 12:09:17,0.0,5,7.737,0.0,0.0,0.0,18.0,7.6,-4.6,1024,1024,1024,1024,0,0,0,0,86,4.462,67.64,97.112864,P-GPS,,29.6
593,202100,2026-01-12 12:09:17,0.0,5,7.737,0.0,0.0,0.0,17.9,7.9,-4.3,1024,1024,1024,1024,0,0,0,0,86,4.462,67.64,97.112864,P-GPS,,29.6
594,202200,2026-01-12 12:09:17,0.0,5,7.737,0.0,0.0,0.0,17.9,7.5,-4.3,1024,1024,1024,1024,0,0,0,0,86,4.462,67.64,97.112864,P-GPS,,29.6
595,202300,2026-01-12 12:09:17,0.0,5,7.737,0.0,0.0,0.0,17.8,7.0,-4.6,1024,1024,1024,1024,0,0,0,0,86,4.462,67.64,97.112864,P-GPS,,29.6
596,202400,2026-01-12 12:09:17,0.0,5,7.737,0.0,0.0,0.0,18.0,6.2,-4.5,1024,1024,1024,1024,0,0,0,0,86,4.462,67.64,97.112864,P-GPS,,29.6
597,202500,2026-01-12 12:09:17,0.0,5,7.737,0.0,0.0,0.0,17.9,6.2,-4.7,1024,1024,1024,1024,0,0,0,0,86,4.462,67.64,97.112864,P-GPS,,29.6
598,202600,2026-01-12 12:09:18,0.0,5,7.737,0.0,0.0,0.0,17.8,6.4,-4.7,1024,1024,1024,1024,0,0,0,0,86,4.462,67.64,97.112864,P-GPS,,29.6
599,202700,2026-01-12 12:09:18,0.0,5,7.737,0.0,0.0,0.0,17.8,6.2,-4.9,1024,1024,1024,1024,0,0,0,0,86,4.462,67.64,97.112864,P-GPS,,29.6
600,202800,2026-01-12 12:09:18,0.0,5,7.737,0.0,0.0,0.0,17.7,6.1,-5.0,1024,1024,1024,1024,0,0,0,0,86,4.462,67.64,97.112864,P-GPS,,29.6
601,202900,2026-01-12 12:09:18,0.0,5,7.737,0.0,0.0,0.0,17.8,5.9,-5.3,1024,1024,1024,1024,0,0,0,0,86,4.462,67.64,97.112864,P-GPS,,29.6
602,203000,2026-01-12 12:09:18,0.0,5,7.737,0.0,0.0,0.0,17.8,5.9,-5.3,1024,1024,1024,1024,0,0,0,0,86,4.462,67.64,97.112864,P-GPS,,29.6
603,203100,2026-01-12 12:09:18,0.0,5,7.737,0.0,0.0,0.0,17.8,5.9,-5.3,1024,1024,1024,1024,0,0,0,0,86,4.462,67.64,97.112864,P-GPS,,29.6
604,203200,2026-01-12 12:09:18,0.0,5,7.737,0.0,0.0,0.0,17.9,5.7,-5.4,1024,1024,1024,1024,0,0,0,0,86,4.462,67.64,97.112864,P-GPS,,29.6
605,203300,2026-01-12 12:09:18,0.0,5,7.737,0.0,0.0,0.0,17.9,5.9,-5.4,1024,1024,1024,1024,0,0,0,0,86,4.462,67.64,97.112864,P-GPS,,29.6
606,203400,2026-01-12 12:09:18,0.0,5,7.733,0.0,0.0,0.0,17.9,5.9,-5.3,1024,1024,1024,1024,0,0,0,0,86,4.657,67.64,96.78478,P-GPS,,29.5
607,203500,2026-01-12 12:09:18,0.0,5,7.733,0.0,0.0,0.0,17.9,5.8,-5.2,1024,1024,1024,1024,0,0,0,0,86,4.657,67.64,96.78478,P-GPS,,29.5
608,203600,2026-01-12 12:09:19,0.0,5,7.733,0.0,0.0,0.0,17.9,5.6,-5.0,1024,1024,1024,1024,0,0,0,0,86,4.657,67.64,96.78478,P-GPS,,29.5
609,203700,2026-01-12 12:09:19,0.0,5,7.733,0.0,0.0,0.0,17.9,5.5,-4.7,1024,1024,1024,1024,0,0,0,0,86,4.657,67.64,96.78478,P-GPS,,29.5
610,203800,2026-01-12 12:09:19,0.0,5,7.733,0.0,0.0,0.0,17.8,5.2,-4.6,1024,1024,1024,1024,0,0,0,0,86,4.657,67.64,96.78478,P-GPS,,29.5
611,203900,2026-01-12 12:09:19,0.0,5,7.733,0.0,0.0,0.0,17.8,4.7,-4.8,1024,1024,1024,1024,0,0,0,0,86,4.657,67.64,96.78478,P-GPS,,29.5
612,204000,2026-01-12 12:09:19,0.0,5,7.733,0.0,0.0,0.0,17.8,4.9,-4.9,1024,1024,1024,1024,0,0,0,0,86,4.657,67.64,97.112864,P-GPS,,29.6
613,204100,2026-01-12 12:09:19,0.0,5,7.733,0.0,0.0,0.0,17.8,5.4,-5.2,1024,1024,1024,1024,0,0,0,0,86,4.657,67.64,97.112864,P-GPS,,29.6
614,204200,2026-01-12 12:09:19,0.0,5,7.733,0.0,0.0,0.0,17.7,5.6,-5.4,1024,1024,1024,1024,0,0,0,0,86,4.657,67.64,97.112864,P-GPS,,29.6
615,204300,2026-01-12 12:09:19,0.0,5,7.733,0.0,0.0,0.0,17.8,5.5,-5.3,1024,1024,1024,1024,0,0,0,0,86,4.657,67.64,97.112864,P-GPS,,29.6
616,204400,2026-01-12 12:09:19,0.0,5,7.733,0.0,0.0,0.0,17.8,5.5,-5.2,1024,1024,1024,1024,0,0,0,0,86,4.657,67.64,97.112864,P-GPS,,29.6
617,204500,2026-01-12 12:09:19,0.0,5,7.733,0.0,0.0,0.0,17.8,5.2,-5.3,1024,1024,1024,1024,0,0,0,0,86,4.657,67.64,97.112864,P-GPS,,29.6
618,204600,2026-01-12 12:09:20,0.0,5,7.731,0.0,0.0,0.0,17.9,5.3,-5.2,1024,1024,1024,1024,0,0,0,0,86,4.594,67.82,97.112864,P-GPS,,29.6
619,204700,2026-01-12 12:09:20,0.0,5,7.731,0.0,0.0,0.0,17.8,5.3,-5.2,1024,1024,1024,1024,0,0,0,0,86,4.594,67.82,97.112864,P-GPS,,29.6
620,204800,2026-01-12 12:09:20,0.0,5,7.731,0.0,0.0,0.0,17.8,5.1,-5.1,1024,1024,1024,1024,0,0,0,0,86,4.594,67.82,97.112864,P-GPS,,29.6
621,204900,2026-01-12 12:09:20,0.0,5,7.731,0.0,0.0,0.0,17.8,5.1,-5.2,1024,1024,1024,1024,0,0,0,0,86,4.594,67.82,97.112864,P-GPS,,29.6
622,205000,2026-01-12 12:09:20,0.0,5,7.731,0.0,0.0,0.0,17.9,5.0,-5.2,1024,1024,1024,1024,0,0,0,0,86,4.594,67.82,97.112864,P-GPS,,29.6
623,205100,2026-01-12 12:09:20,0.0,5,7.731,0.0,0.0,0.0,17.8,4.7,-5.5,1024,1024,1024,1024,0,0,0,0,86,4.594,67.82,97.112864,P-GPS,,29.6
624,205200,2026-01-12 12:09:20,0.0,5,7.731,0.0,0.0,0.0,17.8,4.7,-5.5,1024,1024,1024,1024,0,0,0,0,86,4.594,67.82,97.112864,P-GPS,,29.6
625,205300,2026-01-12 12:09:20,0.0,5,7.731,0.0,0.0,0.0,17.8,4.7,-5.6,1024,1024,1024,1024,0,0,0,0,86,4.594,67.82,97.112864,P-GPS,,29.6
626,205400,2026-01-12 12:09:20,0.0,5,7.731,0.0,0.0,0.0,17.8,5.0,-5.4,1024,1024,1024,1024,0,0,0,0,86,4.594,67.82,97.112864,P-GPS,,29.6
627,205500,2026-01-12 12:09:20,0.0,5,7.731,0.0,0.0,0.0,17.8,4.9,-5.2,1024,1024,1024,1024,0,0,0,0,86,4.594,67.82,97.112864,P-GPS,,29.6
628,205600,2026-01-12 12:09:21,0.0,5,7.731,0.0,0.0,0.0,17.8,4.8,-5.2,1024,1024,1024,1024,0,0,0,0,86,4.594,67.82,97.112864,P-GPS,,29.6
629,205700,2026-01-12 12:09:21,0.0,5,7.71,0.0,0.0,0.0,17.8,4.9,-5.3,1024,1024,1024,1024,0,0,0,0,86,4.928,67.82,97.112864,P-GPS,,29.6
630,205800,2026-01-12 12:09:21,0.0,5,7.71,0.0,0.0,0.0,17.9,4.9,-5.3,1024,1024,1024,1024,0,0,0,0,86,4.928,67.82,97.112864,P-GPS,,29.6
631,205900,2026-01-12 12:09:21,0.0,5,7.71,0.0,0.0,0.0,18.0,4.9,-5.3,1024,1024,1024,1024,0,0,0,0,86,4.928,67.82,97.112864,P-GPS,,29.6
632,206000,2026-01-12 12:09:21,0.0,5,7.71,0.0,0.0,0.0,18.0,4.9,-5.1,1024,1024,1024,1024,0,0,0,0,86,4.928,67.82,97.112864,P-GPS,,29.6
633,206100,2026-01-12 12:09:21,0.0,5,7.71,0.0,0.0,0.0,18.1,4.7,-5.2,1024,1024,1024,1024,0,0,0,0,86,4.928,67.82,97.112864,P-GPS,,29.6
634,206200,2026-01-12 12:09:21,0.0,5,7.71,0.0,0.0,0.0,18.1,4.7,-5.2,1024,1024,1024,1024,0,0,0,0,86,4.928,67.82,97.112864,P-GPS,,29.6
635,206300,2026-01-12 12:09:21,0.0,5,7.71,0.0,0.0,0.0,18.1,4.8,-5.1,1024,1024,1024,1024,0,0,0,0,86,4.928,67.82,97.112864,P-GPS,,29.6
636,206400,2026-01-12 12:09:21,0.0,5,7.71,0.0,0.0,0.0,18.1,5.0,-5.0,1024,1024,1024,1024,0,0,0,0,86,4.928,67.82,97.112864,P-GPS,,29.6
637,206500,2026-01-12 12:09:21,0.0,5,7.71,0.0,0.0,0.0,18.1,5.1,-4.9,1024,1024,1024,1024,0,0,0,0,86,4.928,67.82,97.112864,P-GPS,,29.6
638,206600,2026-01-12 12:09:21,0.0,5,7.71,0.0,0.0,0.0,18.2,4.8,-4.7,1024,1024,1024,1024,0,0,0,0,86,4.928,67.82,97.112864,P-GPS,,29.6
639,206700,2026-01-12 12:09:22,0.0,5,7.71,0.0,0.0,0.0,18.2,4.8,-4.7,1024,1024,1024,1024,0,0,0,0,86,4.928,67.82,97.112864,P-GPS,,29.6
640,206800,2026-01-12 12:09:22,0.0,5,7.705,0.0,0.0,0.0,18.1,5.1,-4.8,1024,1024,1024,1024,0,0,0,0,86,5.031,67.82,97.112864,P-GPS,,29.6
641,206900,2026-01-12 12:09:22,0.0,5,7.705,0.0,0.0,0.0,18.1,5.0,-4.6,1024,1024,1024,1024,0,0,0,0,86,5.031,67.82,97.112864,P-GPS,,29.6
642,207000,2026-01-12 12:09:22,0.0,5,7.705,0.0,0.0,0.0,18.1,5.1,-4.4,1024,1024,1024,1024,0,0,0,0,86,5.031,67.82,97.112864,P-GPS,,29.6
643,207100,2026-01-12 12:09:22,0.0,5,7.705,0.0,0.0,0.0,18.2,4.8,-4.2,1024,1024,1024,1024,0,0,0,0,86,5.031,67.82,97.112864,P-GPS,,29.6
644,207200,2026-01-12 12:09:22,0.0,5,7.705,0.0,0.0,0.0,18.2,5.0,-4.3,1024,1024,1024,1024,0,0,0,0,86,5.031,67.82,97.112864,P-GPS,,29.6
645,207300,2026-01-12 12:09:22,0.0,5,7.705,0.0,0.0,0.0,18.2,4.8,-4.4,1024,1024,1024,1024,0,0,0,0,86,5.031,67.82,97.112864,P-GPS,,29.6
646,207400,2026-01-12 12:09:22,0.0,5,7.705,0.0,0.0,0.0,18.2,4.9,-4.2,1024,1024,1024,1024,0,0,0,0,86,5.031,67.82,97.112864,P-GPS,,29.6
647,207500,2026-01-12 12:09:22,0.0,5,7.705,0.0,0.0,0.0,18.1,5.7,-2.8,1024,1024,1024,1024,0,0,0,0,86,5.031,67.82,97.112864,P-GPS,,29.6
648,207600,2026-01-12 12:09:23,0.0,5,7.705,0.0,0.0,0.0,18.0,6.1,-2.9,1024,1024,1024,1024,0,0,0,0,86,5.031,67.82,97.112864,P-GPS,,29.6
649,207700,2026-01-12 12:09:23,0.0,5,7.705,0.0,0.0,0.0,17.9,6.1,-3.2,1024,1024,1024,1024,0,0,0,0,86,5.031,67.82,97.440948,P-GPS,,29.7
650,207800,2026-01-12 12:09:23,0.0,5,7.705,0.0,0.0,0.0,17.9,6.1,-3.7,1024,1024,1024,1024,0,0,0,0,86,5.031,67.82,97.440948,P-GPS,,29.7
651,207900,2026-01-12 12:09:23,0.0,5,7.717,0.0,0.0,0.0,17.9,6.2,-4.0,1024,1024,1024,1024,0,0,0,0,86,4.877,67.82,97.440948,P-GPS,,29.7
652,208000,2026-01-12 12:09:23,0.0,5,7.717,0.0,0.0,0.0,18.1,6.3,-3.7,1024,1024,1024,1024,0,0,0,0,86,4.877,67.82,97.440948,P-GPS,,29.7
653,208100,2026-01-12 12:09:23,0.0,5,7.717,0.0,0.0,0.0,18.1,6.4,-4.0,1024,1024,1024,1024,0,0,0,0,86,4.877,67.82,97.769032,P-GPS,,29.8
654,208200,2026-01-12 12:09:23,0.0,5,7.717,0.0,0.0,0.0,17.9,6.5,-3.8,1024,1024,1024,1024,0,0,0,0,86,4.877,67.82,97.769032,P-GPS,,29.8
655,208300,2026-01-12 12:09:23,0.0,5,7.717,0.0,0.0,0.0,17.9,6.4,-3.8,1024,1024,1024,1024,0,0,0,0,86,4.877,67.82,97.769032,P-GPS,,29.8
656,208400,2026-01-12 12:09:23,0.0,5,7.717,0.0,0.0,0.0,18.0,5.4,-3.3,1024,1024,1024,1024,0,0,0,0,86,4.877,67.82,97.769032,P-GPS,,29.8
657,208500,2026-01-12 12:09:23,0.0,5,7.717,0.0,0.0,0.0,18.0,5.7,-3.3,1024,1024,1024,1024,0,0,0,0,86,4.877,67.82,97.769032,P-GPS,,29.8
658,208600,2026-01-12 12:09:23,0.0,5,7.717,0.0,0.0,0.0,17.9,6.0,-3.8,1024,1024,1024,1024,0,0,0,0,86,4.877,67.82,97.769032,P-GPS,,29.8
659,208700,2026-01-12 12:09:24,0.0,5,7.717,0.0,0.0,0.0,17.9,6.3,-4.1,1024,1024,1024,1024,0,0,0,0,86,4.877,67.82,98.097116,P-GPS,,29.9
660,208800,2026-01-12 12:09:24,0.0,5,7.717,0.0,0.0,0.0,17.9,6.2,-4.2,1024,1024,1024,1024,0,0,0,0,86,4.877,67.82,98.097116,P-GPS,,29.9
661,208900,2026-01-12 12:09:24,0.0,5,7.717,0.0,0.0,0.0,18.0,6.5,-4.3,1024,1024,1024,1024,0,0,0,0,86,4.877,67.82,98.097116,P-GPS,,29.9
662,209000,2026-01-12 12:09:24,0.0,5,7.74,0.0,0.0,0.0,18.1,6.7,-4.1,1024,1024,1024,1024,0,0,0,0,86,4.463,67.82,98.097116,P-GPS,,29.9
663,209100,2026-01-12 12:09:24,0.0,5,7.74,0.0,0.0,0.0,17.9,7.2,-4.1,1024,1024,1024,1024,0,0,0,0,86,4.463,67.82,98.4252,P-GPS,,30.0
664,209200,2026-01-12 12:09:24,0.0,5,7.74,0.0,0.0,0.0,17.9,6.8,-4.2,1024,1024,1024,1024,0,0,0,0,86,4.463,67.82,98.4252,P-GPS,,30.0
665,209300,2026-01-12 12:09:24,0.0,5,7.74,0.0,0.0,0.0,17.9,6.6,-4.2,1024,1024,1024,1024,0,0,0,0,86,4.463,67.82,98.4252,P-GPS,,30.0
666,209400,2026-01-12 12:09:24,0.0,5,7.74,0.0,0.0,0.0,17.8,7.0,-4.5,1024,1024,1024,1024,0,0,0,0,86,4.463,67.82,98.4252,P-GPS,,30.0
667,209500,2026-01-12 12:09:24,0.0,5,7.74,0.0,0.0,0.0,17.8,7.1,-4.6,1024,1024,1024,1024,0,0,0,0,86,4.463,67.82,98.4252,P-GPS,,30.0
668,209600,2026-01-12 12:09:25,0.0,5,7.74,0.0,0.0,0.0,17.7,7.7,-4.9,1024,1024,1024,1024,0,0,0,0,86,4.463,67.82,98.4252,P-GPS,,30.0
669,209700,2026-01-12 12:09:25,0.0,5,7.74,0.0,0.0,0.0,17.7,7.8,-5.0,1024,1024,1024,1024,0,0,0,0,86,4.463,67.82,98.4252,P-GPS,,30.0
670,209800,2026-01-12 12:09:25,0.0,5,7.74,0.0,0.0,0.0,17.8,7.7,-4.6,1024,1024,1024,1024,0,0,0,0,86,4.463,67.82,98.4252,P-GPS,,30.0
671,209900,2026-01-12 12:09:25,0.0,5,7.74,0.0,0.0,0.0,17.9,7.4,-4.8,1024,1024,1024,1024,0,0,0,0,86,4.463,67.82,98.4252,P-GPS,,30.0
672,210000,2026-01-12 12:09:25,0.0,5,7.74,0.0,0.0,0.0,17.9,7.4,-4.7,1024,1024,1024,1024,0,0,0,0,86,4.463,67.82,98.4252,P-GPS,,30.0
673,210100,2026-01-12 12:09:25,0.0,5,7.757,0.0,0.0,0.0,18.1,6.9,-4.8,1024,1024,1024,1024,0,0,0,0,86,4.136,67.82,98.4252,P-GPS,,30.0
674,210200,2026-01-12 12:09:25,0.0,5,7.757,0.0,0.0,0.0,18.1,7.1,-4.7,1024,1024,1024,1024,0,0,0,0,86,4.136,67.82,98.4252,P-GPS,,30.0
675,210300,2026-01-12 12:09:25,0.0,5,7.757,0.0,0.0,0.0,18.1,7.4,-4.5,1024,1024,1024,1024,0,0,0,0,86,4.136,67.82,98.097116,P-GPS,,29.9
676,210400,2026-01-12 12:09:25,0.0,5,7.757,0.0,0.0,0.0,18.1,7.3,-3.7,1024,1024,1024,1024,0,0,0,0,86,4.136,67.82,98.097116,P-GPS,,29.9
677,210500,2026-01-12 12:09:25,0.0,5,7.757,0.0,0.0,0.0,18.0,7.1,-3.4,1024,1024,1024,1024,0,0,0,0,86,4.136,67.82,98.097116,P-GPS,,29.9
678,210600,2026-01-12 12:09:26,0.0,5,7.757,0.0,0.0,0.0,18.1,6.9,-3.4,1024,1024,1024,1024,0,0,0,0,86,4.136,67.82,98.097116,P-GPS,,29.9
679,210700,2026-01-12 12:09:26,0.0,5,7.757,0.0,0.0,0.0,18.1,6.1,-3.2,1024,1024,1024,1024,0,0,0,0,86,4.136,67.82,98.097116,P-GPS,,29.9
680,210800,2026-01-12 12:09:26,0.0,5,7.757,0.0,0.0,0.0,17.9,6.1,-3.8,1024,1024,1024,1024,0,0,0,0,86,4.136,67.82,98.097116,P-GPS,,29.9
681,210900,2026-01-12 12:09:26,0.0,5,7.757,0.0,0.0,0.0,17.8,5.9,-4.3,1024,1024,1024,1024,0,0,0,0,86,4.136,67.82,98.097116,P-GPS,,29.9
682,211000,2026-01-12 12:09:26,0.0,5,7.757,0.0,0.0,0.0,17.8,5.9,-4.6,1024,1024,1024,1024,0,0,0,0,86,4.136,67.82,98.097116,P-GPS,,29.9
683,211100,2026-01-12 12:09:26,0.0,5,7.757,0.0,0.0,0.0,17.8,5.8,-4.4,1024,1024,1024,1024,0,0,0,0,86,4.136,67.82,98.097116,P-GPS,,29.9
684,211200,2026-01-12 12:09:26,0.0,5,7.741,0.0,0.0,0.0,17.9,6.0,-4.5,1024,1024,1024,1024,0,0,0,0,86,4.321,68.0,98.097116,P-GPS,,29.9
685,211300,2026-01-12 12:09:26,0.0,5,7.741,0.0,0.0,0.0,17.9,5.7,-4.7,1024,1024,1024,1024,0,0,0,0,86,4.321,68.0,98.097116,P-GPS,,29.9
686,211400,2026-01-12 12:09:26,0.0,5,7.741,0.0,0.0,0.0,18.0,5.4,-4.5,1024,1024,1024,1024,0,0,0,0,86,4.321,68.0,98.097116,P-GPS,,29.9
687,211500,2026-01-12 12:09:26,0.0,5,7.741,0.0,0.0,0.0,18.0,5.7,-4.5,1024,1024,1024,1024,0,0,0,0,86,4.321,68.0,98.097116,P-GPS,,29.9
688,211600,2026-01-12 12:09:27,0.0,5,7.741,0.0,0.0,0.0,17.9,6.2,-4.8,1024,1024,1024,1024,0,0,0,0,86,4.321,68.0,98.097116,P-GPS,,29.9
689,211700,2026-01-12 12:09:27,0.0,5,7.741,0.0,0.0,0.0,17.8,6.7,-5.2,1024,1024,1024,1024,0,0,0,0,86,4.321,68.0,97.769032,P-GPS,,29.8
690,211800,2026-01-12 12:09:27,0.0,5,7.741,0.0,0.0,0.0,17.8,6.9,-5.3,1024,1024,1024,1024,0,0,0,0,86,4.321,68.0,97.769032,P-GPS,,29.8
691,211900,2026-01-12 12:09:27,0.0,5,7.741,0.0,0.0,0.0,17.8,7.1,-5.4,1024,1024,1024,1024,0,0,0,0,86,4.321,68.0,97.769032,P-GPS,,29.8
692,212000,2026-01-12 12:09:27,0.0,5,7.741,0.0,0.0,0.0,17.8,7.3,-5.5,1024,1024,1024,1024,0,0,0,0,86,4.321,68.0,97.769032,P-GPS,,29.8
693,212100,2026-01-12 12:09:27,0.0,5,7.741,0.0,0.0,0.0,17.9,7.3,-5.1,1024,1024,1024,1024,0,0,0,0,86,4.321,68.0,97.769032,P-GPS,,29.8
694,212200,2026-01-12 12:09:27,0.0,5,7.741,0.0,0.0,0.0,17.9,7.6,-5.5,1024,1024,1024,1024,0,0,0,0,86,4.321,68.0,97.769032,P-GPS,,29.8
695,212300,2026-01-12 12:09:27,0.0,5,7.754,0.0,0.0,0.0,17.9,8.0,-5.3,1024,1024,1024,1024,0,0,0,0,86,4.123,68.0,97.769032,P-GPS,,29.8
696,212400,2026-01-12 12:09:27,0.0,5,7.754,0.0,0.0,0.0,17.9,7.4,-4.7,1024,1024,1024,1024,0,0,0,0,86,4.123,68.0,97.769032,P-GPS,,29.8
697,212500,2026-01-12 12:09:27,0.0,5,7.754,0.0,0.0,0.0,17.8,7.5,-4.7,1024,1024,1024,1024,0,0,0,0,86,4.123,68.0,97.769032,P-GPS,,29.8
698,212600,2026-01-12 12:09:28,0.0,5,7.754,0.0,0.0,0.0,17.8,8.0,-4.6,1024,1024,1024,1024,0,0,0,0,86,4.123,68.0,97.769032,P-GPS,,29.8
699,212700,2026-01-12 12:09:28,0.0,5,7.754,0.0,0.0,0.0,17.9,7.6,-4.1,1024,1024,1024,1024,0,0,0,0,86,4.123,68.0,97.769032,P-GPS,,29.8
700,212800,2026-01-12 12:09:28,0.0,5,7.754,0.0,0.0,0.0,18.0,7.3,-4.0,1024,1024,1024,1024,0,0,0,0,86,4.123,68.0,97.769032,P-GPS,,29.8
701,212900,2026-01-12 12:09:28,0.0,5,7.754,0.0,0.0,0.0,18.0,7.3,-4.2,1024,1024,1024,1024,0,0,0,0,86,4.123,68.0,97.769032,P-GPS,,29.8
702,213000,2026-01-12 12:09:28,0.0,5,7.754,0.0,0.0,0.0,18.0,7.2,-3.9,1024,1024,1024,1024,0,0,0,0,86,4.123,68.0,97.769032,P-GPS,,29.8
703,213100,2026-01-12 12:09:28,0.0,5,7.754,0.0,0.0,0.0,18.0,7.3,-4.0,1024,1024,1024,1024,0,0,0,0,86,4.123,68.0,97.769032,P-GPS,,29.8
704,213200,2026-01-12 12:09:28,0.0,5,7.754,0.0,0.0,0.0,17.9,7.2,-3.8,1024,1024,1024,1024,0,0,0,0,86,4.123,68.0,97.769032,P-GPS,,29.8
705,213300,2026-01-12 12:09:28,0.0,5,7.754,0.0,0.0,0.0,17.8,6.9,-4.0,1024,1024,1024,1024,0,0,0,0,86,4.123,68.0,97.769032,P-GPS,,29.8
706,213400,2026-01-12 12:09:28,0.0,5,7.754,0.0,0.0,0.0,17.8,6.7,-4.0,1024,1024,1024,1024,0,0,0,0,86,4.123,68.0,97.769032,P-GPS,,29.8
707,213500,2026-01-12 12:09:28,0.0,5,7.754,0.0,0.0,0.0,17.8,6.2,-4.2,1024,1024,1024,1024,0,0,0,0,86,4.123,68.0,98.097116,P-GPS,,29.9
708,213600,2026-01-12 12:09:29,0.0,5,7.754,0.0,0.0,0.0,17.8,6.1,-4.7,1024,1024,1024,1024,0,0,0,0,86,4.123,68.0,98.097116,P-GPS,,29.9
709,213700,2026-01-12 12:09:29,0.0,5,7.754,0.0,0.0,0.0,17.8,5.6,-4.5,1024,1024,1024,1024,0,0,0,0,86,4.123,68.0,98.097116,P-GPS,,29.9
710,213800,2026-01-12 12:09:29,0.0,5,7.754,0.0,0.0,0.0,17.6,5.7,-4.9,1024,1024,1024,1024,0,0,0,0,86,4.123,68.0,98.097116,P-GPS,,29.9
711,213900,2026-01-12 12:09:29,0.0,5,7.754,0.0,0.0,0.0,17.7,4.7,-4.2,1024,1024,1024,1024,0,0,0,0,86,4.123,68.0,98.097116,P-GPS,,29.9
712,214000,2026-01-12 12:09:29,0.0,5,7.754,0.0,0.0,0.0,17.5,4.8,-4.4,1024,1024,1024,1024,0,0,0,0,85,4.123,68.0,97.769032,P-GPS,,29.8
713,214100,2026-01-12 12:09:29,0.0,5,7.754,0.0,0.0,0.0,17.7,4.7,-4.7,1024,1024,1024,1024,0,0,0,0,85,4.123,68.0,97.769032,P-GPS,,29.8
714,214200,2026-01-12 12:09:29,0.0,5,7.754,0.0,0.0,0.0,17.8,4.1,-4.8,1024,1024,1024,1024,0,0,0,0,85,4.123,68.0,97.769032,P-GPS,,29.8
715,214300,2026-01-12 12:09:29,0.223694,5,7.754,-0.223694,0.0,0.0,17.9,3.3,-5.2,1024,1024,1024,1024,0,0,0,0,85,4.123,68.0,97.769032,P-GPS,,29.8
716,214400,2026-01-12 12:09:29,0.223694,5,7.754,-0.223694,0.0,0.0,17.9,2.3,-5.1,1024,1024,1024,1024,0,0,0,0,85,4.123,68.0,97.769032,P-GPS,,29.8
