index,time(millisecond),timestamp,speed(mph),gpslevel,voltage(v),xSpeed(mph),ySpeed(mph),zSpeed(mph),compass_heading(degrees),pitch(degrees),roll(degrees),rc_elevator,rc_aileron,rc_throttle,rc_rudder,rc_elevator(percent),rc_aileron(percent),rc_throttle(percent),rc_rudder(percent),battery_percent,current(A),battery_temperature(f),ascent(feet),flycState,message,height_above_takeoff(meters)
795,519800,2026-01-11 15:38:51,0.0,5,7.354,0.0,0.0,0.0,12.0,9.2,-5.7,1024,1024,1024,1024,0,0,0,0,65,6.066,66.56,166.338588,P-GPS,,50.7
796,519900,2026-01-11 15:38:52,0.0,5,7.354,0.0,0.0,0.0,12.0,9.1,-5.9,1024,1024,1024,1024,0,0,0,0,65,6.066,66.56,166.338588,P-GPS,,50.7
797,520000,2026-01-11 15:38:52,0.0,5,7.405,0.0,0.0,0.0,12.0,9.1,-6.0,1024,1024,1024,1024,0,0,0,0,65,3.669,66.56,166.666672,P-GPS,,50.8
798,520100,2026-01-11 15:38:52,0.0,5,7.405,0.0,0.0,0.0,12.2,8.1,-5.6,1024,1024,1024,1024,0,0,0,0,65,3.669,66.56,166.666672,P-GPS,,50.8
799,520200,2026-01-11 15:38:52,0.0,5,7.405,0.0,0.0,0.0,12.2,7.7,-5.5,1024,1024,1024,1024,0,0,0,0,65,3.669,66.56,166.666672,P-GPS,,50.8
800,520300,2026-01-11 15:38:52,0.0,5,7.405,0.0,0.0,0.0,12.1,7.2,-5.9,1024,1024,1024,1024,0,0,0,0,65,3.669,66.56,166.666672,P-GPS,,50.8
801,520400,2026-01-11 15:38:52,0.0,5,7.405,0.0,0.0,0.0,12.1,7.2,-6.0,1024,1024,1024,1024,0,0,0,0,65,3.669,66.56,166.666672,P-GPS,,50.8
802,520500,2026-01-11 15:38:52,0.0,5,7.405,0.0,0.0,0.0,12.0,7.2,-5.8,1024,1024,1024,1024,0,0,0,0,65,3.669,66.56,166.994756,P-GPS,,50.9
803,520600,2026-01-11 15:38:52,0.0,5,7.405,0.0,0.0,0.0,12.1,6.9,-5.4,1024,1024,1024,1024,0,0,0,0,65,3.669,66.56,166.994756,P-GPS,,50.9
804,520700,2026-01-11 15:38:52,0.0,5,7.405,0.0,0.0,0.0,12.2,6.6,-4.9,1024,1024,1024,1024,0,0,0,0,65,3.669,66.56,166.994756,P-GPS,,50.9
805,520800,2026-01-11 15:38:53,0.0,5,7.405,0.0,0.0,0.0,12.2,6.6,-4.5,1024,1024,1024,1024,0,0,0,0,65,3.669,66.56,166.994756,P-GPS,,50.9
806,520900,2026-01-11 15:38:53,0.0,5,7.405,0.0,0.0,0.0,12.1,6.6,-4.2,1024,1024,1024,1024,0,0,0,0,65,3.669,66.56,166.994756,P-GPS,,50.9
807,521000,2026-01-11 15:38:53,0.0,5,7.405,0.0,0.0,0.0,12.3,5.6,-3.8,1024,1024,1024,1024,0,0,0,0,65,3.669,66.56,166.994756,P-GPS,,50.9
808,521100,2026-01-11 15:38:53,0.0,5,7.405,0.0,0.0,0.0,12.3,5.6,-3.9,1024,1024,1024,1024,0,0,0,0,65,3.669,66.56,166.994756,P-GPS,,50.9
809,521200,2026-01-11 15:38:53,0.0,5,7.405,0.0,0.0,0.0,12.3,5.7,-3.7,1024,1024,1024,1024,0,0,0,0,65,3.669,66.56,166.994756,P-GPS,,50.9
810,521300,2026-01-11 15:38:53,0.0,5,7.405,0.0,0.0,0.0,12.3,5.7,-3.9,1024,1024,1024,1024,0,0,0,0,65,3.669,66.56,166.994756,P-GPS,,50.9
811,521400,2026-01-11 15:38:53,0.0,5,7.405,0.0,0.0,0.0,12.2,5.8,-3.7,1024,1024,1024,1024,0,0,0,0,65,3.669,66.56,166.994756,P-GPS,,50.9
812,521500,2026-01-11 15:38:53,0.0,5,7.405,0.0,0.0,0.0,12.1,6.6,-4.6,1024,1024,1024,1024,0,0,0,0,65,3.669,66.56,166.994756,P-GPS,,50.9
813,521600,2026-01-11 15:38:53,0.0,5,7.405,0.0,0.0,0.0,12.2,6.5,-4.3,1024,1024,1024,1024,0,0,0,0,65,3.669,66.56,166.994756,P-GPS,,50.9
814,521700,2026-01-11 15:38:53,0.0,5,7.405,0.0,0.0,0.0,12.2,6.7,-4.2,1024,1024,1024,1024,0,0,0,0,65,3.669,66.56,166.994756,P-GPS,,50.9
815,521800,2026-01-11 15:38:53,0.0,5,7.405,0.0,0.0,0.0,12.3,6.6,-4.1,1024,1024,1024,1024,0,0,0,0,65,3.669,66.56,166.994756,P-GPS,,50.9
816,521900,2026-01-11 15:38:54,0.0,5,7.405,0.0,0.0,0.0,12.3,6.2,-4.0,1024,1024,1024,1024,0,0,0,0,65,3.669,66.56,166.994756,P-GPS,,50.9
817,522000,2026-01-11 15:38:54,0.0,5,7.405,0.0,0.0,0.0,12.3,6.3,-4.2,1024,1024,1024,1024,0,0,0,0,65,3.669,66.56,166.994756,P-GPS,,50.9
818,522100,2026-01-11 15:38:54,0.0,5,7.405,0.0,0.0,0.0,12.3,6.6,-4.2,1024,1024,1024,1024,0,0,0,0,65,3.669,66.56,166.994756,P-GPS,,50.9
819,522200,2026-01-11 15:38:54,0.0,5,7.397,0.0,0.0,0.0,12.3,6.3,-4.1,1024,1024,1024,1024,0,0,0,0,65,4.346,66.56,166.994756,P-GPS,,50.9
820,522300,2026-01-11 15:38:54,0.0,5,7.397,0.0,0.0,0.0,12.3,6.1,-4.4,1024,1024,1024,1024,0,0,0,0,65,4.346,66.56,166.994756,P-GPS,,50.9
821,522400,2026-01-11 15:38:54,0.0,5,7.397,0.0,0.0,0.0,12.2,6.1,-4.6,1024,1024,1024,1024,0,0,0,0,65,4.346,66.56,166.994756,P-GPS,,50.9
822,522500,2026-01-11 15:38:54,0.0,5,7.397,0.0,0.0,0.0,12.2,6.1,-4.6,1024,1024,1024,1024,0,0,0,0,65,4.346,66.56,166.994756,P-GPS,,50.9
823,522600,2026-01-11 15:38:54,0.0,5,7.397,0.0,0.0,0.0,12.1,6.1,-4.6,1024,1024,1024,1024,0,0,0,0,65,4.346,66.56,166.994756,P-GPS,,50.9
824,522700,2026-01-11 15:38:54,0.0,5,7.397,0.0,0.0,0.0,12.1,6.2,-4.9,1024,1024,1024,1024,0,0,0,0,65,4.346,66.56,166.994756,P-GPS,,50.9
825,522800,2026-01-11 15:38:54,0.0,5,7.397,0.0,0.0,0.0,12.2,6.0,-4.7,1024,1024,1024,1024,0,0,0,0,65,4.346,66.56,166.994756,P-GPS,,50.9
826,522900,2026-01-11 15:38:55,0.0,5,7.397,0.0,0.0,0.223694,12.2,6.1,-4.4,1024,1024,1024,1024,0,0,0,0,65,4.346,66.56,166.994756,P-GPS,,50.9
827,523000,2026-01-11 15:38:55,0.0,5,7.397,0.0,0.0,0.223694,12.3,6.1,-4.1,1024,1024,1024,1024,0,0,0,0,65,4.346,66.56,166.994756,P-GPS,,50.9
828,523100,2026-01-11 15:38:55,0.0,5,7.397,0.0,0.0,0.223694,12.3,5.7,-4.1,1024,1024,1024,1024,0,0,0,0,65,4.346,66.56,167.32284,P-GPS,,51.0
829,523200,2026-01-11 15:38:55,0.0,5,7.397,0.0,0.0,0.223694,12.3,5.6,-4.1,1024,1024,1024,1024,0,0,0,0,65,4.346,66.56,167.32284,P-GPS,,51.0
830,523300,2026-01-11 15:38:55,0.0,5,7.397,0.0,0.0,0.0,12.3,5.7,-4.1,1024,1024,1024,1024,0,0,0,0,65,4.103,66.56,167.32284,P-GPS,,51.0
831,523400,2026-01-11 15:38:55,0.0,5,7.397,0.0,0.0,0.0,12.3,6.0,-4.0,1024,1024,1024,1024,0,0,0,0,65,4.103,66.56,167.650924,P-GPS,,51.1
832,523500,2026-01-11 15:38:55,0.0,5,7.397,0.0,0.0,0.0,12.2,6.0,-4.1,1024,1024,1024,1024,0,0,0,0,65,4.103,66.56,167.650924,P-GPS,,51.1
833,523600,2026-01-11 15:38:55,0.0,5,7.397,0.0,0.0,0.0,12.2,6.3,-4.6,1024,1024,1024,1024,0,0,0,0,65,4.103,66.56,167.650924,P-GPS,,51.1
834,523700,2026-01-11 15:38:55,0.0,5,7.397,0.0,0.0,0.0,12.4,5.5,-4.6,1024,1024,1024,1024,0,0,0,0,65,4.103,66.56,167.650924,P-GPS,,51.1
835,523800,2026-01-11 15:38:56,0.0,5,7.397,0.0,0.0,0.0,12.5,4.5,-4.9,1024,1024,1024,1024,0,0,0,0,65,4.103,66.56,167.979008,P-GPS,,51.2
836,523900,2026-01-11 15:38:56,0.0,5,7.397,0.0,0.0,0.0,12.4,4.5,-5.2,1024,1024,1024,1024,0,0,0,0,65,4.103,66.56,167.979008,P-GPS,,51.2
837,524000,2026-01-11 15:38:56,0.0,5,7.397,0.0,0.0,0.0,12.3,4.8,-5.5,1024,1024,1024,1024,0,0,0,0,65,4.103,66.56,167.979008,P-GPS,,51.2
838,524100,2026-01-11 15:38:56,0.0,5,7.397,0.0,0.0,0.0,12.4,4.2,-5.9,1024,1024,1024,1024,0,0,0,0,65,4.103,66.56,167.979008,P-GPS,,51.2
839,524200,2026-01-11 15:38:56,0.0,5,7.397,0.0,0.0,0.0,12.4,4.5,-6.3,1024,1024,1024,1024,0,0,0,0,65,4.103,66.56,167.979008,P-GPS,,51.2
840,524300,2026-01-11 15:38:56,0.0,5,7.397,0.0,0.0,0.0,12.4,4.9,-6.6,1024,1024,1024,1024,0,0,0,0,65,4.103,66.56,168.307092,P-GPS,,51.3
841,524400,2026-01-11 15:38:56,0.223694,5,7.374,0.0,0.223694,0.0,12.3,5.3,-6.7,1024,1024,1024,1024,0,0,0,0,65,4.73,66.56,168.307092,P-GPS,,51.3
842,524500,2026-01-11 15:38:56,0.0,5,7.374,0.0,0.0,0.0,12.3,5.4,-6.8,1024,1024,1024,1024,0,0,0,0,65,4.73,66.56,168.307092,P-GPS,,51.3
843,524600,2026-01-11 15:38:56,0.0,5,7.374,0.0,0.0,0.0,12.3,5.8,-6.6,1024,1024,1024,1024,0,0,0,0,65,4.73,66.56,168.307092,P-GPS,,51.3
844,524700,2026-01-11 15:38:56,0.0,5,7.374,0.0,0.0,0.0,12.2,6.4,-6.9,1024,1024,1024,1024,0,0,0,0,65,4.73,66.56,168.307092,P-GPS,,51.3
845,524800,2026-01-11 15:38:56,0.0,5,7.374,0.0,0.0,0.223694,12.3,6.3,-6.9,1024,1024,1024,1024,0,0,0,0,65,4.73,66.56,168.307092,P-GPS,,51.3
846,524900,2026-01-11 15:38:57,0.0,5,7.374,0.0,0.0,0.223694,12.3,6.3,-6.6,1024,1024,1024,1024,0,0,0,0,65,4.73,66.56,168.307092,P-GPS,,51.3
847,525000,2026-01-11 15:38:57,0.0,5,7.374,0.0,0.0,0.223694,12.3,6.0,-6.7,1024,1024,1024,1024,0,0,0,0,65,4.73,66.56,168.307092,P-GPS,,51.3
848,525100,2026-01-11 15:38:57,0.0,5,7.374,0.0,0.0,0.223694,12.3,5.8,-6.6,1024,1024,1024,1024,0,0,0,0,65,4.73,66.56,168.307092,P-GPS,,51.3
849,525200,2026-01-11 15:38:57,0.0,5,7.374,0.0,0.0,0.223694,12.3,5.8,-6.5,1024,1024,1024,1024,0,0,0,0,65,4.73,66.56,168.307092,P-GPS,,51.3
850,525300,2026-01-11 15:38:57,0.0,5,7.374,0.0,0.0,0.0,12.3,5.9,-6.5,1024,1024,1024,1024,0,0,0,0,65,4.73,66.56,168.307092,P-GPS,,51.3
851,525400,2026-01-11 15:38:57,0.0,5,7.374,0.0,0.0,0.223694,12.3,6.3,-6.5,1024,1024,1024,1024,0,0,0,0,65,4.73,66.56,168.307092,P-GPS,,51.3
852,525500,2026-01-11 15:38:57,0.0,5,7.369,0.0,0.0,0.223694,12.2,6.4,-6.6,1024,1024,1024,1024,0,0,0,0,64,4.806,66.56,168.307092,P-GPS,,51.3
853,525600,2026-01-11 15:38:57,0.0,5,7.369,0.0,0.0,0.0,12.3,5.8,-6.5,1024,1024,1024,1024,0,0,0,0,64,4.806,66.56,167.979008,P-GPS,,51.2
854,525700,2026-01-11 15:38:57,0.0,5,7.369,0.0,0.0,0.0,12.4,5.6,-6.3,1024,1024,1024,1024,0,0,0,0,64,4.806,66.56,167.979008,P-GPS,,51.2
855,525800,2026-01-11 15:38:58,0.0,5,7.369,0.0,0.0,0.0,12.4,6.3,-6.2,1024,1024,1024,1024,0,0,0,0,64,4.806,66.56,167.979008,P-GPS,,51.2
856,525900,2026-01-11 15:38:58,0.0,5,7.369,0.0,0.0,0.223694,12.3,7.2,-6.0,1024,1024,1024,1024,0,0,0,0,64,4.806,66.56,167.979008,P-GPS,,51.2
857,526000,2026-01-11 15:38:58,0.0,5,7.369,0.0,0.0,0.223694,12.3,6.9,-5.9,1024,1024,1024,1024,0,0,0,0,64,4.806,66.56,167.979008,P-GPS,,51.2
858,526100,2026-01-11 15:38:58,0.0,5,7.369,0.0,0.0,0.0,12.3,6.7,-5.8,1024,1024,1024,1024,0,0,0,0,64,4.806,66.56,167.979008,P-GPS,,51.2
859,526200,2026-01-11 15:38:58,0.0,5,7.369,0.0,0.0,0.0,12.3,6.9,-6.1,1024,1024,1024,1024,0,0,0,0,64,4.806,66.56,167.979008,P-GPS,,51.2
860,526300,2026-01-11 15:38:58,0.0,5,7.369,0.0,0.0,0.0,12.2,7.2,-6.5,1024,1024,1024,1024,0,0,0,0,64,4.806,66.56,167.979008,P-GPS,,51.2
861,526400,2026-01-11 15:38:58,0.0,5,7.369,0.0,0.0,0.223694,12.3,7.1,-6.6,1024,1024,1024,1024,0,0,0,0,64,4.806,66.56,167.979008,P-GPS,,51.2
862,526500,2026-01-11 15:38:58,0.0,5,7.369,0.0,0.0,0.223694,12.3,7.0,-6.8,1024,1024,1024,1024,0,0,0,0,64,4.806,66.56,167.650924,P-GPS,,51.1
863,526600,2026-01-11 15:38:58,0.0,5,7.386,0.0,0.0,0.223694,12.3,7.1,-6.7,1024,1024,1024,1024,0,0,0,0,64,4.628,66.56,167.650924,P-GPS,,51.1
864,526700,2026-01-11 15:38:58,0.0,5,7.386,0.0,0.0,0.223694,12.3,7.1,-6.8,1024,1024,1024,1024,0,0,0,0,64,4.628,66.56,167.650924,P-GPS,,51.1
865,526800,2026-01-11 15:38:58,0.0,5,7.386,0.0,0.0,0.0,12.3,7.2,-6.7,1024,1024,1024,1024,0,0,0,0,64,4.628,66.56,167.650924,P-GPS,,51.1
866,526900,2026-01-11 15:38:59,0.0,5,7.386,0.0,0.0,0.0,12.3,7.4,-6.8,1024,1024,1024,1024,0,0,0,0,64,4.628,66.56,167.650924,P-GPS,,51.1
867,527000,2026-01-11 15:38:59,0.0,5,7.386,0.0,0.0,0.0,12.2,8.1,-6.9,1024,1024,1024,1024,0,0,0,0,64,4.628,66.56,167.650924,P-GPS,,51.1
868,527100,2026-01-11 15:38:59,0.0,5,7.386,0.0,0.0,0.0,12.1,8.6,-7.0,1024,1024,1024,1024,0,0,0,0,64,4.628,66.56,167.650924,P-GPS,,51.1
869,527200,2026-01-11 15:38:59,0.0,5,7.386,0.0,0.0,0.0,12.2,8.5,-7.0,1024,1024,1024,1024,0,0,0,0,64,4.628,66.56,167.650924,P-GPS,,51.1
870,527300,2026-01-11 15:38:59,0.0,5,7.386,0.0,0.0,0.0,12.3,8.3,-7.1,1024,1024,1024,1024,0,0,0,0,64,4.628,66.56,167.32284,P-GPS,,51.0
871,527400,2026-01-11 15:38:59,0.0,5,7.386,0.0,0.0,0.0,12.3,8.4,-7.1,1024,1024,1024,1024,0,0,0,0,64,4.628,66.56,167.32284,P-GPS,,51.0
872,527500,2026-01-11 15:38:59,0.0,5,7.386,0.0,0.0,0.0,12.3,7.7,-6.8,1024,1024,1024,1024,0,0,0,0,64,4.628,66.56,167.32284,P-GPS,,51.0
873,527600,2026-01-11 15:38:59,0.0,5,7.386,0.0,0.0,0.0,12.2,8.0,-7.0,1024,1024,1024,1024,0,0,0,0,64,4.628,66.56,167.32284,P-GPS,,51.0
874,527700,2026-01-11 15:38:59,0.0,5,7.362,0.0,0.0,0.0,12.2,8.8,-6.9,1024,1024,1024,1024,0,0,0,0,64,4.884,66.74,167.32284,P-GPS,,51.0
875,527800,2026-01-11 15:39:00,0.0,5,7.362,0.0,0.0,0.0,12.2,8.9,-6.6,1024,1024,1024,1024,0,0,0,0,64,4.884,66.74,166.994756,P-GPS,,50.9
876,527900,2026-01-11 15:39:00,0.0,5,7.362,0.0,0.0,0.0,12.2,8.9,-6.7,1024,1024,1024,1024,0,0,0,0,64,4.884,66.74,166.994756,P-GPS,,50.9
877,528000,2026-01-11 15:39:00,0.0,5,7.362,0.0,0.0,0.0,12.3,8.4,-6.5,1024,1024,1024,1024,0,0,0,0,64,4.884,66.74,166.994756,P-GPS,,50.9
878,528100,2026-01-11 15:39:00,0.0,5,7.362,0.0,0.0,0.0,12.3,8.5,-6.3,1024,1024,1024,1024,0,0,0,0,64,4.884,66.74,166.994756,P-GPS,,50.9
879,528200,2026-01-11 15:39:00,0.0,5,7.362,0.0,0.0,0.0,12.3,7.8,-6.2,1024,1024,1024,1024,0,0,0,0,64,4.884,66.74,166.666672,P-GPS,,50.8
880,528300,2026-01-11 15:39:00,0.0,5,7.362,0.0,0.0,0.0,12.2,8.3,-6.0,1024,1024,1024,1024,0,0,0,0,64,4.884,66.74,166.666672,P-GPS,,50.8
881,528400,2026-01-11 15:39:00,0.0,5,7.362,0.0,0.0,0.0,12.1,8.7,-5.8,1024,1024,1024,1024,0,0,0,0,64,4.884,66.74,166.666672,P-GPS,,50.8
882,528500,2026-01-11 15:39:00,0.0,5,7.362,0.0,0.0,0.0,12.2,8.0,-5.9,1024,1024,1024,1024,0,0,0,0,64,4.884,66.74,166.666672,P-GPS,,50.8
883,528600,2026-01-11 15:39:00,0.0,5,7.362,0.0,0.0,0.0,12.2,7.8,-5.9,1024,1024,1024,1024,0,0,0,0,64,4.884,66.74,166.338588,P-GPS,,50.7
884,528700,2026-01-11 15:39:00,0.0,5,7.362,0.0,0.0,0.0,12.2,7.9,-6.2,1024,1024,1024,1024,0,0,0,0,64,4.884,66.74,166.338588,P-GPS,,50.7
885,528800,2026-01-11 15:39:00,0.0,5,7.376,0.0,0.0,0.0,12.2,8.5,-6.3,1024,1024,1024,1024,0,0,0,0,64,4.628,66.74,166.338588,P-GPS,,50.7
886,528900,2026-01-11 15:39:01,0.0,5,7.376,0.0,0.0,0.0,12.2,8.3,-6.1,1024,1024,1024,1024,0,0,0,0,64,4.628,66.74,166.338588,P-GPS,,50.7
887,529000,2026-01-11 15:39:01,0.0,5,7.376,0.0,0.0,0.0,12.2,8.1,-6.4,1024,1024,1024,1024,0,0,0,0,64,4.628,66.74,166.338588,P-GPS,,50.7
888,529100,2026-01-11 15:39:01,0.0,5,7.376,0.0,0.0,0.0,12.2,8.2,-6.5,1024,1024,1024,1024,0,0,0,0,64,4.628,66.74,166.338588,P-GPS,,50.7
889,529200,2026-01-11 15:39:01,0.0,5,7.376,0.0,0.0,0.0,12.2,8.3,-6.5,1024,1024,1024,1024,0,0,0,0,64,4.628,66.74,166.010504,P-GPS,,50.6
890,529300,2026-01-11 15:39:01,0.0,5,7.376,0.0,0.0,0.0,12.2,8.3,-6.5,1024,1024,1024,1024,0,0,0,0,64,4.628,66.74,166.010504,P-GPS,,50.6
891,529400,2026-01-11 15:39:01,0.0,5,7.376,0.0,0.0,0.0,12.2,8.4,-6.5,1024,1024,1024,1024,0,0,0,0,64,4.628,66.74,166.010504,P-GPS,,50.6
892,529500,2026-01-11 15:39:01,0.0,5,7.376,0.0,0.0,0.0,12.2,8.2,-6.5,1024,1024,1024,1024,0,0,0,0,64,4.628,66.74,166.010504,P-GPS,,50.6
893,529600,2026-01-11 15:39:01,0.0,5,7.376,0.0,0.0,0.0,12.1,8.5,-6.0,1024,1024,1024,1024,0,0,0,0,64,4.628,66.74,166.010504,P-GPS,,50.6
894,529700,2026-01-11 15:39:01,0.0,5,7.376,0.0,0.0,0.0,12.1,8.4,-6.0,1024,1024,1024,1024,0,0,0,0,64,4.628,66.74,166.010504,P-GPS,,50.6
895,529800,2026-01-11 15:39:02,0.0,5,7.376,0.0,0.0,0.0,12.1,8.4,-6.1,1024,1024,1024,1024,0,0,0,0,64,4.628,66.74,165.68242,P-GPS,,50.5
896,529900,2026-01-11 15:39:02,0.0,5,7.378,0.0,0.0,0.0,12.2,8.0,-6.2,1024,1024,1024,1024,0,0,0,0,64,4.753,66.74,165.68242,P-GPS,,50.5
897,530000,2026-01-11 15:39:02,0.0,5,7.378,0.0,0.0,0.0,12.2,7.8,-6.3,1024,1024,1024,1024,0,0,0,0,64,4.753,66.74,165.68242,P-GPS,,50.5
898,530100,2026-01-11 15:39:02,0.0,5,7.378,0.0,0.0,0.0,12.1,7.8,-6.6,1024,1024,1024,1024,0,0,0,0,64,4.753,66.74,165.68242,P-GPS,,50.5
899,530200,2026-01-11 15:39:02,0.0,5,7.378,0.0,0.0,0.0,12.3,7.3,-6.6,1024,1024,1024,1024,0,0,0,0,64,4.753,66.74,165.68242,P-GPS,,50.5
900,530300,2026-01-11 15:39:02,0.0,5,7.378,0.0,0.0,0.0,12.3,7.2,-6.0,1024,1024,1024,1024,0,0,0,0,64,4.753,66.74,165.68242,P-GPS,,50.5
901,530400,2026-01-11 15:39:02,0.0,5,7.378,0.0,0.0,0.0,12.2,7.4,-6.4,1024,1024,1024,1024,0,0,0,0,64,4.753,66.74,165.354336,P-GPS,,50.4
902,530500,2026-01-11 15:39:02,0.0,5,7.378,0.0,0.0,0.0,12.2,7.1,-6.4,1024,1024,1024,1024,0,0,0,0,64,4.753,66.74,165.354336,P-GPS,,50.4
903,530600,2026-01-11 15:39:02,0.0,5,7.378,0.0,0.0,0.0,12.2,7.2,-6.3,1024,1024,1024,1024,0,0,0,0,64,4.753,66.74,165.354336,P-GPS,,50.4
904,530700,2026-01-11 15:39:02,0.0,5,7.378,0.0,0.0,0.0,12.3,6.6,-6.2,1024,1024,1024,1024,0,0,0,0,64,4.753,66.74,165.354336,P-GPS,,50.4
905,530800,2026-01-11 15:39:02,0.0,5,7.378,0.0,0.0,0.0,12.4,6.8,-5.9,1024,1024,1024,1024,0,0,0,0,64,4.753,66.74,165.354336,P-GPS,,50.4
906,530900,2026-01-11 15:39:03,0.0,5,7.378,0.0,0.0,0.0,12.4,6.7,-5.7,1024,1024,1024,1024,0,0,0,0,64,4.753,66.74,165.354336,P-GPS,,50.4
907,531000,2026-01-11 15:39:03,0.0,5,7.349,0.0,0.0,0.0,12.2,7.1,-6.1,1024,1024,1024,1024,0,0,0,0,64,5.144,66.74,165.354336,P-GPS,,50.4
908,531100,2026-01-11 15:39:03,0.0,5,7.349,0.0,0.0,-0.223694,12.2,7.5,-6.1,1024,1024,1024,1024,0,0,0,0,64,5.144,66.74,165.354336,P-GPS,,50.4
909,531200,2026-01-11 15:39:03,0.0,5,7.349,0.0,0.0,0.0,12.2,8.1,-6.2,1024,1024,1024,1024,0,0,0,0,64,5.144,66.74,165.354336,P-GPS,,50.4
910,531300,2026-01-11 15:39:03,0.0,5,7.349,0.0,0.0,0.0,12.1,8.2,-6.9,1024,1024,1024,1024,0,0,0,0,64,5.144,66.74,165.354336,P-GPS,,50.4
911,531400,2026-01-11 15:39:03,0.0,5,7.349,0.0,0.0,0.0,12.2,8.7,-6.3,1024,1024,1024,1024,0,0,0,0,64,5.144,66.74,165.354336,P-GPS,,50.4
912,531500,2026-01-11 15:39:03,0.0,5,7.349,0.0,0.0,0.0,12.2,8.3,-6.1,1024,1024,1024,1024,0,0,0,0,64,5.144,66.74,165.354336,P-GPS,,50.4
913,531600,2026-01-11 15:39:03,0.0,5,7.349,0.0,0.0,0.0,12.2,8.3,-6.3,1024,1024,1024,1024,0,0,0,0,64,5.144,66.74,165.354336,P-GPS,,50.4
914,531700,2026-01-11 15:39:03,0.0,5,7.349,0.0,0.0,0.0,12.2,8.4,-6.1,1024,1024,1024,1024,0,0,0,0,64,5.144,66.74,165.354336,P-GPS,,50.4
915,531800,2026-01-11 15:39:03,0.0,5,7.349,0.0,0.0,0.0,12.2,8.3,-6.2,1024,1024,1024,1024,0,0,0,0,64,5.144,66.74,165.354336,P-GPS,,50.4
916,531900,2026-01-11 15:39:04,0.0,5,7.349,0.0,0.0,0.0,12.2,8.4,-6.3,1024,1024,1024,1024,0,0,0,0,64,5.144,66.74,165.354336,P-GPS,,50.4
917,532000,2026-01-11 15:39:04,0.0,5,7.349,0.0,0.0,0.0,12.2,8.3,-6.5,1024,1024,1024,1024,0,0,0,0,64,5.144,66.74,165.354336,P-GPS,,50.4
918,532100,2026-01-11 15:39:04,0.0,5,7.349,0.0,0.0,0.0,12.1,8.7,-6.5,1024,1024,1024,1024,0,0,0,0,64,5.144,66.74,165.354336,P-GPS,,50.4
919,532200,2026-01-11 15:39:04,0.0,5,7.349,0.0,0.0,0.0,12.1,9.2,-6.5,1024,1024,1024,1024,0,0,0,0,64,5.144,66.74,165.354336,P-GPS,,50.4
920,532300,2026-01-11 15:39:04,0.0,5,7.349,0.0,0.0,0.0,12.2,8.9,-6.4,1024,1024,1024,1024,0,0,0,0,64,5.144,66.74,165.354336,P-GPS,,50.4
921,532400,2026-01-11 15:39:04,0.0,5,7.349,0.0,0.0,0.0,12.2,8.9,-6.3,1024,1024,1024,1024,0,0,0,0,64,5.144,66.74,165.354336,P-GPS,,50.4
922,532500,2026-01-11 15:39:04,0.0,5,7.349,0.0,0.0,0.0,12.2,9.0,-6.4,1024,1024,1024,1024,0,0,0,0,64,5.144,66.74,165.354336,P-GPS,,50.4
923,532600,2026-01-11 15:39:04,0.0,5,7.349,0.0,0.0,0.0,12.3,8.5,-6.1,1024,1024,1024,1024,0,0,0,0,64,5.144,66.74,165.354336,P-GPS,,50.4
924,532700,2026-01-11 15:39:04,0.0,5,7.349,0.0,0.0,0.0,12.2,8.7,-6.2,1024,1024,1024,1024,0,0,0,0,64,5.144,66.74,165.026252,P-GPS,,50.3
925,532800,2026-01-11 15:39:05,0.0,5,7.349,0.0,0.0,0.0,12.2,8.5,-6.2,1024,1024,1024,1024,0,0,0,0,64,5.144,66.74,165.026252,P-GPS,,50.3
926,532900,2026-01-11 15:39:05,0.0,5,7.349,0.0,0.0,0.0,12.3,8.1,-6.1,1024,1024,1024,1024,0,0,0,0,64,5.144,66.74,165.026252,P-GPS,,50.3
927,533000,2026-01-11 15:39:05,0.0,5,7.349,0.0,0.0,0.0,12.2,7.9,-6.3,1024,1024,1024,1024,0,0,0,0,64,5.144,66.74,165.026252,P-GPS,,50.3
928,533100,2026-01-11 15:39:05,0.0,5,7.349,0.0,0.0,0.0,12.1,8.2,-6.1,1024,1024,1024,1024,0,0,0,0,64,5.144,66.74,165.026252,P-GPS,,50.3
929,533200,2026-01-11 15:39:05,0.0,5,7.359,0.0,0.0,0.0,12.1,7.8,-6.1,1024,1024,1024,1024,0,0,0,0,64,5.042,66.92,165.026252,P-GPS,,50.3
930,533300,2026-01-11 15:39:05,0.0,5,7.359,0.0,0.0,0.0,12.1,7.9,-5.9,1024,1024,1024,1024,0,0,0,0,64,5.042,66.92,165.026252,P-GPS,,50.3
931,533400,2026-01-11 15:39:05,0.0,5,7.359,0.0,0.0,0.0,12.1,8.0,-6.0,1024,1024,1024,1024,0,0,0,0,64,5.042,66.92,165.026252,P-GPS,,50.3
932,533500,2026-01-11 15:39:05,0.0,5,7.359,0.0,0.0,0.0,12.1,7.3,-5.8,1024,1024,1024,1024,0,0,0,0,64,5.042,66.92,165.026252,P-GPS,,50.3
933,533600,2026-01-11 15:39:05,0.0,5,7.359,0.0,0.0,0.0,12.2,7.2,-5.6,1024,1024,1024,1024,0,0,0,0,64,5.042,66.92,165.026252,P-GPS,,50.3
934,533700,2026-01-11 15:39:05,0.0,5,7.359,0.0,0.0,0.0,12.1,7.0,-5.4,1024,1024,1024,1024,0,0,0,0,64,5.042,66.92,165.026252,P-GPS,,50.3
935,533800,2026-01-11 15:39:05,0.0,5,7.359,0.0,0.0,0.0,12.0,6.9,-5.2,1024,1024,1024,1024,0,0,0,0,64,5.042,66.92,165.026252,P-GPS,,50.3
936,533900,2026-01-11 15:39:06,0.0,5,7.359,0.0,0.0,0.0,11.9,6.8,-5.5,1024,1024,1024,1024,0,0,0,0,64,5.042,66.92,165.026252,P-GPS,,50.3
937,534000,2026-01-11 15:39:06,0.0,5,7.359,0.0,0.0,0.0,12.0,6.9,-5.6,1024,1024,1024,1024,0,0,0,0,64,5.042,66.92,165.026252,P-GPS,,50.3
938,534100,2026-01-11 15:39:06,0.0,5,7.359,0.0,0.0,0.0,12.1,7.0,-5.6,1024,1024,1024,1024,0,0,0,0,64,5.042,66.92,165.026252,P-GPS,,50.3
939,534200,2026-01-11 15:39:06,0.0,5,7.359,0.0,0.0,0.0,12.1,7.1,-4.8,1024,1024,1024,1024,0,0,0,0,64,5.042,66.92,165.026252,P-GPS,,50.3
940,534300,2026-01-11 15:39:06,0.0,5,7.359,0.0,0.0,0.0,12.2,6.6,-4.6,1024,1024,1024,1024,0,0,0,0,64,5.042,66.92,165.026252,P-GPS,,50.3
941,534400,2026-01-11 15:39:06,0.0,5,7.359,0.0,0.0,0.0,12.1,5.8,-5.1,1024,1024,1024,1024,0,0,0,0,64,5.042,66.92,165.026252,P-GPS,,50.3
942,534500,2026-01-11 15:39:06,0.0,5,7.359,0.0,0.0,0.0,12.1,5.8,-5.6,1024,1024,1024,1024,0,0,0,0,64,5.042,66.92,165.026252,P-GPS,,50.3
943,534600,2026-01-11 15:39:06,0.0,5,7.359,0.0,0.0,0.0,12.1,5.8,-5.5,1024,1024,1024,1024,0,0,0,0,64,5.042,66.92,165.026252,P-GPS,,50.3
944,534700,2026-01-11 15:39:06,0.0,5,7.359,0.0,0.0,0.0,12.0,6.9,-5.8,1024,1024,1024,1024,0,0,0,0,64,5.042,66.92,165.026252,P-GPS,,50.3
945,534800,2026-01-11 15:39:06,0.0,5,7.359,0.0,0.0,0.0,12.0,7.4,-5.9,1024,1024,1024,1024,0,0,0,0,64,5.042,66.92,165.026252,P-GPS,,50.3
946,534900,2026-01-11 15:39:07,0.0,5,7.359,0.0,0.0,0.0,12.1,7.5,-5.5,1024,1024,1024,1024,0,0,0,0,64,5.042,66.92,165.026252,P-GPS,,50.3
947,535000,2026-01-11 15:39:07,0.0,5,7.359,0.0,0.0,0.0,12.1,7.4,-5.6,1024,1024,1024,1024,0,0,0,0,64,5.042,66.92,165.026252,P-GPS,,50.3
948,535100,2026-01-11 15:39:07,0.0,5,7.403,0.0,0.0,0.0,12.3,7.3,-5.7,1024,1024,1024,1024,0,0,0,0,64,4.317,66.92,165.354336,P-GPS,,50.4
949,535200,2026-01-11 15:39:07,0.0,5,7.403,0.0,0.0,0.0,12.3,6.7,-6.1,1024,1024,1024,1024,0,0,0,0,64,4.317,66.92,165.354336,P-GPS,,50.4
950,535300,2026-01-11 15:39:07,0.0,5,7.403,0.0,0.0,0.0,12.4,6.7,-6.1,1024,1024,1024,1024,0,0,0,0,64,4.317,66.92,165.354336,P-GPS,,50.4
951,535400,2026-01-11 15:39:07,0.0,5,7.403,0.0,0.0,0.0,12.4,6.8,-6.5,1024,1024,1024,1024,0,0,0,0,64,4.317,66.92,165.354336,P-GPS,,50.4
952,535500,2026-01-11 15:39:07,0.0,5,7.403,0.0,0.0,0.0,12.2,7.9,-6.6,1024,1024,1024,1024,0,0,0,0,64,4.317,66.92,165.354336,P-GPS,,50.4
953,535600,2026-01-11 15:39:07,0.0,5,7.403,0.0,0.0,0.0,12.1,8.4,-6.8,1024,1024,1024,1024,0,0,0,0,64,4.317,66.92,165.354336,P-GPS,,50.4
954,535700,2026-01-11 15:39:07,0.0,5,7.403,0.0,0.0,0.0,12.2,8.4,-6.7,1024,1024,1024,1024,0,0,0,0,64,4.317,66.92,165.354336,P-GPS,,50.4
955,535800,2026-01-11 15:39:07,0.0,5,7.403,0.0,0.0,0.0,12.3,7.9,-6.2,1024,1024,1024,1024,0,0,0,0,64,4.317,66.92,165.354336,P-GPS,,50.4
956,535900,2026-01-11 15:39:08,0.0,5,7.403,0.0,0.0,0.0,12.3,8.2,-6.0,1024,1024,1024,1024,0,0,0,0,64,4.317,66.92,165.026252,P-GPS,,50.3
957,536000,2026-01-11 15:39:08,0.0,5,7.403,0.0,0.0,0.0,12.4,7.9,-6.0,1024,1024,1024,1024,0,0,0,0,64,4.317,66.92,165.026252,P-GPS,,50.3
958,536100,2026-01-11 15:39:08,0.0,5,7.396,0.0,0.0,0.0,12.3,8.1,-6.2,1024,1024,1024,1024,0,0,0,0,64,4.045,66.92,165.026252,P-GPS,,50.3
959,536200,2026-01-11 15:39:08,0.0,5,7.396,0.0,0.0,0.0,12.2,8.6,-6.5,1024,1024,1024,1024,0,0,0,0,64,4.045,66.92,165.026252,P-GPS,,50.3
960,536300,2026-01-11 15:39:08,0.0,5,7.396,0.0,0.0,0.0,12.1,9.8,-6.7,1024,1024,1024,1024,0,0,0,0,64,4.045,66.92,165.026252,P-GPS,,50.3
961,536400,2026-01-11 15:39:08,0.0,5,7.396,0.0,0.0,0.0,12.2,8.9,-6.3,1024,1024,1024,1024,0,0,0,0,64,4.045,66.92,165.026252,P-GPS,,50.3
962,536500,2026-01-11 15:39:08,0.0,5,7.396,0.0,0.0,0.0,12.4,8.4,-6.6,1024,1024,1024,1024,0,0,0,0,64,4.045,66.92,165.026252,P-GPS,,50.3
963,536600,2026-01-11 15:39:08,0.0,5,7.396,0.0,0.0,0.0,12.4,8.0,-6.5,1024,1024,1024,1024,0,0,0,0,64,4.045,66.92,165.026252,P-GPS,,50.3
964,536700,2026-01-11 15:39:08,0.0,5,7.396,0.0,0.0,0.0,12.4,7.9,-6.7,1024,1024,1024,1024,0,0,0,0,64,4.045,66.92,165.026252,P-GPS,,50.3
965,536800,2026-01-11 15:39:08,0.0,5,7.396,0.0,0.0,0.0,12.3,8.2,-6.7,1024,1024,1024,1024,0,0,0,0,64,4.045,66.92,165.026252,P-GPS,,50.3
966,536900,2026-01-11 15:39:09,0.0,5,7.396,0.0,0.0,0.0,12.2,8.5,-6.9,1024,1024,1024,1024,0,0,0,0,64,4.045,66.92,165.026252,P-GPS,,50.3
967,537000,2026-01-11 15:39:09,0.0,5,7.396,0.0,0.0,-0.223694,12.1,9.0,-7.2,1024,1024,1024,1024,0,0,0,0,64,4.045,66.92,165.026252,P-GPS,,50.3
968,537100,2026-01-11 15:39:09,0.0,5,7.409,0.0,0.0,0.0,12.1,9.0,-7.0,1024,1024,1024,1024,0,0,0,0,64,4.065,66.92,165.026252,P-GPS,,50.3
969,537200,2026-01-11 15:39:09,0.0,5,7.409,0.0,0.0,0.0,12.2,8.4,-6.8,1024,1024,1024,1024,0,0,0,0,64,4.065,66.92,165.026252,P-GPS,,50.3
970,537300,2026-01-11 15:39:09,0.0,5,7.409,0.0,0.0,0.0,12.1,8.9,-6.7,1024,1024,1024,1024,0,0,0,0,64,4.065,66.92,164.698168,P-GPS,,50.2
971,537400,2026-01-11 15:39:09,0.0,5,7.409,0.0,0.0,0.0,12.0,9.0,-6.8,1024,1024,1024,1024,0,0,0,0,64,4.065,66.92,164.698168,P-GPS,,50.2
972,537500,2026-01-11 15:39:09,0.0,5,7.409,0.0,0.0,0.0,12.0,8.7,-6.8,1024,1024,1024,1024,0,0,0,0,64,4.065,66.92,164.698168,P-GPS,,50.2
973,537600,2026-01-11 15:39:09,0.0,5,7.409,0.0,0.0,0.0,12.1,8.8,-6.7,1024,1024,1024,1024,0,0,0,0,64,4.065,66.92,164.698168,P-GPS,,50.2
974,537700,2026-01-11 15:39:09,0.0,5,7.409,0.0,0.0,0.0,12.1,8.6,-6.6,1024,1024,1024,1024,0,0,0,0,64,4.065,66.92,164.698168,P-GPS,,50.2
975,537800,2026-01-11 15:39:09,0.0,5,7.409,0.0,0.0,0.0,12.0,8.1,-6.7,1024,1024,1024,1024,0,0,0,0,64,4.065,66.92,164.698168,P-GPS,,50.2
976,537900,2026-01-11 15:39:10,0.0,5,7.409,0.0,0.0,0.0,12.1,8.3,-6.6,1024,1024,1024,1024,0,0,0,0,64,4.065,66.92,164.698168,P-GPS,,50.2
977,538000,2026-01-11 15:39:10,0.0,5,7.409,0.0,0.0,0.0,12.3,8.0,-6.2,1024,1024,1024,1024,0,0,0,0,64,4.065,66.92,164.698168,P-GPS,,50.2
978,538100,2026-01-11 15:39:10,0.0,5,7.404,0.0,0.0,0.0,12.3,8.2,-6.2,1024,1024,1024,1024,0,0,0,0,64,4.217,66.92,164.698168,P-GPS,,50.2
979,538200,2026-01-11 15:39:10,0.0,5,7.404,0.0,0.0,0.0,12.4,7.7,-6.3,1024,1024,1024,1024,0,0,0,0,64,4.217,66.92,164.698168,P-GPS,,50.2
980,538300,2026-01-11 15:39:10,0.0,5,7.404,0.0,0.0,0.0,12.4,8.5,-6.0,1024,1024,1024,1024,0,0,0,0,64,4.217,66.92,164.698168,P-GPS,,50.2
981,538400,2026-01-11 15:39:10,0.0,5,7.404,0.0,0.0,0.0,12.2,8.9,-6.0,1024,1024,1024,1024,0,0,0,0,64,4.217,66.92,164.370084,P-GPS,,50.1
982,538500,2026-01-11 15:39:10,0.0,5,7.404,0.0,0.0,0.0,12.2,9.0,-6.1,1024,1024,1024,1024,0,0,0,0,64,4.217,66.92,164.370084,P-GPS,,50.1
983,538600,2026-01-11 15:39:10,0.0,5,7.404,0.0,0.0,0.0,12.1,9.8,-6.2,1024,1024,1024,1024,0,0,0,0,64,4.217,66.92,164.698168,P-GPS,,50.2
984,538700,2026-01-11 15:39:10,0.0,5,7.404,0.0,0.0,0.0,12.1,9.5,-6.2,1024,1024,1024,1024,0,0,0,0,64,4.217,66.92,164.698168,P-GPS,,50.2
985,538800,2026-01-11 15:39:10,0.0,5,7.404,0.0,0.0,0.0,12.2,9.0,-6.8,1024,1024,1024,1024,0,0,0,0,64,4.217,66.92,164.698168,P-GPS,,50.2
986,538900,2026-01-11 15:39:11,0.0,5,7.404,0.0,0.0,0.0,12.2,8.9,-6.6,1024,1024,1024,1024,0,0,0,0,64,4.217,66.92,164.698168,P-GPS,,50.2
987,539000,2026-01-11 15:39:11,0.0,5,7.404,0.0,0.0,0.0,12.2,9.1,-6.3,1024,1024,1024,1024,0,0,0,0,64,4.217,66.92,165.026252,P-GPS,,50.3
988,539100,2026-01-11 15:39:11,0.0,5,7.377,0.0,0.0,0.0,12.2,8.9,-6.5,1024,1024,1024,1024,0,0,0,0,64,4.391,66.92,165.026252,P-GPS,,50.3
989,539200,2026-01-11 15:39:11,0.0,5,7.377,0.0,0.0,0.0,12.1,8.8,-6.8,1024,1024,1024,1024,0,0,0,0,64,4.391,66.92,165.026252,P-GPS,,50.3
990,539300,2026-01-11 15:39:11,0.0,5,7.377,0.0,0.0,0.0,12.1,9.0,-7.1,1024,1024,1024,1024,0,0,0,0,64,4.391,66.92,165.354336,P-GPS,,50.4
991,539400,2026-01-11 15:39:11,0.0,5,7.377,0.0,0.0,0.0,12.1,8.9,-6.9,1024,1024,1024,1024,0,0,0,0,64,4.391,66.92,165.354336,P-GPS,,50.4
992,539500,2026-01-11 15:39:11,0.0,5,7.377,0.0,0.0,0.0,12.1,8.9,-6.9,1024,1024,1024,1024,0,0,0,0,64,4.391,66.92,165.354336,P-GPS,,50.4
993,539600,2026-01-11 15:39:11,0.0,5,7.377,0.0,0.0,0.0,12.1,8.9,-7.0,1024,1024,1024,1024,0,0,0,0,64,4.391,66.92,165.354336,P-GPS,,50.4
994,539700,2026-01-11 15:39:11,0.0,5,7.377,0.0,0.0,0.0,12.1,9.1,-7.0,1024,1024,1024,1024,0,0,0,0,64,4.391,66.92,165.68242,P-GPS,,50.5
995,539800,2026-01-11 15:39:12,0.0,5,7.377,0.0,0.0,0.0,12.1,8.6,-7.3,1024,1024,1024,1024,0,0,0,0,64,4.391,66.92,165.68242,P-GPS,,50.5
996,539900,2026-01-11 15:39:12,0.0,5,7.377,0.0,0.0,0.0,12.0,9.2,-7.3,1024,1024,1024,1024,0,0,0,0,64,4.391,66.92,165.68242,P-GPS,,50.5
997,540000,2026-01-11 15:39:12,0.0,5,7.377,0.0,0.0,0.0,12.0,9.1,-7.3,1024,1024,1024,1024,0,0,0,0,64,4.391,66.92,165.68242,P-GPS,,50.5
998,540100,2026-01-11 15:39:12,0.0,5,7.376,0.0,0.0,0.0,12.1,8.7,-7.5,1024,1024,1024,1024,0,0,0,0,63,4.677,66.92,165.68242,P-GPS,,50.5
999,540200,2026-01-11 15:39:12,0.0,5,7.376,0.0,0.0,0.0,12.1,8.7,-7.4,1024,1024,1024,1024,0,0,0,0,63,4.677,66.92,165.68242,P-GPS,,50.5
1000,540300,2026-01-11 15:39:12,0.0,5,7.376,0.0,0.0,0.0,12.1,9.2,-7.4,1024,1024,1024,1024,0,0,0,0,63,4.677,66.92,165.68242,P-GPS,,50.5
1001,540400,2026-01-11 15:39:12,0.0,5,7.376,0.0,0.0,0.0,12.1,8.9,-7.5,1024,1024,1024,1024,0,0,0,0,63,4.677,66.92,165.68242,P-GPS,,50.5
1002,540500,2026-01-11 15:39:12,0.0,5,7.376,0.0,0.0,0.0,12.0,9.1,-7.1,1024,1024,1024,1024,0,0,0,0,63,4.677,66.92,165.354336,P-GPS,,50.4
1003,540600,2026-01-11 15:39:12,0.0,5,7.376,0.0,0.0,0.0,12.1,8.7,-7.2,1024,1024,1024,1024,0,0,0,0,63,4.677,66.92,165.354336,P-GPS,,50.4
1004,540700,2026-01-11 15:39:12,0.0,5,7.376,0.0,0.0,0.0,12.1,8.8,-7.1,1024,1024,1024,1024,0,0,0,0,63,4.677,66.92,165.354336,P-GPS,,50.4
1005,540800,2026-01-11 15:39:12,0.0,5,7.376,0.0,0.0,0.0,12.1,8.7,-6.9,1024,1024,1024,1024,0,0,0,0,63,4.677,66.92,165.354336,P-GPS,,50.4
1006,540900,2026-01-11 15:39:13,0.0,5,7.376,0.0,0.0,0.0,12.0,8.5,-6.8,1024,1024,1024,1024,0,0,0,0,63,4.677,66.92,165.354336,P-GPS,,50.4
1007,541000,2026-01-11 15:39:13,0.0,5,7.376,0.0,0.0,0.0,12.0,8.1,-6.8,1024,1024,1024,1024,0,0,0,0,63,4.677,66.92,165.354336,P-GPS,,50.4
1008,541100,2026-01-11 15:39:13,0.0,5,7.387,0.0,0.0,0.0,12.0,8.2,-6.3,1024,1024,1024,1024,0,0,0,0,63,4.484,66.92,165.354336,P-GPS,,50.4
1009,541200,2026-01-11 15:39:13,0.0,5,7.387,0.0,0.0,0.0,12.1,7.9,-6.1,1024,1024,1024,1024,0,0,0,0,63,4.484,66.92,165.354336,P-GPS,,50.4
1010,541300,2026-01-11 15:39:13,0.0,5,7.387,0.0,0.0,0.0,12.0,7.7,-6.1,1024,1024,1024,1024,0,0,0,0,63,4.484,66.92,165.354336,P-GPS,,50.4
1011,541400,2026-01-11 15:39:13,0.0,5,7.387,0.0,0.0,0.0,11.9,8.3,-6.2,1024,1024,1024,1024,0,0,0,0,63,4.484,66.92,165.354336,P-GPS,,50.4
1012,541500,2026-01-11 15:39:13,0.0,5,7.387,0.0,0.0,0.0,12.0,8.2,-6.4,1024,1024,1024,1024,0,0,0,0,63,4.484,66.92,165.354336,P-GPS,,50.4
1013,541600,2026-01-11 15:39:13,0.0,5,7.387,0.0,0.0,0.0,12.0,7.9,-6.3,1024,1024,1024,1024,0,0,0,0,63,4.484,66.92,165.354336,P-GPS,,50.4
1014,541700,2026-01-11 15:39:13,0.0,5,7.387,0.0,0.0,0.0,12.0,7.2,-6.3,1024,1024,1024,1024,0,0,0,0,63,4.484,66.92,165.354336,P-GPS,,50.4
1015,541800,2026-01-11 15:39:14,0.0,5,7.387,0.0,0.0,0.0,12.0,7.6,-6.8,1024,1024,1024,1024,0,0,0,0,63,4.484,66.92,165.354336,P-GPS,,50.4
1016,541900,2026-01-11 15:39:14,0.0,5,7.387,0.0,0.0,0.0,12.0,7.4,-7.3,1024,1024,1024,1024,0,0,0,0,63,4.484,66.92,165.68242,P-GPS,,50.5
1017,542000,2026-01-11 15:39:14,0.0,5,7.414,0.0,0.0,0.0,12.2,6.8,-7.6,1024,1024,1024,1024,0,0,0,0,63,4.22,66.92,165.68242,P-GPS,,50.5
1018,542100,2026-01-11 15:39:14,0.0,5,7.414,0.0,0.0,0.0,12.1,6.9,-7.4,1024,1024,1024,1024,0,0,0,0,63,4.22,66.92,165.68242,P-GPS,,50.5
1019,542200,2026-01-11 15:39:14,0.0,5,7.414,0.0,0.0,0.0,12.2,6.7,-6.9,1024,1024,1024,1024,0,0,0,0,63,4.22,66.92,165.68242,P-GPS,,50.5
1020,542300,2026-01-11 15:39:14,0.0,5,7.414,0.0,0.0,0.0,12.1,6.8,-6.8,1024,1024,1024,1024,0,0,0,0,63,4.22,66.92,165.68242,P-GPS,,50.5
1021,542400,2026-01-11 15:39:14,0.0,5,7.414,0.0,0.0,0.0,12.2,5.9,-6.3,1024,1024,1024,1024,0,0,0,0,63,4.22,66.92,165.68242,P-GPS,,50.5
1022,542500,2026-01-11 15:39:14,0.0,5,7.414,0.0,0.0,0.0,12.0,5.7,-5.9,1024,1024,1024,1024,0,0,0,0,63,4.22,66.92,165.354336,P-GPS,,50.4
1023,542600,2026-01-11 15:39:14,0.0,5,7.414,0.0,0.0,-0.223694,12.0,6.0,-6.0,1024,1024,1024,1024,0,0,0,0,63,4.22,66.92,165.354336,P-GPS,,50.4
