index,time(millisecond),timestamp,speed(mph),gpslevel,voltage(v),xSpeed(mph),ySpeed(mph),zSpeed(mph),compass_heading(degrees),pitch(degrees),roll(degrees),rc_elevator,rc_aileron,rc_throttle,rc_rudder,rc_elevator(percent),rc_aileron(percent),rc_throttle(percent),rc_rudder(percent),battery_percent,current(A),battery_temperature(f),ascent(feet),flycState,message,height_above_takeoff(meters)
451,469500,2026-01-13 12:29:08,0.223694,5,7.427,0.0,0.223694,0.0,7.5,7.4,-16.7,1024,1024,1024,1024,0,0,0,0,68,6.94,76.46,99.409452,P-GPS,,30.3
452,469600,2026-01-13 12:29:08,0.0,5,7.427,0.0,0.0,0.0,7.7,7.0,-16.5,1024,1024,1024,1024,0,0,0,0,68,6.94,76.46,99.409452,P-GPS,,30.3
453,469700,2026-01-13 12:29:08,0.0,5,7.427,0.0,0.0,0.0,7.7,7.1,-16.2,1024,1024,1024,1024,0,0,0,0,68,6.94,76.46,99.409452,P-GPS,,30.3
454,469800,2026-01-13 12:29:08,0.0,5,7.427,0.0,0.0,0.0,7.5,7.6,-15.9,1024,1024,1024,1024,0,0,0,0,68,6.94,76.46,99.409452,P-GPS,,30.3
455,469900,2026-01-13 12:29:08,0.0,5,7.427,0.0,0.0,0.0,7.3,7.9,-15.8,1024,1024,1024,1024,0,0,0,0,68,6.94,76.46,99.737536,P-GPS,,30.4
456,470000,2026-01-13 12:29:09,0.0,5,7.427,0.0,0.0,0.0,7.8,6.6,-14.8,1024,1024,1024,1024,0,0,0,0,68,6.94,76.46,99.409452,P-GPS,,30.3
457,470100,2026-01-13 12:29:09,0.0,5,7.427,0.0,0.0,0.0,7.9,6.7,-13.7,1024,1024,1024,1024,0,0,0,0,68,6.94,76.46,99.409452,P-GPS,,30.3
458,470200,2026-01-13 12:29:09,0.223694,5,7.427,0.0,-0.223694,-0.223694,8.1,6.5,-13.0,1024,1024,1024,1024,0,0,0,0,68,6.94,76.46,99.409452,P-GPS,,30.3
459,470300,2026-01-13 12:29:09,0.223694,5,7.427,0.0,-0.223694,0.0,7.9,7.0,-13.3,1024,1024,1024,1024,0,0,0,0,68,6.94,76.46,99.409452,P-GPS,,30.3
460,470400,2026-01-13 12:29:09,0.0,5,7.417,0.0,0.0,0.0,8.0,6.9,-13.2,1024,1024,1024,1024,0,0,0,0,68,6.585,76.46,99.409452,P-GPS,,30.3
461,470500,2026-01-13 12:29:09,0.0,5,7.417,0.0,0.0,0.0,7.9,7.1,-13.4,1024,1024,1024,1024,0,0,0,0,68,6.585,76.46,99.409452,P-GPS,,30.3
462,470600,2026-01-13 12:29:09,0.0,5,7.417,0.0,0.0,0.0,7.8,7.3,-14.0,1024,1024,1024,1024,0,0,0,0,68,6.585,76.46,99.409452,P-GPS,,30.3
463,470700,2026-01-13 12:29:09,0.0,5,7.417,0.0,0.0,0.0,7.6,7.8,-14.1,1024,1024,1024,1024,0,0,0,0,68,6.585,76.46,99.409452,P-GPS,,30.3
464,470800,2026-01-13 12:29:09,0.0,5,7.417,0.0,0.0,0.0,7.7,7.1,-13.7,1024,1024,1024,1024,0,0,0,0,68,6.585,76.46,99.409452,P-GPS,,30.3
465,470900,2026-01-13 12:29:09,0.0,5,7.417,0.0,0.0,0.0,7.7,6.9,-13.7,1024,1024,1024,1024,0,0,0,0,68,6.585,76.46,99.409452,P-GPS,,30.3
466,471000,2026-01-13 12:29:10,0.0,5,7.417,0.0,0.0,0.0,7.8,6.8,-13.5,1024,1024,1024,1024,0,0,0,0,68,6.585,76.46,99.081368,P-GPS,,30.2
467,471100,2026-01-13 12:29:10,0.0,5,7.417,0.0,0.0,0.0,8.0,6.3,-13.8,1024,1024,1024,1024,0,0,0,0,68,6.585,76.46,99.081368,P-GPS,,30.2
468,471200,2026-01-13 12:29:10,0.0,5,7.417,0.0,0.0,0.0,7.8,6.7,-13.9,1024,1024,1024,1024,0,0,0,0,68,6.585,76.46,99.081368,P-GPS,,30.2
469,471300,2026-01-13 12:29:10,0.0,5,7.417,0.0,0.0,0.0,7.6,7.4,-13.0,1024,1024,1024,1024,0,0,0,0,68,6.585,76.46,99.081368,P-GPS,,30.2
470,471400,2026-01-13 12:29:10,0.0,5,7.417,0.0,0.0,0.0,7.8,7.0,-12.9,1024,1024,1024,1024,0,0,0,0,68,6.585,76.46,99.081368,P-GPS,,30.2
471,471500,2026-01-13 12:29:10,0.0,5,7.393,0.0,0.0,0.0,8.1,5.8,-12.9,1024,1024,1024,1024,0,0,0,0,68,6.163,76.46,98.753284,P-GPS,,30.1
472,471600,2026-01-13 12:29:10,0.0,5,7.393,0.0,0.0,0.0,7.9,6.3,-13.2,1024,1024,1024,1024,0,0,0,0,68,6.163,76.46,98.753284,P-GPS,,30.1
473,471700,2026-01-13 12:29:10,0.0,5,7.393,0.0,0.0,0.0,7.8,6.2,-13.7,1024,1024,1024,1024,0,0,0,0,68,6.163,76.46,98.753284,P-GPS,,30.1
474,471800,2026-01-13 12:29:10,0.0,5,7.393,0.0,0.0,0.0,7.8,6.8,-14.0,1024,1024,1024,1024,0,0,0,0,68,6.163,76.46,98.753284,P-GPS,,30.1
475,471900,2026-01-13 12:29:10,0.0,5,7.393,0.0,0.0,0.0,7.6,7.8,-13.7,1024,1024,1024,1024,0,0,0,0,68,6.163,76.46,99.081368,P-GPS,,30.2
476,472000,2026-01-13 12:29:11,0.0,5,7.393,0.0,0.0,0.0,7.8,7.4,-13.4,1024,1024,1024,1024,0,0,0,0,68,6.163,76.46,99.081368,P-GPS,,30.2
477,472100,2026-01-13 12:29:11,0.0,5,7.393,0.0,0.0,0.0,8.0,7.3,-13.7,1024,1024,1024,1024,0,0,0,0,68,6.163,76.46,99.081368,P-GPS,,30.2
478,472200,2026-01-13 12:29:11,0.223694,5,7.393,0.223694,0.0,0.0,7.7,8.4,-13.4,1024,1024,1024,1024,0,0,0,0,68,6.163,76.46,99.081368,P-GPS,,30.2
479,472300,2026-01-13 12:29:11,0.223694,5,7.393,0.223694,0.0,0.0,7.5,9.2,-13.4,1024,1024,1024,1024,0,0,0,0,68,6.163,76.46,99.081368,P-GPS,,30.2
480,472400,2026-01-13 12:29:11,0.447388,5,7.393,0.447388,0.0,0.0,7.4,10.1,-13.1,1024,1024,1024,1024,0,0,0,0,68,6.163,76.46,99.081368,P-GPS,,30.2
481,472500,2026-01-13 12:29:11,0.223694,5,7.393,0.223694,0.0,0.0,7.4,10.9,-12.9,1024,1024,1024,1024,0,0,0,0,68,6.163,76.46,99.081368,P-GPS,,30.2
482,472600,2026-01-13 12:29:11,0.223694,5,7.389,0.223694,0.0,0.0,7.5,10.4,-12.1,1024,1024,1024,1024,0,0,0,0,68,6.137,76.46,99.081368,P-GPS,,30.2
483,472700,2026-01-13 12:29:11,0.0,5,7.389,0.0,0.0,0.0,7.7,9.8,-12.0,1024,1024,1024,1024,0,0,0,0,68,6.137,76.46,98.753284,P-GPS,,30.1
484,472800,2026-01-13 12:29:11,0.0,5,7.389,0.0,0.0,0.0,7.7,10.0,-11.3,1024,1024,1024,1024,0,0,0,0,68,6.137,76.46,98.753284,P-GPS,,30.1
485,472900,2026-01-13 12:29:11,0.0,5,7.389,0.0,0.0,0.0,7.8,9.3,-10.7,1024,1024,1024,1024,0,0,0,0,68,6.137,76.46,98.753284,P-GPS,,30.1
486,473000,2026-01-13 12:29:12,0.0,5,7.389,0.0,0.0,0.0,7.7,9.5,-10.9,1024,1024,1024,1024,0,0,0,0,68,6.137,76.46,98.753284,P-GPS,,30.1
487,473100,2026-01-13 12:29:12,0.0,5,7.389,0.0,0.0,0.0,7.6,9.9,-10.9,1024,1024,1024,1024,0,0,0,0,68,6.137,76.46,98.4252,P-GPS,,30.0
488,473200,2026-01-13 12:29:12,0.0,5,7.389,0.0,0.0,0.0,7.6,9.4,-11.0,1024,1024,1024,1024,0,0,0,0,68,6.137,76.46,98.4252,P-GPS,,30.0
489,473300,2026-01-13 12:29:12,0.0,5,7.389,0.0,0.0,0.223694,7.8,8.8,-10.7,1024,1024,1024,1024,0,0,0,0,68,6.137,76.46,98.4252,P-GPS,,30.0
490,473400,2026-01-13 12:29:12,0.0,5,7.389,0.0,0.0,0.223694,8.1,7.5,-10.7,1024,1024,1024,1024,0,0,0,0,68,6.137,76.46,98.4252,P-GPS,,30.0
491,473500,2026-01-13 12:29:12,0.0,5,7.389,0.0,0.0,0.0,7.8,8.6,-11.2,1024,1024,1024,1024,0,0,0,0,68,6.137,76.46,98.4252,P-GPS,,30.0
492,473600,2026-01-13 12:29:12,0.0,5,7.389,0.0,0.0,0.0,7.7,9.1,-11.7,1024,1024,1024,1024,0,0,0,0,68,6.137,76.46,98.4252,P-GPS,,30.0
493,473700,2026-01-13 12:29:12,0.0,5,7.389,0.0,0.0,0.0,7.7,9.0,-11.9,1024,1024,1024,1024,0,0,0,0,68,6.137,76.46,98.753284,P-GPS,,30.1
494,473800,2026-01-13 12:29:12,0.0,5,7.389,0.0,0.0,0.0,7.5,9.2,-12.3,1024,1024,1024,1024,0,0,0,0,68,6.137,76.46,98.753284,P-GPS,,30.1
495,473900,2026-01-13 12:29:12,0.0,5,7.389,0.0,0.0,0.0,7.4,9.3,-12.9,1024,1024,1024,1024,0,0,0,0,68,6.137,76.46,98.753284,P-GPS,,30.1
496,474000,2026-01-13 12:29:13,0.0,5,7.389,0.0,0.0,0.0,7.6,8.4,-13.0,1024,1024,1024,1024,0,0,0,0,68,6.137,76.46,98.753284,P-GPS,,30.1
497,474100,2026-01-13 12:29:13,0.0,5,7.389,0.0,0.0,0.0,7.6,7.9,-13.3,1024,1024,1024,1024,0,0,0,0,68,6.137,76.46,99.081368,P-GPS,,30.2
498,474200,2026-01-13 12:29:13,0.0,5,7.389,0.0,0.0,0.0,7.4,8.6,-13.2,1024,1024,1024,1024,0,0,0,0,68,6.137,76.46,99.081368,P-GPS,,30.2
499,474300,2026-01-13 12:29:13,0.0,5,7.389,0.0,0.0,0.0,7.7,7.1,-13.5,1024,1024,1024,1024,0,0,0,0,68,6.137,76.46,99.081368,P-GPS,,30.2
500,474400,2026-01-13 12:29:13,0.0,5,7.389,0.0,0.0,-0.223694,7.5,7.4,-13.8,1024,1024,1024,1024,0,0,0,0,68,6.137,76.46,99.081368,P-GPS,,30.2
501,474500,2026-01-13 12:29:13,0.0,5,7.389,0.0,0.0,0.0,7.3,8.6,-13.0,1024,1024,1024,1024,0,0,0,0,68,6.137,76.46,99.081368,P-GPS,,30.2
502,474600,2026-01-13 12:29:13,0.0,5,7.389,0.0,0.0,0.0,7.4,7.9,-13.1,1024,1024,1024,1024,0,0,0,0,68,6.137,76.46,98.753284,P-GPS,,30.1
503,474700,2026-01-13 12:29:13,0.0,5,7.389,0.0,0.0,0.0,7.4,7.7,-13.0,1024,1024,1024,1024,0,0,0,0,68,6.137,76.46,98.753284,P-GPS,,30.1
504,474800,2026-01-13 12:29:13,0.223694,5,7.394,-0.223694,0.0,0.0,7.5,7.3,-12.4,1024,1024,1024,1024,0,0,0,0,68,6.425,76.64,98.753284,P-GPS,,30.1
505,474900,2026-01-13 12:29:13,0.223694,5,7.394,-0.223694,0.0,0.0,7.8,6.2,-12.6,1024,1024,1024,1024,0,0,0,0,68,6.425,76.64,98.753284,P-GPS,,30.1
506,475000,2026-01-13 12:29:14,0.223694,5,7.394,-0.223694,0.0,0.0,8.0,4.6,-13.6,1024,1024,1024,1024,0,0,0,0,68,6.425,76.64,98.753284,P-GPS,,30.1
507,475100,2026-01-13 12:29:14,0.447388,5,7.394,-0.447388,0.0,0.0,8.0,4.3,-14.0,1024,1024,1024,1024,0,0,0,0,68,6.425,76.64,98.753284,P-GPS,,30.1
508,475200,2026-01-13 12:29:14,0.223694,5,7.394,-0.223694,0.0,0.0,8.2,3.4,-13.4,1024,1024,1024,1024,0,0,0,0,68,6.425,76.64,98.753284,P-GPS,,30.1
509,475300,2026-01-13 12:29:14,0.223694,5,7.394,-0.223694,0.0,0.0,8.1,4.1,-13.1,1024,1024,1024,1024,0,0,0,0,68,6.425,76.64,98.753284,P-GPS,Strong wind warning Strong wind warning. Aircraft unable to return to home automatically. Lower altitude immediately and return to home manually (Code: 30149). SD card speed low. Normal use may be affected. Replace SD card (Code: 10028). Gimbal stuck. Make sure gimbal c,30.1
510,475400,2026-01-13 12:29:14,0.0,5,7.394,0.0,0.0,0.0,8.0,4.8,-13.2,1024,1024,1024,1024,0,0,0,0,68,6.425,76.64,98.4252,P-GPS,,30.0
511,475500,2026-01-13 12:29:14,0.0,5,7.394,0.0,0.0,0.0,8.1,4.8,-12.5,1024,1024,1024,1024,0,0,0,0,68,6.425,76.64,98.4252,P-GPS,,30.0
512,475600,2026-01-13 12:29:14,0.0,5,7.394,0.0,0.0,0.0,8.1,4.3,-11.5,1024,1024,1024,1024,0,0,0,0,68,6.425,76.64,98.4252,P-GPS,,30.0
513,475700,2026-01-13 12:29:14,0.0,5,7.394,0.0,0.0,0.0,7.9,5.1,-12.4,1024,1024,1024,1024,0,0,0,0,68,6.425,76.64,98.4252,P-GPS,,30.0
514,475800,2026-01-13 12:29:14,0.0,5,7.394,0.0,0.0,0.0,8.0,4.7,-11.3,1024,1024,1024,1024,0,0,0,0,68,6.425,76.64,98.097116,P-GPS,,29.9
515,475900,2026-01-13 12:29:14,0.0,5,7.403,0.0,0.0,0.0,8.2,4.5,-11.3,1024,1024,1024,1024,0,0,0,0,68,6.243,76.64,98.097116,P-GPS,,29.9
516,476000,2026-01-13 12:29:15,0.0,5,7.403,0.0,0.0,0.0,8.0,5.4,-11.8,1024,1024,1024,1024,0,0,0,0,68,6.243,76.64,98.097116,P-GPS,,29.9
517,476100,2026-01-13 12:29:15,0.0,5,7.403,0.0,0.0,0.0,7.9,5.7,-12.5,1024,1024,1024,1024,0,0,0,0,68,6.243,76.64,98.097116,P-GPS,,29.9
518,476200,2026-01-13 12:29:15,0.0,5,7.403,0.0,0.0,0.0,7.9,6.0,-11.8,1024,1024,1024,1024,0,0,0,0,68,6.243,76.64,98.097116,P-GPS,,29.9
519,476300,2026-01-13 12:29:15,0.0,5,7.403,0.0,0.0,0.0,8.1,5.3,-11.8,1024,1024,1024,1024,0,0,0,0,68,6.243,76.64,98.097116,P-GPS,,29.9
520,476400,2026-01-13 12:29:15,0.0,5,7.403,0.0,0.0,0.0,7.8,6.4,-11.5,1024,1024,1024,1024,0,0,0,0,68,6.243,76.64,98.097116,P-GPS,,29.9
521,476500,2026-01-13 12:29:15,0.0,5,7.403,0.0,0.0,0.0,7.5,8.3,-11.2,1024,1024,1024,1024,0,0,0,0,68,6.243,76.64,98.097116,P-GPS,,29.9
522,476600,2026-01-13 12:29:15,0.0,5,7.403,0.0,0.0,0.0,7.6,7.8,-10.1,1024,1024,1024,1024,0,0,0,0,68,6.243,76.64,97.769032,P-GPS,,29.8
523,476700,2026-01-13 12:29:15,0.0,5,7.403,0.0,0.0,0.0,7.9,6.3,-10.4,1024,1024,1024,1024,0,0,0,0,68,6.243,76.64,97.769032,P-GPS,,29.8
524,476800,2026-01-13 12:29:15,0.0,5,7.403,0.0,0.0,0.0,7.9,6.6,-10.4,1024,1024,1024,1024,0,0,0,0,68,6.243,76.64,97.769032,P-GPS,,29.8
525,476900,2026-01-13 12:29:15,0.0,5,7.403,0.0,0.0,0.223694,7.6,8.1,-10.5,1024,1024,1024,1024,0,0,0,0,68,6.243,76.64,97.769032,P-GPS,,29.8
526,477000,2026-01-13 12:29:16,0.0,5,7.466,0.0,0.0,0.223694,7.7,7.9,-10.0,1024,1024,1024,1024,0,0,0,0,67,4.485,76.64,97.769032,P-GPS,,29.8
527,477100,2026-01-13 12:29:16,0.0,5,7.466,0.0,0.0,0.223694,7.8,7.5,-10.2,1024,1024,1024,1024,0,0,0,0,67,4.485,76.64,97.769032,P-GPS,,29.8
528,477200,2026-01-13 12:29:16,0.0,5,7.466,0.0,0.0,0.223694,7.8,7.1,-10.2,1024,1024,1024,1024,0,0,0,0,67,4.485,76.64,97.769032,P-GPS,,29.8
529,477300,2026-01-13 12:29:16,0.0,5,7.466,0.0,0.0,0.0,7.9,7.1,-10.9,1024,1024,1024,1024,0,0,0,0,67,4.485,76.64,98.097116,P-GPS,,29.9
530,477400,2026-01-13 12:29:16,0.0,5,7.466,0.0,0.0,0.0,7.8,7.3,-11.5,1024,1024,1024,1024,0,0,0,0,67,4.485,76.64,98.097116,P-GPS,,29.9
531,477500,2026-01-13 12:29:16,0.0,5,7.466,0.0,0.0,0.0,7.8,7.2,-10.9,1024,1024,1024,1024,0,0,0,0,67,4.485,76.64,98.097116,P-GPS,,29.9
532,477600,2026-01-13 12:29:16,0.0,5,7.466,0.0,0.0,0.0,7.7,7.6,-11.1,1024,1024,1024,1024,0,0,0,0,67,4.485,76.64,98.097116,P-GPS,,29.9
533,477700,2026-01-13 12:29:16,0.0,5,7.466,0.0,0.0,0.0,7.7,7.5,-11.0,1024,1024,1024,1024,0,0,0,0,67,4.485,76.64,98.097116,P-GPS,,29.9
534,477800,2026-01-13 12:29:16,0.0,5,7.466,0.0,0.0,0.0,7.8,6.7,-11.3,1024,1024,1024,1024,0,0,0,0,67,4.485,76.64,98.097116,P-GPS,,29.9
535,477900,2026-01-13 12:29:16,0.0,5,7.466,0.0,0.0,0.0,7.9,6.4,-11.3,1024,1024,1024,1024,0,0,0,0,67,4.485,76.64,98.097116,P-GPS,,29.9
536,478000,2026-01-13 12:29:17,0.0,5,7.466,0.0,0.0,0.0,7.9,6.3,-11.4,1024,1024,1024,1024,0,0,0,0,67,4.485,76.64,98.097116,P-GPS,,29.9
537,478100,2026-01-13 12:29:17,0.0,5,7.416,0.0,0.0,0.0,7.8,6.7,-11.2,1024,1024,1024,1024,0,0,0,0,67,5.8,76.82,98.4252,P-GPS,,30.0
538,478200,2026-01-13 12:29:17,0.0,5,7.416,0.0,0.0,0.0,8.0,6.0,-10.8,1024,1024,1024,1024,0,0,0,0,67,5.8,76.82,98.4252,P-GPS,,30.0
539,478300,2026-01-13 12:29:17,0.0,5,7.416,0.0,0.0,0.0,7.9,6.3,-10.7,1024,1024,1024,1024,0,0,0,0,67,5.8,76.82,98.4252,P-GPS,,30.0
540,478400,2026-01-13 12:29:17,0.0,5,7.416,0.0,0.0,0.0,7.8,6.5,-10.9,1024,1024,1024,1024,0,0,0,0,67,5.8,76.82,98.4252,P-GPS,,30.0
541,478500,2026-01-13 12:29:17,0.0,5,7.416,0.0,0.0,0.0,7.8,6.6,-10.8,1024,1024,1024,1024,0,0,0,0,67,5.8,76.82,98.4252,P-GPS,,30.0
542,478600,2026-01-13 12:29:17,0.0,5,7.416,0.0,0.0,0.0,7.7,6.1,-10.9,1024,1024,1024,1024,0,0,0,0,67,5.8,76.82,98.4252,P-GPS,,30.0
543,478700,2026-01-13 12:29:17,0.0,5,7.416,0.0,0.0,0.0,7.8,5.8,-10.1,1024,1024,1024,1024,0,0,0,0,67,5.8,76.82,98.097116,P-GPS,,29.9
544,478800,2026-01-13 12:29:17,0.0,5,7.416,0.0,0.0,-0.223694,8.1,4.9,-10.1,1024,1024,1024,1024,0,0,0,0,67,5.8,76.82,98.097116,P-GPS,,29.9
545,478900,2026-01-13 12:29:17,0.0,5,7.416,0.0,0.0,0.0,8.2,5.1,-9.7,1024,1024,1024,1024,0,0,0,0,67,5.8,76.82,98.097116,P-GPS,,29.9
546,479000,2026-01-13 12:29:18,0.0,5,7.416,0.0,0.0,0.0,7.9,6.5,-9.1,1024,1024,1024,1024,0,0,0,0,67,5.8,76.82,98.097116,P-GPS,,29.9
547,479100,2026-01-13 12:29:18,0.0,5,7.416,0.0,0.0,0.0,7.9,7.0,-8.8,1024,1024,1024,1024,0,0,0,0,67,5.8,76.82,98.097116,P-GPS,,29.9
548,479200,2026-01-13 12:29:18,0.0,5,7.406,0.0,0.0,0.0,8.0,6.4,-8.3,1024,1024,1024,1024,0,0,0,0,67,5.838,76.82,98.097116,P-GPS,,29.9
549,479300,2026-01-13 12:29:18,0.223694,5,7.406,0.0,-0.223694,0.0,8.1,6.4,-8.0,1024,1024,1024,1024,0,0,0,0,67,5.838,76.82,98.097116,P-GPS,,29.9
550,479400,2026-01-13 12:29:18,0.223694,5,7.406,0.0,-0.223694,0.0,7.9,7.2,-8.2,1024,1024,1024,1024,0,0,0,0,67,5.838,76.82,98.097116,P-GPS,,29.9
551,479500,2026-01-13 12:29:18,0.223694,5,7.406,0.0,-0.223694,0.0,7.8,7.5,-8.0,1024,1024,1024,1024,0,0,0,0,67,5.838,76.82,98.097116,P-GPS,,29.9
552,479600,2026-01-13 12:29:18,0.223694,5,7.406,0.0,-0.223694,0.0,7.9,6.2,-7.3,1024,1024,1024,1024,0,0,0,0,67,5.838,76.82,98.097116,P-GPS,,29.9
553,479700,2026-01-13 12:29:18,0.223694,5,7.406,0.0,-0.223694,0.0,8.0,5.4,-6.7,1024,1024,1024,1024,0,0,0,0,67,5.838,76.82,98.097116,P-GPS,,29.9
554,479800,2026-01-13 12:29:18,0.223694,5,7.406,0.0,-0.223694,0.0,8.0,4.5,-6.7,1024,1024,1024,1024,0,0,0,0,67,5.838,76.82,98.097116,P-GPS,,29.9
555,479900,2026-01-13 12:29:18,0.3131716,5,7.406,-0.223694,-0.223694,0.0,8.1,3.7,-6.2,1024,1024,1024,1024,0,0,0,0,67,5.838,76.82,98.097116,P-GPS,,29.9
556,480000,2026-01-13 12:29:19,0.3131716,5,7.406,-0.223694,-0.223694,-0.223694,8.2,3.3,-5.6,1024,1024,1024,1024,0,0,0,0,67,5.838,76.82,98.097116,P-GPS,,29.9
557,480100,2026-01-13 12:29:19,0.0,5,7.406,0.0,0.0,-0.223694,8.1,3.4,-6.2,1024,1024,1024,1024,0,0,0,0,67,5.838,76.82,98.4252,P-GPS,,30.0
558,480200,2026-01-13 12:29:19,0.0,5,7.406,0.0,0.0,0.0,8.1,3.0,-6.4,1024,1024,1024,1024,0,0,0,0,67,5.838,76.82,98.4252,P-GPS,,30.0
559,480300,2026-01-13 12:29:19,0.0,5,7.425,0.0,0.0,0.0,8.1,3.0,-6.0,1024,1024,1024,1024,0,0,0,0,67,5.721,76.82,98.4252,P-GPS,,30.0
560,480400,2026-01-13 12:29:19,0.0,5,7.425,0.0,0.0,0.0,8.0,3.1,-6.7,1024,1024,1024,1024,0,0,0,0,67,5.721,76.82,98.4252,P-GPS,,30.0
561,480500,2026-01-13 12:29:19,0.0,5,7.425,0.0,0.0,0.0,8.0,3.1,-7.2,1024,1024,1024,1024,0,0,0,0,67,5.721,76.82,98.4252,P-GPS,,30.0
562,480600,2026-01-13 12:29:19,0.0,5,7.425,0.0,0.0,0.0,8.1,2.2,-6.9,1024,1024,1024,1024,0,0,0,0,67,5.721,76.82,98.4252,P-GPS,,30.0
563,480700,2026-01-13 12:29:19,0.223694,5,7.425,-0.223694,0.0,0.0,8.0,2.0,-7.5,1024,1024,1024,1024,0,0,0,0,67,5.721,76.82,98.4252,P-GPS,,30.0
564,480800,2026-01-13 12:29:19,0.223694,5,7.425,-0.223694,0.0,0.0,8.1,1.1,-7.6,1024,1024,1024,1024,0,0,0,0,67,5.721,76.82,98.753284,P-GPS,,30.1
565,480900,2026-01-13 12:29:19,0.223694,5,7.425,-0.223694,0.0,0.0,8.0,1.3,-7.0,1024,1024,1024,1024,0,0,0,0,67,5.721,76.82,98.753284,P-GPS,,30.1
566,481000,2026-01-13 12:29:20,0.0,5,7.425,0.0,0.0,0.0,8.2,1.1,-7.5,1024,1024,1024,1024,0,0,0,0,67,5.721,76.82,98.753284,P-GPS,,30.1
567,481100,2026-01-13 12:29:20,0.0,5,7.425,0.0,0.0,0.0,8.3,0.9,-7.6,1024,1024,1024,1024,0,0,0,0,67,5.721,76.82,99.081368,P-GPS,,30.2
568,481200,2026-01-13 12:29:20,0.0,5,7.425,0.0,0.0,0.0,8.4,1.0,-7.3,1024,1024,1024,1024,0,0,0,0,67,5.721,76.82,99.081368,P-GPS,,30.2
569,481300,2026-01-13 12:29:20,0.0,5,7.425,0.0,0.0,-0.447388,8.8,-1.1,-8.1,1024,1024,1024,1024,0,0,0,0,67,5.721,76.82,99.409452,P-GPS,,30.3
570,481400,2026-01-13 12:29:20,0.0,5,7.425,0.223694,0.0,-0.447388,8.3,3.7,-8.4,1024,1024,1024,1024,0,0,0,0,67,5.721,76.82,99.409452,P-GPS,,30.3
571,481500,2026-01-13 12:29:20,0.3131716,5,7.427,0.223694,0.223694,-0.223694,8.0,6.0,-8.6,1024,1024,1024,1024,0,0,0,0,67,5.145,76.82,99.409452,P-GPS,,30.3
572,481600,2026-01-13 12:29:20,0.223694,5,7.427,0.0,0.223694,0.0,7.6,6.7,-8.4,1024,1024,1024,1024,0,0,0,0,67,5.145,76.82,99.737536,P-GPS,,30.4
573,481700,2026-01-13 12:29:20,0.223694,5,7.427,0.0,0.223694,0.0,7.9,2.5,-8.2,1024,1024,1024,1024,0,0,0,0,67,5.145,76.82,99.737536,P-GPS,,30.4
574,481800,2026-01-13 12:29:20,0.223694,5,7.427,0.0,0.223694,0.0,8.1,1.5,-9.5,1024,1024,1024,1024,0,0,0,0,67,5.145,76.82,99.737536,P-GPS,,30.4
575,481900,2026-01-13 12:29:20,0.223694,5,7.427,0.0,0.223694,0.0,8.4,-0.3,-10.1,1024,1024,1024,1024,0,0,0,0,67,5.145,76.82,99.737536,P-GPS,,30.4
576,482000,2026-01-13 12:29:21,0.223694,5,7.427,0.0,0.223694,0.0,8.2,1.1,-10.6,1024,1024,1024,1024,0,0,0,0,67,5.145,76.82,99.737536,P-GPS,,30.4
577,482100,2026-01-13 12:29:21,0.223694,5,7.427,0.0,0.223694,0.0,8.4,0.7,-10.6,1024,1024,1024,1024,0,0,0,0,67,5.145,76.82,99.737536,P-GPS,,30.4
578,482200,2026-01-13 12:29:21,0.223694,5,7.427,0.0,0.223694,0.0,8.2,1.0,-11.3,1024,1024,1024,1024,0,0,0,0,67,5.145,76.82,99.409452,P-GPS,,30.3
579,482300,2026-01-13 12:29:21,0.223694,5,7.427,0.0,0.223694,0.223694,8.0,2.2,-11.6,1024,1024,1024,1024,0,0,0,0,67,5.145,76.82,99.409452,P-GPS,,30.3
580,482400,2026-01-13 12:29:21,0.0,5,7.427,0.0,0.0,0.223694,8.2,2.1,-10.7,1024,1024,1024,1024,0,0,0,0,67,5.145,76.82,99.409452,P-GPS,,30.3
581,482500,2026-01-13 12:29:21,0.0,5,7.427,0.0,0.0,0.0,8.2,3.0,-10.8,1024,1024,1024,1024,0,0,0,0,67,5.145,76.82,99.409452,P-GPS,,30.3
582,482600,2026-01-13 12:29:21,0.0,5,7.481,0.0,0.0,0.0,8.3,2.6,-10.9,1024,1024,1024,1024,0,0,0,0,67,4.125,76.82,99.409452,P-GPS,,30.3
583,482700,2026-01-13 12:29:21,0.223694,5,7.481,0.0,0.223694,0.0,8.1,3.9,-11.8,1024,1024,1024,1024,0,0,0,0,67,4.125,76.82,99.737536,P-GPS,,30.4
584,482800,2026-01-13 12:29:21,0.223694,5,7.481,0.0,0.223694,0.0,8.2,3.9,-12.4,1024,1024,1024,1024,0,0,0,0,67,4.125,76.82,99.737536,P-GPS,,30.4
585,482900,2026-01-13 12:29:22,0.223694,5,7.481,0.0,0.223694,0.0,8.5,2.8,-12.6,1024,1024,1024,1024,0,0,0,0,67,4.125,76.82,100.06562,P-GPS,,30.5
586,483000,2026-01-13 12:29:22,0.223694,5,7.481,0.0,0.223694,0.0,8.3,3.4,-13.2,1024,1024,1024,1024,0,0,0,0,67,4.125,76.82,100.06562,P-GPS,,30.5
587,483100,2026-01-13 12:29:22,0.223694,5,7.481,0.0,0.223694,0.0,8.1,4.8,-13.1,1024,1024,1024,1024,0,0,0,0,67,4.125,76.82,100.06562,P-GPS,,30.5
588,483200,2026-01-13 12:29:22,0.0,5,7.481,0.0,0.0,0.0,8.2,4.2,-12.7,1024,1024,1024,1024,0,0,0,0,67,4.125,76.82,100.06562,P-GPS,,30.5
589,483300,2026-01-13 12:29:22,0.0,5,7.481,0.0,0.0,0.0,8.2,4.3,-12.8,1024,1024,1024,1024,0,0,0,0,67,4.125,76.82,100.393704,P-GPS,,30.6
590,483400,2026-01-13 12:29:22,0.223694,5,7.481,0.223694,0.0,0.0,8.0,5.2,-12.2,1024,1024,1024,1024,0,0,0,0,67,4.125,76.82,100.393704,P-GPS,,30.6
591,483500,2026-01-13 12:29:22,0.0,5,7.481,0.0,0.0,0.0,8.0,5.4,-12.1,1024,1024,1024,1024,0,0,0,0,67,4.125,76.82,100.393704,P-GPS,,30.6
592,483600,2026-01-13 12:29:22,0.0,5,7.481,0.0,0.0,0.0,8.0,5.4,-12.2,1024,1024,1024,1024,0,0,0,0,67,4.125,76.82,100.393704,P-GPS,,30.6
593,483700,2026-01-13 12:29:22,0.0,5,7.471,0.0,0.0,0.223694,8.1,5.2,-12.3,1024,1024,1024,1024,0,0,0,0,67,4.366,76.82,100.393704,P-GPS,,30.6
594,483800,2026-01-13 12:29:22,0.0,5,7.471,0.0,0.0,0.223694,8.1,5.3,-11.6,1024,1024,1024,1024,0,0,0,0,67,4.366,76.82,100.393704,P-GPS,,30.6
595,483900,2026-01-13 12:29:22,0.0,5,7.471,0.0,0.0,0.223694,8.2,5.5,-11.4,1024,1024,1024,1024,0,0,0,0,67,4.366,76.82,100.393704,P-GPS,,30.6
596,484000,2026-01-13 12:29:23,0.0,5,7.471,0.0,0.0,0.0,8.2,5.5,-11.2,1024,1024,1024,1024,0,0,0,0,67,4.366,76.82,100.393704,P-GPS,,30.6
597,484100,2026-01-13 12:29:23,0.0,5,7.471,0.0,0.0,0.0,8.1,5.6,-11.2,1024,1024,1024,1024,0,0,0,0,67,4.366,76.82,100.393704,P-GPS,,30.6
598,484200,2026-01-13 12:29:23,0.0,5,7.471,0.0,0.0,0.0,8.1,5.8,-11.3,1024,1024,1024,1024,0,0,0,0,67,4.366,76.82,100.393704,P-GPS,,30.6
599,484300,2026-01-13 12:29:23,0.0,5,7.471,0.0,0.0,0.0,8.0,5.9,-11.1,1024,1024,1024,1024,0,0,0,0,67,4.366,76.82,100.06562,P-GPS,,30.5
600,484400,2026-01-13 12:29:23,0.0,5,7.471,0.0,0.0,0.0,8.0,5.8,-10.9,1024,1024,1024,1024,0,0,0,0,67,4.366,76.82,100.06562,P-GPS,,30.5
601,484500,2026-01-13 12:29:23,0.0,5,7.471,0.0,0.0,0.0,8.1,5.5,-10.9,1024,1024,1024,1024,0,0,0,0,67,4.366,76.82,100.06562,P-GPS,,30.5
602,484600,2026-01-13 12:29:23,0.0,5,7.471,0.0,0.0,0.0,8.1,4.7,-11.0,1024,1024,1024,1024,0,0,0,0,67,4.366,76.82,100.06562,P-GPS,,30.5
603,484700,2026-01-13 12:29:23,0.0,5,7.471,0.0,0.0,0.0,8.0,5.5,-10.9,1024,1024,1024,1024,0,0,0,0,67,4.366,76.82,100.06562,P-GPS,,30.5
604,484800,2026-01-13 12:29:23,0.0,5,7.471,0.0,0.0,0.223694,7.9,5.8,-10.9,1024,1024,1024,1024,0,0,0,0,67,4.366,76.82,99.737536,P-GPS,,30.4
605,484900,2026-01-13 12:29:23,0.0,5,7.471,0.0,0.0,0.223694,8.2,4.7,-10.4,1024,1024,1024,1024,0,0,0,0,67,4.366,76.82,99.737536,P-GPS,,30.4
606,485000,2026-01-13 12:29:24,0.0,5,7.471,0.0,0.0,0.0,8.2,4.7,-9.2,1024,1024,1024,1024,0,0,0,0,67,4.366,76.82,99.737536,P-GPS,,30.4
607,485100,2026-01-13 12:29:24,0.0,5,7.471,0.0,0.0,0.0,8.3,3.6,-8.5,1024,1024,1024,1024,0,0,0,0,67,4.366,76.82,99.737536,P-GPS,,30.4
608,485200,2026-01-13 12:29:24,0.0,5,7.471,0.0,0.0,-0.223694,8.2,4.5,-8.9,1024,1024,1024,1024,0,0,0,0,67,4.366,76.82,99.737536,P-GPS,,30.4
609,485300,2026-01-13 12:29:24,0.0,5,7.471,0.0,0.0,-0.223694,8.1,5.0,-9.5,1024,1024,1024,1024,0,0,0,0,67,4.366,76.82,99.737536,P-GPS,,30.4
610,485400,2026-01-13 12:29:24,0.0,5,7.471,0.0,0.0,0.0,7.9,6.0,-10.9,1024,1024,1024,1024,0,0,0,0,67,4.366,76.82,99.737536,P-GPS,,30.4
611,485500,2026-01-13 12:29:24,0.0,5,7.471,0.0,0.0,0.0,8.0,5.4,-11.8,1024,1024,1024,1024,0,0,0,0,67,4.366,76.82,99.737536,P-GPS,,30.4
612,485600,2026-01-13 12:29:24,0.223694,5,7.471,0.0,0.223694,0.223694,8.0,5.3,-12.5,1024,1024,1024,1024,0,0,0,0,67,4.366,76.82,99.737536,P-GPS,,30.4
613,485700,2026-01-13 12:29:24,0.0,5,7.471,0.0,0.0,0.0,8.1,5.2,-12.7,1024,1024,1024,1024,0,0,0,0,67,4.366,76.82,99.737536,P-GPS,,30.4
614,485800,2026-01-13 12:29:24,0.0,5,7.442,0.0,0.0,0.0,7.8,6.0,-12.6,1024,1024,1024,1024,0,0,0,0,67,5.119,77.0,100.06562,P-GPS,,30.5
615,485900,2026-01-13 12:29:24,0.0,5,7.442,0.0,0.0,0.0,7.7,6.4,-12.2,1024,1024,1024,1024,0,0,0,0,67,5.119,77.0,100.06562,P-GPS,,30.5
616,486000,2026-01-13 12:29:25,0.0,5,7.442,0.0,0.0,0.0,7.9,6.0,-12.4,1024,1024,1024,1024,0,0,0,0,67,5.119,77.0,100.06562,P-GPS,,30.5
617,486100,2026-01-13 12:29:25,0.0,5,7.442,0.0,0.0,0.0,8.1,4.9,-12.2,1024,1024,1024,1024,0,0,0,0,67,5.119,77.0,100.06562,P-GPS,,30.5
618,486200,2026-01-13 12:29:25,0.0,5,7.442,0.0,0.0,0.0,8.0,5.1,-12.3,1024,1024,1024,1024,0,0,0,0,67,5.119,77.0,100.06562,P-GPS,,30.5
619,486300,2026-01-13 12:29:25,0.0,5,7.442,0.0,0.0,0.0,7.9,5.7,-12.5,1024,1024,1024,1024,0,0,0,0,67,5.119,77.0,100.06562,P-GPS,,30.5
620,486400,2026-01-13 12:29:25,0.0,5,7.442,0.0,0.0,0.0,7.9,6.0,-12.6,1024,1024,1024,1024,0,0,0,0,67,5.119,77.0,100.06562,P-GPS,,30.5
621,486500,2026-01-13 12:29:25,0.0,5,7.442,0.0,0.0,0.0,7.8,5.9,-12.5,1024,1024,1024,1024,0,0,0,0,67,5.119,77.0,100.06562,P-GPS,,30.5
622,486600,2026-01-13 12:29:25,0.0,5,7.442,0.0,0.0,0.0,7.9,5.6,-11.9,1024,1024,1024,1024,0,0,0,0,67,5.119,77.0,100.06562,P-GPS,,30.5
623,486700,2026-01-13 12:29:25,0.0,5,7.442,0.0,0.0,0.0,8.2,4.8,-12.0,1024,1024,1024,1024,0,0,0,0,67,5.119,77.0,100.393704,P-GPS,,30.6
624,486800,2026-01-13 12:29:25,0.0,5,7.442,0.0,0.0,0.0,8.2,5.4,-11.9,1024,1024,1024,1024,0,0,0,0,67,5.119,77.0,100.393704,P-GPS,,30.6
625,486900,2026-01-13 12:29:25,0.0,5,7.442,0.0,0.0,0.0,8.1,5.5,-12.5,1024,1024,1024,1024,0,0,0,0,67,5.119,77.0,100.393704,P-GPS,,30.6
626,487000,2026-01-13 12:29:26,0.0,5,7.424,0.0,0.0,0.0,7.8,6.5,-13.3,1024,1024,1024,1024,0,0,0,0,67,5.594,77.0,100.393704,P-GPS,,30.6
627,487100,2026-01-13 12:29:26,0.0,5,7.424,0.0,0.0,0.0,7.8,6.6,-12.8,1024,1024,1024,1024,0,0,0,0,67,5.594,77.0,100.393704,P-GPS,,30.6
628,487200,2026-01-13 12:29:26,0.0,5,7.424,0.0,0.0,0.0,7.9,6.4,-12.3,1024,1024,1024,1024,0,0,0,0,67,5.594,77.0,100.393704,P-GPS,,30.6
629,487300,2026-01-13 12:29:26,0.0,5,7.424,0.0,0.0,0.0,7.9,6.0,-12.0,1024,1024,1024,1024,0,0,0,0,67,5.594,77.0,100.393704,P-GPS,,30.6
630,487400,2026-01-13 12:29:26,0.0,5,7.424,0.0,0.0,0.0,8.1,5.6,-11.8,1024,1024,1024,1024,0,0,0,0,67,5.594,77.0,100.393704,P-GPS,,30.6
631,487500,2026-01-13 12:29:26,0.0,5,7.424,0.0,0.0,0.0,7.9,5.8,-11.8,1024,1024,1024,1024,0,0,0,0,67,5.594,77.0,100.06562,P-GPS,,30.5
632,487600,2026-01-13 12:29:26,0.0,5,7.424,0.0,0.0,0.0,7.8,6.3,-11.5,1024,1024,1024,1024,0,0,0,0,67,5.594,77.0,100.06562,P-GPS,,30.5
633,487700,2026-01-13 12:29:26,0.0,5,7.424,0.0,0.0,0.0,8.0,5.9,-10.8,1024,1024,1024,1024,0,0,0,0,67,5.594,77.0,99.737536,P-GPS,,30.4
634,487800,2026-01-13 12:29:26,0.0,5,7.424,0.0,0.0,0.0,8.0,6.0,-10.0,1024,1024,1024,1024,0,0,0,0,67,5.594,77.0,99.737536,P-GPS,,30.4
635,487900,2026-01-13 12:29:26,0.0,5,7.424,0.0,0.0,0.0,8.0,6.2,-9.1,1024,1024,1024,1024,0,0,0,0,67,5.594,77.0,99.737536,P-GPS,,30.4
636,488000,2026-01-13 12:29:27,0.0,5,7.424,0.0,0.0,0.0,8.0,6.6,-8.8,1024,1024,1024,1024,0,0,0,0,67,5.594,77.0,99.409452,P-GPS,,30.3
637,488100,2026-01-13 12:29:27,0.0,5,7.427,0.0,0.0,0.0,8.1,5.7,-9.0,1024,1024,1024,1024,0,0,0,0,67,5.244,77.0,99.409452,P-GPS,,30.3
638,488200,2026-01-13 12:29:27,0.0,5,7.427,0.0,0.0,0.0,8.1,5.5,-9.8,1024,1024,1024,1024,0,0,0,0,67,5.244,77.0,99.409452,P-GPS,,30.3
639,488300,2026-01-13 12:29:27,0.0,5,7.427,0.0,0.0,0.0,8.0,5.6,-10.0,1024,1024,1024,1024,0,0,0,0,67,5.244,77.0,99.409452,P-GPS,,30.3
640,488400,2026-01-13 12:29:27,0.0,5,7.427,0.0,0.0,0.0,8.2,4.4,-9.9,1024,1024,1024,1024,0,0,0,0,67,5.244,77.0,99.409452,P-GPS,,30.3
641,488500,2026-01-13 12:29:27,0.0,5,7.427,0.0,0.0,0.0,8.0,5.0,-10.2,1024,1024,1024,1024,0,0,0,0,67,5.244,77.0,99.409452,P-GPS,,30.3
642,488600,2026-01-13 12:29:27,0.0,5,7.427,0.0,0.0,0.0,8.2,4.6,-9.9,1024,1024,1024,1024,0,0,0,0,67,5.244,77.0,99.409452,P-GPS,,30.3
643,488700,2026-01-13 12:29:27,0.0,5,7.427,0.0,0.0,0.0,8.1,4.4,-9.8,1024,1024,1024,1024,0,0,0,0,67,5.244,77.0,99.409452,P-GPS,,30.3
644,488800,2026-01-13 12:29:27,0.0,5,7.427,0.0,0.0,0.0,8.1,4.3,-9.9,1024,1024,1024,1024,0,0,0,0,67,5.244,77.0,99.409452,P-GPS,,30.3
645,488900,2026-01-13 12:29:27,0.0,5,7.427,0.0,0.0,0.0,8.1,4.2,-10.3,1024,1024,1024,1024,0,0,0,0,67,5.244,77.0,99.409452,P-GPS,,30.3
646,489000,2026-01-13 12:29:28,0.0,5,7.427,0.0,0.0,0.0,8.0,4.8,-10.7,1024,1024,1024,1024,0,0,0,0,67,5.244,77.0,99.409452,P-GPS,,30.3
647,489100,2026-01-13 12:29:28,0.0,5,7.427,0.0,0.0,0.0,8.1,5.0,-10.6,1024,1024,1024,1024,0,0,0,0,67,5.244,77.0,99.409452,P-GPS,,30.3
648,489200,2026-01-13 12:29:28,0.0,5,7.429,0.0,0.0,0.0,8.0,5.3,-10.4,1024,1024,1024,1024,0,0,0,0,67,5.204,77.0,99.409452,P-GPS,,30.3
649,489300,2026-01-13 12:29:28,0.0,5,7.429,0.0,0.0,0.0,8.0,5.7,-10.3,1024,1024,1024,1024,0,0,0,0,67,5.204,77.0,99.409452,P-GPS,,30.3
650,489400,2026-01-13 12:29:28,0.0,5,7.429,0.0,0.0,0.0,8.0,5.9,-9.7,1024,1024,1024,1024,0,0,0,0,67,5.204,77.0,99.409452,P-GPS,,30.3
651,489500,2026-01-13 12:29:28,0.0,5,7.429,0.0,0.0,0.0,8.0,5.7,-9.8,1024,1024,1024,1024,0,0,0,0,67,5.204,77.0,99.081368,P-GPS,,30.2
652,489600,2026-01-13 12:29:28,0.0,5,7.429,0.0,0.0,0.0,8.0,5.9,-9.9,1024,1024,1024,1024,0,0,0,0,67,5.204,77.0,99.081368,P-GPS,,30.2
653,489700,2026-01-13 12:29:28,0.0,5,7.429,0.0,0.0,0.0,8.0,5.7,-9.9,1024,1024,1024,1024,0,0,0,0,67,5.204,77.0,99.409452,P-GPS,,30.3
654,489800,2026-01-13 12:29:28,0.0,5,7.429,0.0,0.0,0.0,8.0,5.9,-10.1,1024,1024,1024,1024,0,0,0,0,67,5.204,77.0,99.409452,P-GPS,,30.3
655,489900,2026-01-13 12:29:29,0.0,5,7.429,0.0,0.0,0.0,7.9,6.5,-10.3,1024,1024,1024,1024,0,0,0,0,67,5.204,77.0,99.409452,P-GPS,,30.3
656,490000,2026-01-13 12:29:29,0.0,5,7.429,0.0,0.0,0.0,7.9,6.8,-10.3,1024,1024,1024,1024,0,0,0,0,67,5.204,77.0,99.409452,P-GPS,,30.3
657,490100,2026-01-13 12:29:29,0.0,5,7.429,0.0,0.0,0.0,7.9,6.5,-10.7,1024,1024,1024,1024,0,0,0,0,67,5.204,77.0,99.409452,P-GPS,,30.3
658,490200,2026-01-13 12:29:29,0.0,5,7.429,0.0,0.0,0.0,7.8,6.3,-10.7,1024,1024,1024,1024,0,0,0,0,67,5.204,77.0,99.409452,P-GPS,,30.3
659,490300,2026-01-13 12:29:29,0.0,5,7.449,0.0,0.0,0.0,7.9,5.9,-10.6,1024,1024,1024,1024,0,0,0,0,67,4.722,77.18,99.409452,P-GPS,,30.3
660,490400,2026-01-13 12:29:29,0.0,5,7.449,0.0,0.0,0.0,8.1,5.4,-10.4,1024,1024,1024,1024,0,0,0,0,67,4.722,77.18,99.409452,P-GPS,,30.3
661,490500,2026-01-13 12:29:29,0.0,5,7.449,0.0,0.0,0.0,8.0,5.9,-10.4,1024,1024,1024,1024,0,0,0,0,67,4.722,77.18,99.409452,P-GPS,,30.3
662,490600,2026-01-13 12:29:29,0.0,5,7.449,0.0,0.0,0.0,7.9,6.9,-10.1,1024,1024,1024,1024,0,0,0,0,67,4.722,77.18,99.409452,P-GPS,,30.3
663,490700,2026-01-13 12:29:29,0.0,5,7.449,0.0,0.0,0.0,8.0,6.6,-10.0,1024,1024,1024,1024,0,0,0,0,67,4.722,77.18,99.409452,P-GPS,,30.3
664,490800,2026-01-13 12:29:29,0.0,5,7.449,0.0,0.0,0.0,8.0,6.8,-10.0,1024,1024,1024,1024,0,0,0,0,67,4.722,77.18,99.409452,P-GPS,,30.3
665,490900,2026-01-13 12:29:29,0.0,5,7.449,0.0,0.0,0.0,8.0,6.6,-10.1,1024,1024,1024,1024,0,0,0,0,67,4.722,77.18,99.409452,P-GPS,,30.3
666,491000,2026-01-13 12:29:30,0.0,5,7.449,0.0,0.0,0.0,8.0,6.7,-10.4,1024,1024,1024,1024,0,0,0,0,67,4.722,77.18,99.409452,P-GPS,,30.3
667,491100,2026-01-13 12:29:30,0.0,5,7.449,0.0,0.0,0.0,7.7,7.9,-10.8,1024,1024,1024,1024,0,0,0,0,67,4.722,77.18,99.409452,P-GPS,,30.3
668,491200,2026-01-13 12:29:30,0.0,5,7.449,0.0,0.0,0.0,7.7,7.9,-10.2,1024,1024,1024,1024,0,0,0,0,67,4.722,77.18,99.409452,P-GPS,,30.3
669,491300,2026-01-13 12:29:30,0.0,5,7.449,0.0,0.0,0.0,7.9,7.7,-10.0,1024,1024,1024,1024,0,0,0,0,67,4.722,77.18,99.409452,P-GPS,,30.3
670,491400,2026-01-13 12:29:30,0.0,5,7.439,0.0,0.0,0.0,8.0,6.7,-9.5,1024,1024,1024,1024,0,0,0,0,67,5.025,77.18,99.409452,P-GPS,,30.3
671,491500,2026-01-13 12:29:30,0.0,5,7.439,0.0,0.0,0.0,7.9,6.8,-9.6,1024,1024,1024,1024,0,0,0,0,67,5.025,77.18,99.409452,P-GPS,,30.3
672,491600,2026-01-13 12:29:30,0.0,5,7.439,0.0,0.0,0.0,7.9,6.9,-9.3,1024,1024,1024,1024,0,0,0,0,67,5.025,77.18,99.409452,P-GPS,,30.3
673,491700,2026-01-13 12:29:30,0.0,5,7.439,0.0,0.0,0.0,8.0,6.4,-9.0,1024,1024,1024,1024,0,0,0,0,67,5.025,77.18,99.409452,P-GPS,,30.3
674,491800,2026-01-13 12:29:30,0.0,5,7.439,0.0,0.0,0.0,8.0,6.5,-8.8,1024,1024,1024,1024,0,0,0,0,67,5.025,77.18,99.409452,P-GPS,,30.3
675,491900,2026-01-13 12:29:30,0.0,5,7.439,0.0,0.0,0.0,8.0,6.6,-8.7,1024,1024,1024,1024,0,0,0,0,67,5.025,77.18,99.409452,P-GPS,,30.3
676,492000,2026-01-13 12:29:31,0.0,5,7.439,0.0,0.0,0.0,8.0,6.3,-8.7,1024,1024,1024,1024,0,0,0,0,67,5.025,77.18,99.081368,P-GPS,,30.2
