index,time(millisecond),timestamp,speed(mph),gpslevel,voltage(v),xSpeed(mph),ySpeed(mph),zSpeed(mph),compass_heading(degrees),pitch(degrees),roll(degrees),rc_elevator,rc_aileron,rc_throttle,rc_rudder,rc_elevator(percent),rc_aileron(percent),rc_throttle(percent),rc_rudder(percent),battery_percent,current(A),battery_temperature(f),ascent(feet),flycState,message,height_above_takeoff(meters)
801,508000,2026-01-12 12:14:46,0.0,5,7.437,0.0,0.0,0.0,8.6,7.5,-5.1,1024,1024,1024,1024,0,0,0,0,67,5.235,73.22,162.40158,P-GPS,,49.5
802,508100,2026-01-12 12:14:46,0.0,5,7.437,0.0,0.0,0.0,8.7,7.2,-4.8,1024,1024,1024,1024,0,0,0,0,67,5.235,73.22,162.729664,P-GPS,,49.6
803,508200,2026-01-12 12:14:46,0.0,5,7.512,0.0,0.0,0.0,8.8,7.3,-4.9,1024,1024,1024,1024,0,0,0,0,67,3.943,73.22,162.729664,P-GPS,,49.6
804,508300,2026-01-12 12:14:46,0.0,5,7.512,0.0,0.0,0.0,8.8,6.8,-4.6,1024,1024,1024,1024,0,0,0,0,67,3.943,73.22,162.729664,P-GPS,,49.6
805,508400,2026-01-12 12:14:47,0.0,5,7.512,0.0,0.0,0.0,8.7,6.3,-4.5,1024,1024,1024,1024,0,0,0,0,67,3.943,73.22,162.729664,P-GPS,,49.6
806,508500,2026-01-12 12:14:47,0.0,5,7.512,0.0,0.0,0.0,8.6,6.0,-4.4,1024,1024,1024,1024,0,0,0,0,67,3.943,73.22,162.729664,P-GPS,,49.6
807,508600,2026-01-12 12:14:47,0.0,5,7.512,0.0,0.0,0.0,8.4,6.3,-5.0,1024,1024,1024,1024,0,0,0,0,67,3.943,73.22,162.729664,P-GPS,,49.6
808,508700,2026-01-12 12:14:47,0.0,5,7.512,0.0,0.0,0.0,8.5,6.2,-5.0,1024,1024,1024,1024,0,0,0,0,67,3.943,73.22,162.729664,P-GPS,,49.6
809,508800,2026-01-12 12:14:47,0.0,5,7.512,0.0,0.0,0.0,8.4,6.7,-4.7,1024,1024,1024,1024,0,0,0,0,67,3.943,73.22,162.40158,P-GPS,,49.5
810,508900,2026-01-12 12:14:47,0.0,5,7.512,0.0,0.0,0.0,8.4,6.7,-4.9,1024,1024,1024,1024,0,0,0,0,67,3.943,73.22,162.40158,P-GPS,,49.5
811,509000,2026-01-12 12:14:47,0.0,5,7.512,0.0,0.0,0.0,8.5,6.7,-4.9,1024,1024,1024,1024,0,0,0,0,67,3.943,73.22,162.40158,P-GPS,,49.5
812,509100,2026-01-12 12:14:47,0.0,5,7.512,0.0,0.0,0.0,8.6,6.4,-4.5,1024,1024,1024,1024,0,0,0,0,67,3.943,73.22,162.40158,P-GPS,,49.5
813,509200,2026-01-12 12:14:47,0.0,5,7.482,0.0,0.0,0.0,8.6,6.9,-4.7,1024,1024,1024,1024,0,0,0,0,67,4.387,73.22,162.40158,P-GPS,,49.5
814,509300,2026-01-12 12:14:47,0.0,5,7.482,0.0,0.0,0.0,8.6,7.0,-4.4,1024,1024,1024,1024,0,0,0,0,67,4.387,73.22,162.073496,P-GPS,,49.4
815,509400,2026-01-12 12:14:47,0.0,5,7.482,0.0,0.0,0.0,8.7,6.8,-4.1,1024,1024,1024,1024,0,0,0,0,67,4.387,73.22,162.073496,P-GPS,,49.4
816,509500,2026-01-12 12:14:48,0.0,5,7.482,0.0,0.0,0.0,8.6,7.8,-4.7,1024,1024,1024,1024,0,0,0,0,67,4.387,73.22,162.073496,P-GPS,,49.4
817,509600,2026-01-12 12:14:48,0.0,5,7.482,0.0,0.0,0.0,8.5,7.5,-5.0,1024,1024,1024,1024,0,0,0,0,67,4.387,73.22,162.073496,P-GPS,,49.4
818,509700,2026-01-12 12:14:48,0.0,5,7.482,0.0,0.0,0.0,8.5,7.2,-5.2,1024,1024,1024,1024,0,0,0,0,67,4.387,73.22,162.073496,P-GPS,,49.4
819,509800,2026-01-12 12:14:48,0.0,5,7.482,0.0,0.0,0.0,8.5,7.2,-5.3,1024,1024,1024,1024,0,0,0,0,67,4.387,73.22,162.073496,P-GPS,,49.4
820,509900,2026-01-12 12:14:48,0.0,5,7.482,0.0,0.0,0.0,8.5,7.4,-5.3,1024,1024,1024,1024,0,0,0,0,67,4.387,73.22,162.073496,P-GPS,,49.4
821,510000,2026-01-12 12:14:48,0.0,5,7.482,0.0,0.0,0.0,8.6,7.3,-5.3,1024,1024,1024,1024,0,0,0,0,67,4.387,73.22,162.073496,P-GPS,,49.4
822,510100,2026-01-12 12:14:48,0.0,5,7.488,0.0,0.0,0.0,8.6,7.0,-5.0,1024,1024,1024,1024,0,0,0,0,67,4.258,73.4,162.073496,P-GPS,,49.4
823,510200,2026-01-12 12:14:48,0.0,5,7.488,0.0,0.0,0.0,8.6,6.8,-5.1,1024,1024,1024,1024,0,0,0,0,67,4.258,73.4,161.745412,P-GPS,,49.3
824,510300,2026-01-12 12:14:48,0.0,5,7.488,0.0,0.0,0.0,8.5,6.7,-5.1,1024,1024,1024,1024,0,0,0,0,67,4.258,73.4,161.745412,P-GPS,,49.3
825,510400,2026-01-12 12:14:49,0.0,5,7.488,0.0,0.0,0.0,8.4,7.7,-5.4,1024,1024,1024,1024,0,0,0,0,67,4.258,73.4,161.745412,P-GPS,,49.3
826,510500,2026-01-12 12:14:49,0.0,5,7.488,0.0,0.0,0.0,8.5,7.9,-5.6,1024,1024,1024,1024,0,0,0,0,67,4.258,73.4,161.745412,P-GPS,,49.3
827,510600,2026-01-12 12:14:49,0.0,5,7.488,0.0,0.0,0.0,8.5,8.4,-5.2,1024,1024,1024,1024,0,0,0,0,67,4.258,73.4,161.745412,P-GPS,,49.3
828,510700,2026-01-12 12:14:49,0.0,5,7.488,0.0,0.0,0.223694,8.5,8.4,-5.4,1024,1024,1024,1024,0,0,0,0,67,4.258,73.4,161.745412,P-GPS,,49.3
829,510800,2026-01-12 12:14:49,0.0,5,7.488,0.0,0.0,0.0,8.6,6.4,-4.9,1024,1024,1024,1024,0,0,0,0,67,4.258,73.4,161.745412,P-GPS,,49.3
830,510900,2026-01-12 12:14:49,0.0,5,7.488,0.0,0.0,0.0,8.7,6.0,-4.7,1024,1024,1024,1024,0,0,0,0,67,4.258,73.4,161.745412,P-GPS,,49.3
831,511000,2026-01-12 12:14:49,0.0,5,7.488,0.0,0.0,0.0,8.7,6.0,-5.0,1024,1024,1024,1024,0,0,0,0,67,4.258,73.4,161.745412,P-GPS,,49.3
832,511100,2026-01-12 12:14:49,0.0,5,7.488,0.0,0.0,0.0,8.8,6.3,-5.0,1024,1024,1024,1024,0,0,0,0,67,4.258,73.4,161.745412,P-GPS,,49.3
833,511200,2026-01-12 12:14:49,0.0,5,7.488,0.0,0.0,0.0,8.7,6.7,-4.8,1024,1024,1024,1024,0,0,0,0,67,4.258,73.4,161.745412,P-GPS,,49.3
834,511300,2026-01-12 12:14:49,0.0,5,7.488,0.0,0.0,0.0,8.6,7.2,-5.0,1024,1024,1024,1024,0,0,0,0,67,4.258,73.4,161.745412,P-GPS,,49.3
835,511400,2026-01-12 12:14:49,0.0,5,7.488,0.0,0.0,0.0,8.6,7.3,-5.0,1024,1024,1024,1024,0,0,0,0,67,4.258,73.4,161.745412,P-GPS,,49.3
836,511500,2026-01-12 12:14:50,0.0,5,7.488,0.0,0.0,0.0,8.6,7.4,-4.9,1024,1024,1024,1024,0,0,0,0,67,4.258,73.4,161.745412,P-GPS,,49.3
837,511600,2026-01-12 12:14:50,0.0,5,7.488,0.0,0.0,0.0,8.6,7.4,-4.9,1024,1024,1024,1024,0,0,0,0,67,4.258,73.4,161.745412,P-GPS,,49.3
838,511700,2026-01-12 12:14:50,0.0,5,7.488,0.0,0.0,0.0,8.6,7.4,-5.1,1024,1024,1024,1024,0,0,0,0,67,4.258,73.4,161.745412,P-GPS,,49.3
839,511800,2026-01-12 12:14:50,0.0,5,7.488,0.0,0.0,0.0,8.6,7.1,-5.1,1024,1024,1024,1024,0,0,0,0,67,4.258,73.4,161.745412,P-GPS,,49.3
840,511900,2026-01-12 12:14:50,0.0,5,7.488,0.0,0.0,0.0,8.6,7.1,-5.0,1024,1024,1024,1024,0,0,0,0,67,4.258,73.4,161.745412,P-GPS,,49.3
841,512000,2026-01-12 12:14:50,0.0,5,7.488,0.0,0.0,0.0,8.6,7.3,-5.0,1024,1024,1024,1024,0,0,0,0,67,4.258,73.4,161.745412,P-GPS,,49.3
842,512100,2026-01-12 12:14:50,0.0,5,7.488,0.0,0.0,0.0,8.7,7.2,-4.9,1024,1024,1024,1024,0,0,0,0,67,4.258,73.4,161.745412,P-GPS,,49.3
843,512200,2026-01-12 12:14:50,0.0,5,7.488,0.0,0.0,0.0,8.7,7.1,-4.8,1024,1024,1024,1024,0,0,0,0,67,4.258,73.4,161.745412,P-GPS,,49.3
844,512300,2026-01-12 12:14:50,0.0,5,7.44,0.0,0.0,0.0,8.6,7.1,-4.8,1024,1024,1024,1024,0,0,0,0,67,4.595,73.22,161.745412,P-GPS,,49.3
845,512400,2026-01-12 12:14:51,0.0,5,7.44,0.0,0.0,0.0,8.6,7.2,-4.9,1024,1024,1024,1024,0,0,0,0,67,4.595,73.22,161.745412,P-GPS,,49.3
846,512500,2026-01-12 12:14:51,0.0,5,7.44,0.0,0.0,0.0,8.6,7.0,-5.0,1024,1024,1024,1024,0,0,0,0,67,4.595,73.22,161.745412,P-GPS,,49.3
847,512600,2026-01-12 12:14:51,0.0,5,7.44,0.0,0.0,0.0,8.6,7.0,-5.1,1024,1024,1024,1024,0,0,0,0,67,4.595,73.22,161.745412,P-GPS,,49.3
848,512700,2026-01-12 12:14:51,0.0,5,7.44,0.0,0.0,0.0,8.5,7.5,-5.3,1024,1024,1024,1024,0,0,0,0,67,4.595,73.22,161.745412,P-GPS,,49.3
849,512800,2026-01-12 12:14:51,0.0,5,7.44,0.0,0.0,0.0,8.5,7.7,-5.5,1024,1024,1024,1024,0,0,0,0,67,4.595,73.22,161.745412,P-GPS,,49.3
850,512900,2026-01-12 12:14:51,0.0,5,7.44,0.0,0.0,0.0,8.5,7.9,-5.5,1024,1024,1024,1024,0,0,0,0,67,4.595,73.22,161.745412,P-GPS,,49.3
851,513000,2026-01-12 12:14:51,0.0,5,7.44,0.0,0.0,0.0,8.5,8.0,-5.4,1024,1024,1024,1024,0,0,0,0,67,4.595,73.22,161.745412,P-GPS,,49.3
852,513100,2026-01-12 12:14:51,0.0,5,7.44,0.0,0.0,0.0,8.4,8.0,-5.8,1024,1024,1024,1024,0,0,0,0,67,4.595,73.22,161.745412,P-GPS,,49.3
853,513200,2026-01-12 12:14:51,0.0,5,7.44,0.0,0.0,0.0,8.5,7.9,-5.6,1024,1024,1024,1024,0,0,0,0,67,4.595,73.22,161.745412,P-GPS,,49.3
854,513300,2026-01-12 12:14:51,0.0,5,7.44,0.0,0.0,0.0,8.5,8.0,-5.4,1024,1024,1024,1024,0,0,0,0,67,4.595,73.22,161.745412,P-GPS,,49.3
855,513400,2026-01-12 12:14:51,0.0,5,7.471,0.0,0.0,0.0,8.4,7.8,-5.4,1024,1024,1024,1024,0,0,0,0,67,4.601,73.4,161.745412,P-GPS,,49.3
856,513500,2026-01-12 12:14:52,0.0,5,7.471,0.0,0.0,0.0,8.5,7.7,-5.5,1024,1024,1024,1024,0,0,0,0,67,4.601,73.4,161.745412,P-GPS,,49.3
857,513600,2026-01-12 12:14:52,0.0,5,7.471,0.0,0.0,0.0,8.5,7.6,-5.6,1024,1024,1024,1024,0,0,0,0,67,4.601,73.4,161.745412,P-GPS,,49.3
858,513700,2026-01-12 12:14:52,0.0,5,7.471,0.0,0.0,0.0,8.5,7.7,-5.7,1024,1024,1024,1024,0,0,0,0,67,4.601,73.4,161.745412,P-GPS,,49.3
859,513800,2026-01-12 12:14:52,0.0,5,7.471,0.0,0.0,0.0,8.5,7.9,-5.9,1024,1024,1024,1024,0,0,0,0,67,4.601,73.4,161.745412,P-GPS,,49.3
860,513900,2026-01-12 12:14:52,0.0,5,7.471,0.0,0.0,0.0,8.5,7.9,-5.6,1024,1024,1024,1024,0,0,0,0,67,4.601,73.4,161.745412,P-GPS,,49.3
861,514000,2026-01-12 12:14:52,0.0,5,7.471,0.0,0.0,0.0,8.5,8.1,-5.8,1024,1024,1024,1024,0,0,0,0,67,4.601,73.4,161.745412,P-GPS,,49.3
862,514100,2026-01-12 12:14:52,0.0,5,7.471,0.0,0.0,0.0,8.6,8.0,-5.8,1024,1024,1024,1024,0,0,0,0,67,4.601,73.4,161.745412,P-GPS,,49.3
863,514200,2026-01-12 12:14:52,0.0,5,7.471,0.0,0.0,0.0,8.5,8.1,-5.7,1024,1024,1024,1024,0,0,0,0,67,4.601,73.4,161.745412,P-GPS,,49.3
864,514300,2026-01-12 12:14:52,0.0,5,7.471,0.0,0.0,0.0,8.5,8.2,-6.1,1024,1024,1024,1024,0,0,0,0,67,4.601,73.4,161.417328,P-GPS,,49.2
865,514400,2026-01-12 12:14:53,0.0,5,7.471,0.0,0.0,0.0,8.5,8.4,-5.9,1024,1024,1024,1024,0,0,0,0,67,4.601,73.4,161.417328,P-GPS,,49.2
866,514500,2026-01-12 12:14:53,0.0,5,7.459,0.0,0.0,0.0,8.6,8.1,-5.6,1024,1024,1024,1024,0,0,0,0,67,4.66,73.4,161.417328,P-GPS,,49.2
867,514600,2026-01-12 12:14:53,0.0,5,7.459,0.0,0.0,0.0,8.6,7.8,-5.8,1024,1024,1024,1024,0,0,0,0,67,4.66,73.4,161.417328,P-GPS,,49.2
868,514700,2026-01-12 12:14:53,0.0,5,7.459,0.0,0.0,0.0,8.5,8.1,-5.8,1024,1024,1024,1024,0,0,0,0,67,4.66,73.4,161.417328,P-GPS,,49.2
869,514800,2026-01-12 12:14:53,0.0,5,7.459,0.0,0.0,0.0,8.5,8.0,-5.7,1024,1024,1024,1024,0,0,0,0,67,4.66,73.4,161.417328,P-GPS,,49.2
870,514900,2026-01-12 12:14:53,0.0,5,7.459,0.0,0.0,0.0,8.6,7.7,-5.8,1024,1024,1024,1024,0,0,0,0,67,4.66,73.4,161.417328,P-GPS,,49.2
871,515000,2026-01-12 12:14:53,0.0,5,7.459,0.0,0.0,0.0,8.6,7.8,-5.7,1024,1024,1024,1024,0,0,0,0,67,4.66,73.4,161.417328,P-GPS,,49.2
872,515100,2026-01-12 12:14:53,0.0,5,7.459,0.0,0.0,0.0,8.7,7.7,-5.6,1024,1024,1024,1024,0,0,0,0,67,4.66,73.4,161.089244,P-GPS,,49.1
873,515200,2026-01-12 12:14:53,0.0,5,7.459,0.0,0.0,0.0,8.7,7.1,-5.5,1024,1024,1024,1024,0,0,0,0,67,4.66,73.4,161.089244,P-GPS,,49.1
874,515300,2026-01-12 12:14:53,0.0,5,7.459,0.0,0.0,0.0,8.6,8.2,-5.6,1024,1024,1024,1024,0,0,0,0,67,4.66,73.4,161.089244,P-GPS,,49.1
875,515400,2026-01-12 12:14:53,0.0,5,7.459,0.0,0.0,0.0,8.5,8.8,-5.7,1024,1024,1024,1024,0,0,0,0,67,4.66,73.4,161.089244,P-GPS,,49.1
876,515500,2026-01-12 12:14:54,0.0,5,7.459,0.0,0.0,0.0,8.5,8.9,-5.3,1024,1024,1024,1024,0,0,0,0,67,4.66,73.4,161.089244,P-GPS,,49.1
877,515600,2026-01-12 12:14:54,0.0,5,7.477,0.0,0.0,0.0,8.5,8.2,-5.6,1024,1024,1024,1024,0,0,0,0,67,4.813,73.4,161.089244,P-GPS,,49.1
878,515700,2026-01-12 12:14:54,0.0,5,7.477,0.0,0.0,0.0,8.5,8.1,-5.4,1024,1024,1024,1024,0,0,0,0,67,4.813,73.4,161.089244,P-GPS,,49.1
879,515800,2026-01-12 12:14:54,0.0,5,7.477,0.0,0.0,0.0,8.4,8.5,-5.9,1024,1024,1024,1024,0,0,0,0,67,4.813,73.4,161.089244,P-GPS,,49.1
880,515900,2026-01-12 12:14:54,0.0,5,7.477,0.0,0.0,0.0,8.4,8.6,-6.0,1024,1024,1024,1024,0,0,0,0,67,4.813,73.4,161.089244,P-GPS,,49.1
881,516000,2026-01-12 12:14:54,0.0,5,7.477,0.0,0.0,0.0,8.5,8.3,-5.9,1024,1024,1024,1024,0,0,0,0,67,4.813,73.4,161.089244,P-GPS,,49.1
882,516100,2026-01-12 12:14:54,0.0,5,7.477,0.0,0.0,0.0,8.5,8.3,-5.9,1024,1024,1024,1024,0,0,0,0,67,4.813,73.4,161.089244,P-GPS,,49.1
883,516200,2026-01-12 12:14:54,0.0,5,7.477,0.0,0.0,0.0,8.5,7.9,-5.8,1024,1024,1024,1024,0,0,0,0,67,4.813,73.4,161.089244,P-GPS,,49.1
884,516300,2026-01-12 12:14:54,0.0,5,7.477,0.0,0.0,0.0,8.5,7.7,-5.9,1024,1024,1024,1024,0,0,0,0,67,4.813,73.4,161.089244,P-GPS,,49.1
885,516400,2026-01-12 12:14:55,0.0,5,7.477,0.0,0.0,0.0,8.5,8.1,-5.9,1024,1024,1024,1024,0,0,0,0,67,4.813,73.4,161.089244,P-GPS,,49.1
886,516500,2026-01-12 12:14:55,0.0,5,7.477,0.0,0.0,0.0,8.5,8.2,-5.9,1024,1024,1024,1024,0,0,0,0,67,4.813,73.4,161.089244,P-GPS,,49.1
887,516600,2026-01-12 12:14:55,0.0,5,7.477,0.0,0.0,0.0,8.5,7.9,-5.9,1024,1024,1024,1024,0,0,0,0,67,4.813,73.4,160.76116,P-GPS,,49.0
888,516700,2026-01-12 12:14:55,0.0,5,7.455,0.0,0.0,0.0,8.5,7.5,-6.1,1024,1024,1024,1024,0,0,0,0,67,4.889,73.58,160.76116,P-GPS,,49.0
889,516800,2026-01-12 12:14:55,0.0,5,7.455,0.0,0.0,0.0,8.6,7.7,-5.8,1024,1024,1024,1024,0,0,0,0,67,4.889,73.58,160.76116,P-GPS,,49.0
890,516900,2026-01-12 12:14:55,0.0,5,7.455,0.0,0.0,0.0,8.5,8.4,-5.8,1024,1024,1024,1024,0,0,0,0,67,4.889,73.58,160.76116,P-GPS,,49.0
891,517000,2026-01-12 12:14:55,0.0,5,7.455,0.0,0.0,0.0,8.4,8.2,-5.8,1024,1024,1024,1024,0,0,0,0,67,4.889,73.58,160.76116,P-GPS,,49.0
892,517100,2026-01-12 12:14:55,0.0,5,7.455,0.0,0.0,0.0,8.5,8.5,-6.2,1024,1024,1024,1024,0,0,0,0,67,4.889,73.58,160.76116,P-GPS,,49.0
893,517200,2026-01-12 12:14:55,0.0,5,7.455,0.0,0.0,0.0,8.4,8.4,-6.1,1024,1024,1024,1024,0,0,0,0,67,4.889,73.58,160.76116,P-GPS,,49.0
894,517300,2026-01-12 12:14:55,0.0,5,7.455,0.0,0.0,0.0,8.4,8.4,-5.6,1024,1024,1024,1024,0,0,0,0,67,4.889,73.58,161.089244,P-GPS,,49.1
895,517400,2026-01-12 12:14:55,0.0,5,7.455,0.0,0.0,0.0,8.4,7.9,-5.3,1024,1024,1024,1024,0,0,0,0,67,4.889,73.58,161.089244,P-GPS,,49.1
896,517500,2026-01-12 12:14:56,0.0,5,7.455,0.0,0.0,0.0,8.3,7.8,-5.6,1024,1024,1024,1024,0,0,0,0,67,4.889,73.58,161.089244,P-GPS,,49.1
897,517600,2026-01-12 12:14:56,0.0,5,7.455,0.0,0.0,-0.223694,8.4,7.0,-5.1,1024,1024,1024,1024,0,0,0,0,67,4.889,73.58,161.089244,P-GPS,,49.1
898,517700,2026-01-12 12:14:56,0.0,5,7.455,0.0,0.0,-0.223694,8.3,7.3,-5.6,1024,1024,1024,1024,0,0,0,0,67,4.889,73.58,161.089244,P-GPS,,49.1
899,517800,2026-01-12 12:14:56,0.0,5,7.459,0.0,0.0,-0.223694,8.3,6.9,-5.6,1024,1024,1024,1024,0,0,0,0,67,4.892,73.58,161.089244,P-GPS,,49.1
900,517900,2026-01-12 12:14:56,0.0,5,7.459,0.0,0.0,-0.223694,8.3,6.9,-5.9,1024,1024,1024,1024,0,0,0,0,67,4.892,73.58,161.089244,P-GPS,,49.1
901,518000,2026-01-12 12:14:56,0.0,5,7.459,0.0,0.0,0.0,8.2,7.1,-6.4,1024,1024,1024,1024,0,0,0,0,67,4.892,73.58,161.089244,P-GPS,,49.1
902,518100,2026-01-12 12:14:56,0.0,5,7.459,0.0,0.0,0.0,8.2,7.9,-6.2,1024,1024,1024,1024,0,0,0,0,67,4.892,73.58,161.089244,P-GPS,,49.1
903,518200,2026-01-12 12:14:56,0.0,5,7.459,0.0,0.0,0.0,8.4,6.9,-5.7,1024,1024,1024,1024,0,0,0,0,67,4.892,73.58,161.417328,P-GPS,,49.2
904,518300,2026-01-12 12:14:56,0.0,5,7.459,0.0,0.0,0.0,8.3,7.6,-5.8,1024,1024,1024,1024,0,0,0,0,67,4.892,73.58,161.089244,P-GPS,,49.1
905,518400,2026-01-12 12:14:56,0.0,5,7.459,0.0,0.0,0.0,8.3,7.4,-5.9,1024,1024,1024,1024,0,0,0,0,67,4.892,73.58,161.089244,P-GPS,,49.1
906,518500,2026-01-12 12:14:57,0.0,5,7.459,0.0,0.0,0.0,8.4,7.6,-5.8,1024,1024,1024,1024,0,0,0,0,67,4.892,73.58,161.089244,P-GPS,,49.1
907,518600,2026-01-12 12:14:57,0.0,5,7.459,0.0,0.0,0.0,8.5,7.3,-5.9,1024,1024,1024,1024,0,0,0,0,67,4.892,73.58,161.417328,P-GPS,,49.2
908,518700,2026-01-12 12:14:57,0.0,5,7.459,0.0,0.0,0.0,8.4,7.3,-6.2,1024,1024,1024,1024,0,0,0,0,67,4.892,73.58,161.417328,P-GPS,,49.2
909,518800,2026-01-12 12:14:57,0.0,5,7.459,0.0,0.0,0.0,8.4,7.0,-6.2,1024,1024,1024,1024,0,0,0,0,67,4.892,73.58,161.417328,P-GPS,,49.2
910,518900,2026-01-12 12:14:57,0.0,5,7.472,0.0,0.0,0.0,8.5,6.3,-6.1,1024,1024,1024,1024,0,0,0,0,67,4.247,73.58,161.417328,P-GPS,,49.2
911,519000,2026-01-12 12:14:57,0.0,5,7.472,0.0,0.0,0.0,8.5,6.3,-6.2,1024,1024,1024,1024,0,0,0,0,67,4.247,73.58,161.417328,P-GPS,,49.2
912,519100,2026-01-12 12:14:57,0.0,5,7.472,0.0,0.0,0.0,8.4,7.1,-6.4,1024,1024,1024,1024,0,0,0,0,67,4.247,73.58,161.417328,P-GPS,,49.2
913,519200,2026-01-12 12:14:57,0.0,5,7.472,0.0,0.0,0.0,8.3,7.1,-6.5,1024,1024,1024,1024,0,0,0,0,67,4.247,73.58,161.417328,P-GPS,,49.2
914,519300,2026-01-12 12:14:57,0.0,5,7.472,0.0,0.0,0.0,8.5,6.1,-6.7,1024,1024,1024,1024,0,0,0,0,67,4.247,73.58,161.417328,P-GPS,,49.2
915,519400,2026-01-12 12:14:58,0.0,5,7.472,0.0,0.0,0.0,8.5,6.5,-6.3,1024,1024,1024,1024,0,0,0,0,67,4.247,73.58,161.417328,P-GPS,,49.2
916,519500,2026-01-12 12:14:58,0.0,5,7.472,0.0,0.0,0.0,8.6,6.4,-6.5,1024,1024,1024,1024,0,0,0,0,67,4.247,73.58,161.417328,P-GPS,,49.2
917,519600,2026-01-12 12:14:58,0.0,5,7.472,0.0,0.0,0.0,8.5,6.8,-6.7,1024,1024,1024,1024,0,0,0,0,67,4.247,73.58,161.417328,P-GPS,,49.2
918,519700,2026-01-12 12:14:58,0.0,5,7.472,0.0,0.0,0.0,8.5,7.0,-6.8,1024,1024,1024,1024,0,0,0,0,67,4.247,73.58,161.417328,P-GPS,,49.2
919,519800,2026-01-12 12:14:58,0.0,5,7.472,0.0,0.0,0.0,8.7,6.5,-6.8,1024,1024,1024,1024,0,0,0,0,67,4.247,73.58,161.417328,P-GPS,,49.2
920,519900,2026-01-12 12:14:58,0.0,5,7.472,0.0,0.0,0.0,8.7,7.3,-6.7,1024,1024,1024,1024,0,0,0,0,67,4.247,73.58,161.417328,P-GPS,,49.2
921,520000,2026-01-12 12:14:58,0.0,5,7.445,0.0,0.0,0.0,8.6,8.4,-7.3,1024,1024,1024,1024,0,0,0,0,67,4.958,73.58,161.745412,P-GPS,,49.3
922,520100,2026-01-12 12:14:58,0.223694,5,7.445,0.223694,0.0,0.0,8.4,9.2,-7.7,1024,1024,1024,1024,0,0,0,0,67,4.958,73.58,161.745412,P-GPS,,49.3
923,520200,2026-01-12 12:14:58,0.223694,5,7.445,0.223694,0.0,0.0,8.2,9.6,-7.2,1024,1024,1024,1024,0,0,0,0,67,4.958,73.58,161.745412,P-GPS,,49.3
924,520300,2026-01-12 12:14:58,0.0,5,7.445,0.0,0.0,0.0,8.2,8.8,-7.4,1024,1024,1024,1024,0,0,0,0,67,4.958,73.58,161.745412,P-GPS,,49.3
925,520400,2026-01-12 12:14:59,0.0,5,7.445,0.0,0.0,0.0,8.3,8.3,-7.2,1024,1024,1024,1024,0,0,0,0,67,4.958,73.58,161.745412,P-GPS,,49.3
926,520500,2026-01-12 12:14:59,0.0,5,7.445,0.0,0.0,0.0,8.3,7.5,-7.3,1024,1024,1024,1024,0,0,0,0,67,4.958,73.58,161.745412,P-GPS,,49.3
927,520600,2026-01-12 12:14:59,0.0,5,7.445,0.0,0.0,0.0,8.3,7.4,-7.2,1024,1024,1024,1024,0,0,0,0,67,4.958,73.58,161.745412,P-GPS,,49.3
928,520700,2026-01-12 12:14:59,0.0,5,7.445,0.0,0.0,0.0,8.5,6.5,-7.0,1024,1024,1024,1024,0,0,0,0,67,4.958,73.58,161.745412,P-GPS,,49.3
929,520800,2026-01-12 12:14:59,0.0,5,7.445,0.0,0.0,0.0,8.4,6.7,-6.9,1024,1024,1024,1024,0,0,0,0,67,4.958,73.58,161.745412,P-GPS,,49.3
930,520900,2026-01-12 12:14:59,0.0,5,7.445,0.0,0.0,0.0,8.4,6.7,-6.5,1024,1024,1024,1024,0,0,0,0,67,4.958,73.58,161.417328,P-GPS,,49.2
931,521000,2026-01-12 12:14:59,0.0,5,7.445,0.0,0.0,0.0,8.4,6.7,-6.7,1024,1024,1024,1024,0,0,0,0,67,4.958,73.58,161.417328,P-GPS,,49.2
932,521100,2026-01-12 12:14:59,0.0,5,7.459,0.0,0.0,0.0,8.5,6.6,-6.7,1024,1024,1024,1024,0,0,0,0,66,4.952,73.58,161.417328,P-GPS,,49.2
933,521200,2026-01-12 12:14:59,0.0,5,7.459,0.0,0.0,0.0,8.5,7.0,-6.8,1024,1024,1024,1024,0,0,0,0,66,4.952,73.58,161.417328,P-GPS,,49.2
934,521300,2026-01-12 12:14:59,0.0,5,7.459,0.0,0.0,0.0,8.4,7.5,-6.9,1024,1024,1024,1024,0,0,0,0,66,4.952,73.58,161.417328,P-GPS,,49.2
935,521400,2026-01-12 12:15:00,0.0,5,7.459,0.0,0.0,0.0,8.4,6.8,-6.7,1024,1024,1024,1024,0,0,0,0,66,4.952,73.58,161.417328,P-GPS,,49.2
936,521500,2026-01-12 12:15:00,0.0,5,7.459,0.0,0.0,0.0,8.4,6.8,-6.7,1024,1024,1024,1024,0,0,0,0,66,4.952,73.58,161.417328,P-GPS,,49.2
937,521600,2026-01-12 12:15:00,0.0,5,7.459,0.0,0.0,0.0,8.5,7.0,-6.8,1024,1024,1024,1024,0,0,0,0,66,4.952,73.58,161.417328,P-GPS,,49.2
938,521700,2026-01-12 12:15:00,0.0,5,7.459,0.0,0.0,0.0,8.4,7.5,-7.1,1024,1024,1024,1024,0,0,0,0,66,4.952,73.58,161.417328,P-GPS,,49.2
939,521800,2026-01-12 12:15:00,0.0,5,7.459,0.0,0.0,0.0,8.4,7.1,-7.2,1024,1024,1024,1024,0,0,0,0,66,4.952,73.58,161.417328,P-GPS,,49.2
940,521900,2026-01-12 12:15:00,0.0,5,7.459,0.0,0.0,0.0,8.4,7.0,-7.0,1024,1024,1024,1024,0,0,0,0,66,4.952,73.58,161.417328,P-GPS,,49.2
941,522000,2026-01-12 12:15:00,0.0,5,7.459,0.0,0.0,0.0,8.4,6.8,-6.9,1024,1024,1024,1024,0,0,0,0,66,4.952,73.58,161.089244,P-GPS,,49.1
942,522100,2026-01-12 12:15:00,0.0,5,7.459,0.0,0.0,0.0,8.4,6.6,-6.7,1024,1024,1024,1024,0,0,0,0,66,4.952,73.58,161.089244,P-GPS,,49.1
943,522200,2026-01-12 12:15:00,0.0,5,7.459,0.0,0.0,0.0,8.4,6.8,-6.7,1024,1024,1024,1024,0,0,0,0,66,4.952,73.58,161.089244,P-GPS,,49.1
944,522300,2026-01-12 12:15:00,0.0,5,7.459,0.0,0.0,0.0,8.5,6.3,-6.5,1024,1024,1024,1024,0,0,0,0,66,4.952,73.58,161.089244,P-GPS,,49.1
945,522400,2026-01-12 12:15:00,0.0,5,7.459,0.0,0.0,0.0,8.6,6.4,-6.4,1024,1024,1024,1024,0,0,0,0,66,4.952,73.58,161.089244,P-GPS,,49.1
946,522500,2026-01-12 12:15:01,0.0,5,7.459,0.0,0.0,0.0,8.6,6.9,-6.2,1024,1024,1024,1024,0,0,0,0,66,4.952,73.58,161.089244,P-GPS,,49.1
947,522600,2026-01-12 12:15:01,0.0,5,7.459,0.0,0.0,0.0,8.5,6.8,-5.9,1024,1024,1024,1024,0,0,0,0,66,4.952,73.58,161.089244,P-GPS,,49.1
948,522700,2026-01-12 12:15:01,0.0,5,7.459,0.0,0.0,-0.223694,8.4,7.0,-5.8,1024,1024,1024,1024,0,0,0,0,66,4.952,73.58,161.089244,P-GPS,,49.1
949,522800,2026-01-12 12:15:01,0.0,5,7.459,0.0,0.0,-0.223694,8.5,6.6,-5.4,1024,1024,1024,1024,0,0,0,0,66,4.952,73.58,161.089244,P-GPS,,49.1
950,522900,2026-01-12 12:15:01,0.0,5,7.459,0.0,0.0,-0.223694,8.6,6.8,-5.4,1024,1024,1024,1024,0,0,0,0,66,4.952,73.58,161.089244,P-GPS,,49.1
951,523000,2026-01-12 12:15:01,0.0,5,7.459,0.0,0.0,0.0,8.5,6.9,-5.7,1024,1024,1024,1024,0,0,0,0,66,4.952,73.58,161.089244,P-GPS,,49.1
952,523100,2026-01-12 12:15:01,0.0,5,7.459,0.0,0.0,0.0,8.6,7.0,-5.8,1024,1024,1024,1024,0,0,0,0,66,4.952,73.58,161.089244,P-GPS,,49.1
953,523200,2026-01-12 12:15:01,0.0,5,7.459,0.0,0.0,0.0,8.7,6.8,-5.3,1024,1024,1024,1024,0,0,0,0,66,4.952,73.58,161.089244,P-GPS,,49.1
954,523300,2026-01-12 12:15:01,0.0,5,7.46,0.0,0.0,0.0,8.7,6.7,-5.3,1024,1024,1024,1024,0,0,0,0,66,4.847,73.58,161.089244,P-GPS,,49.1
955,523400,2026-01-12 12:15:02,0.0,5,7.46,0.0,0.0,0.0,8.7,7.4,-5.2,1024,1024,1024,1024,0,0,0,0,66,4.847,73.58,161.089244,P-GPS,,49.1
956,523500,2026-01-12 12:15:02,0.0,5,7.46,0.0,0.0,0.0,8.6,8.0,-5.2,1024,1024,1024,1024,0,0,0,0,66,4.847,73.58,161.089244,P-GPS,,49.1
957,523600,2026-01-12 12:15:02,0.0,5,7.46,0.0,0.0,0.0,8.6,7.5,-5.0,1024,1024,1024,1024,0,0,0,0,66,4.847,73.58,161.089244,P-GPS,,49.1
958,523700,2026-01-12 12:15:02,0.0,5,7.46,0.0,0.0,0.0,8.6,7.2,-4.7,1024,1024,1024,1024,0,0,0,0,66,4.847,73.58,161.089244,P-GPS,,49.1
959,523800,2026-01-12 12:15:02,0.0,5,7.46,0.0,0.0,0.0,8.5,7.3,-4.5,1024,1024,1024,1024,0,0,0,0,66,4.847,73.58,161.089244,P-GPS,,49.1
960,523900,2026-01-12 12:15:02,0.0,5,7.46,0.0,0.0,0.0,8.5,7.2,-4.8,1024,1024,1024,1024,0,0,0,0,66,4.847,73.58,161.089244,P-GPS,,49.1
961,524000,2026-01-12 12:15:02,0.0,5,7.46,0.0,0.0,0.0,8.6,7.0,-4.9,1024,1024,1024,1024,0,0,0,0,66,4.847,73.58,161.089244,P-GPS,,49.1
962,524100,2026-01-12 12:15:02,0.0,5,7.46,0.0,0.0,0.0,8.6,6.5,-5.2,1024,1024,1024,1024,0,0,0,0,66,4.847,73.58,161.417328,P-GPS,,49.2
963,524200,2026-01-12 12:15:02,0.0,5,7.46,0.0,0.0,0.0,8.6,6.9,-5.5,1024,1024,1024,1024,0,0,0,0,66,4.847,73.58,161.417328,P-GPS,,49.2
964,524300,2026-01-12 12:15:02,0.0,5,7.46,0.0,0.0,0.0,8.5,7.0,-5.5,1024,1024,1024,1024,0,0,0,0,66,4.847,73.58,161.417328,P-GPS,,49.2
965,524400,2026-01-12 12:15:02,0.0,5,7.46,0.0,0.0,-0.223694,8.4,6.7,-5.6,1024,1024,1024,1024,0,0,0,0,66,4.847,73.58,161.745412,P-GPS,,49.3
966,524500,2026-01-12 12:15:03,0.0,5,7.46,0.0,0.0,-0.223694,8.5,6.1,-5.8,1024,1024,1024,1024,0,0,0,0,66,4.847,73.58,161.745412,P-GPS,,49.3
967,524600,2026-01-12 12:15:03,0.0,5,7.46,0.0,0.0,-0.223694,8.5,6.1,-6.0,1024,1024,1024,1024,0,0,0,0,66,4.847,73.58,161.745412,P-GPS,,49.3
968,524700,2026-01-12 12:15:03,0.0,5,7.46,0.0,0.0,-0.223694,8.5,6.3,-6.1,1024,1024,1024,1024,0,0,0,0,66,4.847,73.58,161.745412,P-GPS,,49.3
969,524800,2026-01-12 12:15:03,0.0,5,7.46,0.0,0.0,0.0,8.4,6.9,-6.2,1024,1024,1024,1024,0,0,0,0,66,4.847,73.58,161.745412,P-GPS,,49.3
970,524900,2026-01-12 12:15:03,0.0,5,7.46,0.0,0.0,0.0,8.4,7.0,-6.1,1024,1024,1024,1024,0,0,0,0,66,4.847,73.58,161.745412,P-GPS,,49.3
971,525000,2026-01-12 12:15:03,0.0,5,7.46,0.0,0.0,0.0,8.5,7.5,-5.7,1024,1024,1024,1024,0,0,0,0,66,4.847,73.58,161.745412,P-GPS,,49.3
972,525100,2026-01-12 12:15:03,0.0,5,7.46,0.0,0.0,0.0,8.5,7.5,-5.3,1024,1024,1024,1024,0,0,0,0,66,4.847,73.58,161.745412,P-GPS,,49.3
973,525200,2026-01-12 12:15:03,0.0,5,7.46,0.0,0.0,0.0,8.5,7.5,-5.2,1024,1024,1024,1024,0,0,0,0,66,4.847,73.58,161.745412,P-GPS,,49.3
974,525300,2026-01-12 12:15:03,0.0,5,7.438,0.0,0.0,0.0,8.6,7.2,-4.6,1024,1024,1024,1024,0,0,0,0,66,4.971,73.58,161.745412,P-GPS,,49.3
975,525400,2026-01-12 12:15:03,0.0,5,7.438,0.0,0.0,0.0,8.8,6.6,-4.5,1024,1024,1024,1024,0,0,0,0,66,4.971,73.58,161.745412,P-GPS,,49.3
976,525500,2026-01-12 12:15:04,0.0,5,7.438,0.0,0.0,0.0,8.8,6.9,-4.4,1024,1024,1024,1024,0,0,0,0,66,4.971,73.58,161.417328,P-GPS,,49.2
977,525600,2026-01-12 12:15:04,0.0,5,7.438,0.0,0.0,0.0,8.6,7.8,-5.1,1024,1024,1024,1024,0,0,0,0,66,4.971,73.58,161.417328,P-GPS,,49.2
978,525700,2026-01-12 12:15:04,0.0,5,7.438,0.0,0.0,0.0,8.6,8.0,-5.3,1024,1024,1024,1024,0,0,0,0,66,4.971,73.58,161.417328,P-GPS,,49.2
979,525800,2026-01-12 12:15:04,0.0,5,7.438,0.0,0.0,0.0,8.6,8.1,-5.3,1024,1024,1024,1024,0,0,0,0,66,4.971,73.58,161.417328,P-GPS,,49.2
980,525900,2026-01-12 12:15:04,0.0,5,7.438,0.0,0.0,0.0,8.5,8.0,-5.2,1024,1024,1024,1024,0,0,0,0,66,4.971,73.58,161.089244,P-GPS,,49.1
981,526000,2026-01-12 12:15:04,0.0,5,7.438,0.0,0.0,0.0,8.6,7.6,-5.1,1024,1024,1024,1024,0,0,0,0,66,4.971,73.58,161.089244,P-GPS,,49.1
982,526100,2026-01-12 12:15:04,0.0,5,7.438,0.0,0.0,0.0,8.6,7.3,-4.8,1024,1024,1024,1024,0,0,0,0,66,4.971,73.58,161.089244,P-GPS,,49.1
983,526200,2026-01-12 12:15:04,0.0,5,7.469,0.0,0.0,0.0,8.6,7.2,-4.9,1024,1024,1024,1024,0,0,0,0,66,4.109,73.58,161.089244,P-GPS,,49.1
984,526300,2026-01-12 12:15:04,0.0,5,7.469,0.0,0.0,0.0,8.5,7.3,-5.0,1024,1024,1024,1024,0,0,0,0,66,4.109,73.58,161.089244,P-GPS,,49.1
985,526400,2026-01-12 12:15:04,0.0,5,7.469,0.0,0.0,0.0,8.5,7.2,-5.0,1024,1024,1024,1024,0,0,0,0,66,4.109,73.58,161.089244,P-GPS,,49.1
986,526500,2026-01-12 12:15:05,0.0,5,7.469,0.0,0.0,0.0,8.6,6.8,-4.8,1024,1024,1024,1024,0,0,0,0,66,4.109,73.58,161.089244,P-GPS,,49.1
987,526600,2026-01-12 12:15:05,0.0,5,7.469,0.0,0.0,0.0,8.6,7.4,-4.9,1024,1024,1024,1024,0,0,0,0,66,4.109,73.58,161.089244,P-GPS,,49.1
988,526700,2026-01-12 12:15:05,0.0,5,7.469,0.0,0.0,0.0,8.5,8.1,-5.0,1024,1024,1024,1024,0,0,0,0,66,4.109,73.58,161.089244,P-GPS,,49.1
989,526800,2026-01-12 12:15:05,0.0,5,7.469,0.0,0.0,0.0,8.5,7.9,-4.8,1024,1024,1024,1024,0,0,0,0,66,4.109,73.58,161.089244,P-GPS,,49.1
990,526900,2026-01-12 12:15:05,0.0,5,7.469,0.0,0.0,0.0,8.7,7.3,-4.3,1024,1024,1024,1024,0,0,0,0,66,4.109,73.58,161.089244,P-GPS,,49.1
991,527000,2026-01-12 12:15:05,0.0,5,7.469,0.0,0.0,0.0,8.7,7.6,-3.7,1024,1024,1024,1024,0,0,0,0,66,4.109,73.58,161.089244,P-GPS,,49.1
992,527100,2026-01-12 12:15:05,0.0,5,7.469,0.0,0.0,0.0,8.7,7.5,-4.0,1024,1024,1024,1024,0,0,0,0,66,4.109,73.58,161.089244,P-GPS,,49.1
993,527200,2026-01-12 12:15:05,0.0,5,7.48,0.0,0.0,0.0,8.7,7.7,-4.4,1024,1024,1024,1024,0,0,0,0,66,4.144,73.58,161.417328,P-GPS,,49.2
994,527300,2026-01-12 12:15:05,0.0,5,7.48,0.0,0.0,0.0,8.7,7.3,-4.3,1024,1024,1024,1024,0,0,0,0,66,4.144,73.58,161.417328,P-GPS,,49.2
995,527400,2026-01-12 12:15:05,0.0,5,7.48,0.0,0.0,0.0,8.8,7.6,-3.8,1024,1024,1024,1024,0,0,0,0,66,4.144,73.58,161.417328,P-GPS,,49.2
996,527500,2026-01-12 12:15:06,0.0,5,7.48,0.0,0.0,0.0,8.8,7.6,-4.1,1024,1024,1024,1024,0,0,0,0,66,4.144,73.58,161.417328,P-GPS,,49.2
997,527600,2026-01-12 12:15:06,0.0,5,7.48,0.0,0.0,0.0,8.8,8.2,-3.5,1024,1024,1024,1024,0,0,0,0,66,4.144,73.58,161.417328,P-GPS,,49.2
998,527700,2026-01-12 12:15:06,0.0,5,7.48,0.0,0.0,0.0,8.8,8.3,-3.3,1024,1024,1024,1024,0,0,0,0,66,4.144,73.58,161.417328,P-GPS,,49.2
999,527800,2026-01-12 12:15:06,0.0,5,7.48,0.0,0.0,0.0,8.8,8.6,-3.0,1024,1024,1024,1024,0,0,0,0,66,4.144,73.58,161.417328,P-GPS,,49.2
1000,527900,2026-01-12 12:15:06,0.0,5,7.48,0.0,0.0,0.0,8.8,8.3,-3.3,1024,1024,1024,1024,0,0,0,0,66,4.144,73.58,161.417328,P-GPS,,49.2
1001,528000,2026-01-12 12:15:06,0.0,5,7.48,0.0,0.0,0.0,8.8,8.3,-3.4,1024,1024,1024,1024,0,0,0,0,66,4.144,73.58,161.417328,P-GPS,,49.2
1002,528100,2026-01-12 12:15:06,0.0,5,7.48,0.0,0.0,0.0,8.7,7.5,-3.2,1024,1024,1024,1024,0,0,0,0,66,4.144,73.58,161.417328,P-GPS,,49.2
1003,528200,2026-01-12 12:15:06,0.0,5,7.468,0.0,0.0,0.0,8.7,7.5,-3.5,1024,1024,1024,1024,0,0,0,0,66,4.28,73.58,161.745412,P-GPS,,49.3
1004,528300,2026-01-12 12:15:06,0.0,5,7.468,0.0,0.0,0.0,8.8,6.9,-3.7,1024,1024,1024,1024,0,0,0,0,66,4.28,73.58,161.745412,P-GPS,,49.3
1005,528400,2026-01-12 12:15:07,0.0,5,7.468,0.0,0.0,0.0,8.7,7.5,-3.9,1024,1024,1024,1024,0,0,0,0,66,4.28,73.58,161.745412,P-GPS,,49.3
1006,528500,2026-01-12 12:15:07,0.0,5,7.468,0.0,0.0,0.0,8.6,8.0,-4.4,1024,1024,1024,1024,0,0,0,0,66,4.28,73.58,161.745412,P-GPS,,49.3
1007,528600,2026-01-12 12:15:07,0.0,5,7.468,0.0,0.0,0.0,8.5,8.5,-4.5,1024,1024,1024,1024,0,0,0,0,66,4.28,73.58,161.745412,P-GPS,,49.3
1008,528700,2026-01-12 12:15:07,0.0,5,7.468,0.0,0.0,0.0,8.5,8.3,-4.5,1024,1024,1024,1024,0,0,0,0,66,4.28,73.58,161.745412,P-GPS,,49.3
1009,528800,2026-01-12 12:15:07,0.0,5,7.468,0.0,0.0,0.0,8.5,8.2,-4.7,1024,1024,1024,1024,0,0,0,0,66,4.28,73.58,161.745412,P-GPS,,49.3
1010,528900,2026-01-12 12:15:07,0.0,5,7.468,0.0,0.0,0.0,8.6,7.5,-4.2,1024,1024,1024,1024,0,0,0,0,66,4.28,73.58,161.745412,P-GPS,,49.3
1011,529000,2026-01-12 12:15:07,0.0,5,7.468,0.0,0.0,0.0,8.6,6.9,-4.1,1024,1024,1024,1024,0,0,0,0,66,4.28,73.58,161.745412,P-GPS,,49.3
1012,529100,2026-01-12 12:15:07,0.0,5,7.468,0.0,0.0,0.0,8.6,6.6,-4.3,1024,1024,1024,1024,0,0,0,0,66,4.28,73.58,161.745412,P-GPS,,49.3
1013,529200,2026-01-12 12:15:07,0.0,5,7.474,0.0,0.0,0.0,8.5,7.3,-4.5,1024,1024,1024,1024,0,0,0,0,66,4.358,73.58,161.745412,P-GPS,,49.3
1014,529300,2026-01-12 12:15:07,0.0,5,7.474,0.0,0.0,0.0,8.5,7.1,-4.7,1024,1024,1024,1024,0,0,0,0,66,4.358,73.58,161.745412,P-GPS,,49.3
1015,529400,2026-01-12 12:15:07,0.0,5,7.474,0.0,0.0,0.0,8.6,6.9,-5.0,1024,1024,1024,1024,0,0,0,0,66,4.358,73.58,161.745412,P-GPS,,49.3
1016,529500,2026-01-12 12:15:08,0.0,5,7.474,0.0,0.0,0.0,8.8,5.9,-4.3,1024,1024,1024,1024,0,0,0,0,66,4.358,73.58,161.745412,P-GPS,,49.3
1017,529600,2026-01-12 12:15:08,0.0,5,7.474,0.0,0.0,0.0,8.8,6.2,-4.5,1024,1024,1024,1024,0,0,0,0,66,4.358,73.58,161.745412,P-GPS,,49.3
1018,529700,2026-01-12 12:15:08,0.0,5,7.474,0.0,0.0,0.0,8.8,6.6,-4.4,1024,1024,1024,1024,0,0,0,0,66,4.358,73.58,161.417328,P-GPS,,49.2
1019,529800,2026-01-12 12:15:08,0.0,5,7.474,0.0,0.0,0.0,8.8,6.8,-4.4,1024,1024,1024,1024,0,0,0,0,66,4.358,73.58,161.417328,P-GPS,,49.2
1020,529900,2026-01-12 12:15:08,0.0,5,7.474,0.0,0.0,0.0,8.6,7.6,-4.6,1024,1024,1024,1024,0,0,0,0,66,4.358,73.58,161.417328,P-GPS,,49.2
1021,530000,2026-01-12 12:15:08,0.0,5,7.474,0.0,0.0,0.223694,8.6,7.8,-4.8,1024,1024,1024,1024,0,0,0,0,66,4.358,73.58,161.417328,P-GPS,,49.2
1022,530100,2026-01-12 12:15:08,0.0,5,7.474,0.0,0.0,0.223694,8.5,7.5,-4.8,1024,1024,1024,1024,0,0,0,0,66,4.358,73.58,161.417328,P-GPS,,49.2
1023,530200,2026-01-12 12:15:08,0.0,5,7.493,0.0,0.0,0.223694,8.5,7.6,-4.9,1024,1024,1024,1024,0,0,0,0,66,4.114,73.58,161.417328,P-GPS,,49.2
1024,530300,2026-01-12 12:15:08,0.0,5,7.493,0.0,0.0,0.0,8.4,7.6,-4.6,1024,1024,1024,1024,0,0,0,0,66,4.114,73.58,161.745412,P-GPS,,49.3
1025,530400,2026-01-12 12:15:09,0.0,5,7.493,0.0,0.0,0.0,8.5,7.2,-4.8,1024,1024,1024,1024,0,0,0,0,66,4.114,73.58,161.745412,P-GPS,,49.3
1026,530500,2026-01-12 12:15:09,0.0,5,7.493,0.0,0.0,0.0,8.7,6.6,-4.5,1024,1024,1024,1024,0,0,0,0,66,4.114,73.58,162.073496,P-GPS,,49.4
1027,530600,2026-01-12 12:15:09,0.0,5,7.493,0.0,0.0,0.0,8.7,6.6,-4.2,1024,1024,1024,1024,0,0,0,0,66,4.114,73.58,162.073496,P-GPS,,49.4
1028,530700,2026-01-12 12:15:09,0.0,5,7.493,0.0,0.0,0.0,8.6,6.9,-4.1,1024,1024,1024,1024,0,0,0,0,66,4.114,73.58,162.073496,P-GPS,,49.4
1029,530800,2026-01-12 12:15:09,0.0,5,7.493,0.0,0.0,0.0,8.6,7.0,-3.8,1024,1024,1024,1024,0,0,0,0,66,4.114,73.58,162.073496,P-GPS,,49.4
1030,530900,2026-01-12 12:15:09,0.0,5,7.493,0.0,0.0,0.0,8.6,7.1,-3.7,1024,1024,1024,1024,0,0,0,0,66,4.114,73.58,162.073496,P-GPS,,49.4
1031,531000,2026-01-12 12:15:09,0.0,5,7.493,0.0,0.0,0.0,8.7,7.3,-3.6,1024,1024,1024,1024,0,0,0,0,66,4.114,73.58,162.073496,P-GPS,,49.4
1032,531100,2026-01-12 12:15:09,0.0,5,7.493,0.0,0.0,0.0,8.7,7.6,-3.5,1024,1024,1024,1024,0,0,0,0,66,4.114,73.58,162.073496,P-GPS,,49.4
1033,531200,2026-01-12 12:15:09,0.0,5,7.467,0.0,0.0,0.0,8.8,7.8,-3.6,1024,1024,1024,1024,0,0,0,0,66,4.515,73.58,162.073496,P-GPS,,49.4
1034,531300,2026-01-12 12:15:09,0.0,5,7.467,0.0,0.0,0.0,8.7,8.6,-4.0,1024,1024,1024,1024,0,0,0,0,66,4.515,73.58,162.073496,P-GPS,,49.4
1035,531400,2026-01-12 12:15:10,0.223694,5,7.467,0.223694,0.0,0.223694,8.7,9.5,-3.6,1024,1024,1024,1024,0,0,0,0,66,4.515,73.58,162.073496,P-GPS,,49.4
1036,531500,2026-01-12 12:15:10,0.223694,5,7.467,0.223694,0.0,0.223694,8.7,10.0,-3.4,1024,1024,1024,1024,0,0,0,0,66,4.515,73.58,162.073496,P-GPS,,49.4
1037,531600,2026-01-12 12:15:10,0.0,5,7.467,0.0,0.0,0.223694,8.6,10.0,-2.6,1024,1024,1024,1024,0,0,0,0,66,4.515,73.58,162.073496,P-GPS,,49.4
1038,531700,2026-01-12 12:15:10,0.0,5,7.467,0.0,0.0,0.0,8.7,9.6,-2.4,1024,1024,1024,1024,0,0,0,0,66,4.515,73.58,162.073496,P-GPS,,49.4
1039,531800,2026-01-12 12:15:10,0.0,5,7.467,0.0,0.0,0.0,8.7,9.2,-2.6,1024,1024,1024,1024,0,0,0,0,66,4.515,73.58,162.073496,P-GPS,,49.4
1040,531900,2026-01-12 12:15:10,0.0,5,7.467,0.0,0.0,0.0,8.7,9.2,-2.9,1024,1024,1024,1024,0,0,0,0,66,4.515,73.58,162.073496,P-GPS,,49.4
1041,532000,2026-01-12 12:15:10,0.0,5,7.467,0.0,0.0,0.0,8.7,8.6,-2.6,1024,1024,1024,1024,0,0,0,0,66,4.515,73.58,162.073496,P-GPS,,49.4
1042,532100,2026-01-12 12:15:10,0.0,5,7.451,0.0,0.0,0.0,8.7,8.0,-2.7,1024,1024,1024,1024,0,0,0,0,65,4.704,73.58,162.073496,P-GPS,,49.4
1043,532200,2026-01-12 12:15:10,0.0,5,7.451,0.0,0.0,0.0,8.6,8.7,-3.2,1024,1024,1024,1024,0,0,0,0,65,4.704,73.58,162.073496,P-GPS,,49.4
1044,532300,2026-01-12 12:15:10,0.0,5,7.451,0.0,0.0,0.0,8.6,7.7,-3.4,1024,1024,1024,1024,0,0,0,0,65,4.704,73.58,162.073496,P-GPS,,49.4
1045,532400,2026-01-12 12:15:11,0.0,5,7.451,0.0,0.0,0.0,8.7,7.6,-3.6,1024,1024,1024,1024,0,0,0,0,65,4.704,73.58,162.073496,P-GPS,,49.4
1046,532500,2026-01-12 12:15:11,0.0,5,7.451,0.0,0.0,0.0,8.5,9.3,-4.4,1024,1024,1024,1024,0,0,0,0,65,4.704,73.58,162.073496,P-GPS,,49.4
1047,532600,2026-01-12 12:15:11,0.0,5,7.451,0.0,0.0,0.0,8.6,8.9,-4.3,1024,1024,1024,1024,0,0,0,0,65,4.704,73.58,162.073496,P-GPS,,49.4
1048,532700,2026-01-12 12:15:11,0.223694,5,7.451,0.0,0.223694,0.0,8.7,8.4,-4.0,1024,1024,1024,1024,0,0,0,0,65,4.704,73.58,162.073496,P-GPS,,49.4
1049,532800,2026-01-12 12:15:11,0.223694,5,7.451,0.0,0.223694,0.0,8.6,8.9,-4.6,1024,1024,1024,1024,0,0,0,0,65,4.704,73.58,161.745412,P-GPS,,49.3
1050,532900,2026-01-12 12:15:11,0.223694,5,7.451,0.0,0.223694,0.0,8.7,9.1,-5.0,1024,1024,1024,1024,0,0,0,0,65,4.704,73.58,161.745412,P-GPS,,49.3
1051,533000,2026-01-12 12:15:11,0.223694,5,7.451,0.0,0.223694,0.0,8.5,9.5,-5.3,1024,1024,1024,1024,0,0,0,0,65,4.704,73.58,161.745412,P-GPS,,49.3
1052,533100,2026-01-12 12:15:11,0.0,5,7.451,0.0,0.0,0.0,8.5,9.1,-5.1,1024,1024,1024,1024,0,0,0,0,65,4.704,73.58,161.745412,P-GPS,,49.3
1053,533200,2026-01-12 12:15:11,0.0,5,7.451,0.0,0.0,0.0,8.5,9.7,-5.7,1024,1024,1024,1024,0,0,0,0,65,4.704,73.58,161.745412,P-GPS,,49.3
1054,533300,2026-01-12 12:15:11,0.0,5,7.451,0.0,0.0,0.223694,8.5,10.1,-6.2,1024,1024,1024,1024,0,0,0,0,65,4.704,73.58,161.745412,P-GPS,,49.3
1055,533400,2026-01-12 12:15:11,0.0,5,7.451,0.0,0.0,0.223694,8.5,9.9,-5.4,1024,1024,1024,1024,0,0,0,0,65,4.704,73.58,161.417328,P-GPS,,49.2
1056,533500,2026-01-12 12:15:12,0.0,5,7.451,0.0,0.0,0.0,8.4,9.8,-4.6,1024,1024,1024,1024,0,0,0,0,65,4.704,73.58,161.417328,P-GPS,,49.2
1057,533600,2026-01-12 12:15:12,0.0,5,7.451,0.0,0.0,0.0,8.5,9.3,-4.4,1024,1024,1024,1024,0,0,0,0,65,4.704,73.58,161.417328,P-GPS,,49.2
1058,533700,2026-01-12 12:15:12,0.0,5,7.451,0.0,0.0,0.0,8.6,8.2,-3.9,1024,1024,1024,1024,0,0,0,0,65,4.704,73.58,161.417328,P-GPS,,49.2
1059,533800,2026-01-12 12:15:12,0.0,5,7.451,0.0,0.0,0.0,8.5,8.0,-4.2,1024,1024,1024,1024,0,0,0,0,65,4.704,73.58,161.417328,P-GPS,,49.2
1060,533900,2026-01-12 12:15:12,0.0,5,7.451,0.0,0.0,0.0,8.4,8.1,-4.8,1024,1024,1024,1024,0,0,0,0,65,4.704,73.58,161.417328,P-GPS,,49.2
1061,534000,2026-01-12 12:15:12,0.0,5,7.451,0.0,0.0,0.0,8.5,7.9,-4.9,1024,1024,1024,1024,0,0,0,0,65,4.704,73.58,161.417328,P-GPS,,49.2
1062,534100,2026-01-12 12:15:12,0.0,5,7.451,0.0,0.0,0.0,8.5,7.4,-5.1,1024,1024,1024,1024,0,0,0,0,65,4.704,73.58,161.417328,P-GPS,,49.2
1063,534200,2026-01-12 12:15:12,0.0,5,7.451,0.0,0.0,0.0,8.5,7.5,-5.4,1024,1024,1024,1024,0,0,0,0,65,4.704,73.58,161.417328,P-GPS,,49.2
