time(millisecond),timestamp,speed(mph),gpslevel,voltage(v),xSpeed(mph),ySpeed(mph),zSpeed(mph),compass_heading(degrees),pitch(degrees),roll(degrees),rc_elevator,rc_aileron,rc_throttle,rc_rudder,rc_elevator(percent),rc_aileron(percent),rc_throttle(percent),rc_rudder(percent),battery_percent,current(A),battery_temperature(f),ascent(feet),flycState,message,height_above_takeoff(meters)
8500,2026-01-11 17:17:51,0.223694,4,7.747,0.0,-0.223694,-4.47388,15.9,5.6,-2.4,1024,1024,1684,1024,0,0,100,0,98,5.56,56.3,26.902888,P-GPS,,8.2
8600,2026-01-11 17:17:51,0.223694,4,7.747,0.0,-0.223694,-4.250186,15.8,5.9,-2.3,1024,1024,1684,1024,0,0,100,0,98,5.56,56.3,27.559056,P-GPS,,8.4
8700,2026-01-11 17:17:52,0.223694,4,7.747,0.0,-0.223694,-4.250186,16.1,4.3,-2.2,1024,1024,1684,1024,0,0,100,0,98,5.56,56.3,28.215224,P-GPS,,8.6
8800,2026-01-11 17:17:52,0.223694,4,7.747,0.0,-0.223694,-4.250186,16.2,4.3,-2.0,1024,1024,1684,1024,0,0,100,0,98,5.56,56.3,28.871392,P-GPS,,8.8
8900,2026-01-11 17:17:52,0.223694,4,7.747,0.0,-0.223694,-4.250186,16.2,4.3,-2.1,1024,1024,1684,1024,0,0,100,0,98,5.56,56.3,29.52756,P-GPS,,9.0
9000,2026-01-11 17:17:52,0.223694,4,7.747,0.0,-0.223694,-4.250186,16.3,4.5,-2.3,1024,1024,1684,1024,0,0,100,0,98,5.56,56.3,30.183728,P-GPS,,9.2
9100,2026-01-11 17:17:52,0.223694,4,7.747,0.0,-0.223694,-4.250186,16.2,4.6,-2.0,1024,1024,1024,1024,0,0,0,0,98,5.56,56.3,30.839896,P-GPS,,9.4
9200,2026-01-11 17:17:52,0.223694,4,7.747,0.0,-0.223694,-4.250186,16.3,4.0,-2.2,1024,1024,1024,1024,0,0,0,0,98,5.56,56.3,31.496064,P-GPS,,9.6
9300,2026-01-11 17:17:52,0.223694,4,7.747,0.0,-0.223694,-4.026492,16.3,3.8,-2.1,1024,1024,1024,1024,0,0,0,0,98,5.56,56.3,32.152232,P-GPS,,9.8
9400,2026-01-11 17:17:52,0.223694,4,7.747,0.0,-0.223694,-3.579104,16.3,4.4,-2.2,1024,1024,1024,1024,0,0,0,0,98,5.56,56.3,32.8084,P-GPS,,10.0
9500,2026-01-11 17:17:52,0.223694,4,7.747,0.0,-0.223694,-2.684328,16.3,4.6,-1.9,1024,1024,1024,1024,0,0,0,0,98,5.56,56.3,33.136484,P-GPS,,10.1
9600,2026-01-11 17:17:53,0.223694,4,7.807,0.0,-0.223694,-2.013246,16.3,4.7,-1.8,1024,1024,1024,1024,0,0,0,0,98,5.173,56.3,33.464568,P-GPS,,10.2
9700,2026-01-11 17:17:53,0.223694,4,7.807,0.0,-0.223694,-1.342164,16.4,4.8,-1.1,1024,1024,1024,1024,0,0,0,0,98,5.173,56.3,33.792652,P-GPS,,10.3
9800,2026-01-11 17:17:53,0.223694,4,7.807,0.0,-0.223694,-0.671082,16.3,4.2,-1.3,1024,1024,1024,1024,0,0,0,0,98,5.173,56.3,33.792652,P-GPS,,10.3
9900,2026-01-11 17:17:53,0.223694,4,7.807,0.0,-0.223694,-0.447388,16.4,3.6,-1.6,1024,1024,1024,1024,0,0,0,0,98,5.173,56.3,34.120736,P-GPS,,10.4
10000,2026-01-11 17:17:53,0.223694,4,7.807,0.0,-0.223694,-0.223694,16.5,3.5,-1.2,1024,1024,1024,1024,0,0,0,0,98,5.173,56.3,34.120736,P-GPS,,10.4
10100,2026-01-11 17:17:53,0.223694,4,7.807,0.0,-0.223694,0.0,16.6,3.3,-1.0,1024,1024,1024,1024,0,0,0,0,98,5.173,56.3,34.120736,P-GPS,,10.4
10200,2026-01-11 17:17:53,0.223694,4,7.807,0.0,-0.223694,-0.223694,16.6,3.5,-1.3,1024,1024,1024,1024,0,0,0,0,98,5.173,56.3,34.120736,P-GPS,,10.4
10300,2026-01-11 17:17:53,0.223694,4,7.807,0.0,-0.223694,0.0,16.8,3.7,-0.5,1024,1024,1024,1024,0,0,0,0,98,5.173,56.3,34.120736,P-GPS,,10.4
10400,2026-01-11 17:17:53,0.223694,4,7.807,0.0,-0.223694,0.0,16.8,3.7,-1.0,1024,1024,1024,1024,0,0,0,0,98,5.173,56.3,34.120736,P-GPS,,10.4
10500,2026-01-11 17:17:53,0.223694,4,7.807,0.0,-0.223694,0.0,16.7,3.4,-1.8,1024,1024,1024,1024,0,0,0,0,98,5.173,56.3,34.120736,P-GPS,,10.4
10600,2026-01-11 17:17:54,0.0,4,7.807,0.0,0.0,0.0,16.7,4.0,-1.5,1024,1024,1024,1024,0,0,0,0,98,5.173,56.3,34.120736,P-GPS,,10.4
10700,2026-01-11 17:17:54,0.0,4,7.807,0.0,0.0,0.0,16.8,3.7,-1.4,1024,1024,1024,1024,0,0,0,0,98,5.173,56.3,34.44882,P-GPS,,10.5
10800,2026-01-11 17:17:54,0.0,4,7.807,0.0,0.0,0.0,16.7,3.2,-1.7,1024,1024,1024,1024,0,0,0,0,98,5.173,56.3,34.44882,P-GPS,,10.5
10900,2026-01-11 17:17:54,0.0,4,7.807,0.0,0.0,0.0,16.7,2.6,-2.1,1024,1024,1024,1024,0,0,0,0,98,5.173,56.3,34.44882,P-GPS,,10.5
11000,2026-01-11 17:17:54,0.0,4,7.807,0.0,0.0,0.0,16.7,2.3,-2.5,1024,1024,1024,1024,0,0,0,0,98,5.173,56.3,34.44882,P-GPS,,10.5
11100,2026-01-11 17:17:54,0.0,4,7.807,0.0,0.0,0.0,16.8,2.3,-2.3,1024,1024,1024,1024,0,0,0,0,98,5.173,56.3,34.44882,P-GPS,,10.5
11200,2026-01-11 17:17:54,0.0,4,7.807,0.0,0.0,0.0,16.9,2.1,-2.8,1024,1024,1024,1024,0,0,0,0,98,5.173,56.3,34.44882,P-GPS,,10.5
11300,2026-01-11 17:17:54,0.223694,4,7.807,0.0,-0.223694,0.0,16.8,2.0,-2.8,1024,1024,1024,1024,0,0,0,0,98,5.173,56.3,34.44882,P-GPS,,10.5
11400,2026-01-11 17:17:54,0.223694,4,7.807,0.0,-0.223694,0.0,16.8,2.2,-2.6,1024,1024,1024,1024,0,0,0,0,98,5.173,56.3,34.44882,P-GPS,,10.5
11500,2026-01-11 17:17:54,0.223694,4,7.792,0.0,-0.223694,0.0,16.8,1.9,-2.1,1024,1024,1024,1024,0,0,0,0,98,4.504,56.48,34.44882,P-GPS,,10.5
11600,2026-01-11 17:17:55,0.223694,4,7.792,0.0,-0.223694,0.0,16.8,1.8,-1.7,1024,1024,1024,1024,0,0,0,0,98,4.504,56.48,34.44882,P-GPS,,10.5
11700,2026-01-11 17:17:55,0.223694,4,7.792,0.0,-0.223694,0.0,16.8,2.0,-1.9,1024,1024,1024,1024,0,0,0,0,98,4.504,56.48,34.44882,P-GPS,,10.5
11800,2026-01-11 17:17:55,0.223694,4,7.792,0.0,-0.223694,0.0,16.8,2.0,-1.9,1024,1024,1024,1024,0,0,0,0,98,4.504,56.48,34.120736,P-GPS,,10.4
11900,2026-01-11 17:17:55,0.223694,4,7.792,0.0,-0.223694,0.0,16.8,1.6,-1.6,1024,1024,1024,1024,0,0,0,0,98,4.504,56.48,34.120736,P-GPS,,10.4
12000,2026-01-11 17:17:55,0.0,4,7.792,0.0,0.0,0.0,16.8,1.4,-1.9,1024,1024,1024,1024,0,0,0,0,98,4.504,56.48,34.120736,P-GPS,,10.4
12100,2026-01-11 17:17:55,0.0,4,7.792,0.0,0.0,0.223694,16.8,1.6,-2.3,1024,1024,1024,1024,0,0,0,0,98,4.504,56.48,34.120736,P-GPS,,10.4
12200,2026-01-11 17:17:55,0.0,4,7.792,0.0,0.0,0.223694,16.7,1.8,-3.0,1024,1024,1024,1024,0,0,0,0,98,4.504,56.48,33.792652,P-GPS,,10.3
12300,2026-01-11 17:17:55,0.0,4,7.792,0.0,0.0,0.223694,16.8,2.1,-3.4,1024,1024,1024,1024,0,0,0,0,98,4.504,56.48,33.792652,P-GPS,,10.3
12400,2026-01-11 17:17:55,0.0,4,7.792,0.0,0.0,0.0,16.7,2.8,-3.8,1024,1024,1024,1024,0,0,0,0,98,4.504,56.48,33.792652,P-GPS,,10.3
12500,2026-01-11 17:17:55,0.0,4,7.794,0.0,0.0,0.0,16.9,2.3,-3.4,1024,1024,1024,1024,0,0,0,0,98,4.405,56.48,33.792652,P-GPS,,10.3
12600,2026-01-11 17:17:56,0.223694,4,7.794,0.0,-0.223694,0.0,17.0,2.3,-2.8,1024,1024,1024,1024,0,0,0,0,98,4.405,56.48,33.792652,P-GPS,,10.3
12700,2026-01-11 17:17:56,0.223694,4,7.794,0.0,-0.223694,0.0,17.1,2.1,-2.5,1024,1024,1024,1024,0,0,0,0,98,4.405,56.48,33.464568,P-GPS,,10.2
12800,2026-01-11 17:17:56,0.223694,4,7.794,0.0,-0.223694,0.0,17.1,1.7,-2.8,1024,1024,1024,1024,0,0,0,0,98,4.405,56.48,33.464568,P-GPS,,10.2
12900,2026-01-11 17:17:56,0.223694,4,7.794,0.0,-0.223694,0.0,16.9,1.5,-2.8,1024,1024,1024,1024,0,0,0,0,98,4.405,56.48,33.464568,P-GPS,,10.2
13000,2026-01-11 17:17:56,0.223694,4,7.794,0.0,-0.223694,0.0,16.8,2.1,-2.5,1024,1024,1024,1024,0,0,0,0,98,4.405,56.48,33.464568,P-GPS,,10.2
13100,2026-01-11 17:17:56,0.0,4,7.794,0.0,0.0,0.0,17.0,2.3,-2.0,1024,1024,1024,1024,0,0,0,0,98,4.405,56.48,33.464568,P-GPS,,10.2
13200,2026-01-11 17:17:56,0.0,4,7.794,0.0,0.0,0.0,17.0,3.5,-2.7,1024,1024,1024,1024,0,0,0,0,98,4.405,56.48,33.464568,P-GPS,,10.2
13300,2026-01-11 17:17:56,0.223694,4,7.794,0.0,-0.223694,0.0,17.0,4.1,-2.7,1024,1024,1024,1024,0,0,0,0,98,4.405,56.48,33.464568,P-GPS,,10.2
13400,2026-01-11 17:17:56,0.223694,4,7.794,0.0,-0.223694,0.0,17.3,2.9,-2.7,1024,1024,1024,1024,0,0,0,0,98,4.405,56.48,33.464568,P-GPS,,10.2
13500,2026-01-11 17:17:56,0.0,4,7.781,0.0,0.0,0.0,17.2,2.6,-2.4,1024,1024,1024,1024,0,0,0,0,98,4.704,56.48,33.464568,P-GPS,,10.2
13600,2026-01-11 17:17:57,0.0,4,7.781,0.0,0.0,0.0,17.0,2.5,-2.2,1024,1024,1024,1024,0,0,0,0,98,4.704,56.48,33.464568,P-GPS,,10.2
13700,2026-01-11 17:17:57,0.0,4,7.781,0.0,0.0,0.0,16.9,2.6,-1.9,1024,1024,1024,1024,0,0,0,0,98,4.704,56.48,33.464568,P-GPS,,10.2
13800,2026-01-11 17:17:57,0.0,4,7.781,0.0,0.0,0.0,16.8,3.4,-2.4,1024,1024,1024,1024,0,0,0,0,98,4.704,56.48,33.464568,P-GPS,,10.2
13900,2026-01-11 17:17:57,0.0,4,7.781,0.0,0.0,0.0,16.6,4.8,-2.4,1024,1024,1024,1024,0,0,0,0,98,4.704,56.48,33.464568,P-GPS,,10.2
14000,2026-01-11 17:17:57,0.0,4,7.781,0.0,0.0,0.0,16.4,6.2,-3.7,1024,1024,1024,1024,0,0,0,0,98,4.704,56.48,33.464568,P-GPS,,10.2
14100,2026-01-11 17:17:57,0.0,4,7.781,0.0,0.0,0.0,16.5,5.0,-4.1,1024,1024,1024,1024,0,0,0,0,98,4.704,56.48,33.792652,P-GPS,,10.3
14200,2026-01-11 17:17:57,0.0,4,7.781,0.0,0.0,0.0,16.6,4.8,-4.6,1024,1024,1024,1024,0,0,0,0,98,4.704,56.48,33.792652,P-GPS,,10.3
14300,2026-01-11 17:17:57,0.0,4,7.781,0.0,0.0,0.0,16.6,4.2,-4.4,1024,1024,1024,1024,0,0,0,0,98,4.704,56.48,33.792652,P-GPS,,10.3
14400,2026-01-11 17:17:57,0.223694,4,7.781,0.0,-0.223694,0.0,16.3,3.1,-3.8,1024,1024,1024,1024,0,0,0,0,98,4.704,56.48,33.792652,P-GPS,,10.3
14500,2026-01-11 17:17:57,0.3131716,4,7.791,-0.223694,-0.223694,0.0,16.7,1.2,-2.9,1024,1024,1024,1024,0,0,0,0,98,4.528,56.48,33.792652,P-GPS,,10.3
14600,2026-01-11 17:17:58,0.0,4,7.791,0.0,0.0,0.0,16.7,0.1,-4.1,1024,1024,1024,1024,0,0,0,0,98,4.528,56.48,33.792652,P-GPS,,10.3
14700,2026-01-11 17:17:58,0.223694,4,7.791,0.0,-0.223694,0.0,16.5,1.5,-4.3,1024,1024,1024,1024,0,0,0,0,98,4.528,56.48,33.792652,P-GPS,,10.3
14800,2026-01-11 17:17:58,0.223694,4,7.791,0.0,-0.223694,0.0,16.6,1.3,-4.0,1024,1024,1024,1024,0,0,0,0,98,4.528,56.48,33.792652,P-GPS,,10.3
14900,2026-01-11 17:17:58,0.223694,4,7.791,0.0,-0.223694,0.0,16.9,-0.2,-3.0,1024,1024,1024,1024,0,0,0,0,98,4.528,56.48,33.792652,P-GPS,,10.3
15000,2026-01-11 17:17:58,0.223694,4,7.791,0.0,-0.223694,0.0,17.1,0.7,-2.6,1024,1024,1024,1024,0,0,0,0,98,4.528,56.48,33.792652,P-GPS,,10.3
15100,2026-01-11 17:17:58,0.223694,4,7.791,0.0,-0.223694,0.0,17.2,-0.2,-2.9,1024,1024,1024,1024,0,0,0,0,98,4.528,56.48,33.792652,P-GPS,,10.3
15200,2026-01-11 17:17:58,0.223694,4,7.791,0.0,-0.223694,0.0,17.1,1.8,-2.6,1024,1024,1024,1024,0,0,0,0,98,4.528,56.48,33.464568,P-GPS,,10.2
15300,2026-01-11 17:17:58,0.223694,4,7.791,0.0,-0.223694,0.0,17.2,0.2,-3.8,1024,1024,1024,1024,0,0,0,0,98,4.528,56.48,33.464568,P-GPS,,10.2
15400,2026-01-11 17:17:58,0.223694,4,7.791,0.223694,0.0,0.0,17.3,2.4,-3.7,1024,1024,1024,1024,0,0,0,0,98,4.528,56.48,33.464568,P-GPS,,10.2
15500,2026-01-11 17:17:58,0.223694,4,7.8,0.223694,0.0,0.0,17.2,4.1,-3.3,1024,1024,1024,1024,0,0,0,0,98,4.57,56.48,33.464568,P-GPS,,10.2
15600,2026-01-11 17:17:59,0.447388,4,7.8,0.447388,0.0,0.0,17.0,6.2,-3.9,1024,1024,1024,1024,0,0,0,0,98,4.57,56.48,33.464568,P-GPS,,10.2
15700,2026-01-11 17:17:59,0.223694,4,7.8,0.223694,0.0,0.0,17.0,7.0,-3.8,1024,1024,1024,1024,0,0,0,0,98,4.57,56.48,33.136484,P-GPS,,10.1
15800,2026-01-11 17:17:59,0.223694,4,7.8,0.223694,0.0,0.0,17.1,7.4,-3.5,1024,1024,1024,1024,0,0,0,0,98,4.57,56.48,33.136484,P-GPS,,10.1
15900,2026-01-11 17:17:59,0.223694,4,7.8,0.223694,0.0,0.0,17.0,7.5,-3.3,1024,1024,1024,1024,0,0,0,0,98,4.57,56.48,33.136484,P-GPS,,10.1
16000,2026-01-11 17:17:59,0.223694,4,7.8,0.223694,0.0,0.0,17.0,8.1,-3.2,1024,1024,1024,1024,0,0,0,0,98,4.57,56.48,33.136484,P-GPS,,10.1
16100,2026-01-11 17:17:59,0.223694,4,7.8,0.223694,0.0,0.0,16.9,8.3,-2.6,1024,1024,1024,1024,0,0,0,0,98,4.57,56.48,32.8084,P-GPS,,10.0
16200,2026-01-11 17:17:59,0.3131716,4,7.8,0.223694,-0.223694,0.0,16.8,8.5,-3.0,1024,1024,1024,1024,0,0,0,0,98,4.57,56.48,32.8084,P-GPS,,10.0
16300,2026-01-11 17:17:59,0.3131716,4,7.8,0.223694,-0.223694,0.0,16.8,8.5,-2.7,1024,1024,1024,1024,0,0,0,0,98,4.57,56.48,32.8084,P-GPS,,10.0
16400,2026-01-11 17:17:59,0.4921268,4,7.771,0.223694,-0.447388,0.0,16.8,8.7,-1.6,1024,1024,1024,1024,0,0,0,0,98,4.517,56.48,32.480316,P-GPS,,9.9
16500,2026-01-11 17:17:59,0.447388,4,7.771,0.0,-0.447388,0.0,16.8,8.4,-0.3,1024,1024,1024,1024,0,0,0,0,98,4.517,56.48,32.480316,P-GPS,,9.9
16600,2026-01-11 17:18:00,0.447388,4,7.771,0.0,-0.447388,0.0,16.9,7.9,0.9,1024,1024,1024,1024,0,0,0,0,98,4.517,56.48,32.152232,P-GPS,,9.8
16700,2026-01-11 17:18:00,0.447388,4,7.771,0.0,-0.447388,0.0,17.1,6.8,1.2,1024,1024,1024,1024,0,0,0,0,98,4.517,56.48,32.152232,P-GPS,,9.8
16800,2026-01-11 17:18:00,0.447388,4,7.771,0.0,-0.447388,-0.223694,16.9,6.5,1.1,1024,1024,1024,1024,0,0,0,0,98,4.517,56.48,32.152232,P-GPS,,9.8
16900,2026-01-11 17:18:00,0.223694,4,7.771,0.0,-0.223694,-0.223694,16.9,5.7,0.8,1024,1024,1024,1024,0,0,0,0,98,4.517,56.48,32.152232,P-GPS,,9.8
17000,2026-01-11 17:18:00,0.223694,4,7.771,0.0,-0.223694,-0.223694,16.9,6.2,0.7,1024,1024,1024,1024,0,0,0,0,98,4.517,56.48,32.152232,P-GPS,,9.8
17100,2026-01-11 17:18:00,0.0,4,7.771,0.0,0.0,-0.447388,17.0,6.2,0.4,1024,1024,1024,1024,0,0,0,0,98,4.517,56.48,32.152232,P-GPS,,9.8
17200,2026-01-11 17:18:00,0.0,4,7.771,0.0,0.0,-0.447388,17.1,6.1,-0.6,1024,1024,1024,1024,0,0,0,0,98,4.517,56.48,32.152232,P-GPS,,9.8
17300,2026-01-11 17:18:00,0.0,4,7.771,0.0,0.0,-0.447388,17.1,5.7,-1.3,1024,1024,1024,1024,0,0,0,0,98,4.517,56.48,32.480316,P-GPS,,9.9
17400,2026-01-11 17:18:00,0.0,4,7.771,0.0,0.0,-0.447388,17.1,6.4,-2.3,1024,1024,1024,1024,0,0,0,0,98,4.517,56.48,32.480316,P-GPS,,9.9
17500,2026-01-11 17:18:00,0.0,4,7.771,0.0,0.0,-0.447388,17.0,6.7,-2.7,1024,1024,1024,1024,0,0,0,0,98,4.517,56.48,32.480316,P-GPS,,9.9
17600,2026-01-11 17:18:01,0.0,4,7.771,0.0,0.0,-0.447388,16.9,6.8,-3.1,1024,1024,1024,1024,0,0,0,0,98,4.517,56.48,32.8084,P-GPS,,10.0
17700,2026-01-11 17:18:01,0.0,4,7.771,0.0,0.0,-0.447388,17.0,7.3,-3.1,1024,1024,1024,1024,0,0,0,0,98,4.517,56.48,32.8084,P-GPS,,10.0
17800,2026-01-11 17:18:01,0.0,4,7.771,0.0,0.0,-0.447388,17.0,8.1,-3.4,1024,1024,1024,1024,0,0,0,0,98,4.517,56.48,33.136484,P-GPS,,10.1
17900,2026-01-11 17:18:01,0.0,4,7.771,0.0,0.0,-0.447388,17.0,8.0,-3.8,1024,1024,1024,1024,0,0,0,0,98,4.517,56.48,33.136484,P-GPS,,10.1
18000,2026-01-11 17:18:01,0.0,4,7.771,0.0,0.0,-0.223694,17.0,8.1,-3.4,1024,1024,1024,1024,0,0,0,0,98,4.517,56.48,33.136484,P-GPS,,10.1
18100,2026-01-11 17:18:01,0.0,4,7.771,0.0,0.0,-0.223694,16.8,8.3,-3.9,1024,1024,1024,1024,0,0,0,0,98,4.517,56.48,33.464568,P-GPS,,10.2
18200,2026-01-11 17:18:01,0.0,4,7.771,0.0,0.0,0.0,16.8,8.3,-4.5,1024,1024,1024,1024,0,0,0,0,98,4.517,56.48,33.464568,P-GPS,,10.2
18300,2026-01-11 17:18:01,0.0,4,7.771,0.0,0.0,0.0,16.7,9.0,-3.5,1024,1024,1024,1024,0,0,0,0,98,4.517,56.48,33.464568,P-GPS,,10.2
18400,2026-01-11 17:18:01,0.0,4,7.771,0.0,0.0,0.0,16.8,7.5,-3.1,1024,1024,1024,1024,0,0,0,0,98,4.517,56.48,33.464568,P-GPS,,10.2
18500,2026-01-11 17:18:01,0.0,4,7.771,0.0,0.0,-0.223694,16.9,7.0,-3.4,1024,1024,1024,1024,0,0,0,0,98,4.517,56.48,33.464568,P-GPS,,10.2
18600,2026-01-11 17:18:02,0.0,4,7.771,0.0,0.0,0.0,16.8,8.0,-4.0,1024,1024,1024,1024,0,0,0,0,98,4.517,56.48,33.792652,P-GPS,,10.3
18700,2026-01-11 17:18:02,0.0,4,7.729,0.0,0.0,0.0,16.9,6.8,-3.6,1024,1024,1024,1024,0,0,0,0,98,4.614,56.48,33.792652,P-GPS,,10.3
18800,2026-01-11 17:18:02,0.0,4,7.729,0.0,0.0,0.0,16.9,7.2,-3.3,1024,1024,1024,1024,0,0,0,0,98,4.614,56.48,33.792652,P-GPS,,10.3
18900,2026-01-11 17:18:02,0.0,4,7.729,0.0,0.0,0.0,16.9,6.5,-3.2,1024,1024,1024,1024,0,0,0,0,98,4.614,56.48,33.792652,P-GPS,,10.3
19000,2026-01-11 17:18:02,0.0,4,7.729,0.0,0.0,0.0,16.9,7.0,-2.7,1024,1024,1024,1024,0,0,0,0,98,4.614,56.48,33.792652,P-GPS,,10.3
19100,2026-01-11 17:18:02,0.0,4,7.729,0.0,0.0,0.0,17.0,7.5,-2.8,1024,1024,1024,1024,0,0,0,0,98,4.614,56.48,33.792652,P-GPS,,10.3
19200,2026-01-11 17:18:02,0.0,4,7.729,0.0,0.0,0.0,16.9,7.8,-3.3,1024,1024,1024,1024,0,0,0,0,98,4.614,56.48,33.792652,P-GPS,,10.3
19300,2026-01-11 17:18:02,0.0,4,7.729,0.0,0.0,0.0,16.9,7.7,-3.0,1024,1024,1024,1024,0,0,0,0,98,4.614,56.48,33.792652,P-GPS,,10.3
19400,2026-01-11 17:18:02,0.0,4,7.729,0.0,0.0,0.0,16.9,7.6,-3.0,1024,1024,1024,1024,0,0,0,0,98,4.614,56.48,33.792652,P-GPS,,10.3
19500,2026-01-11 17:18:02,0.0,4,7.729,0.0,-0.223694,0.0,16.9,7.3,-2.8,1024,1024,1024,1024,0,0,0,0,98,4.614,56.48,33.464568,P-GPS,,10.2
19600,2026-01-11 17:18:02,0.223694,4,7.729,0.0,-0.223694,0.0,16.9,7.2,-2.7,1024,1024,1024,1024,0,0,0,0,98,4.614,56.48,33.464568,P-GPS,,10.2
19700,2026-01-11 17:18:03,0.223694,4,7.729,0.0,-0.223694,0.0,17.0,6.9,-2.4,1024,1024,1024,1024,0,0,0,0,98,4.614,56.48,33.464568,P-GPS,,10.2
19800,2026-01-11 17:18:03,0.223694,4,7.74,0.0,-0.223694,0.0,17.0,7.2,-1.6,1024,1024,1024,1024,0,0,0,0,97,4.844,56.66,33.464568,P-GPS,,10.2
19900,2026-01-11 17:18:03,0.223694,4,7.74,0.0,-0.223694,0.0,17.0,7.3,-1.8,1024,1024,1024,1024,0,0,0,0,97,4.844,56.66,33.464568,P-GPS,,10.2
20000,2026-01-11 17:18:03,0.223694,4,7.74,0.0,0.0,0.0,17.0,7.0,-1.8,1024,1024,1024,1024,0,0,0,0,97,4.844,56.66,33.464568,P-GPS,,10.2
20100,2026-01-11 17:18:03,0.223694,4,7.74,-0.223694,0.0,0.0,16.9,7.0,-1.8,1024,1024,1024,1024,0,0,0,0,97,4.844,56.66,33.464568,P-GPS,,10.2
20200,2026-01-11 17:18:03,0.223694,4,7.74,-0.223694,0.0,0.0,16.9,7.6,-3.0,1024,1024,1024,1024,0,0,0,0,97,4.844,56.66,33.464568,P-GPS,,10.2
20300,2026-01-11 17:18:03,0.223694,4,7.74,-0.223694,0.0,0.0,17.0,5.8,-2.7,1024,1024,1024,1024,0,0,0,0,97,4.844,56.66,33.464568,P-GPS,,10.2
20400,2026-01-11 17:18:03,0.0,4,7.74,0.0,0.0,0.0,16.9,6.7,-1.8,1024,1024,1024,1024,0,0,0,0,97,4.844,56.66,33.792652,P-GPS,,10.3
20500,2026-01-11 17:18:03,0.0,4,7.74,0.0,0.0,0.0,16.9,6.6,-3.0,1024,1024,1024,1024,0,0,0,0,97,4.844,56.66,33.792652,P-GPS,,10.3
20600,2026-01-11 17:18:04,0.0,4,7.74,0.0,0.0,0.0,16.9,6.0,-3.4,1024,1024,1024,1024,0,0,0,0,97,4.844,56.66,33.792652,P-GPS,,10.3
20700,2026-01-11 17:18:04,0.0,4,7.74,0.0,0.0,0.0,16.9,6.1,-3.6,1024,1024,1024,1024,0,0,0,0,97,4.844,56.66,33.792652,P-GPS,,10.3
20800,2026-01-11 17:18:04,0.0,4,7.74,0.0,0.0,0.0,16.9,7.1,-3.7,1024,1024,1024,1024,0,0,0,0,97,4.844,56.66,33.792652,P-GPS,,10.3
20900,2026-01-11 17:18:04,0.0,4,7.74,0.0,0.0,0.0,16.8,7.6,-3.1,1024,1024,1024,1024,0,0,0,0,97,4.844,56.66,33.792652,P-GPS,,10.3
21000,2026-01-11 17:18:04,0.0,4,7.74,0.0,0.0,0.0,16.7,7.2,-3.1,1024,1024,1024,1024,0,0,0,0,97,4.844,56.66,34.120736,P-GPS,,10.4
21100,2026-01-11 17:18:04,0.0,4,7.749,0.0,0.0,0.0,16.7,6.9,-3.1,1024,1024,1024,1024,0,0,0,0,97,4.991,56.66,34.120736,P-GPS,,10.4
21200,2026-01-11 17:18:04,0.223694,4,7.749,-0.223694,0.0,0.0,16.8,6.5,-3.5,1024,1024,1024,1024,0,0,0,0,97,4.991,56.66,34.120736,P-GPS,,10.4
21300,2026-01-11 17:18:04,0.0,4,7.749,0.0,0.0,0.0,16.9,6.0,-2.9,1024,1024,1024,1024,0,0,0,0,97,4.991,56.66,34.120736,P-GPS,,10.4
21400,2026-01-11 17:18:04,0.0,4,7.749,0.0,0.0,0.0,16.9,6.2,-2.7,1024,1024,1024,1024,0,0,0,0,97,4.991,56.66,34.120736,P-GPS,,10.4
21500,2026-01-11 17:18:04,0.0,4,7.749,0.0,0.0,0.0,17.0,6.0,-2.6,1024,1024,1024,1024,0,0,0,0,97,4.991,56.66,34.120736,P-GPS,,10.4
21600,2026-01-11 17:18:04,0.0,4,7.749,-0.223694,0.0,0.0,16.9,6.1,-3.1,1024,1024,1024,1024,0,0,0,0,97,4.991,56.66,34.120736,P-GPS,,10.4
21700,2026-01-11 17:18:05,0.223694,4,7.749,-0.223694,0.0,0.0,16.9,5.8,-3.5,1024,1024,1024,1024,0,0,0,0,97,4.991,56.66,34.120736,P-GPS,,10.4
21800,2026-01-11 17:18:05,0.223694,4,7.749,-0.223694,0.0,0.0,17.0,5.6,-3.6,1024,1024,1024,1024,0,0,0,0,97,4.991,56.66,34.120736,P-GPS,,10.4
21900,2026-01-11 17:18:05,0.223694,4,7.749,-0.223694,0.0,0.0,17.0,4.9,-3.5,1024,1024,1024,1024,0,0,0,0,97,4.991,56.66,34.120736,P-GPS,,10.4
22000,2026-01-11 17:18:05,0.223694,4,7.749,-0.223694,0.0,0.0,17.0,4.6,-3.3,1024,1024,1024,1024,0,0,0,0,97,4.991,56.66,34.120736,P-GPS,,10.4
22100,2026-01-11 17:18:05,0.223694,4,7.749,-0.223694,0.0,0.0,16.8,4.1,-3.3,1024,1024,1024,1024,0,0,0,0,97,4.991,56.66,34.120736,P-GPS,,10.4
22200,2026-01-11 17:18:05,0.223694,4,7.747,-0.223694,0.0,0.0,16.8,4.1,-3.7,1024,1024,1024,1024,0,0,0,0,97,4.714,56.66,34.120736,P-GPS,,10.4
22300,2026-01-11 17:18:05,0.223694,4,7.747,-0.223694,0.0,0.0,16.7,3.6,-3.5,1024,1024,1024,1024,0,0,0,0,97,4.714,56.66,34.120736,P-GPS,,10.4
22400,2026-01-11 17:18:05,0.223694,4,7.747,-0.223694,0.0,0.0,16.6,3.5,-3.4,1024,1024,1024,1024,0,0,0,0,97,4.714,56.66,34.120736,P-GPS,,10.4
22500,2026-01-11 17:18:05,0.223694,4,7.747,-0.223694,0.0,0.0,16.8,2.2,-3.5,1024,1024,1024,1024,0,0,0,0,97,4.714,56.66,34.120736,P-GPS,,10.4
22600,2026-01-11 17:18:06,0.223694,4,7.747,-0.223694,0.0,0.0,16.9,2.5,-3.5,1024,1024,1024,1024,0,0,0,0,97,4.714,56.66,34.120736,P-GPS,,10.4
22700,2026-01-11 17:18:06,0.223694,4,7.747,-0.223694,0.0,0.0,16.8,2.3,-4.1,1024,1024,1024,1024,0,0,0,0,97,4.714,56.66,34.120736,P-GPS,,10.4
22800,2026-01-11 17:18:06,0.223694,4,7.747,-0.223694,0.0,0.0,16.9,2.5,-3.9,1024,1024,1024,1024,0,0,0,0,97,4.714,56.66,34.120736,P-GPS,,10.4
22900,2026-01-11 17:18:06,0.0,4,7.747,0.0,0.0,0.0,17.2,1.9,-4.0,1024,1024,1024,1024,0,0,0,0,97,4.714,56.66,34.44882,P-GPS,,10.5
23000,2026-01-11 17:18:06,0.0,4,7.747,0.0,0.0,0.0,17.3,1.8,-4.5,1024,1024,1024,1024,0,0,0,0,97,4.714,56.66,34.44882,P-GPS,,10.5
23100,2026-01-11 17:18:06,0.0,4,7.747,0.0,0.0,0.0,17.1,2.4,-4.8,1024,1024,1024,1024,0,0,0,0,97,4.714,56.66,34.44882,P-GPS,,10.5
23200,2026-01-11 17:18:06,0.0,4,7.747,0.0,0.0,0.0,16.9,4.4,-4.7,1024,1024,1024,1024,0,0,0,0,97,4.714,56.66,34.44882,P-GPS,,10.5
23300,2026-01-11 17:18:06,0.0,4,7.747,0.0,0.0,0.0,16.9,4.7,-3.9,1024,1024,1024,1024,0,0,0,0,97,4.714,56.66,34.776904,P-GPS,,10.6
23400,2026-01-11 17:18:06,0.0,4,7.745,0.0,0.0,0.0,16.8,4.5,-4.3,1024,1024,1024,1024,0,0,0,0,97,4.542,56.66,34.776904,P-GPS,,10.6
23500,2026-01-11 17:18:06,0.0,4,7.745,0.0,0.0,0.0,16.5,4.5,-4.8,1024,1024,1024,1024,0,0,0,0,97,4.542,56.66,34.776904,P-GPS,,10.6
23600,2026-01-11 17:18:07,0.0,4,7.745,0.0,0.0,0.223694,16.6,4.9,-4.4,1024,1024,1024,1024,0,0,0,0,97,4.542,56.66,34.776904,P-GPS,,10.6
23700,2026-01-11 17:18:07,0.0,4,7.745,0.0,0.0,0.223694,16.7,4.0,-4.0,1024,1024,1024,1024,0,0,0,0,97,4.542,56.66,34.776904,P-GPS,,10.6
23800,2026-01-11 17:18:07,0.0,4,7.745,0.0,0.0,0.223694,16.8,2.6,-4.7,1024,1024,1024,1024,0,0,0,0,97,4.542,56.66,34.776904,P-GPS,,10.6
23900,2026-01-11 17:18:07,0.0,4,7.745,0.0,0.0,0.223694,16.7,2.9,-5.0,1024,1024,1024,1024,0,0,0,0,97,4.542,56.66,34.776904,P-GPS,,10.6
24000,2026-01-11 17:18:07,0.0,4,7.745,0.0,0.0,0.223694,16.6,3.6,-5.3,1024,1024,1024,1024,0,0,0,0,97,4.542,56.66,34.776904,P-GPS,,10.6
24100,2026-01-11 17:18:07,0.0,4,7.745,0.0,0.0,0.223694,16.6,4.0,-5.4,1024,1024,1024,1024,0,0,0,0,97,4.542,56.66,34.776904,P-GPS,,10.6
24200,2026-01-11 17:18:07,0.0,4,7.745,0.0,0.0,0.223694,16.7,4.2,-4.7,1024,1024,1024,1024,0,0,0,0,97,4.542,56.66,34.776904,P-GPS,,10.6
24300,2026-01-11 17:18:07,0.0,4,7.745,0.0,0.0,0.223694,17.0,3.5,-4.3,1024,1024,1024,1024,0,0,0,0,97,4.542,56.66,34.776904,P-GPS,,10.6
24400,2026-01-11 17:18:07,0.0,4,7.745,0.0,0.0,0.223694,16.9,3.8,-4.7,1024,1024,1024,1024,0,0,0,0,97,4.542,56.66,34.776904,P-GPS,,10.6
24500,2026-01-11 17:18:07,0.0,5,7.762,0.0,0.0,0.223694,16.8,4.1,-4.4,1024,1024,1024,1024,0,0,0,0,97,4.427,56.66,34.44882,P-GPS,,10.5
24600,2026-01-11 17:18:08,0.0,5,7.762,0.0,0.0,0.223694,16.7,4.6,-4.9,1024,1024,1024,1024,0,0,0,0,97,4.427,56.66,34.44882,P-GPS,,10.5
24700,2026-01-11 17:18:08,0.0,5,7.762,0.0,0.0,0.223694,16.8,3.6,-5.0,1024,1024,1024,1024,0,0,0,0,97,4.427,56.66,34.44882,P-GPS,,10.5
24800,2026-01-11 17:18:08,0.0,5,7.762,0.0,0.0,0.223694,16.8,4.1,-4.7,1024,1024,1024,1024,0,0,0,0,97,4.427,56.66,34.44882,P-GPS,,10.5
24900,2026-01-11 17:18:08,0.0,5,7.762,0.0,0.0,0.223694,16.9,4.2,-4.3,1024,1024,1024,1024,0,0,0,0,97,4.427,56.66,34.120736,P-GPS,,10.4
25000,2026-01-11 17:18:08,0.0,5,7.762,0.0,0.0,0.223694,16.8,5.0,-4.3,1024,1024,1024,1024,0,0,0,0,97,4.427,56.66,34.120736,P-GPS,,10.4
25100,2026-01-11 17:18:08,0.0,5,7.762,0.0,0.0,0.223694,16.9,4.3,-4.1,1024,1024,1024,1024,0,0,0,0,97,4.427,56.66,34.120736,P-GPS,,10.4
25200,2026-01-11 17:18:08,0.0,5,7.762,0.0,0.0,0.0,16.9,4.6,-4.3,1024,1024,1024,1024,0,0,0,0,97,4.427,56.66,34.120736,P-GPS,,10.4
25300,2026-01-11 17:18:08,0.0,5,7.762,0.0,0.0,0.223694,16.8,5.4,-4.3,1024,1024,1024,1024,0,0,0,0,97,4.427,56.66,34.120736,P-GPS,,10.4
25400,2026-01-11 17:18:08,0.0,5,7.762,0.0,0.0,0.0,16.8,5.0,-4.4,1024,1024,1024,1024,0,0,0,0,97,4.427,56.66,33.792652,P-GPS,,10.3
25500,2026-01-11 17:18:08,0.0,5,7.762,0.0,0.0,0.0,16.9,4.6,-4.7,1024,1024,1024,1024,0,0,0,0,97,4.427,56.66,33.792652,P-GPS,,10.3
25600,2026-01-11 17:18:09,0.0,5,7.762,0.0,0.0,0.0,16.8,5.1,-4.7,1024,1024,1024,1024,0,0,0,0,97,4.427,56.66,33.792652,P-GPS,,10.3
25700,2026-01-11 17:18:09,0.0,5,7.762,0.0,0.0,0.0,16.8,5.5,-4.7,1024,1024,1024,1024,0,0,0,0,97,4.427,56.66,33.792652,P-GPS,,10.3
25800,2026-01-11 17:18:09,0.0,5,7.762,0.0,0.0,0.0,16.7,5.3,-3.8,1024,1024,1024,1024,0,0,0,0,97,4.427,56.66,33.464568,P-GPS,,10.2
25900,2026-01-11 17:18:09,0.0,5,7.762,0.0,0.0,0.0,16.8,4.8,-3.5,1024,1024,1024,1024,0,0,0,0,97,4.427,56.66,33.464568,P-GPS,,10.2
26000,2026-01-11 17:18:09,0.0,5,7.762,0.0,0.0,0.0,16.8,4.7,-3.8,1024,1024,1024,1024,0,0,0,0,97,4.427,56.66,33.464568,P-GPS,,10.2
26100,2026-01-11 17:18:09,0.0,5,7.762,0.0,0.0,0.0,16.8,4.4,-3.9,1024,1024,1024,1024,0,0,0,0,97,4.427,56.66,33.464568,P-GPS,,10.2
26200,2026-01-11 17:18:09,0.0,5,7.762,0.0,0.0,0.0,16.7,5.5,-4.0,1024,1024,1024,1024,0,0,0,0,97,4.427,56.66,33.464568,P-GPS,,10.2
26300,2026-01-11 17:18:09,0.0,5,7.762,0.0,0.0,0.0,16.7,5.8,-4.2,1024,1024,1024,1024,0,0,0,0,97,4.427,56.66,33.464568,P-GPS,,10.2
26400,2026-01-11 17:18:09,0.223694,5,7.762,-0.223694,0.0,0.0,16.7,5.2,-4.7,1024,1024,1024,1024,0,0,0,0,97,4.427,56.66,33.464568,P-GPS,,10.2
26500,2026-01-11 17:18:09,0.223694,5,7.762,-0.223694,0.0,0.0,16.8,3.7,-5.3,1024,1024,1024,1024,0,0,0,0,97,4.427,56.66,33.464568,P-GPS,,10.2
26600,2026-01-11 17:18:10,0.223694,5,7.762,-0.223694,0.0,0.0,16.8,2.8,-6.0,1024,1024,1024,1024,0,0,0,0,97,4.427,56.66,33.464568,P-GPS,,10.2
26700,2026-01-11 17:18:10,0.3131716,5,7.748,-0.223694,0.223694,0.0,16.7,3.1,-7.9,1024,1024,1024,1024,0,0,0,0,97,4.657,56.66,33.464568,P-GPS,,10.2
26800,2026-01-11 17:18:10,0.3131716,5,7.748,-0.223694,0.223694,0.0,16.7,2.6,-8.7,1024,1024,1024,1024,0,0,0,0,97,4.657,56.66,33.464568,P-GPS,,10.2
26900,2026-01-11 17:18:10,0.3131716,5,7.748,-0.223694,0.223694,0.0,16.7,3.3,-8.7,1024,1024,1024,1024,0,0,0,0,97,4.657,56.66,33.464568,P-GPS,,10.2
27000,2026-01-11 17:18:10,0.223694,5,7.748,0.0,0.223694,0.0,16.7,3.3,-9.6,1024,1024,1024,1024,0,0,0,0,97,4.657,56.66,33.464568,P-GPS,,10.2
27100,2026-01-11 17:18:10,0.223694,5,7.748,0.0,0.223694,0.0,16.8,3.1,-10.0,1024,1024,1024,1024,0,0,0,0,97,4.657,56.66,33.792652,P-GPS,,10.3
27200,2026-01-11 17:18:10,0.0,5,7.748,0.0,0.0,0.0,16.7,3.5,-9.6,1024,1024,1024,1024,0,0,0,0,97,4.657,56.66,33.792652,P-GPS,,10.3
27300,2026-01-11 17:18:10,0.0,5,7.748,0.0,0.0,0.0,16.7,4.0,-8.7,1024,1024,1024,1024,0,0,0,0,97,4.657,56.66,33.464568,P-GPS,,10.2
27400,2026-01-11 17:18:10,0.0,5,7.748,0.0,0.0,0.0,16.8,4.2,-8.8,1024,1024,1024,1024,0,0,0,0,97,4.657,56.66,33.464568,P-GPS,,10.2
27500,2026-01-11 17:18:10,0.0,5,7.748,0.0,0.0,0.0,16.7,4.5,-8.6,1024,1024,1024,1024,0,0,0,0,97,4.657,56.66,33.464568,P-GPS,,10.2
27600,2026-01-11 17:18:11,0.0,5,7.748,0.0,0.0,0.0,16.8,5.6,-6.7,1024,1024,1024,1024,0,0,0,0,97,4.657,56.66,33.464568,P-GPS,,10.2
27700,2026-01-11 17:18:11,0.0,5,7.748,0.0,0.0,0.0,16.9,5.0,-5.6,1024,1024,1024,1024,0,0,0,0,97,4.657,56.66,33.136484,P-GPS,,10.1
27800,2026-01-11 17:18:11,0.0,5,7.748,0.0,0.0,0.0,16.9,4.8,-5.5,1024,1024,1024,1024,0,0,0,0,97,4.657,56.66,33.136484,P-GPS,,10.1
27900,2026-01-11 17:18:11,0.0,5,7.747,0.0,0.0,0.0,17.0,4.1,-5.7,1024,1024,1024,1024,0,0,0,0,97,4.665,56.84,33.136484,P-GPS,,10.1
28000,2026-01-11 17:18:11,0.0,5,7.747,0.0,0.0,0.0,17.0,3.9,-5.6,1024,1024,1024,1024,0,0,0,0,97,4.665,56.84,32.8084,P-GPS,,10.0
28100,2026-01-11 17:18:11,0.0,5,7.747,0.0,0.0,0.0,17.0,4.1,-5.5,1024,1024,1024,1024,0,0,0,0,97,4.665,56.84,32.8084,P-GPS,,10.0
28200,2026-01-11 17:18:11,0.0,5,7.747,0.0,0.0,0.0,17.1,3.1,-5.7,1024,1024,1024,1024,0,0,0,0,97,4.665,56.84,32.8084,P-GPS,,10.0
28300,2026-01-11 17:18:11,0.0,5,7.747,0.0,0.0,0.0,17.1,3.5,-5.7,1024,1024,1024,1024,0,0,0,0,97,4.665,56.84,32.8084,P-GPS,,10.0
28400,2026-01-11 17:18:11,0.0,5,7.747,0.0,0.0,0.0,17.1,4.6,-5.4,1024,1024,1024,1024,0,0,0,0,97,4.665,56.84,32.8084,P-GPS,,10.0
28500,2026-01-11 17:18:11,0.0,5,7.747,0.0,0.0,0.0,16.8,5.4,-5.2,1024,1024,1024,1024,0,0,0,0,97,4.665,56.84,32.8084,P-GPS,,10.0
28600,2026-01-11 17:18:12,0.0,5,7.747,0.0,0.0,0.0,16.6,6.1,-5.1,1024,1024,1024,1024,0,0,0,0,97,4.665,56.84,32.8084,P-GPS,,10.0
28700,2026-01-11 17:18:12,0.0,5,7.747,0.0,0.0,0.0,16.8,5.3,-5.2,1024,1024,1024,1024,0,0,0,0,97,4.665,56.84,32.8084,P-GPS,,10.0
28800,2026-01-11 17:18:12,0.0,5,7.747,0.0,0.0,0.0,16.9,4.8,-5.4,1024,1024,1024,1024,0,0,0,0,97,4.665,56.84,32.8084,P-GPS,,10.0
28900,2026-01-11 17:18:12,0.223694,5,7.747,-0.223694,0.0,0.0,17.0,4.1,-5.9,1024,1024,1024,1024,0,0,0,0,97,4.665,56.84,32.8084,P-GPS,,10.0
29000,2026-01-11 17:18:12,0.223694,5,7.745,-0.223694,0.0,-0.223694,17.0,2.9,-5.4,1024,1024,1024,1024,0,0,0,0,97,4.627,56.84,32.8084,P-GPS,,10.0
29100,2026-01-11 17:18:12,0.223694,5,7.745,-0.223694,0.0,-0.223694,17.2,2.6,-5.7,1024,1024,1024,1024,0,0,0,0,97,4.627,56.84,32.8084,P-GPS,,10.0
29200,2026-01-11 17:18:12,0.0,5,7.745,0.0,0.0,-0.223694,17.2,2.6,-5.8,1024,1024,1024,1024,0,0,0,0,97,4.627,56.84,32.8084,P-GPS,,10.0
29300,2026-01-11 17:18:12,0.0,5,7.745,0.0,0.0,-0.223694,17.2,3.2,-6.0,1024,1024,1024,1024,0,0,0,0,97,4.627,56.84,32.8084,P-GPS,,10.0
29400,2026-01-11 17:18:12,0.0,5,7.745,0.0,0.0,-0.223694,17.1,3.7,-6.3,1024,1024,1024,1024,0,0,0,0,97,4.627,56.84,33.136484,P-GPS,,10.1
29500,2026-01-11 17:18:12,0.0,5,7.745,0.0,0.0,-0.223694,17.2,3.7,-6.0,1024,1024,1024,1024,0,0,0,0,97,4.627,56.84,33.136484,P-GPS,,10.1
29600,2026-01-11 17:18:12,0.0,5,7.745,0.0,0.0,-0.223694,17.2,3.7,-5.2,1024,1024,1024,1024,0,0,0,0,97,4.627,56.84,33.136484,P-GPS,,10.1
29700,2026-01-11 17:18:13,0.0,5,7.745,0.0,0.0,-0.223694,17.2,3.3,-4.9,1024,1024,1024,1024,0,0,0,0,97,4.627,56.84,33.136484,P-GPS,,10.1
29800,2026-01-11 17:18:13,0.0,5,7.745,0.0,0.0,-0.223694,17.2,3.0,-4.7,1024,1024,1024,1024,0,0,0,0,97,4.627,56.84,33.136484,P-GPS,,10.1
29900,2026-01-11 17:18:13,0.0,5,7.745,0.0,0.0,-0.223694,17.2,3.0,-5.3,1024,1024,1024,1024,0,0,0,0,97,4.627,56.84,33.136484,P-GPS,,10.1
30000,2026-01-11 17:18:13,0.0,5,7.745,0.0,0.0,0.0,17.0,3.7,-5.3,1024,1024,1024,1024,0,0,0,0,97,4.627,56.84,33.136484,P-GPS,,10.1
30100,2026-01-11 17:18:13,0.223694,5,7.725,0.0,-0.223694,0.0,17.0,3.0,-4.9,1024,1024,1024,1024,0,0,0,0,97,4.841,56.84,33.136484,P-GPS,,10.1
30200,2026-01-11 17:18:13,0.223694,5,7.725,0.0,-0.223694,0.0,17.3,1.7,-3.8,1024,1024,1024,1024,0,0,0,0,97,4.841,56.84,33.136484,P-GPS,,10.1
30300,2026-01-11 17:18:13,0.223694,5,7.725,0.0,-0.223694,0.0,17.4,2.1,-3.5,1024,1024,1024,1024,0,0,0,0,97,4.841,56.84,33.136484,P-GPS,,10.1
30400,2026-01-11 17:18:13,0.223694,5,7.725,0.0,-0.223694,0.0,17.6,1.8,-2.3,1024,1024,1024,1024,0,0,0,0,97,4.841,56.84,33.136484,P-GPS,,10.1
30500,2026-01-11 17:18:13,0.223694,5,7.725,0.0,-0.223694,-0.223694,17.5,2.0,-2.7,1024,1024,1024,1024,0,0,0,0,97,4.841,56.84,33.136484,P-GPS,,10.1
30600,2026-01-11 17:18:14,0.0,5,7.725,0.0,0.0,0.0,17.5,2.8,-2.4,1024,1024,1024,1024,0,0,0,0,97,4.841,56.84,33.464568,P-GPS,,10.2
30700,2026-01-11 17:18:14,0.223694,5,7.725,0.223694,0.0,0.0,17.3,4.0,-2.5,1024,1024,1024,1024,0,0,0,0,97,4.841,56.84,33.464568,P-GPS,,10.2
30800,2026-01-11 17:18:14,0.223694,5,7.725,0.223694,0.0,0.0,17.2,5.2,-2.8,1024,1024,1024,1024,0,0,0,0,97,4.841,56.84,33.464568,P-GPS,,10.2
30900,2026-01-11 17:18:14,0.223694,5,7.725,0.223694,0.0,0.0,17.2,5.8,-2.8,1024,1024,1024,1024,0,0,0,0,97,4.841,56.84,33.792652,P-GPS,,10.3
31000,2026-01-11 17:18:14,0.0,5,7.725,0.0,0.0,0.0,17.2,5.9,-2.8,1024,1024,1024,1024,0,0,0,0,97,4.841,56.84,33.792652,P-GPS,,10.3
31100,2026-01-11 17:18:14,0.0,5,7.725,0.0,0.0,-0.223694,17.2,5.7,-3.2,1024,1024,1024,1024,0,0,0,0,97,4.841,56.84,34.120736,P-GPS,,10.4
31200,2026-01-11 17:18:14,0.0,5,7.747,0.0,0.0,-0.223694,17.2,6.3,-3.1,1024,1024,1024,1024,0,0,0,0,97,4.545,56.84,34.120736,P-GPS,,10.4
31300,2026-01-11 17:18:14,0.0,5,7.747,0.0,0.0,0.0,17.1,6.5,-2.9,1024,1024,1024,1024,0,0,0,0,97,4.545,56.84,34.44882,P-GPS,,10.5
31400,2026-01-11 17:18:14,0.0,5,7.747,0.0,0.0,0.0,17.1,6.0,-3.4,1024,1024,1024,1024,0,0,0,0,97,4.545,56.84,34.44882,P-GPS,,10.5
31500,2026-01-11 17:18:14,0.0,5,7.747,0.0,0.0,0.0,17.2,5.2,-3.2,1024,1024,1024,1024,0,0,0,0,97,4.545,56.84,34.44882,P-GPS,,10.5
31600,2026-01-11 17:18:15,0.0,5,7.747,0.0,0.0,0.0,17.1,4.8,-3.6,1024,1024,1024,1024,0,0,0,0,97,4.545,56.84,34.776904,P-GPS,,10.6
31700,2026-01-11 17:18:15,0.0,5,7.747,0.0,0.0,0.0,17.1,4.8,-3.2,1024,1024,1024,1024,0,0,0,0,97,4.545,56.84,34.776904,P-GPS,,10.6
31800,2026-01-11 17:18:15,0.0,5,7.747,0.0,0.0,0.0,16.9,4.8,-3.7,1024,1024,1024,1024,0,0,0,0,97,4.545,56.84,34.776904,P-GPS,,10.6
31900,2026-01-11 17:18:15,0.0,5,7.747,0.0,0.0,0.0,16.8,5.4,-4.1,1024,1024,1024,1024,0,0,0,0,97,4.545,56.84,35.104988,P-GPS,,10.7
32000,2026-01-11 17:18:15,0.0,5,7.747,0.0,0.0,0.0,16.9,4.3,-4.0,1024,1024,1024,1024,0,0,0,0,97,4.545,56.84,35.104988,P-GPS,,10.7
32100,2026-01-11 17:18:15,0.0,5,7.747,0.0,0.0,0.0,16.8,4.5,-4.2,1024,1024,1024,1024,0,0,0,0,97,4.545,56.84,35.104988,P-GPS,,10.7
32200,2026-01-11 17:18:15,0.0,5,7.747,0.0,0.0,0.223694,16.8,5.6,-3.8,1024,1024,1024,1024,0,0,0,0,97,4.545,56.84,35.104988,P-GPS,,10.7
32300,2026-01-11 17:18:15,0.0,5,7.785,0.0,0.0,0.223694,16.8,5.0,-3.5,1024,1024,1024,1024,0,0,0,0,97,4.076,56.84,35.104988,P-GPS,,10.7
32400,2026-01-11 17:18:15,0.0,5,7.785,0.0,0.0,0.447388,16.7,5.5,-4.3,1024,1024,1024,1024,0,0,0,0,97,4.076,56.84,35.104988,P-GPS,,10.7
32500,2026-01-11 17:18:15,0.0,5,7.785,0.0,0.0,0.447388,16.7,6.2,-4.3,1024,1024,1024,1024,0,0,0,0,97,4.076,56.84,35.104988,P-GPS,,10.7
32600,2026-01-11 17:18:16,0.0,5,7.785,0.0,0.0,0.447388,16.9,6.1,-4.5,1024,1024,1024,1024,0,0,0,0,97,4.076,56.84,35.104988,P-GPS,,10.7
32700,2026-01-11 17:18:16,0.0,5,7.785,0.0,0.0,0.447388,17.0,5.8,-4.3,1024,1024,1024,1024,0,0,0,0,97,4.076,56.84,35.104988,P-GPS,,10.7
32800,2026-01-11 17:18:16,0.0,5,7.785,0.0,0.0,0.447388,17.1,5.5,-4.2,1024,1024,1024,1024,0,0,0,0,97,4.076,56.84,35.104988,P-GPS,,10.7
32900,2026-01-11 17:18:16,0.0,5,7.785,0.0,0.0,0.223694,17.0,5.7,-3.7,1024,1024,1024,1024,0,0,0,0,97,4.076,56.84,34.776904,P-GPS,,10.6
33000,2026-01-11 17:18:16,0.0,5,7.785,0.0,0.0,0.447388,16.9,5.6,-4.0,1024,1024,1024,1024,0,0,0,0,97,4.076,56.84,34.776904,P-GPS,,10.6
33100,2026-01-11 17:18:16,0.0,5,7.785,0.0,0.0,0.223694,16.9,5.4,-4.4,1024,1024,1024,1024,0,0,0,0,97,4.076,56.84,34.776904,P-GPS,,10.6
33200,2026-01-11 17:18:16,0.0,5,7.785,0.0,0.0,0.447388,17.1,5.9,-3.8,1024,1024,1024,1024,0,0,0,0,97,4.076,56.84,34.776904,P-GPS,,10.6
33300,2026-01-11 17:18:16,0.0,5,7.785,0.0,0.0,0.223694,17.2,5.3,-3.9,1024,1024,1024,1024,0,0,0,0,97,4.076,56.84,34.776904,P-GPS,,10.6
33400,2026-01-11 17:18:16,0.0,5,7.785,0.0,0.0,0.223694,17.2,6.3,-3.8,1024,1024,1024,1024,0,0,0,0,97,4.076,56.84,34.776904,P-GPS,,10.6
33500,2026-01-11 17:18:16,0.0,5,7.753,0.0,0.0,0.223694,17.2,6.4,-4.0,1024,1024,1024,1024,0,0,0,0,97,4.639,56.84,34.776904,P-GPS,,10.6
33600,2026-01-11 17:18:17,0.0,5,7.753,0.0,0.0,0.223694,17.2,6.4,-3.8,1024,1024,1024,1024,0,0,0,0,97,4.639,56.84,34.44882,P-GPS,,10.5
33700,2026-01-11 17:18:17,0.0,5,7.753,0.0,0.0,0.223694,17.0,6.9,-4.1,1024,1024,1024,1024,0,0,0,0,97,4.639,56.84,34.44882,P-GPS,,10.5
33800,2026-01-11 17:18:17,0.0,5,7.753,0.0,0.0,0.223694,17.0,7.3,-3.1,1024,1024,1024,1024,0,0,0,0,97,4.639,56.84,34.44882,P-GPS,,10.5
33900,2026-01-11 17:18:17,0.0,5,7.753,0.0,0.0,0.223694,16.9,6.3,-2.5,1024,1024,1024,1024,0,0,0,0,97,4.639,56.84,34.44882,P-GPS,,10.5
34000,2026-01-11 17:18:17,0.0,5,7.753,0.0,0.0,0.223694,17.2,6.5,-2.4,1024,1024,1024,1024,0,0,0,0,97,4.639,56.84,34.120736,P-GPS,,10.4
34100,2026-01-11 17:18:17,0.0,5,7.753,0.0,0.0,0.223694,17.1,7.2,-1.4,1024,1024,1235,1024,0,0,32,0,97,4.639,56.84,34.120736,P-GPS,,10.4
34200,2026-01-11 17:18:17,0.0,5,7.753,0.0,0.0,0.223694,17.2,7.5,-1.1,1024,1024,1684,1024,0,0,100,0,97,4.639,56.84,33.792652,P-GPS,,10.3
34300,2026-01-11 17:18:17,0.0,5,7.753,0.0,0.0,0.223694,17.3,7.0,-0.7,1024,1024,1684,1024,0,0,100,0,97,4.639,56.84,33.792652,P-GPS,,10.3
34400,2026-01-11 17:18:17,0.0,5,7.753,0.0,0.0,0.0,17.5,5.9,-0.8,1024,1024,1684,1024,0,0,100,0,97,4.639,56.84,33.792652,P-GPS,,10.3
34500,2026-01-11 17:18:17,0.0,5,7.753,0.0,0.0,-0.671082,17.5,4.9,-1.7,1024,1024,1684,1024,0,0,100,0,97,4.639,56.84,33.792652,P-GPS,,10.3
34600,2026-01-11 17:18:18,0.0,5,7.753,0.0,0.0,-1.342164,17.3,4.2,-1.6,1024,1024,1684,1024,0,0,100,0,97,4.639,56.84,34.120736,P-GPS,,10.4
34700,2026-01-11 17:18:18,0.0,5,7.753,0.0,0.0,-2.460634,17.3,4.0,-1.1,1024,1024,1684,1024,0,0,100,0,97,4.639,56.84,34.44882,P-GPS,,10.5
34800,2026-01-11 17:18:18,0.0,5,7.753,0.0,0.0,-3.131716,17.1,4.8,-2.2,1024,1024,1684,1024,0,0,100,0,97,4.639,56.84,35.104988,P-GPS,,10.7
34900,2026-01-11 17:18:18,0.0,5,7.753,0.0,0.0,-3.579104,17.1,6.4,-1.4,1024,1024,1684,1024,0,0,100,0,97,4.639,56.84,35.433072,P-GPS,,10.8
35000,2026-01-11 17:18:18,0.0,5,7.753,0.0,0.0,-4.026492,17.1,6.4,-2.1,1024,1024,1684,1024,0,0,100,0,97,4.639,56.84,36.08924,P-GPS,,11.0
35100,2026-01-11 17:18:18,0.0,5,7.753,0.0,0.0,-4.026492,17.0,6.2,-2.1,1024,1024,1684,1024,0,0,100,0,97,4.639,56.84,36.745408,P-GPS,,11.2
35200,2026-01-11 17:18:18,0.0,5,7.753,0.0,0.0,-4.250186,17.1,5.6,-1.7,1024,1024,1684,1024,0,0,100,0,97,4.639,56.84,37.401576,P-GPS,,11.4
35300,2026-01-11 17:18:18,0.223694,5,7.753,-0.223694,0.0,-4.250186,17.2,4.7,-2.0,1024,1024,1684,1024,0,0,100,0,97,4.639,56.84,38.057744,P-GPS,,11.6
35400,2026-01-11 17:18:18,0.0,5,7.753,0.0,0.0,-4.47388,17.0,4.5,-2.7,1024,1024,1684,1024,0,0,100,0,97,4.639,56.84,39.041996,P-GPS,,11.9
123200,2026-01-11 17:19:46,0.0,5,7.718,0.0,0.0,3.802798,28.5,-0.1,-2.6,1024,1024,364,1024,0,0,-100,0,91,4.633,58.82,39.041996,P-GPS,,11.9
123300,2026-01-11 17:19:46,0.0,5,7.718,0.0,0.0,3.802798,28.7,0.2,-2.6,1024,1024,364,1024,0,0,-100,0,91,4.633,58.82,38.713912,P-GPS,,11.8
123400,2026-01-11 17:19:46,0.0,5,7.718,0.0,0.0,3.802798,28.8,0.7,-3.2,1024,1024,364,1024,0,0,-100,0,91,4.633,58.82,38.057744,P-GPS,,11.6
123500,2026-01-11 17:19:46,0.0,5,7.718,0.0,0.0,3.802798,29.2,0.8,-2.8,1024,1024,364,1024,0,0,-100,0,91,4.633,58.82,37.72966,P-GPS,,11.5
123600,2026-01-11 17:19:47,0.0,5,7.718,0.0,0.0,3.802798,29.5,0.3,-3.1,1024,1024,364,1024,0,0,-100,0,91,4.633,58.82,37.073492,P-GPS,,11.3
123700,2026-01-11 17:19:47,0.0,5,7.718,0.0,0.0,3.802798,29.6,0.8,-3.7,1024,1024,364,1024,0,0,-100,0,91,4.633,58.82,36.417324,P-GPS,,11.1
123800,2026-01-11 17:19:47,0.0,5,7.718,0.0,0.0,3.802798,29.6,1.5,-2.6,1024,1024,364,1024,0,0,-100,0,91,4.633,58.82,35.761156,P-GPS,,10.9
123900,2026-01-11 17:19:47,0.0,5,7.718,0.0,0.0,3.802798,29.5,2.1,-2.6,1024,1024,364,1024,0,0,-100,0,91,4.633,58.82,35.433072,P-GPS,,10.8
124000,2026-01-11 17:19:47,0.0,5,7.718,0.0,0.0,3.802798,29.3,2.9,-2.3,1024,1024,364,1024,0,0,-100,0,91,4.633,58.82,34.776904,P-GPS,,10.6
124100,2026-01-11 17:19:47,0.0,5,7.718,0.0,0.0,4.026492,29.1,1.9,-2.6,1024,1024,364,1024,0,0,-100,0,91,4.633,58.82,34.120736,P-GPS,,10.4
124200,2026-01-11 17:19:47,0.0,5,7.729,0.0,0.0,4.026492,29.0,2.2,-2.3,1024,1024,364,1024,0,0,-100,0,91,4.647,58.82,33.464568,P-GPS,,10.2
124300,2026-01-11 17:19:47,0.0,5,7.729,0.0,0.0,4.026492,28.9,2.8,-2.4,1024,1024,364,1024,0,0,-100,0,91,4.647,58.82,32.8084,P-GPS,,10.0
124400,2026-01-11 17:19:47,0.223694,5,7.729,-0.223694,0.0,4.026492,28.9,0.9,-3.0,1024,1024,364,1024,0,0,-100,0,91,4.647,58.82,32.480316,P-GPS,,9.9
124500,2026-01-11 17:19:47,0.0,5,7.729,0.0,0.0,4.026492,28.9,0.7,-2.6,1024,1024,364,1024,0,0,-100,0,91,4.647,58.82,31.824148,P-GPS,,9.7
124600,2026-01-11 17:19:48,0.0,5,7.729,0.0,0.0,4.026492,28.7,0.4,-2.6,1024,1024,364,1024,0,0,-100,0,91,4.647,58.82,31.16798,P-GPS,,9.5
124700,2026-01-11 17:19:48,0.0,5,7.729,0.0,0.0,4.026492,28.7,1.4,-2.2,1024,1024,364,1024,0,0,-100,0,91,4.647,58.82,30.839896,P-GPS,,9.4
124800,2026-01-11 17:19:48,0.0,5,7.729,0.0,0.0,3.802798,28.8,0.3,-2.4,1024,1024,364,1024,0,0,-100,0,91,4.647,58.82,30.183728,P-GPS,,9.2
124900,2026-01-11 17:19:48,0.0,5,7.729,0.0,0.0,3.802798,28.5,1.2,-3.0,1024,1024,364,1024,0,0,-100,0,91,4.647,58.82,29.52756,P-GPS,,9.0
125000,2026-01-11 17:19:48,0.0,5,7.729,0.0,0.0,4.026492,28.6,1.0,-3.1,1024,1024,364,1024,0,0,-100,0,91,4.647,58.82,29.199476,P-GPS,,8.9
125100,2026-01-11 17:19:48,0.0,5,7.729,0.0,0.0,3.802798,28.8,0.1,-3.2,1024,1024,364,1024,0,0,-100,0,91,4.647,58.82,28.543308,P-GPS,,8.7
125200,2026-01-11 17:19:48,0.0,5,7.729,0.0,0.0,3.802798,28.7,0.9,-2.7,1024,1024,364,1024,0,0,-100,0,91,4.647,58.82,27.88714,P-GPS,,8.5
125300,2026-01-11 17:19:48,0.0,5,7.729,0.0,0.0,4.026492,28.6,2.2,-1.9,1024,1024,364,1024,0,0,-100,0,91,4.647,58.82,27.230972,P-GPS,,8.3
125400,2026-01-11 17:19:48,0.0,5,7.706,0.0,0.0,3.802798,28.6,1.3,-3.2,1024,1024,364,1024,0,0,-100,0,91,4.756,58.82,26.574804,P-GPS,,8.1
