index,time(millisecond),timestamp,speed(mph),gpslevel,voltage(v),xSpeed(mph),ySpeed(mph),zSpeed(mph),compass_heading(degrees),pitch(degrees),roll(degrees),rc_elevator,rc_aileron,rc_throttle,rc_rudder,rc_elevator(percent),rc_aileron(percent),rc_throttle(percent),rc_rudder(percent),battery_percent,current(A),battery_temperature(f),ascent(feet),flycState,message,height_above_takeoff(meters)
786,503000,2026-01-13 12:29:42,0.0,5,7.38,0.0,0.0,0.0,8.1,3.1,-9.3,1024,1024,1024,1024,0,0,0,0,66,6.01,77.36,163.057748,P-GPS,,49.7
787,503100,2026-01-13 12:29:42,0.0,5,7.38,0.0,0.0,0.0,8.2,3.5,-9.3,1024,1024,1024,1024,0,0,0,0,66,6.01,77.36,163.385832,P-GPS,,49.8
788,503200,2026-01-13 12:29:42,0.0,5,7.38,0.0,0.0,0.0,8.3,2.9,-9.3,1024,1024,1024,1024,0,0,0,0,66,6.01,77.36,163.385832,P-GPS,,49.8
789,503300,2026-01-13 12:29:42,0.0,5,7.38,0.0,0.0,0.0,8.3,2.9,-9.2,1024,1024,1024,1024,0,0,0,0,66,6.01,77.36,163.385832,P-GPS,,49.8
790,503400,2026-01-13 12:29:42,0.0,5,7.38,0.0,0.0,0.0,8.3,2.9,-9.3,1024,1024,1024,1024,0,0,0,0,66,6.01,77.36,163.385832,P-GPS,,49.8
791,503500,2026-01-13 12:29:42,0.0,5,7.402,0.0,0.0,0.0,8.3,3.0,-9.2,1024,1024,1024,1024,0,0,0,0,65,5.029,77.36,163.385832,P-GPS,,49.8
792,503600,2026-01-13 12:29:42,0.0,5,7.402,0.0,0.0,0.0,8.4,2.8,-9.1,1024,1024,1024,1024,0,0,0,0,65,5.029,77.36,163.713916,P-GPS,,49.9
793,503700,2026-01-13 12:29:42,0.0,5,7.402,0.0,0.0,0.0,8.3,3.3,-9.0,1024,1024,1024,1024,0,0,0,0,65,5.029,77.36,163.713916,P-GPS,,49.9
794,503800,2026-01-13 12:29:42,0.0,5,7.402,0.0,0.0,0.0,8.3,3.1,-8.4,1024,1024,1024,1024,0,0,0,0,65,5.029,77.36,163.713916,P-GPS,,49.9
795,503900,2026-01-13 12:29:43,0.0,5,7.402,0.0,0.0,0.0,8.3,3.4,-9.3,1024,1024,1024,1024,0,0,0,0,65,5.029,77.36,163.713916,P-GPS,,49.9
796,504000,2026-01-13 12:29:43,0.0,5,7.402,0.0,0.0,0.0,8.3,3.2,-9.8,1024,1024,1024,1024,0,0,0,0,65,5.029,77.36,164.042,P-GPS,,50.0
797,504100,2026-01-13 12:29:43,0.0,5,7.402,0.0,0.0,0.0,8.2,3.2,-10.1,1024,1024,1024,1024,0,0,0,0,65,5.029,77.36,164.042,P-GPS,,50.0
798,504200,2026-01-13 12:29:43,0.0,5,7.402,0.0,0.0,0.0,8.3,3.0,-10.3,1024,1024,1024,1024,0,0,0,0,65,5.029,77.36,164.042,P-GPS,,50.0
799,504300,2026-01-13 12:29:43,0.0,5,7.402,0.0,0.0,0.0,8.3,2.8,-10.6,1024,1024,1024,1024,0,0,0,0,65,5.029,77.36,164.042,P-GPS,,50.0
800,504400,2026-01-13 12:29:43,0.0,5,7.402,0.0,0.0,0.223694,8.5,2.1,-10.2,1024,1024,1024,1024,0,0,0,0,65,5.029,77.36,164.042,P-GPS,,50.0
801,504500,2026-01-13 12:29:43,0.0,5,7.402,0.0,0.0,0.0,8.6,2.2,-10.0,1024,1024,1024,1024,0,0,0,0,65,5.029,77.36,164.042,P-GPS,,50.0
802,504600,2026-01-13 12:29:43,0.0,5,7.402,0.0,0.0,0.0,8.4,3.2,-9.4,1024,1024,1024,1024,0,0,0,0,65,5.133,77.36,164.370084,P-GPS,,50.1
803,504700,2026-01-13 12:29:43,0.0,5,7.402,0.0,0.0,0.0,8.2,4.0,-10.3,1024,1024,1024,1024,0,0,0,0,65,5.133,77.36,164.370084,P-GPS,,50.1
804,504800,2026-01-13 12:29:43,0.0,5,7.402,0.0,0.0,0.0,8.1,4.8,-10.8,1024,1024,1024,1024,0,0,0,0,65,5.133,77.36,164.370084,P-GPS,,50.1
805,504900,2026-01-13 12:29:43,0.0,5,7.402,0.0,0.0,0.0,8.1,4.6,-10.6,1024,1024,1024,1024,0,0,0,0,65,5.133,77.36,164.370084,P-GPS,,50.1
806,505000,2026-01-13 12:29:44,0.0,5,7.402,0.0,0.0,0.0,8.2,4.3,-10.5,1024,1024,1024,1024,0,0,0,0,65,5.133,77.36,164.370084,P-GPS,,50.1
807,505100,2026-01-13 12:29:44,0.0,5,7.402,0.0,0.0,0.0,8.0,4.7,-10.7,1024,1024,1024,1024,0,0,0,0,65,5.133,77.36,164.370084,P-GPS,,50.1
808,505200,2026-01-13 12:29:44,0.0,5,7.402,0.0,0.0,0.223694,8.1,4.2,-10.9,1024,1024,1024,1024,0,0,0,0,65,5.133,77.36,164.370084,P-GPS,,50.1
809,505300,2026-01-13 12:29:44,0.0,5,7.402,0.0,0.0,0.223694,8.2,3.7,-11.0,1024,1024,1024,1024,0,0,0,0,65,5.133,77.36,164.370084,P-GPS,,50.1
810,505400,2026-01-13 12:29:44,0.0,5,7.402,0.0,0.0,0.223694,8.2,3.1,-10.9,1024,1024,1024,1024,0,0,0,0,65,5.133,77.36,164.370084,P-GPS,,50.1
811,505500,2026-01-13 12:29:44,0.0,5,7.402,0.0,0.0,0.223694,8.2,2.9,-10.9,1024,1024,1024,1024,0,0,0,0,65,5.133,77.36,164.370084,P-GPS,,50.1
812,505600,2026-01-13 12:29:44,0.0,5,7.402,0.0,0.0,0.0,8.1,3.2,-10.9,1024,1024,1024,1024,0,0,0,0,65,5.133,77.36,164.370084,P-GPS,,50.1
813,505700,2026-01-13 12:29:44,0.0,5,7.436,0.0,0.0,0.0,8.3,2.5,-10.7,1024,1024,1024,1024,0,0,0,0,65,4.648,77.36,164.370084,P-GPS,,50.1
814,505800,2026-01-13 12:29:44,0.0,5,7.436,0.0,0.0,0.0,8.3,2.2,-10.6,1024,1024,1024,1024,0,0,0,0,65,4.648,77.36,164.370084,P-GPS,,50.1
815,505900,2026-01-13 12:29:44,0.0,5,7.436,0.0,0.0,0.0,8.3,2.4,-10.7,1024,1024,1024,1024,0,0,0,0,65,4.648,77.36,164.370084,P-GPS,,50.1
816,506000,2026-01-13 12:29:45,0.0,5,7.436,0.0,0.0,0.0,8.2,2.3,-10.7,1024,1024,1024,1024,0,0,0,0,65,4.648,77.36,164.370084,P-GPS,,50.1
817,506100,2026-01-13 12:29:45,0.0,5,7.436,0.0,0.0,0.0,8.2,2.8,-11.1,1024,1024,1024,1024,0,0,0,0,65,4.648,77.36,164.370084,P-GPS,,50.1
818,506200,2026-01-13 12:29:45,0.0,5,7.436,0.0,0.0,0.0,8.3,2.7,-11.1,1024,1024,1024,1024,0,0,0,0,65,4.648,77.36,164.370084,P-GPS,,50.1
819,506300,2026-01-13 12:29:45,0.0,5,7.436,0.0,0.0,0.0,8.3,3.0,-11.0,1024,1024,1024,1024,0,0,0,0,65,4.648,77.36,164.370084,P-GPS,SD card speed low SD card speed low. Normal use may be affected. Replace SD card (Code: 10028). Gimbal stuck. Make sure gimbal cover is removed and manually check whether gimbal can rotate freely (Code: 40002),50.1
820,506400,2026-01-13 12:29:45,0.0,5,7.436,0.0,0.0,0.0,8.2,3.5,-11.7,1024,1024,1024,1024,0,0,0,0,65,4.648,77.36,164.370084,P-GPS,,50.1
821,506500,2026-01-13 12:29:45,0.0,5,7.436,0.0,0.0,0.223694,8.2,3.9,-11.3,1024,1024,1024,1024,0,0,0,0,65,4.648,77.36,164.370084,P-GPS,,50.1
822,506600,2026-01-13 12:29:45,0.0,5,7.436,0.0,0.0,0.0,8.2,4.2,-10.9,1024,1024,1024,1024,0,0,0,0,65,4.648,77.36,164.370084,P-GPS,,50.1
823,506700,2026-01-13 12:29:45,0.0,5,7.436,0.0,0.0,0.0,8.3,4.2,-10.6,1024,1024,1024,1024,0,0,0,0,65,4.648,77.36,164.370084,P-GPS,,50.1
824,506800,2026-01-13 12:29:45,0.0,5,7.436,0.0,0.0,0.0,8.3,4.4,-10.2,1024,1024,1024,1024,0,0,0,0,65,4.648,77.36,164.042,P-GPS,,50.0
825,506900,2026-01-13 12:29:45,0.0,5,7.436,0.0,0.0,0.0,8.2,4.4,-10.3,1024,1024,1024,1024,0,0,0,0,65,4.648,77.36,164.042,P-GPS,,50.0
826,507000,2026-01-13 12:29:46,0.0,5,7.436,0.0,0.0,0.0,8.2,4.3,-10.2,1024,1024,1024,1024,0,0,0,0,65,4.648,77.36,164.042,P-GPS,,50.0
827,507100,2026-01-13 12:29:46,0.0,5,7.436,0.0,0.0,0.0,8.2,4.4,-9.9,1024,1024,1024,1024,0,0,0,0,65,4.648,77.36,164.042,P-GPS,,50.0
828,507200,2026-01-13 12:29:46,0.0,5,7.436,0.0,0.0,0.0,8.2,4.2,-9.7,1024,1024,1024,1024,0,0,0,0,65,4.648,77.36,164.042,P-GPS,,50.0
829,507300,2026-01-13 12:29:46,0.0,5,7.436,0.0,0.0,0.0,8.2,4.4,-9.6,1024,1024,1024,1024,0,0,0,0,65,4.648,77.36,164.042,P-GPS,,50.0
830,507400,2026-01-13 12:29:46,0.0,5,7.436,0.0,0.0,0.0,8.2,4.5,-9.5,1024,1024,1024,1024,0,0,0,0,65,4.648,77.36,164.042,P-GPS,,50.0
831,507500,2026-01-13 12:29:46,0.0,5,7.436,0.0,0.0,0.0,8.2,4.1,-9.5,1024,1024,1024,1024,0,0,0,0,65,4.648,77.36,164.042,P-GPS,,50.0
832,507600,2026-01-13 12:29:46,0.0,5,7.436,0.0,0.0,0.0,8.2,4.2,-9.3,1024,1024,1024,1024,0,0,0,0,65,4.648,77.36,164.042,P-GPS,,50.0
833,507700,2026-01-13 12:29:46,0.0,5,7.436,0.0,0.0,0.0,8.1,4.5,-9.4,1024,1024,1024,1024,0,0,0,0,65,4.648,77.36,164.042,P-GPS,,50.0
834,507800,2026-01-13 12:29:46,0.0,5,7.401,0.0,0.0,0.0,8.0,4.9,-9.3,1024,1024,1024,1024,0,0,0,0,65,5.038,77.36,164.042,P-GPS,,50.0
835,507900,2026-01-13 12:29:46,0.0,5,7.401,0.0,0.0,0.0,8.1,4.6,-9.4,1024,1024,1024,1024,0,0,0,0,65,5.038,77.36,164.042,P-GPS,,50.0
836,508000,2026-01-13 12:29:47,0.0,5,7.401,0.0,0.0,0.0,8.1,4.4,-9.6,1024,1024,1024,1024,0,0,0,0,65,5.038,77.36,163.713916,P-GPS,,49.9
837,508100,2026-01-13 12:29:47,0.0,5,7.401,0.0,0.0,0.0,8.1,4.4,-9.9,1024,1024,1024,1024,0,0,0,0,65,5.038,77.36,163.713916,P-GPS,,49.9
838,508200,2026-01-13 12:29:47,0.0,5,7.401,0.0,0.0,0.223694,8.1,4.5,-9.7,1024,1024,1024,1024,0,0,0,0,65,5.038,77.36,163.713916,P-GPS,,49.9
839,508300,2026-01-13 12:29:47,0.0,5,7.401,0.0,0.0,0.0,8.2,4.1,-9.5,1024,1024,1024,1024,0,0,0,0,65,5.038,77.36,163.713916,P-GPS,,49.9
840,508400,2026-01-13 12:29:47,0.0,5,7.401,0.0,0.0,0.0,8.2,4.0,-9.6,1024,1024,1024,1024,0,0,0,0,65,5.038,77.36,163.713916,P-GPS,,49.9
841,508500,2026-01-13 12:29:47,0.0,5,7.401,0.0,0.0,0.0,8.2,4.0,-10.3,1024,1024,1024,1024,0,0,0,0,65,5.038,77.36,163.713916,P-GPS,,49.9
842,508600,2026-01-13 12:29:47,0.0,5,7.401,0.0,0.0,0.0,8.2,3.5,-10.6,1024,1024,1024,1024,0,0,0,0,65,5.038,77.36,163.713916,P-GPS,,49.9
843,508700,2026-01-13 12:29:47,0.0,5,7.401,0.0,0.0,0.0,8.1,4.0,-11.2,1024,1024,1024,1024,0,0,0,0,65,5.038,77.36,163.713916,P-GPS,,49.9
844,508800,2026-01-13 12:29:47,0.0,5,7.401,0.0,0.0,0.0,8.2,3.9,-11.6,1024,1024,1024,1024,0,0,0,0,65,5.038,77.36,164.042,P-GPS,,50.0
845,508900,2026-01-13 12:29:47,0.0,5,7.401,0.0,0.0,0.0,8.2,3.6,-11.6,1024,1024,1024,1024,0,0,0,0,65,5.038,77.36,164.042,P-GPS,,50.0
846,509000,2026-01-13 12:29:48,0.0,5,7.387,0.0,0.0,0.0,8.3,2.7,-11.9,1024,1024,1024,1024,0,0,0,0,65,5.484,77.54,164.042,P-GPS,,50.0
847,509100,2026-01-13 12:29:48,0.0,5,7.387,0.0,0.0,0.0,8.4,1.9,-12.4,1024,1024,1024,1024,0,0,0,0,65,5.484,77.54,164.370084,P-GPS,,50.1
848,509200,2026-01-13 12:29:48,0.0,5,7.387,0.0,0.0,0.0,8.3,2.2,-12.4,1024,1024,1024,1024,0,0,0,0,65,5.484,77.54,164.370084,P-GPS,,50.1
849,509300,2026-01-13 12:29:48,0.0,5,7.387,0.0,0.0,0.0,8.3,2.4,-12.3,1024,1024,1024,1024,0,0,0,0,65,5.484,77.54,164.370084,P-GPS,,50.1
850,509400,2026-01-13 12:29:48,0.0,5,7.387,0.0,0.0,0.0,8.2,3.1,-12.1,1024,1024,1024,1024,0,0,0,0,65,5.484,77.54,164.370084,P-GPS,,50.1
851,509500,2026-01-13 12:29:48,0.0,5,7.387,0.0,0.0,0.0,8.2,3.6,-11.6,1024,1024,1024,1024,0,0,0,0,65,5.484,77.54,164.370084,P-GPS,,50.1
852,509600,2026-01-13 12:29:48,0.0,5,7.387,0.0,0.0,0.0,8.1,4.1,-11.3,1024,1024,1024,1024,0,0,0,0,65,5.484,77.54,164.370084,P-GPS,,50.1
853,509700,2026-01-13 12:29:48,0.0,5,7.387,0.0,0.0,0.0,8.1,4.5,-11.3,1024,1024,1024,1024,0,0,0,0,65,5.484,77.54,164.370084,P-GPS,,50.1
854,509800,2026-01-13 12:29:48,0.0,5,7.387,0.0,0.0,0.223694,8.1,4.5,-11.2,1024,1024,1024,1024,0,0,0,0,65,5.484,77.54,164.370084,P-GPS,,50.1
855,509900,2026-01-13 12:29:48,0.0,5,7.387,0.0,0.0,0.0,8.1,4.6,-11.0,1024,1024,1024,1024,0,0,0,0,65,5.484,77.54,164.370084,P-GPS,,50.1
856,510000,2026-01-13 12:29:49,0.0,5,7.387,0.0,0.0,0.0,8.0,4.6,-11.0,1024,1024,1024,1024,0,0,0,0,65,5.484,77.54,164.370084,P-GPS,,50.1
857,510100,2026-01-13 12:29:49,0.0,5,7.412,0.0,0.0,0.0,8.0,4.5,-11.3,1024,1024,1024,1024,0,0,0,0,65,4.91,77.54,164.370084,P-GPS,,50.1
858,510200,2026-01-13 12:29:49,0.0,5,7.412,0.0,0.0,0.0,8.1,4.4,-11.2,1024,1024,1024,1024,0,0,0,0,65,4.91,77.54,164.370084,P-GPS,,50.1
859,510300,2026-01-13 12:29:49,0.0,5,7.412,0.0,0.0,0.0,8.2,4.0,-11.6,1024,1024,1024,1024,0,0,0,0,65,4.91,77.54,164.370084,P-GPS,,50.1
860,510400,2026-01-13 12:29:49,0.0,5,7.412,0.0,0.0,0.0,8.2,3.7,-11.9,1024,1024,1024,1024,0,0,0,0,65,4.91,77.54,164.698168,P-GPS,,50.2
861,510500,2026-01-13 12:29:49,0.0,5,7.412,0.0,0.0,0.0,8.2,3.5,-12.4,1024,1024,1024,1024,0,0,0,0,65,4.91,77.54,164.698168,P-GPS,,50.2
862,510600,2026-01-13 12:29:49,0.0,5,7.412,0.0,0.0,0.0,8.2,3.6,-12.6,1024,1024,1024,1024,0,0,0,0,65,4.91,77.54,164.698168,P-GPS,,50.2
863,510700,2026-01-13 12:29:49,0.0,5,7.412,0.0,0.0,0.0,8.1,4.1,-13.1,1024,1024,1024,1024,0,0,0,0,65,4.91,77.54,164.698168,P-GPS,,50.2
864,510800,2026-01-13 12:29:49,0.0,5,7.412,0.0,0.0,0.0,8.0,4.2,-12.9,1024,1024,1024,1024,0,0,0,0,65,4.91,77.54,164.698168,P-GPS,,50.2
865,510900,2026-01-13 12:29:49,0.0,5,7.412,0.0,0.0,0.0,8.0,4.4,-12.4,1024,1024,1024,1024,0,0,0,0,65,4.91,77.54,164.698168,P-GPS,,50.2
866,511000,2026-01-13 12:29:50,0.0,5,7.412,0.0,0.0,0.0,8.0,4.8,-11.8,1024,1024,1024,1024,0,0,0,0,65,4.91,77.54,164.698168,P-GPS,,50.2
867,511100,2026-01-13 12:29:50,0.0,5,7.412,0.0,0.0,0.0,8.1,4.4,-11.7,1024,1024,1024,1024,0,0,0,0,65,4.91,77.54,164.370084,P-GPS,,50.1
868,511200,2026-01-13 12:29:50,0.0,5,7.404,0.0,0.0,0.0,8.1,4.5,-11.8,1024,1024,1024,1024,0,0,0,0,65,5.091,77.54,164.370084,P-GPS,,50.1
869,511300,2026-01-13 12:29:50,0.0,5,7.404,0.0,0.0,0.0,8.1,4.5,-11.6,1024,1024,1024,1024,0,0,0,0,65,5.091,77.54,164.370084,P-GPS,,50.1
870,511400,2026-01-13 12:29:50,0.0,5,7.404,0.0,0.0,0.223694,8.1,4.5,-11.2,1024,1024,1024,1024,0,0,0,0,65,5.091,77.54,164.370084,P-GPS,,50.1
871,511500,2026-01-13 12:29:50,0.0,5,7.404,0.0,0.0,0.0,8.2,4.2,-10.9,1024,1024,1024,1024,0,0,0,0,65,5.091,77.54,164.370084,P-GPS,,50.1
872,511600,2026-01-13 12:29:50,0.0,5,7.404,0.0,0.0,0.0,8.1,4.4,-11.2,1024,1024,1024,1024,0,0,0,0,65,5.091,77.54,164.042,P-GPS,,50.0
873,511700,2026-01-13 12:29:50,0.0,5,7.404,0.0,0.0,0.0,8.1,4.5,-11.3,1024,1024,1024,1024,0,0,0,0,65,5.091,77.54,164.042,P-GPS,,50.0
874,511800,2026-01-13 12:29:50,0.0,5,7.404,0.0,0.0,0.0,8.2,4.4,-11.5,1024,1024,1024,1024,0,0,0,0,65,5.091,77.54,164.042,P-GPS,,50.0
875,511900,2026-01-13 12:29:50,0.0,5,7.404,0.0,0.0,0.223694,8.2,4.4,-11.4,1024,1024,1024,1024,0,0,0,0,65,5.091,77.54,164.042,P-GPS,,50.0
876,512000,2026-01-13 12:29:51,0.0,5,7.404,0.0,0.0,0.0,8.1,4.1,-11.6,1024,1024,1024,1024,0,0,0,0,65,5.091,77.54,164.042,P-GPS,,50.0
877,512100,2026-01-13 12:29:51,0.0,5,7.404,0.0,0.0,0.0,8.2,4.1,-11.6,1024,1024,1024,1024,0,0,0,0,65,5.091,77.54,164.042,P-GPS,,50.0
878,512200,2026-01-13 12:29:51,0.0,5,7.404,0.0,0.0,0.0,8.1,4.2,-11.7,1024,1024,1024,1024,0,0,0,0,65,5.091,77.54,164.042,P-GPS,,50.0
879,512300,2026-01-13 12:29:51,0.0,5,7.394,0.0,0.0,0.0,8.2,4.0,-11.7,1024,1024,1024,1024,0,0,0,0,65,5.324,77.54,164.042,P-GPS,,50.0
880,512400,2026-01-13 12:29:51,0.0,5,7.394,0.0,0.0,0.0,8.1,4.3,-11.5,1024,1024,1024,1024,0,0,0,0,65,5.324,77.54,164.042,P-GPS,,50.0
881,512500,2026-01-13 12:29:51,0.0,5,7.394,0.0,0.0,0.0,8.1,4.3,-11.6,1024,1024,1024,1024,0,0,0,0,65,5.324,77.54,163.713916,P-GPS,,49.9
882,512600,2026-01-13 12:29:51,0.0,5,7.394,0.0,0.0,0.0,8.1,4.0,-11.4,1024,1024,1024,1024,0,0,0,0,65,5.324,77.54,163.713916,P-GPS,,49.9
883,512700,2026-01-13 12:29:51,0.0,5,7.394,0.0,0.0,0.0,8.1,4.1,-11.2,1024,1024,1024,1024,0,0,0,0,65,5.324,77.54,163.713916,P-GPS,,49.9
884,512800,2026-01-13 12:29:51,0.0,5,7.394,0.0,0.0,0.0,8.1,4.0,-11.4,1024,1024,1024,1024,0,0,0,0,65,5.324,77.54,163.713916,P-GPS,,49.9
885,512900,2026-01-13 12:29:51,0.0,5,7.394,0.0,0.0,0.0,8.1,3.5,-11.3,1024,1024,1024,1024,0,0,0,0,65,5.324,77.54,163.713916,P-GPS,,49.9
886,513000,2026-01-13 12:29:52,0.0,5,7.394,0.0,0.0,0.0,8.1,3.1,-11.4,1024,1024,1024,1024,0,0,0,0,65,5.324,77.54,163.713916,P-GPS,,49.9
887,513100,2026-01-13 12:29:52,0.0,5,7.394,0.0,0.0,0.0,8.2,3.0,-11.4,1024,1024,1024,1024,0,0,0,0,65,5.324,77.54,163.713916,P-GPS,,49.9
888,513200,2026-01-13 12:29:52,0.0,5,7.394,0.0,0.0,0.0,8.2,2.8,-11.2,1024,1024,1024,1024,0,0,0,0,65,5.324,77.54,163.713916,P-GPS,,49.9
889,513300,2026-01-13 12:29:52,0.0,5,7.394,0.0,0.0,0.0,8.2,2.8,-11.3,1024,1024,1024,1024,0,0,0,0,65,5.324,77.54,163.713916,P-GPS,,49.9
890,513400,2026-01-13 12:29:52,0.0,5,7.376,0.0,0.0,0.0,8.2,2.9,-11.6,1024,1024,1024,1024,0,0,0,0,64,5.663,77.54,163.713916,P-GPS,,49.9
891,513500,2026-01-13 12:29:52,0.0,5,7.376,0.0,0.0,0.0,8.2,2.9,-11.6,1024,1024,1024,1024,0,0,0,0,64,5.663,77.54,163.713916,P-GPS,,49.9
892,513600,2026-01-13 12:29:52,0.0,5,7.376,0.0,0.0,0.0,8.3,3.1,-11.5,1024,1024,1024,1024,0,0,0,0,64,5.663,77.54,163.713916,P-GPS,,49.9
893,513700,2026-01-13 12:29:52,0.0,5,7.376,0.0,0.0,0.0,8.2,3.5,-11.6,1024,1024,1024,1024,0,0,0,0,64,5.663,77.54,163.713916,P-GPS,,49.9
894,513800,2026-01-13 12:29:52,0.0,5,7.376,0.0,0.0,0.0,8.1,3.9,-11.6,1024,1024,1024,1024,0,0,0,0,64,5.663,77.54,163.713916,P-GPS,,49.9
895,513900,2026-01-13 12:29:52,0.0,5,7.376,0.0,0.0,0.0,8.1,3.9,-12.0,1024,1024,1024,1024,0,0,0,0,64,5.663,77.54,163.713916,P-GPS,,49.9
896,514000,2026-01-13 12:29:53,0.0,5,7.376,0.0,0.0,0.0,8.2,3.8,-11.8,1024,1024,1024,1024,0,0,0,0,64,5.663,77.54,163.713916,P-GPS,,49.9
897,514100,2026-01-13 12:29:53,0.0,5,7.376,0.0,0.0,0.0,8.2,4.1,-11.5,1024,1024,1024,1024,0,0,0,0,64,5.663,77.54,163.713916,P-GPS,,49.9
898,514200,2026-01-13 12:29:53,0.0,5,7.376,0.0,0.0,0.0,8.1,4.8,-11.7,1024,1024,1024,1024,0,0,0,0,64,5.663,77.54,163.713916,P-GPS,,49.9
899,514300,2026-01-13 12:29:53,0.0,5,7.376,0.0,0.0,0.0,8.0,5.1,-12.1,1024,1024,1024,1024,0,0,0,0,64,5.663,77.54,163.713916,P-GPS,Strong wind warning Strong wind warning. Aircraft unable to return to home automatically. Lower altitude immediately and return to home manually (Code: 30149). SD card speed low. Normal use may be affected. Replace SD card (Code: 10028). Gimbal stuck. Make sure gimbal c,49.9
900,514400,2026-01-13 12:29:53,0.0,5,7.376,0.0,0.0,0.0,7.9,5.4,-12.0,1024,1024,1024,1024,0,0,0,0,64,5.663,77.54,163.713916,P-GPS,,49.9
901,514500,2026-01-13 12:29:53,0.0,5,7.397,0.0,0.0,0.0,7.9,5.4,-12.2,1024,1024,1024,1024,0,0,0,0,64,5.351,77.54,163.713916,P-GPS,,49.9
902,514600,2026-01-13 12:29:53,0.0,5,7.397,0.0,0.0,0.0,8.2,4.2,-11.8,1024,1024,1024,1024,0,0,0,0,64,5.351,77.54,164.042,P-GPS,,50.0
903,514700,2026-01-13 12:29:53,0.0,5,7.397,0.0,0.0,0.0,8.1,4.6,-12.2,1024,1024,1024,1024,0,0,0,0,64,5.351,77.54,164.042,P-GPS,,50.0
904,514800,2026-01-13 12:29:53,0.0,5,7.397,0.0,0.0,0.0,8.1,4.9,-12.4,1024,1024,1024,1024,0,0,0,0,64,5.351,77.54,164.042,P-GPS,,50.0
905,514900,2026-01-13 12:29:53,0.0,5,7.397,0.0,0.0,0.0,8.0,5.2,-12.5,1024,1024,1024,1024,0,0,0,0,64,5.351,77.54,164.042,P-GPS,,50.0
906,515000,2026-01-13 12:29:54,0.0,5,7.397,0.0,0.0,0.0,7.9,5.1,-12.5,1024,1024,1024,1024,0,0,0,0,64,5.351,77.54,164.042,P-GPS,,50.0
907,515100,2026-01-13 12:29:54,0.0,5,7.397,0.0,0.0,0.0,7.9,5.0,-12.6,1024,1024,1024,1024,0,0,0,0,64,5.351,77.54,164.042,P-GPS,,50.0
908,515200,2026-01-13 12:29:54,0.0,5,7.397,0.0,0.0,0.0,7.9,5.0,-12.3,1024,1024,1024,1024,0,0,0,0,64,5.351,77.54,164.042,P-GPS,,50.0
909,515300,2026-01-13 12:29:54,0.0,5,7.397,0.0,0.0,0.0,8.0,5.1,-12.5,1024,1024,1024,1024,0,0,0,0,64,5.351,77.54,164.042,P-GPS,,50.0
910,515400,2026-01-13 12:29:54,0.0,5,7.397,0.0,0.0,0.0,8.0,5.1,-12.4,1024,1024,1024,1024,0,0,0,0,64,5.351,77.54,164.042,P-GPS,,50.0
911,515500,2026-01-13 12:29:54,0.0,5,7.397,0.0,0.0,0.0,8.0,5.1,-12.5,1024,1024,1024,1024,0,0,0,0,64,5.351,77.54,164.042,P-GPS,,50.0
912,515600,2026-01-13 12:29:54,0.0,5,7.398,0.0,0.0,0.0,8.0,4.8,-12.5,1024,1024,1024,1024,0,0,0,0,64,5.464,77.54,164.042,P-GPS,,50.0
913,515700,2026-01-13 12:29:54,0.0,5,7.398,0.0,0.0,0.0,8.0,5.1,-12.4,1024,1024,1024,1024,0,0,0,0,64,5.464,77.54,163.713916,P-GPS,,49.9
914,515800,2026-01-13 12:29:54,0.0,5,7.398,0.0,0.0,0.0,8.1,5.0,-12.3,1024,1024,1024,1024,0,0,0,0,64,5.464,77.54,164.042,P-GPS,,50.0
915,515900,2026-01-13 12:29:55,0.0,5,7.398,0.0,0.0,0.0,8.0,5.5,-12.2,1024,1024,1024,1024,0,0,0,0,64,5.464,77.54,164.042,P-GPS,,50.0
916,516000,2026-01-13 12:29:55,0.0,5,7.398,0.0,0.0,0.0,8.0,5.7,-12.4,1024,1024,1024,1024,0,0,0,0,64,5.464,77.54,164.042,P-GPS,,50.0
917,516100,2026-01-13 12:29:55,0.0,5,7.398,0.0,0.0,0.0,8.0,5.8,-12.2,1024,1024,1024,1024,0,0,0,0,64,5.464,77.54,164.042,P-GPS,,50.0
918,516200,2026-01-13 12:29:55,0.0,5,7.398,0.0,0.0,0.0,7.9,6.1,-12.6,1024,1024,1024,1024,0,0,0,0,64,5.464,77.54,164.042,P-GPS,,50.0
919,516300,2026-01-13 12:29:55,0.0,5,7.398,0.0,0.0,0.223694,7.8,6.1,-13.0,1024,1024,1024,1024,0,0,0,0,64,5.464,77.54,164.042,P-GPS,,50.0
920,516400,2026-01-13 12:29:55,0.0,5,7.398,0.0,0.0,0.223694,7.8,5.9,-13.1,1024,1024,1024,1024,0,0,0,0,64,5.464,77.54,164.042,P-GPS,,50.0
921,516500,2026-01-13 12:29:55,0.0,5,7.398,0.0,0.0,0.223694,7.7,6.0,-12.9,1024,1024,1024,1024,0,0,0,0,64,5.464,77.54,164.042,P-GPS,,50.0
922,516600,2026-01-13 12:29:55,0.0,5,7.398,0.0,0.0,0.0,7.7,5.9,-11.9,1024,1024,1024,1024,0,0,0,0,64,5.464,77.54,164.042,P-GPS,,50.0
923,516700,2026-01-13 12:29:55,0.0,5,7.398,0.0,0.0,0.0,8.1,4.5,-10.9,1024,1024,1024,1024,0,0,0,0,64,5.464,77.54,164.042,P-GPS,,50.0
924,516800,2026-01-13 12:29:55,0.0,5,7.398,0.0,0.0,-0.223694,8.1,4.4,-11.3,1024,1024,1024,1024,0,0,0,0,64,5.464,77.54,163.713916,P-GPS,,49.9
925,516900,2026-01-13 12:29:55,0.0,5,7.398,0.0,0.0,0.0,7.9,5.1,-11.5,1024,1024,1024,1024,0,0,0,0,64,5.464,77.54,163.713916,P-GPS,,49.9
926,517000,2026-01-13 12:29:56,0.0,5,7.398,0.0,0.0,0.0,7.9,4.9,-11.6,1024,1024,1024,1024,0,0,0,0,64,5.464,77.54,163.713916,P-GPS,,49.9
927,517100,2026-01-13 12:29:56,0.0,5,7.398,0.0,0.0,0.0,8.1,5.0,-11.6,1024,1024,1024,1024,0,0,0,0,64,5.464,77.54,163.713916,P-GPS,,49.9
928,517200,2026-01-13 12:29:56,0.0,5,7.398,0.0,0.0,0.0,7.9,5.8,-11.6,1024,1024,1024,1024,0,0,0,0,64,5.464,77.54,163.713916,P-GPS,,49.9
929,517300,2026-01-13 12:29:56,0.0,5,7.398,0.0,0.0,0.223694,7.8,6.8,-11.7,1024,1024,1024,1024,0,0,0,0,64,5.464,77.54,163.713916,P-GPS,,49.9
930,517400,2026-01-13 12:29:56,0.0,5,7.398,0.0,0.0,0.223694,7.8,7.4,-11.4,1024,1024,1024,1024,0,0,0,0,64,5.464,77.54,163.713916,P-GPS,,49.9
931,517500,2026-01-13 12:29:56,0.0,5,7.398,0.0,0.0,0.223694,7.7,7.4,-9.9,1024,1024,1024,1024,0,0,0,0,64,5.464,77.54,163.713916,P-GPS,,49.9
932,517600,2026-01-13 12:29:56,0.0,5,7.398,0.0,0.0,0.0,8.0,6.3,-10.0,1024,1024,1024,1024,0,0,0,0,64,5.464,77.54,163.385832,P-GPS,,49.8
933,517700,2026-01-13 12:29:56,0.0,5,7.398,0.0,0.0,0.0,8.1,5.7,-10.3,1024,1024,1024,1024,0,0,0,0,64,5.464,77.54,163.385832,P-GPS,,49.8
934,517800,2026-01-13 12:29:56,0.0,5,7.378,0.0,0.0,0.0,8.0,6.3,-10.4,1024,1024,1024,1024,0,0,0,0,64,5.202,77.54,163.385832,P-GPS,,49.8
935,517900,2026-01-13 12:29:56,0.0,5,7.378,0.0,0.0,0.0,8.0,6.3,-10.4,1024,1024,1024,1024,0,0,0,0,64,5.202,77.54,163.385832,P-GPS,,49.8
936,518000,2026-01-13 12:29:57,0.0,5,7.378,0.0,0.0,0.0,8.0,6.1,-10.4,1024,1024,1024,1024,0,0,0,0,64,5.202,77.54,163.385832,P-GPS,,49.8
937,518100,2026-01-13 12:29:57,0.0,5,7.378,0.0,0.0,0.0,7.9,6.6,-10.7,1024,1024,1024,1024,0,0,0,0,64,5.202,77.54,163.713916,P-GPS,,49.9
938,518200,2026-01-13 12:29:57,0.0,5,7.378,0.0,0.0,0.0,7.8,7.0,-11.2,1024,1024,1024,1024,0,0,0,0,64,5.202,77.54,163.713916,P-GPS,,49.9
939,518300,2026-01-13 12:29:57,0.0,5,7.378,0.0,0.0,0.0,7.8,6.9,-11.2,1024,1024,1024,1024,0,0,0,0,64,5.202,77.54,163.713916,P-GPS,,49.9
940,518400,2026-01-13 12:29:57,0.0,5,7.378,0.0,0.0,0.0,7.9,6.5,-11.1,1024,1024,1024,1024,0,0,0,0,64,5.202,77.54,163.385832,P-GPS,,49.8
941,518500,2026-01-13 12:29:57,0.0,5,7.378,0.0,0.0,0.0,8.0,6.5,-10.6,1024,1024,1024,1024,0,0,0,0,64,5.202,77.54,163.385832,P-GPS,,49.8
942,518600,2026-01-13 12:29:57,0.0,5,7.378,0.0,0.0,0.0,8.0,6.5,-10.5,1024,1024,1024,1024,0,0,0,0,64,5.202,77.54,163.385832,P-GPS,,49.8
943,518700,2026-01-13 12:29:57,0.0,5,7.378,0.0,0.0,0.0,7.9,6.6,-10.5,1024,1024,1024,1024,0,0,0,0,64,5.202,77.54,163.385832,P-GPS,,49.8
944,518800,2026-01-13 12:29:57,0.0,5,7.378,0.0,0.0,0.0,7.9,6.4,-10.2,1024,1024,1024,1024,0,0,0,0,64,5.202,77.54,163.385832,P-GPS,,49.8
945,518900,2026-01-13 12:29:57,0.0,5,7.439,0.0,0.0,0.0,7.8,6.4,-10.3,1024,1024,1024,1024,0,0,0,0,64,4.514,77.72,163.385832,P-GPS,,49.8
946,519000,2026-01-13 12:29:58,0.0,5,7.439,0.0,0.0,0.0,8.0,5.3,-10.0,1024,1024,1024,1024,0,0,0,0,64,4.514,77.72,163.385832,P-GPS,,49.8
947,519100,2026-01-13 12:29:58,0.0,5,7.439,0.0,0.0,0.0,7.9,5.2,-10.3,1024,1024,1024,1024,0,0,0,0,64,4.514,77.72,163.385832,P-GPS,,49.8
948,519200,2026-01-13 12:29:58,0.223694,5,7.439,-0.223694,0.0,0.0,8.0,4.6,-11.2,1024,1024,1024,1024,0,0,0,0,64,4.514,77.72,163.385832,P-GPS,,49.8
949,519300,2026-01-13 12:29:58,0.223694,5,7.439,-0.223694,0.0,0.0,7.9,4.5,-12.0,1024,1024,1024,1024,0,0,0,0,64,4.514,77.72,163.385832,P-GPS,,49.8
950,519400,2026-01-13 12:29:58,0.223694,5,7.439,-0.223694,0.0,0.0,8.0,4.2,-11.7,1024,1024,1024,1024,0,0,0,0,64,4.514,77.72,163.385832,P-GPS,,49.8
951,519500,2026-01-13 12:29:58,0.223694,5,7.439,0.0,0.0,0.0,7.9,4.4,-11.9,1024,1024,1024,1024,0,0,0,0,64,4.514,77.72,163.385832,P-GPS,,49.8
952,519600,2026-01-13 12:29:58,0.0,5,7.439,0.0,0.0,0.0,7.9,4.3,-12.0,1024,1024,1024,1024,0,0,0,0,64,4.514,77.72,163.713916,P-GPS,,49.9
953,519700,2026-01-13 12:29:58,0.0,5,7.439,0.0,0.0,0.0,8.1,3.8,-12.8,1024,1024,1024,1024,0,0,0,0,64,4.514,77.72,163.713916,P-GPS,,49.9
954,519800,2026-01-13 12:29:58,0.223694,5,7.439,0.0,0.223694,0.0,8.1,3.9,-13.2,1024,1024,1024,1024,0,0,0,0,64,4.514,77.72,163.713916,P-GPS,,49.9
955,519900,2026-01-13 12:29:59,0.223694,5,7.439,0.0,0.223694,0.0,8.0,4.1,-13.5,1024,1024,1024,1024,0,0,0,0,64,4.514,77.72,164.042,P-GPS,,50.0
956,520000,2026-01-13 12:29:59,0.223694,5,7.405,0.0,0.223694,0.0,8.0,3.7,-13.8,1024,1024,1024,1024,0,0,0,0,64,4.802,77.72,164.042,P-GPS,,50.0
957,520100,2026-01-13 12:29:59,0.223694,5,7.405,0.0,0.0,0.0,8.1,3.4,-14.3,1024,1024,1024,1024,0,0,0,0,64,4.802,77.72,164.042,P-GPS,,50.0
958,520200,2026-01-13 12:29:59,0.0,5,7.405,0.0,0.0,0.0,8.0,3.8,-14.6,1024,1024,1024,1024,0,0,0,0,64,4.802,77.72,164.042,P-GPS,,50.0
959,520300,2026-01-13 12:29:59,0.0,5,7.405,0.0,0.0,0.0,8.2,3.5,-13.9,1024,1024,1024,1024,0,0,0,0,64,4.802,77.72,164.042,P-GPS,,50.0
960,520400,2026-01-13 12:29:59,0.0,5,7.405,0.0,0.0,0.0,8.0,4.5,-13.6,1024,1024,1024,1024,0,0,0,0,64,4.802,77.72,164.042,P-GPS,,50.0
961,520500,2026-01-13 12:29:59,0.0,5,7.405,0.0,0.0,0.0,7.9,4.8,-13.1,1024,1024,1024,1024,0,0,0,0,64,4.802,77.72,164.042,P-GPS,,50.0
962,520600,2026-01-13 12:29:59,0.0,5,7.405,0.0,0.0,0.0,7.9,5.0,-13.2,1024,1024,1024,1024,0,0,0,0,64,4.802,77.72,164.042,P-GPS,,50.0
963,520700,2026-01-13 12:29:59,0.0,5,7.405,0.0,0.0,0.0,7.9,4.6,-13.3,1024,1024,1024,1024,0,0,0,0,64,4.802,77.72,164.042,P-GPS,,50.0
964,520800,2026-01-13 12:29:59,0.0,5,7.405,0.0,0.0,0.0,7.9,5.0,-12.8,1024,1024,1024,1024,0,0,0,0,64,4.802,77.72,164.370084,P-GPS,,50.1
965,520900,2026-01-13 12:29:59,0.0,5,7.405,0.0,0.0,0.0,8.0,4.9,-12.6,1024,1024,1024,1024,0,0,0,0,64,4.802,77.72,164.370084,P-GPS,,50.1
966,521000,2026-01-13 12:30:00,0.0,5,7.405,0.0,0.0,0.0,8.0,4.9,-13.1,1024,1024,1024,1024,0,0,0,0,64,4.802,77.72,164.370084,P-GPS,,50.1
967,521100,2026-01-13 12:30:00,0.0,5,7.42,0.0,0.0,0.0,7.7,5.7,-13.4,1024,1024,1024,1024,0,0,0,0,64,4.811,77.72,164.370084,P-GPS,,50.1
968,521200,2026-01-13 12:30:00,0.0,5,7.42,0.0,0.0,0.223694,7.7,6.1,-13.2,1024,1024,1024,1024,0,0,0,0,64,4.811,77.72,164.042,P-GPS,,50.0
969,521300,2026-01-13 12:30:00,0.0,5,7.42,0.0,0.0,0.223694,8.0,4.5,-13.3,1024,1024,1024,1024,0,0,0,0,64,4.811,77.72,164.042,P-GPS,,50.0
970,521400,2026-01-13 12:30:00,0.0,5,7.42,0.0,0.0,0.0,8.0,3.9,-13.6,1024,1024,1024,1024,0,0,0,0,64,4.811,77.72,164.042,P-GPS,,50.0
971,521500,2026-01-13 12:30:00,0.0,5,7.42,0.0,0.0,0.0,8.0,4.0,-14.0,1024,1024,1024,1024,0,0,0,0,64,4.811,77.72,164.042,P-GPS,,50.0
972,521600,2026-01-13 12:30:00,0.0,5,7.42,0.0,0.0,0.0,8.0,3.9,-14.0,1024,1024,1024,1024,0,0,0,0,64,4.811,77.72,164.042,P-GPS,,50.0
973,521700,2026-01-13 12:30:00,0.0,5,7.42,0.0,0.0,0.0,8.0,3.5,-14.1,1024,1024,1024,1024,0,0,0,0,64,4.811,77.72,164.042,P-GPS,,50.0
974,521800,2026-01-13 12:30:00,0.0,5,7.42,0.0,0.0,0.0,8.2,2.8,-13.7,1024,1024,1024,1024,0,0,0,0,64,4.811,77.72,164.042,P-GPS,,50.0
975,521900,2026-01-13 12:30:00,0.0,5,7.42,0.0,0.0,0.0,8.2,2.4,-13.9,1024,1024,1024,1024,0,0,0,0,64,4.811,77.72,164.042,P-GPS,,50.0
976,522000,2026-01-13 12:30:01,0.0,5,7.42,0.0,0.0,0.0,8.1,2.4,-14.1,1024,1024,1024,1024,0,0,0,0,64,4.811,77.72,164.042,P-GPS,,50.0
977,522100,2026-01-13 12:30:01,0.0,5,7.42,0.0,0.0,0.0,8.0,2.8,-14.3,1024,1024,1024,1024,0,0,0,0,64,4.811,77.72,164.042,P-GPS,,50.0
978,522200,2026-01-13 12:30:01,0.0,5,7.42,0.0,0.0,0.223694,8.0,2.5,-13.7,1024,1024,1024,1024,0,0,0,0,64,4.757,77.72,164.042,P-GPS,,50.0
979,522300,2026-01-13 12:30:01,0.0,5,7.42,0.0,0.0,0.223694,8.1,2.0,-13.7,1024,1024,1024,1024,0,0,0,0,64,4.757,77.72,164.042,P-GPS,,50.0
980,522400,2026-01-13 12:30:01,0.0,5,7.42,0.0,0.0,0.0,8.5,0.8,-12.4,1024,1024,1024,1024,0,0,0,0,64,4.757,77.72,164.042,P-GPS,,50.0
981,522500,2026-01-13 12:30:01,0.0,5,7.42,0.0,0.0,0.0,8.3,1.4,-12.6,1024,1024,1024,1024,0,0,0,0,64,4.757,77.72,164.042,P-GPS,,50.0
982,522600,2026-01-13 12:30:01,0.0,5,7.42,0.0,0.0,0.0,8.1,2.0,-13.2,1024,1024,1024,1024,0,0,0,0,64,4.757,77.72,164.042,P-GPS,,50.0
983,522700,2026-01-13 12:30:01,0.0,5,7.42,0.0,0.0,0.0,8.0,2.2,-13.2,1024,1024,1024,1024,0,0,0,0,64,4.757,77.72,164.042,P-GPS,,50.0
984,522800,2026-01-13 12:30:01,0.0,5,7.42,0.0,0.0,0.0,8.1,1.7,-12.9,1024,1024,1024,1024,0,0,0,0,64,4.757,77.72,164.042,P-GPS,,50.0
985,522900,2026-01-13 12:30:01,0.0,5,7.42,0.0,0.0,0.0,8.3,1.2,-12.9,1024,1024,1024,1024,0,0,0,0,64,4.757,77.72,164.042,P-GPS,,50.0
986,523000,2026-01-13 12:30:02,0.0,5,7.42,0.0,0.0,0.0,8.2,1.6,-12.6,1024,1024,1024,1024,0,0,0,0,64,4.757,77.72,163.713916,P-GPS,,49.9
987,523100,2026-01-13 12:30:02,0.0,5,7.42,0.0,0.0,0.0,8.3,1.4,-12.5,1024,1024,1024,1024,0,0,0,0,64,4.757,77.72,163.713916,P-GPS,,49.9
988,523200,2026-01-13 12:30:02,0.0,5,7.42,0.0,0.0,0.0,8.2,1.2,-13.1,1024,1024,1024,1024,0,0,0,0,64,4.757,77.72,163.713916,P-GPS,,49.9
989,523300,2026-01-13 12:30:02,0.0,5,7.422,0.0,0.0,0.0,8.3,1.2,-12.9,1024,1024,1024,1024,0,0,0,0,64,4.606,77.72,163.713916,P-GPS,,49.9
990,523400,2026-01-13 12:30:02,0.0,5,7.422,0.0,0.0,0.223694,8.2,1.5,-13.4,1024,1024,1024,1024,0,0,0,0,64,4.606,77.72,163.713916,P-GPS,,49.9
991,523500,2026-01-13 12:30:02,0.0,5,7.422,0.0,0.0,0.223694,8.4,1.0,-13.0,1024,1024,1024,1024,0,0,0,0,64,4.606,77.72,164.042,P-GPS,,50.0
992,523600,2026-01-13 12:30:02,0.0,5,7.422,0.0,0.0,0.223694,8.3,1.3,-13.5,1024,1024,1024,1024,0,0,0,0,64,4.606,77.72,164.042,P-GPS,,50.0
993,523700,2026-01-13 12:30:02,0.0,5,7.422,0.0,0.0,0.0,8.3,1.6,-13.6,1024,1024,1024,1024,0,0,0,0,64,4.606,77.72,164.042,P-GPS,,50.0
994,523800,2026-01-13 12:30:02,0.0,5,7.422,0.0,0.0,0.0,8.2,2.0,-13.8,1024,1024,1024,1024,0,0,0,0,64,4.606,77.72,164.042,P-GPS,,50.0
995,523900,2026-01-13 12:30:02,0.0,5,7.422,0.0,0.0,0.0,8.3,1.4,-14.3,1024,1024,1024,1024,0,0,0,0,64,4.606,77.72,164.042,P-GPS,,50.0
996,524000,2026-01-13 12:30:03,0.0,5,7.422,0.0,0.0,0.0,8.2,2.1,-13.3,1024,1024,1024,1024,0,0,0,0,64,4.606,77.72,164.042,P-GPS,,50.0
997,524100,2026-01-13 12:30:03,0.0,5,7.422,0.0,0.0,0.0,8.2,2.0,-12.7,1024,1024,1024,1024,0,0,0,0,64,4.606,77.72,164.042,P-GPS,,50.0
998,524200,2026-01-13 12:30:03,0.0,5,7.422,0.0,0.0,0.0,8.1,2.9,-11.8,1024,1024,1024,1024,0,0,0,0,64,4.606,77.72,164.042,P-GPS,,50.0
999,524300,2026-01-13 12:30:03,0.0,5,7.422,0.0,0.0,-0.223694,8.1,1.8,-11.9,1024,1024,1024,1024,0,0,0,0,64,4.606,77.72,164.042,P-GPS,,50.0
1000,524400,2026-01-13 12:30:03,0.0,5,7.372,0.0,0.0,-0.223694,8.2,0.9,-12.7,1024,1024,1024,1024,0,0,0,0,64,5.542,77.72,164.042,P-GPS,,50.0
1001,524500,2026-01-13 12:30:03,0.0,5,7.372,0.0,0.0,0.0,8.2,0.5,-12.5,1024,1024,1024,1024,0,0,0,0,64,5.542,77.72,164.042,P-GPS,,50.0
1002,524600,2026-01-13 12:30:03,0.0,5,7.372,0.0,0.0,0.0,8.2,0.0,-12.4,1024,1024,1024,1024,0,0,0,0,64,5.542,77.72,163.713916,P-GPS,,49.9
1003,524700,2026-01-13 12:30:03,0.0,5,7.372,0.0,0.0,0.0,8.3,-0.3,-12.7,1024,1024,1024,1024,0,0,0,0,64,5.542,77.72,163.713916,P-GPS,,49.9
1004,524800,2026-01-13 12:30:03,0.0,5,7.372,0.0,0.0,0.223694,8.2,0.1,-13.7,1024,1024,1024,1024,0,0,0,0,64,5.542,77.72,163.713916,P-GPS,,49.9
1005,524900,2026-01-13 12:30:04,0.0,5,7.372,0.0,0.0,0.447388,8.4,-0.3,-14.1,1024,1024,1024,1024,0,0,0,0,64,5.542,77.72,163.713916,P-GPS,,49.9
1006,525000,2026-01-13 12:30:04,0.0,5,7.372,0.0,0.0,0.671082,8.6,-0.1,-12.5,1024,1024,1024,1024,0,0,0,0,64,5.542,77.72,163.713916,P-GPS,,49.9
1007,525100,2026-01-13 12:30:04,0.0,5,7.372,0.0,0.0,0.223694,8.6,0.0,-12.1,1024,1024,1024,1024,0,0,0,0,64,5.542,77.72,163.713916,P-GPS,,49.9
1008,525200,2026-01-13 12:30:04,0.0,5,7.372,0.0,0.0,0.0,8.6,0.3,-11.9,1024,1024,1024,1024,0,0,0,0,64,5.542,77.72,163.713916,P-GPS,,49.9
1009,525300,2026-01-13 12:30:04,0.0,5,7.372,0.0,0.0,0.0,8.4,1.1,-12.0,1024,1024,1024,1024,0,0,0,0,64,5.542,77.72,163.713916,P-GPS,,49.9
1010,525400,2026-01-13 12:30:04,0.0,5,7.372,0.0,0.0,-0.223694,8.6,0.5,-12.8,1024,1024,1024,1024,0,0,0,0,64,5.542,77.72,163.713916,P-GPS,,49.9
1011,525500,2026-01-13 12:30:04,0.0,5,7.372,0.0,0.0,-0.223694,8.6,-0.2,-12.7,1024,1024,1024,1024,0,0,0,0,64,5.542,77.72,163.713916,P-GPS,,49.9
1012,525600,2026-01-13 12:30:04,0.0,5,7.402,0.0,0.0,-0.223694,8.3,0.3,-12.4,1024,1024,1024,1024,0,0,0,0,64,5.058,77.72,163.713916,P-GPS,,49.9
1013,525700,2026-01-13 12:30:04,0.0,5,7.402,0.0,0.0,0.0,8.3,0.6,-12.2,1024,1024,1024,1024,0,0,0,0,64,5.058,77.72,163.713916,P-GPS,,49.9
1014,525800,2026-01-13 12:30:04,0.0,5,7.402,0.0,0.0,0.0,8.5,0.0,-12.3,1024,1024,1024,1024,0,0,0,0,64,5.058,77.72,163.713916,P-GPS,,49.9
1015,525900,2026-01-13 12:30:04,0.0,5,7.402,0.0,0.0,0.0,8.4,0.6,-11.8,1024,1024,1024,1024,0,0,0,0,64,5.058,77.72,163.385832,P-GPS,,49.8
1016,526000,2026-01-13 12:30:05,0.0,5,7.402,0.0,0.0,0.0,8.3,1.3,-11.5,1024,1024,1024,1024,0,0,0,0,64,5.058,77.72,163.385832,P-GPS,,49.8
1017,526100,2026-01-13 12:30:05,0.0,5,7.402,0.0,0.0,0.0,8.5,1.1,-11.0,1024,1024,1024,1024,0,0,0,0,64,5.058,77.72,163.385832,P-GPS,,49.8
1018,526200,2026-01-13 12:30:05,0.0,5,7.402,0.0,0.0,0.0,8.4,0.8,-11.1,1024,1024,1024,1024,0,0,0,0,64,5.058,77.72,163.385832,P-GPS,,49.8
1019,526300,2026-01-13 12:30:05,0.0,5,7.402,0.0,0.0,0.0,8.4,0.4,-11.4,1024,1024,1024,1024,0,0,0,0,64,5.058,77.72,163.385832,P-GPS,,49.8
1020,526400,2026-01-13 12:30:05,0.0,5,7.402,0.0,0.0,0.0,8.6,0.1,-11.7,1024,1024,1024,1024,0,0,0,0,64,5.058,77.72,163.385832,P-GPS,,49.8
1021,526500,2026-01-13 12:30:05,0.0,5,7.402,0.0,0.0,0.0,8.3,0.9,-11.1,1024,1024,1024,1024,0,0,0,0,64,5.058,77.72,163.385832,P-GPS,,49.8
1022,526600,2026-01-13 12:30:05,0.0,5,7.402,0.0,0.0,0.0,8.2,1.4,-10.4,1024,1024,1024,1024,0,0,0,0,64,5.058,77.72,163.385832,P-GPS,,49.8
