index,time(millisecond),timestamp,speed(mph),gpslevel,voltage(v),xSpeed(mph),ySpeed(mph),zSpeed(mph),compass_heading(degrees),pitch(degrees),roll(degrees),rc_elevator,rc_aileron,rc_throttle,rc_rudder,rc_elevator(percent),rc_aileron(percent),rc_throttle(percent),rc_rudder(percent),battery_percent,current(A),battery_temperature(f),ascent(feet),flycState,message,height_above_takeoff(meters)
778,489000,2026-01-11 17:26:09,0.0,5,7.296,0.0,0.0,0.0,38.4,13.8,-8.9,1024,1024,1024,1024,0,0,0,0,66,6.436,63.86,163.057748,P-GPS,,49.7
779,489100,2026-01-11 17:26:09,0.0,5,7.296,0.0,0.0,0.0,38.4,13.2,-8.7,1024,1024,1024,1024,0,0,0,0,66,6.436,63.86,163.057748,P-GPS,,49.7
780,489200,2026-01-11 17:26:09,0.0,5,7.296,0.0,0.0,0.0,38.4,12.9,-8.5,1024,1024,1024,1024,0,0,0,0,66,6.436,63.86,163.057748,P-GPS,,49.7
781,489300,2026-01-11 17:26:09,0.0,5,7.296,0.0,0.0,0.0,38.5,12.7,-8.1,1024,1024,1024,1024,0,0,0,0,66,6.436,63.86,163.057748,P-GPS,,49.7
782,489400,2026-01-11 17:26:09,0.0,5,7.296,0.0,0.0,0.0,38.5,12.8,-8.0,1024,1024,1024,1024,0,0,0,0,66,6.436,63.86,163.057748,P-GPS,,49.7
783,489500,2026-01-11 17:26:09,0.0,5,7.296,0.0,0.0,0.0,38.5,13.1,-7.8,1024,1024,1024,1024,0,0,0,0,66,6.436,63.86,162.729664,P-GPS,,49.6
784,489600,2026-01-11 17:26:09,0.0,5,7.296,0.0,0.0,0.0,38.6,12.9,-7.2,1024,1024,1024,1024,0,0,0,0,66,6.436,63.86,162.729664,P-GPS,,49.6
785,489700,2026-01-11 17:26:09,0.0,5,7.296,0.0,0.0,0.0,38.6,12.7,-7.4,1024,1024,1024,1024,0,0,0,0,66,6.436,63.86,162.729664,P-GPS,,49.6
786,489800,2026-01-11 17:26:10,0.0,5,7.412,0.0,0.0,0.0,38.5,12.9,-7.5,1024,1024,1024,1024,0,0,0,0,66,4.422,63.86,162.729664,P-GPS,,49.6
787,489900,2026-01-11 17:26:10,0.0,5,7.412,0.0,0.0,0.0,38.3,13.3,-7.3,1024,1024,1024,1024,0,0,0,0,66,4.422,63.86,162.729664,P-GPS,,49.6
788,490000,2026-01-11 17:26:10,0.0,5,7.412,0.0,0.0,0.0,38.5,12.9,-6.6,1024,1024,1024,1024,0,0,0,0,66,4.422,63.86,162.729664,P-GPS,,49.6
789,490100,2026-01-11 17:26:10,0.0,5,7.412,0.0,0.0,0.0,38.4,13.3,-7.2,1024,1024,1024,1024,0,0,0,0,66,4.422,63.86,162.729664,P-GPS,,49.6
790,490200,2026-01-11 17:26:10,0.0,5,7.412,0.0,0.0,0.0,38.4,13.7,-7.2,1024,1024,1024,1024,0,0,0,0,66,4.422,63.86,163.057748,P-GPS,,49.7
791,490300,2026-01-11 17:26:10,0.0,5,7.412,0.0,0.0,0.0,38.5,13.4,-7.3,1024,1024,1024,1024,0,0,0,0,66,4.422,63.86,163.057748,P-GPS,,49.7
792,490400,2026-01-11 17:26:10,0.0,5,7.412,0.0,0.0,0.0,38.6,12.5,-7.4,1024,1024,1024,1024,0,0,0,0,66,4.422,63.86,163.057748,P-GPS,,49.7
793,490500,2026-01-11 17:26:10,0.0,5,7.412,0.0,0.0,0.0,38.5,12.5,-7.5,1024,1024,1024,1024,0,0,0,0,66,4.422,63.86,163.385832,P-GPS,,49.8
794,490600,2026-01-11 17:26:10,0.0,5,7.412,0.0,0.0,0.0,38.4,12.8,-7.9,1024,1024,1024,1024,0,0,0,0,66,4.422,63.86,163.385832,P-GPS,,49.8
795,490700,2026-01-11 17:26:10,0.0,5,7.412,0.0,0.0,0.0,38.5,12.7,-7.9,1024,1024,1024,1024,0,0,0,0,66,4.422,63.86,163.385832,P-GPS,,49.8
796,490800,2026-01-11 17:26:11,0.0,5,7.412,0.0,0.0,0.0,38.5,12.8,-7.6,1024,1024,1024,1024,0,0,0,0,66,4.422,63.86,163.385832,P-GPS,,49.8
797,490900,2026-01-11 17:26:11,0.0,5,7.33,0.0,0.0,0.0,38.5,13.0,-7.2,1024,1024,1024,1024,0,0,0,0,66,5.643,64.04,163.385832,P-GPS,,49.8
798,491000,2026-01-11 17:26:11,0.0,5,7.33,0.0,0.0,0.0,38.6,13.1,-7.4,1024,1024,1024,1024,0,0,0,0,66,5.643,64.04,163.713916,P-GPS,,49.9
799,491100,2026-01-11 17:26:11,0.0,5,7.33,0.0,0.0,0.0,38.5,13.0,-8.4,1024,1024,1024,1024,0,0,0,0,66,5.643,64.04,163.713916,P-GPS,,49.9
800,491200,2026-01-11 17:26:11,0.0,5,7.33,0.0,0.0,0.0,38.6,12.5,-8.6,1024,1024,1024,1024,0,0,0,0,66,5.643,64.04,163.713916,P-GPS,,49.9
801,491300,2026-01-11 17:26:11,0.0,5,7.33,0.0,0.0,0.0,38.6,12.0,-9.0,1024,1024,1024,1024,0,0,0,0,66,5.643,64.04,163.713916,P-GPS,,49.9
802,491400,2026-01-11 17:26:11,0.0,5,7.33,0.0,0.0,0.0,38.2,13.3,-9.7,1024,1024,1024,1024,0,0,0,0,66,5.643,64.04,164.042,P-GPS,,50.0
803,491500,2026-01-11 17:26:11,0.223694,5,7.33,0.0,0.223694,0.0,38.1,14.1,-9.6,1024,1024,1024,1024,0,0,0,0,66,5.643,64.04,164.042,P-GPS,,50.0
804,491600,2026-01-11 17:26:11,0.0,5,7.33,0.0,0.0,0.0,38.2,14.3,-9.1,1024,1024,1024,1024,0,0,0,0,66,5.643,64.04,164.042,P-GPS,,50.0
805,491700,2026-01-11 17:26:11,0.0,5,7.33,0.0,0.0,0.0,38.3,14.4,-8.7,1024,1024,1024,1024,0,0,0,0,66,5.643,64.04,164.042,P-GPS,,50.0
806,491800,2026-01-11 17:26:12,0.0,5,7.33,0.0,0.0,0.0,38.3,14.4,-8.9,1024,1024,1024,1024,0,0,0,0,66,5.643,64.04,164.042,P-GPS,,50.0
807,491900,2026-01-11 17:26:12,0.0,5,7.33,0.0,0.0,0.0,38.2,14.5,-9.0,1024,1024,1024,1024,0,0,0,0,66,5.643,64.04,164.042,P-GPS,,50.0
808,492000,2026-01-11 17:26:12,0.0,5,7.33,0.0,0.0,0.0,38.1,15.0,-8.9,1024,1024,1024,1024,0,0,0,0,66,5.643,64.04,164.370084,P-GPS,,50.1
809,492100,2026-01-11 17:26:12,0.0,5,7.345,0.0,0.0,0.223694,38.1,14.6,-8.9,1024,1024,1024,1024,0,0,0,0,66,5.472,64.04,164.370084,P-GPS,,50.1
810,492200,2026-01-11 17:26:12,0.0,5,7.345,0.0,0.0,0.0,38.1,14.7,-9.0,1024,1024,1024,1024,0,0,0,0,66,5.472,64.04,164.370084,P-GPS,,50.1
811,492300,2026-01-11 17:26:12,0.0,5,7.345,0.0,0.0,0.0,38.0,14.9,-8.6,1024,1024,1024,1024,0,0,0,0,66,5.472,64.04,164.370084,P-GPS,,50.1
812,492400,2026-01-11 17:26:12,0.0,5,7.345,0.0,0.0,0.0,38.0,14.8,-7.6,1024,1024,1024,1024,0,0,0,0,66,5.472,64.04,164.370084,P-GPS,,50.1
813,492500,2026-01-11 17:26:12,0.0,5,7.345,0.0,0.0,0.0,38.3,14.0,-7.1,1024,1024,1024,1024,0,0,0,0,66,5.472,64.04,164.042,P-GPS,,50.0
814,492600,2026-01-11 17:26:12,0.0,5,7.345,0.0,0.0,0.0,38.4,14.4,-6.9,1024,1024,1024,1024,0,0,0,0,66,5.472,64.04,164.042,P-GPS,,50.0
815,492700,2026-01-11 17:26:12,0.0,5,7.345,0.0,0.0,0.0,38.4,14.4,-7.3,1024,1024,1024,1024,0,0,0,0,66,5.472,64.04,164.042,P-GPS,,50.0
816,492800,2026-01-11 17:26:12,0.0,5,7.345,0.0,0.0,0.0,38.4,14.0,-7.7,1024,1024,1024,1024,0,0,0,0,66,5.472,64.04,164.042,P-GPS,,50.0
817,492900,2026-01-11 17:26:13,0.0,5,7.345,0.0,0.0,0.0,38.4,13.4,-8.3,1024,1024,1024,1024,0,0,0,0,66,5.472,64.04,164.042,P-GPS,,50.0
818,493000,2026-01-11 17:26:13,0.0,5,7.345,0.0,0.0,0.0,38.5,12.7,-8.2,1024,1024,1024,1024,0,0,0,0,66,5.472,64.04,164.042,P-GPS,,50.0
819,493100,2026-01-11 17:26:13,0.0,5,7.345,0.0,0.0,0.0,38.6,12.1,-7.6,1024,1024,1024,1024,0,0,0,0,66,5.472,64.04,163.713916,P-GPS,,49.9
820,493200,2026-01-11 17:26:13,0.0,5,7.409,0.0,0.0,0.0,38.7,11.7,-7.4,1024,1024,1024,1024,0,0,0,0,66,4.693,64.04,163.713916,P-GPS,,49.9
821,493300,2026-01-11 17:26:13,0.0,5,7.409,0.0,0.0,0.0,38.8,11.0,-7.7,1024,1024,1024,1024,0,0,0,0,66,4.693,64.04,163.713916,P-GPS,,49.9
822,493400,2026-01-11 17:26:13,0.0,5,7.409,0.0,0.0,0.0,38.8,11.3,-7.3,1024,1024,1024,1024,0,0,0,0,66,4.693,64.04,163.713916,P-GPS,,49.9
823,493500,2026-01-11 17:26:13,0.0,5,7.409,0.0,0.0,0.0,38.8,11.8,-6.8,1024,1024,1024,1024,0,0,0,0,66,4.693,64.04,163.385832,P-GPS,,49.8
824,493600,2026-01-11 17:26:13,0.223694,5,7.409,0.0,-0.223694,0.0,38.9,10.7,-6.2,1024,1024,1024,1024,0,0,0,0,66,4.693,64.04,163.385832,P-GPS,,49.8
825,493700,2026-01-11 17:26:13,0.223694,5,7.409,0.0,-0.223694,0.0,39.0,10.1,-6.1,1024,1024,1024,1024,0,0,0,0,66,4.693,64.04,163.385832,P-GPS,,49.8
826,493800,2026-01-11 17:26:14,0.223694,5,7.409,0.0,-0.223694,0.0,39.0,10.4,-5.8,1024,1024,1024,1024,0,0,0,0,66,4.693,64.04,163.057748,P-GPS,,49.7
827,493900,2026-01-11 17:26:14,0.223694,5,7.409,0.0,-0.223694,0.0,39.0,10.2,-5.6,1024,1024,1024,1024,0,0,0,0,66,4.693,64.04,163.057748,P-GPS,,49.7
828,494000,2026-01-11 17:26:14,0.0,5,7.409,0.0,0.0,0.0,39.0,10.0,-5.3,1024,1024,1024,1024,0,0,0,0,66,4.693,64.04,163.057748,P-GPS,,49.7
829,494100,2026-01-11 17:26:14,0.0,5,7.409,0.0,0.0,0.0,38.9,11.3,-5.3,1024,1024,1024,1024,0,0,0,0,66,4.693,64.04,163.057748,P-GPS,,49.7
830,494200,2026-01-11 17:26:14,0.0,5,7.409,0.0,0.0,0.0,39.0,11.2,-5.6,1024,1024,1024,1024,0,0,0,0,66,4.693,64.04,163.057748,P-GPS,,49.7
831,494300,2026-01-11 17:26:14,0.0,5,7.407,0.0,0.0,0.0,39.0,11.1,-5.1,1024,1024,1024,1024,0,0,0,0,66,3.877,64.04,163.057748,P-GPS,,49.7
832,494400,2026-01-11 17:26:14,0.0,5,7.407,0.0,0.0,0.0,39.0,11.0,-5.1,1024,1024,1024,1024,0,0,0,0,66,3.877,64.04,163.057748,P-GPS,,49.7
833,494500,2026-01-11 17:26:14,0.0,5,7.407,0.0,0.0,0.0,38.9,10.5,-5.7,1024,1024,1024,1024,0,0,0,0,66,3.877,64.04,163.385832,P-GPS,,49.8
834,494600,2026-01-11 17:26:14,0.0,5,7.407,0.0,0.0,0.0,38.9,10.0,-5.7,1024,1024,1024,1024,0,0,0,0,66,3.877,64.04,163.385832,P-GPS,,49.8
835,494700,2026-01-11 17:26:14,0.0,5,7.407,0.0,0.0,0.0,38.9,11.0,-6.0,1024,1024,1024,1024,0,0,0,0,66,3.877,64.04,163.385832,P-GPS,,49.8
836,494800,2026-01-11 17:26:14,0.0,5,7.407,0.0,0.0,0.0,38.7,11.5,-6.2,1024,1024,1024,1024,0,0,0,0,66,3.877,64.04,163.713916,P-GPS,,49.9
837,494900,2026-01-11 17:26:15,0.0,5,7.407,0.0,0.0,0.0,38.7,11.2,-6.2,1024,1024,1024,1024,0,0,0,0,66,3.877,64.04,163.713916,P-GPS,,49.9
838,495000,2026-01-11 17:26:15,0.0,5,7.407,0.0,0.0,0.0,38.9,10.5,-6.1,1024,1024,1024,1024,0,0,0,0,66,3.877,64.04,164.042,P-GPS,,50.0
839,495100,2026-01-11 17:26:15,0.0,5,7.407,0.0,0.0,0.0,38.9,10.5,-6.3,1024,1024,1024,1024,0,0,0,0,66,3.877,64.04,164.042,P-GPS,,50.0
840,495200,2026-01-11 17:26:15,0.0,5,7.407,0.0,0.0,0.0,38.8,10.8,-6.5,1024,1024,1024,1024,0,0,0,0,66,3.877,64.04,164.042,P-GPS,,50.0
841,495300,2026-01-11 17:26:15,0.0,5,7.407,0.0,0.0,0.0,39.0,10.3,-6.4,1024,1024,1024,1024,0,0,0,0,66,3.877,64.04,164.370084,P-GPS,,50.1
842,495400,2026-01-11 17:26:15,0.0,5,7.378,0.0,0.0,0.0,38.9,10.7,-6.5,1024,1024,1024,1024,0,0,0,0,66,4.667,64.22,164.370084,P-GPS,,50.1
843,495500,2026-01-11 17:26:15,0.0,5,7.378,0.0,0.0,0.0,38.7,11.2,-7.0,1024,1024,1024,1024,0,0,0,0,66,4.667,64.22,164.370084,P-GPS,,50.1
844,495600,2026-01-11 17:26:15,0.0,5,7.378,0.0,0.0,0.0,38.7,11.1,-7.1,1024,1024,1024,1024,0,0,0,0,66,4.667,64.22,164.698168,P-GPS,,50.2
845,495700,2026-01-11 17:26:15,0.0,5,7.378,0.0,0.0,0.0,38.8,11.2,-6.9,1024,1024,1024,1024,0,0,0,0,66,4.667,64.22,164.698168,P-GPS,,50.2
846,495800,2026-01-11 17:26:16,0.0,5,7.378,0.0,0.0,0.0,38.7,11.5,-6.8,1024,1024,1024,1024,0,0,0,0,66,4.667,64.22,164.698168,P-GPS,,50.2
847,495900,2026-01-11 17:26:16,0.0,5,7.378,0.0,0.0,0.0,38.7,11.8,-6.8,1024,1024,1024,1024,0,0,0,0,66,4.667,64.22,164.698168,P-GPS,,50.2
848,496000,2026-01-11 17:26:16,0.0,5,7.378,0.0,0.0,0.0,38.7,11.9,-6.7,1024,1024,1024,1024,0,0,0,0,66,4.667,64.22,164.698168,P-GPS,,50.2
849,496100,2026-01-11 17:26:16,0.0,5,7.378,0.0,0.0,0.0,38.9,11.5,-6.3,1024,1024,1024,1024,0,0,0,0,66,4.667,64.22,164.698168,P-GPS,,50.2
850,496200,2026-01-11 17:26:16,0.0,5,7.378,0.0,0.0,0.0,38.8,12.1,-6.3,1024,1024,1024,1024,0,0,0,0,66,4.667,64.22,164.698168,P-GPS,,50.2
851,496300,2026-01-11 17:26:16,0.0,5,7.378,0.0,0.0,0.0,38.8,12.7,-6.1,1024,1024,1024,1024,0,0,0,0,66,4.667,64.22,164.698168,P-GPS,,50.2
852,496400,2026-01-11 17:26:16,0.0,5,7.378,0.0,0.0,0.223694,38.6,13.3,-5.8,1024,1024,1024,1024,0,0,0,0,66,4.667,64.22,164.698168,P-GPS,,50.2
853,496500,2026-01-11 17:26:16,0.0,5,7.402,0.0,0.0,0.0,38.7,13.4,-5.4,1024,1024,1024,1024,0,0,0,0,66,4.592,64.22,164.698168,P-GPS,,50.2
854,496600,2026-01-11 17:26:16,0.0,5,7.402,0.0,0.0,0.0,38.8,13.2,-5.5,1024,1024,1024,1024,0,0,0,0,66,4.592,64.22,164.698168,P-GPS,,50.2
855,496700,2026-01-11 17:26:16,0.0,5,7.402,0.0,0.0,0.0,38.8,12.9,-5.6,1024,1024,1024,1024,0,0,0,0,66,4.592,64.22,165.026252,P-GPS,,50.3
856,496800,2026-01-11 17:26:17,0.0,5,7.402,0.0,0.0,0.0,38.9,12.7,-5.3,1024,1024,1024,1024,0,0,0,0,66,4.592,64.22,165.026252,P-GPS,,50.3
857,496900,2026-01-11 17:26:17,0.0,5,7.402,0.0,0.0,0.0,38.8,13.1,-5.8,1024,1024,1024,1024,0,0,0,0,66,4.592,64.22,165.026252,P-GPS,,50.3
858,497000,2026-01-11 17:26:17,0.0,5,7.402,0.0,0.0,0.0,38.8,13.0,-5.5,1024,1024,1024,1024,0,0,0,0,66,4.592,64.22,165.026252,P-GPS,,50.3
859,497100,2026-01-11 17:26:17,0.0,5,7.402,0.0,0.0,0.0,38.8,12.9,-5.7,1024,1024,1024,1024,0,0,0,0,66,4.592,64.22,165.026252,P-GPS,,50.3
860,497200,2026-01-11 17:26:17,0.0,5,7.402,0.0,0.0,0.0,38.7,13.1,-6.4,1024,1024,1024,1024,0,0,0,0,66,4.592,64.22,165.026252,P-GPS,,50.3
861,497300,2026-01-11 17:26:17,0.0,5,7.402,0.0,0.0,0.223694,38.6,13.3,-6.5,1024,1024,1024,1024,0,0,0,0,66,4.592,64.22,165.026252,P-GPS,,50.3
862,497400,2026-01-11 17:26:17,0.0,5,7.402,0.0,0.0,0.0,38.6,13.3,-6.3,1024,1024,1024,1024,0,0,0,0,66,4.592,64.22,165.354336,P-GPS,,50.4
863,497500,2026-01-11 17:26:17,0.0,5,7.402,0.0,0.0,0.0,38.5,13.7,-5.9,1024,1024,1024,1024,0,0,0,0,66,4.592,64.22,165.354336,P-GPS,,50.4
864,497600,2026-01-11 17:26:17,0.0,5,7.378,0.0,0.0,0.0,38.5,13.2,-6.3,1024,1024,1024,1024,0,0,0,0,66,4.964,64.22,165.354336,P-GPS,,50.4
865,497700,2026-01-11 17:26:17,0.0,5,7.378,0.0,0.0,0.0,38.5,13.0,-6.3,1024,1024,1024,1024,0,0,0,0,66,4.964,64.22,165.354336,P-GPS,,50.4
866,497800,2026-01-11 17:26:18,0.0,5,7.378,0.0,0.0,0.0,38.6,13.4,-5.6,1024,1024,1024,1024,0,0,0,0,66,4.964,64.22,165.354336,P-GPS,,50.4
867,497900,2026-01-11 17:26:18,0.0,5,7.378,0.0,0.0,0.0,38.7,13.5,-5.2,1024,1024,1024,1024,0,0,0,0,66,4.964,64.22,165.354336,P-GPS,,50.4
868,498000,2026-01-11 17:26:18,0.0,5,7.378,0.0,0.0,0.0,38.7,13.7,-5.5,1024,1024,1024,1024,0,0,0,0,66,4.964,64.22,165.68242,P-GPS,,50.5
869,498100,2026-01-11 17:26:18,0.0,5,7.378,0.0,0.0,0.0,38.6,13.8,-5.3,1024,1024,1024,1024,0,0,0,0,66,4.964,64.22,165.68242,P-GPS,,50.5
870,498200,2026-01-11 17:26:18,0.0,5,7.378,0.0,0.0,0.0,38.7,13.5,-4.9,1024,1024,1024,1024,0,0,0,0,66,4.964,64.22,165.68242,P-GPS,,50.5
871,498300,2026-01-11 17:26:18,0.0,5,7.378,0.0,0.0,0.0,38.8,13.0,-5.3,1024,1024,1024,1024,0,0,0,0,66,4.964,64.22,165.68242,P-GPS,,50.5
872,498400,2026-01-11 17:26:18,0.0,5,7.378,0.0,0.0,0.0,38.9,12.7,-5.3,1024,1024,1024,1024,0,0,0,0,66,4.964,64.22,165.68242,P-GPS,,50.5
873,498500,2026-01-11 17:26:18,0.0,5,7.378,0.0,0.0,0.0,38.8,12.8,-5.8,1024,1024,1024,1024,0,0,0,0,66,4.964,64.22,165.68242,P-GPS,,50.5
874,498600,2026-01-11 17:26:18,0.0,5,7.378,0.0,0.0,0.223694,38.7,12.8,-5.6,1024,1024,1024,1024,0,0,0,0,66,4.964,64.22,165.68242,P-GPS,,50.5
875,498700,2026-01-11 17:26:18,0.0,5,7.359,0.0,0.0,0.0,38.8,12.7,-5.3,1024,1024,1024,1024,0,0,0,0,66,5.215,64.22,165.68242,P-GPS,,50.5
876,498800,2026-01-11 17:26:19,0.0,5,7.359,0.0,0.0,0.0,38.9,12.0,-5.7,1024,1024,1024,1024,0,0,0,0,66,5.215,64.22,165.68242,P-GPS,,50.5
877,498900,2026-01-11 17:26:19,0.0,5,7.359,0.0,0.0,0.0,38.9,12.2,-5.7,1024,1024,1024,1024,0,0,0,0,66,5.215,64.22,165.68242,P-GPS,,50.5
878,499000,2026-01-11 17:26:19,0.0,5,7.359,0.0,0.0,0.0,39.0,12.1,-5.8,1024,1024,1024,1024,0,0,0,0,66,5.215,64.22,165.68242,P-GPS,,50.5
879,499100,2026-01-11 17:26:19,0.0,5,7.359,0.0,0.0,0.0,38.9,12.1,-5.6,1024,1024,1024,1024,0,0,0,0,66,5.215,64.22,165.68242,P-GPS,,50.5
880,499200,2026-01-11 17:26:19,0.0,5,7.359,0.0,0.0,0.0,38.9,12.1,-5.6,1024,1024,1024,1024,0,0,0,0,66,5.215,64.22,165.68242,P-GPS,,50.5
881,499300,2026-01-11 17:26:19,0.0,5,7.359,0.0,0.0,0.0,38.9,12.1,-5.4,1024,1024,1024,1024,0,0,0,0,66,5.215,64.22,165.68242,P-GPS,,50.5
882,499400,2026-01-11 17:26:19,0.0,5,7.359,0.0,0.0,0.0,39.0,11.9,-5.2,1024,1024,1024,1024,0,0,0,0,66,5.215,64.22,165.68242,P-GPS,,50.5
883,499500,2026-01-11 17:26:19,0.0,5,7.359,0.0,0.0,0.0,39.0,11.7,-5.2,1024,1024,1024,1024,0,0,0,0,66,5.215,64.22,165.354336,P-GPS,,50.4
884,499600,2026-01-11 17:26:19,0.0,5,7.359,0.0,0.0,0.223694,39.1,11.6,-5.2,1024,1024,1024,1024,0,0,0,0,66,5.215,64.22,165.354336,P-GPS,,50.4
885,499700,2026-01-11 17:26:19,0.0,5,7.359,0.0,0.0,0.223694,39.0,11.8,-4.8,1024,1024,1024,1024,0,0,0,0,66,5.215,64.22,165.354336,P-GPS,,50.4
886,499800,2026-01-11 17:26:20,0.0,5,7.359,0.0,0.0,0.223694,38.9,11.3,-4.6,1024,1024,1024,1024,0,0,0,0,66,5.215,64.22,165.354336,P-GPS,,50.4
887,499900,2026-01-11 17:26:20,0.0,5,7.359,0.0,0.0,0.0,38.9,11.3,-4.2,1024,1024,1024,1024,0,0,0,0,66,5.215,64.22,165.354336,P-GPS,,50.4
888,500000,2026-01-11 17:26:20,0.0,5,7.359,0.0,0.0,0.0,39.0,11.6,-3.9,1024,1024,1024,1024,0,0,0,0,66,5.215,64.22,165.354336,P-GPS,,50.4
889,500100,2026-01-11 17:26:20,0.0,5,7.359,0.0,0.0,0.0,39.2,11.7,-4.7,1024,1024,1024,1024,0,0,0,0,66,5.215,64.22,165.354336,P-GPS,,50.4
890,500200,2026-01-11 17:26:20,0.0,5,7.359,0.0,0.0,0.0,39.0,12.0,-4.2,1024,1024,1024,1024,0,0,0,0,66,5.215,64.22,165.354336,P-GPS,,50.4
891,500300,2026-01-11 17:26:20,0.0,5,7.359,0.0,0.0,0.0,38.9,12.4,-3.7,1024,1024,1024,1024,0,0,0,0,65,5.215,64.22,165.354336,P-GPS,,50.4
892,500400,2026-01-11 17:26:20,0.0,5,7.359,0.0,0.0,0.0,38.8,12.7,-3.6,1024,1024,1024,1024,0,0,0,0,65,5.215,64.22,165.354336,P-GPS,,50.4
893,500500,2026-01-11 17:26:20,0.0,5,7.359,0.0,0.0,0.0,38.9,12.1,-3.5,1024,1024,1024,1024,0,0,0,0,65,5.215,64.22,165.68242,P-GPS,,50.5
894,500600,2026-01-11 17:26:20,0.0,5,7.359,0.0,0.0,0.0,39.0,12.1,-3.6,1024,1024,1024,1024,0,0,0,0,65,5.215,64.22,165.68242,P-GPS,,50.5
895,500700,2026-01-11 17:26:20,0.0,5,7.359,0.0,0.0,0.0,38.9,12.3,-3.2,1024,1024,1024,1024,0,0,0,0,65,5.215,64.22,165.68242,P-GPS,,50.5
896,500800,2026-01-11 17:26:21,0.0,5,7.359,0.0,0.0,0.0,38.9,12.4,-3.3,1024,1024,1024,1024,0,0,0,0,65,5.215,64.22,165.68242,P-GPS,,50.5
897,500900,2026-01-11 17:26:21,0.0,5,7.351,0.0,0.0,0.0,38.9,12.4,-3.4,1024,1024,1024,1024,0,0,0,0,65,5.305,64.22,165.68242,P-GPS,,50.5
898,501000,2026-01-11 17:26:21,0.0,5,7.351,0.0,0.0,0.0,38.9,12.4,-3.7,1024,1024,1024,1024,0,0,0,0,65,5.305,64.22,165.68242,P-GPS,,50.5
899,501100,2026-01-11 17:26:21,0.0,5,7.351,0.0,0.0,0.0,38.9,12.1,-3.8,1024,1024,1024,1024,0,0,0,0,65,5.305,64.22,165.68242,P-GPS,,50.5
900,501200,2026-01-11 17:26:21,0.0,5,7.351,0.0,0.0,0.0,39.0,12.6,-3.9,1024,1024,1024,1024,0,0,0,0,65,5.305,64.22,165.68242,P-GPS,,50.5
901,501300,2026-01-11 17:26:21,0.0,5,7.351,0.0,0.0,0.0,38.8,12.9,-3.9,1024,1024,1024,1024,0,0,0,0,65,5.305,64.22,165.68242,P-GPS,,50.5
902,501400,2026-01-11 17:26:21,0.0,5,7.351,0.0,0.0,0.0,38.8,12.5,-4.6,1024,1024,1024,1024,0,0,0,0,65,5.305,64.22,165.68242,P-GPS,,50.5
903,501500,2026-01-11 17:26:21,0.0,5,7.351,0.0,0.0,0.0,38.8,12.8,-4.8,1024,1024,1024,1024,0,0,0,0,65,5.305,64.22,166.010504,P-GPS,,50.6
904,501600,2026-01-11 17:26:21,0.0,5,7.351,0.0,0.0,0.0,38.9,12.4,-4.8,1024,1024,1024,1024,0,0,0,0,65,5.305,64.22,166.010504,P-GPS,,50.6
905,501700,2026-01-11 17:26:21,0.0,5,7.351,0.0,0.0,0.0,38.9,12.2,-4.8,1024,1024,1024,1024,0,0,0,0,65,5.305,64.22,166.010504,P-GPS,,50.6
906,501800,2026-01-11 17:26:22,0.0,5,7.351,0.0,0.0,0.0,38.9,12.6,-4.8,1024,1024,1024,1024,0,0,0,0,65,5.305,64.22,166.010504,P-GPS,,50.6
907,501900,2026-01-11 17:26:22,0.0,5,7.351,0.0,0.0,0.0,38.9,12.8,-5.2,1024,1024,1024,1024,0,0,0,0,65,5.305,64.22,166.010504,P-GPS,,50.6
908,502000,2026-01-11 17:26:22,0.0,5,7.349,0.0,0.0,0.0,38.8,13.2,-5.2,1024,1024,1024,1024,0,0,0,0,65,5.238,64.22,166.010504,P-GPS,,50.6
909,502100,2026-01-11 17:26:22,0.0,5,7.349,0.0,0.0,0.223694,38.8,13.0,-5.3,1024,1024,1024,1024,0,0,0,0,65,5.238,64.22,166.010504,P-GPS,,50.6
910,502200,2026-01-11 17:26:22,0.0,5,7.349,0.0,0.0,0.0,38.8,13.1,-5.3,1024,1024,1024,1024,0,0,0,0,65,5.238,64.22,166.010504,P-GPS,,50.6
911,502300,2026-01-11 17:26:22,0.0,5,7.349,0.0,0.0,0.0,38.9,12.8,-5.2,1024,1024,1024,1024,0,0,0,0,65,5.238,64.22,166.010504,P-GPS,,50.6
912,502400,2026-01-11 17:26:22,0.0,5,7.349,0.0,0.0,0.0,38.8,13.7,-5.1,1024,1024,1024,1024,0,0,0,0,65,5.238,64.22,166.010504,P-GPS,,50.6
913,502500,2026-01-11 17:26:22,0.0,5,7.349,0.0,0.0,0.0,38.8,13.4,-5.0,1024,1024,1024,1024,0,0,0,0,65,5.238,64.22,166.010504,P-GPS,,50.6
914,502600,2026-01-11 17:26:22,0.0,5,7.349,0.0,0.0,0.0,38.9,13.3,-4.7,1024,1024,1024,1024,0,0,0,0,65,5.238,64.22,166.010504,P-GPS,,50.6
915,502700,2026-01-11 17:26:22,0.0,5,7.349,0.0,0.0,0.0,38.8,13.3,-4.3,1024,1024,1024,1024,0,0,0,0,65,5.238,64.22,166.010504,P-GPS,,50.6
916,502800,2026-01-11 17:26:23,0.0,5,7.349,0.0,0.0,0.0,38.8,13.2,-4.3,1024,1024,1024,1024,0,0,0,0,65,5.238,64.22,166.010504,P-GPS,,50.6
917,502900,2026-01-11 17:26:23,0.0,5,7.349,0.0,0.0,0.0,38.8,13.2,-4.0,1024,1024,1024,1024,0,0,0,0,65,5.238,64.22,166.010504,P-GPS,,50.6
918,503000,2026-01-11 17:26:23,0.0,5,7.349,0.0,0.0,0.0,38.9,12.8,-3.7,1024,1024,1024,1024,0,0,0,0,65,5.238,64.22,165.68242,P-GPS,,50.5
919,503100,2026-01-11 17:26:23,0.0,5,7.363,0.0,0.0,0.0,39.0,12.5,-3.6,1024,1024,1024,1024,0,0,0,0,65,5.454,64.22,165.68242,P-GPS,,50.5
920,503200,2026-01-11 17:26:23,0.0,5,7.363,0.0,0.0,0.0,38.9,12.5,-3.7,1024,1024,1024,1024,0,0,0,0,65,5.454,64.22,165.68242,P-GPS,,50.5
921,503300,2026-01-11 17:26:23,0.0,5,7.363,0.0,0.0,0.0,39.0,13.0,-3.8,1024,1024,1024,1024,0,0,0,0,65,5.454,64.22,165.68242,P-GPS,,50.5
922,503400,2026-01-11 17:26:23,0.0,5,7.363,0.0,0.0,0.0,39.1,12.7,-3.6,1024,1024,1024,1024,0,0,0,0,65,5.454,64.22,165.68242,P-GPS,,50.5
923,503500,2026-01-11 17:26:23,0.0,5,7.363,0.0,0.0,0.223694,39.3,12.5,-3.7,1024,1024,1024,1024,0,0,0,0,65,5.454,64.22,165.68242,P-GPS,,50.5
924,503600,2026-01-11 17:26:23,0.0,5,7.363,0.0,0.0,0.223694,39.4,12.2,-3.7,1024,1024,1024,1024,0,0,0,0,65,5.454,64.22,166.010504,P-GPS,,50.6
925,503700,2026-01-11 17:26:23,0.0,5,7.363,0.0,0.0,0.0,39.4,11.7,-4.0,1024,1024,1024,1024,0,0,0,0,65,5.454,64.22,166.010504,P-GPS,,50.6
926,503800,2026-01-11 17:26:24,0.0,5,7.363,0.0,0.0,0.0,39.3,11.7,-4.6,1024,1024,1024,1024,0,0,0,0,65,5.454,64.22,166.010504,P-GPS,,50.6
927,503900,2026-01-11 17:26:24,0.0,5,7.363,0.0,0.0,0.0,39.1,11.7,-4.9,1024,1024,1024,1024,0,0,0,0,65,5.454,64.22,166.010504,P-GPS,,50.6
928,504000,2026-01-11 17:26:24,0.0,5,7.363,0.0,0.0,0.0,39.1,11.4,-5.0,1024,1024,1024,1024,0,0,0,0,65,5.454,64.22,166.338588,P-GPS,,50.7
929,504100,2026-01-11 17:26:24,0.0,5,7.363,0.0,0.0,0.0,39.2,11.2,-4.9,1024,1024,1024,1024,0,0,0,0,65,5.454,64.22,166.338588,P-GPS,,50.7
930,504200,2026-01-11 17:26:24,0.0,5,7.314,0.0,0.0,0.0,39.0,11.5,-5.3,1024,1024,1024,1024,0,0,0,0,65,5.957,64.22,166.338588,P-GPS,,50.7
931,504300,2026-01-11 17:26:24,0.0,5,7.314,0.0,0.0,0.0,38.9,12.1,-5.6,1024,1024,1024,1024,0,0,0,0,65,5.957,64.22,166.338588,P-GPS,,50.7
932,504400,2026-01-11 17:26:24,0.0,5,7.314,0.0,0.0,0.0,38.8,12.6,-5.7,1024,1024,1024,1024,0,0,0,0,65,5.957,64.22,166.338588,P-GPS,,50.7
933,504500,2026-01-11 17:26:24,0.0,5,7.314,0.0,0.0,0.0,38.8,12.5,-5.9,1024,1024,1024,1024,0,0,0,0,65,5.957,64.22,166.338588,P-GPS,,50.7
934,504600,2026-01-11 17:26:24,0.0,5,7.314,0.0,0.0,0.0,38.7,12.3,-6.1,1024,1024,1024,1024,0,0,0,0,65,5.957,64.22,166.338588,P-GPS,,50.7
935,504700,2026-01-11 17:26:24,0.0,5,7.314,0.0,0.0,0.0,38.8,12.7,-5.5,1024,1024,1024,1024,0,0,0,0,65,5.957,64.22,166.338588,P-GPS,,50.7
936,504800,2026-01-11 17:26:25,0.0,5,7.314,0.0,0.0,0.0,38.8,12.7,-5.4,1024,1024,1024,1024,0,0,0,0,65,5.957,64.22,166.338588,P-GPS,,50.7
937,504900,2026-01-11 17:26:25,0.0,5,7.314,0.0,0.0,0.0,38.9,12.4,-5.5,1024,1024,1024,1024,0,0,0,0,65,5.957,64.22,166.338588,P-GPS,,50.7
938,505000,2026-01-11 17:26:25,0.0,5,7.314,0.0,0.0,0.0,39.0,11.9,-5.4,1024,1024,1024,1024,0,0,0,0,65,5.957,64.22,166.010504,P-GPS,,50.6
939,505100,2026-01-11 17:26:25,0.0,5,7.314,0.0,0.0,0.0,39.0,11.7,-5.3,1024,1024,1024,1024,0,0,0,0,65,5.957,64.22,166.010504,P-GPS,,50.6
940,505200,2026-01-11 17:26:25,0.0,5,7.314,0.0,0.0,0.0,38.9,11.4,-5.4,1024,1024,1024,1024,0,0,0,0,65,5.957,64.22,166.010504,P-GPS,,50.6
941,505300,2026-01-11 17:26:25,0.0,5,7.326,0.0,0.0,0.0,38.9,11.7,-5.2,1024,1024,1024,1024,0,0,0,0,65,5.552,64.22,166.010504,P-GPS,,50.6
942,505400,2026-01-11 17:26:25,0.0,5,7.326,0.0,0.0,0.0,39.0,11.7,-5.3,1024,1024,1024,1024,0,0,0,0,65,5.552,64.22,165.68242,P-GPS,,50.5
943,505500,2026-01-11 17:26:25,0.0,5,7.326,0.0,0.0,0.0,39.1,11.5,-5.1,1024,1024,1024,1024,0,0,0,0,65,5.552,64.22,165.68242,P-GPS,,50.5
944,505600,2026-01-11 17:26:25,0.0,5,7.326,0.0,0.0,0.0,39.1,11.3,-5.2,1024,1024,1024,1024,0,0,0,0,65,5.552,64.22,165.68242,P-GPS,,50.5
945,505700,2026-01-11 17:26:26,0.0,5,7.326,0.0,0.0,0.0,39.0,11.6,-5.6,1024,1024,1024,1024,0,0,0,0,65,5.552,64.22,165.354336,P-GPS,,50.4
946,505800,2026-01-11 17:26:26,0.0,5,7.326,0.0,0.0,0.0,39.0,11.7,-5.7,1024,1024,1024,1024,0,0,0,0,65,5.552,64.22,165.354336,P-GPS,,50.4
947,505900,2026-01-11 17:26:26,0.0,5,7.326,0.0,0.0,0.0,38.8,11.9,-6.2,1024,1024,1024,1024,0,0,0,0,65,5.552,64.22,165.354336,P-GPS,,50.4
948,506000,2026-01-11 17:26:26,0.0,5,7.326,0.0,0.0,0.0,38.9,11.7,-6.0,1024,1024,1024,1024,0,0,0,0,65,5.552,64.22,165.026252,P-GPS,,50.3
949,506100,2026-01-11 17:26:26,0.0,5,7.326,0.0,0.0,0.0,39.1,10.1,-5.6,1024,1024,1024,1024,0,0,0,0,65,5.552,64.22,165.026252,P-GPS,,50.3
950,506200,2026-01-11 17:26:26,0.0,5,7.326,0.0,0.0,0.0,39.1,9.4,-6.0,1024,1024,1024,1024,0,0,0,0,65,5.552,64.22,165.026252,P-GPS,,50.3
951,506300,2026-01-11 17:26:26,0.0,5,7.326,0.0,0.0,-0.223694,39.1,8.6,-5.8,1024,1024,1024,1024,0,0,0,0,65,5.552,64.22,165.026252,P-GPS,,50.3
952,506400,2026-01-11 17:26:26,0.0,5,7.407,0.0,0.0,-0.223694,39.0,9.2,-5.4,1024,1024,1024,1024,0,0,0,0,65,4.433,64.22,164.698168,P-GPS,,50.2
953,506500,2026-01-11 17:26:26,0.0,5,7.407,0.0,0.0,0.0,39.0,8.8,-5.4,1024,1024,1024,1024,0,0,0,0,65,4.433,64.22,164.698168,P-GPS,,50.2
954,506600,2026-01-11 17:26:26,0.223694,5,7.407,0.0,-0.223694,0.0,39.1,9.4,-5.6,1024,1024,1024,1024,0,0,0,0,65,4.433,64.22,164.698168,P-GPS,,50.2
955,506700,2026-01-11 17:26:27,0.223694,5,7.407,0.0,-0.223694,0.0,39.2,9.0,-5.0,1024,1024,1024,1024,0,0,0,0,65,4.433,64.22,164.698168,P-GPS,,50.2
956,506800,2026-01-11 17:26:27,0.223694,5,7.407,0.0,-0.223694,0.0,39.1,9.9,-4.7,1024,1024,1024,1024,0,0,0,0,65,4.433,64.22,164.698168,P-GPS,,50.2
957,506900,2026-01-11 17:26:27,0.223694,5,7.407,0.0,-0.223694,0.223694,39.0,10.1,-3.9,1024,1024,1024,1024,0,0,0,0,65,4.433,64.22,164.698168,P-GPS,,50.2
958,507000,2026-01-11 17:26:27,0.223694,5,7.407,0.0,-0.223694,0.0,39.1,9.6,-3.7,1024,1024,1024,1024,0,0,0,0,65,4.433,64.22,164.698168,P-GPS,,50.2
959,507100,2026-01-11 17:26:27,0.223694,5,7.407,0.0,-0.223694,0.0,39.1,10.1,-3.1,1024,1024,1024,1024,0,0,0,0,65,4.433,64.22,164.698168,P-GPS,,50.2
960,507200,2026-01-11 17:26:27,0.0,5,7.407,0.0,0.0,0.0,39.2,10.6,-2.4,1024,1024,1024,1024,0,0,0,0,65,4.433,64.22,164.698168,P-GPS,,50.2
961,507300,2026-01-11 17:26:27,0.0,5,7.407,0.0,0.0,0.0,39.3,10.5,-2.0,1024,1024,1024,1024,0,0,0,0,65,4.433,64.22,164.698168,P-GPS,,50.2
962,507400,2026-01-11 17:26:27,0.0,5,7.407,0.0,0.0,0.0,39.2,10.6,-2.1,1024,1024,1024,1024,0,0,0,0,65,4.433,64.22,165.026252,P-GPS,,50.3
963,507500,2026-01-11 17:26:27,0.0,5,7.317,0.0,0.0,0.0,39.2,11.2,-2.4,1024,1024,1024,1024,0,0,0,0,65,5.267,64.4,165.026252,P-GPS,,50.3
964,507600,2026-01-11 17:26:27,0.0,5,7.317,0.0,0.0,-0.223694,39.1,11.4,-2.7,1024,1024,1024,1024,0,0,0,0,65,5.267,64.4,165.026252,P-GPS,,50.3
965,507700,2026-01-11 17:26:27,0.0,5,7.317,0.0,0.0,-0.223694,39.0,12.4,-3.7,1024,1024,1024,1024,0,0,0,0,65,5.267,64.4,165.354336,P-GPS,,50.4
966,507800,2026-01-11 17:26:28,0.0,5,7.317,0.0,0.0,0.0,39.1,12.8,-3.8,1024,1024,1024,1024,0,0,0,0,65,5.267,64.4,165.354336,P-GPS,,50.4
967,507900,2026-01-11 17:26:28,0.0,5,7.317,0.0,0.0,0.0,39.1,12.7,-3.6,1024,1024,1024,1024,0,0,0,0,65,5.267,64.4,165.354336,P-GPS,,50.4
968,508000,2026-01-11 17:26:28,0.0,5,7.317,0.0,0.0,0.0,39.0,12.5,-3.6,1024,1024,1024,1024,0,0,0,0,65,5.267,64.4,165.354336,P-GPS,,50.4
969,508100,2026-01-11 17:26:28,0.0,5,7.317,0.0,0.0,0.0,39.0,12.9,-3.8,1024,1024,1024,1024,0,0,0,0,65,5.267,64.4,165.68242,P-GPS,,50.5
970,508200,2026-01-11 17:26:28,0.0,5,7.317,0.0,0.0,0.0,39.0,13.0,-3.8,1024,1024,1024,1024,0,0,0,0,65,5.267,64.4,165.68242,P-GPS,,50.5
971,508300,2026-01-11 17:26:28,0.0,5,7.317,0.0,0.0,0.0,38.9,13.0,-3.8,1024,1024,1024,1024,0,0,0,0,65,5.267,64.4,165.68242,P-GPS,,50.5
972,508400,2026-01-11 17:26:28,0.0,5,7.317,0.0,0.0,0.0,38.9,12.9,-3.2,1024,1024,1024,1024,0,0,0,0,65,5.267,64.4,165.68242,P-GPS,,50.5
973,508500,2026-01-11 17:26:28,0.0,5,7.317,0.0,0.0,0.0,38.9,13.0,-3.3,1024,1024,1024,1024,0,0,0,0,65,5.267,64.4,165.68242,P-GPS,,50.5
974,508600,2026-01-11 17:26:28,0.0,5,7.317,0.0,0.0,0.0,39.0,12.9,-4.1,1024,1024,1024,1024,0,0,0,0,65,5.752,64.22,165.68242,P-GPS,,50.5
975,508700,2026-01-11 17:26:28,0.0,5,7.317,0.0,0.0,0.0,39.0,13.2,-4.3,1024,1024,1024,1024,0,0,0,0,65,5.752,64.22,165.68242,P-GPS,,50.5
976,508800,2026-01-11 17:26:29,0.0,5,7.317,0.0,0.0,0.0,39.0,12.5,-4.1,1024,1024,1024,1024,0,0,0,0,65,5.752,64.22,165.68242,P-GPS,,50.5
977,508900,2026-01-11 17:26:29,0.0,5,7.317,0.0,0.0,0.0,39.0,12.1,-4.3,1024,1024,1024,1024,0,0,0,0,65,5.752,64.22,165.68242,P-GPS,,50.5
978,509000,2026-01-11 17:26:29,0.0,5,7.317,0.0,0.0,0.0,39.0,11.7,-4.6,1024,1024,1024,1024,0,0,0,0,65,5.752,64.22,165.68242,P-GPS,,50.5
979,509100,2026-01-11 17:26:29,0.0,5,7.317,0.0,0.0,0.0,39.0,11.8,-4.8,1024,1024,1024,1024,0,0,0,0,65,5.752,64.22,165.68242,P-GPS,,50.5
980,509200,2026-01-11 17:26:29,0.0,5,7.317,0.0,0.0,0.0,39.0,12.0,-5.2,1024,1024,1024,1024,0,0,0,0,65,5.752,64.22,165.68242,P-GPS,,50.5
981,509300,2026-01-11 17:26:29,0.0,5,7.317,0.0,0.0,0.0,39.0,12.2,-5.5,1024,1024,1024,1024,0,0,0,0,65,5.752,64.22,165.68242,P-GPS,,50.5
982,509400,2026-01-11 17:26:29,0.0,5,7.317,0.0,0.0,0.0,39.0,12.1,-5.3,1024,1024,1024,1024,0,0,0,0,65,5.752,64.22,165.68242,P-GPS,,50.5
983,509500,2026-01-11 17:26:29,0.0,5,7.317,0.0,0.0,0.0,38.9,12.2,-5.2,1024,1024,1024,1024,0,0,0,0,65,5.752,64.22,166.010504,P-GPS,,50.6
984,509600,2026-01-11 17:26:29,0.0,5,7.317,0.0,0.0,0.0,38.9,12.0,-5.1,1024,1024,1024,1024,0,0,0,0,65,5.752,64.22,165.68242,P-GPS,,50.5
985,509700,2026-01-11 17:26:29,0.0,5,7.316,0.0,0.0,0.0,38.8,12.4,-4.5,1024,1024,1024,1024,0,0,0,0,65,5.682,64.22,166.010504,P-GPS,,50.6
986,509800,2026-01-11 17:26:30,0.0,5,7.316,0.0,0.0,0.0,38.9,12.7,-4.9,1024,1024,1024,1024,0,0,0,0,65,5.682,64.22,166.010504,P-GPS,,50.6
987,509900,2026-01-11 17:26:30,0.0,5,7.316,0.0,0.0,0.0,38.9,12.6,-5.9,1024,1024,1024,1024,0,0,0,0,65,5.682,64.22,166.010504,P-GPS,,50.6
988,510000,2026-01-11 17:26:30,0.0,5,7.316,0.0,0.0,0.0,38.7,13.8,-6.3,1024,1024,1024,1024,0,0,0,0,65,5.682,64.22,166.010504,P-GPS,,50.6
989,510100,2026-01-11 17:26:30,0.0,5,7.316,0.0,0.0,0.0,38.7,13.4,-6.7,1024,1024,1024,1024,0,0,0,0,65,5.682,64.22,166.010504,P-GPS,,50.6
990,510200,2026-01-11 17:26:30,0.0,5,7.316,0.0,0.0,0.0,38.8,13.1,-6.4,1024,1024,1024,1024,0,0,0,0,65,5.682,64.22,166.010504,P-GPS,,50.6
991,510300,2026-01-11 17:26:30,0.0,5,7.316,0.0,0.0,0.0,38.8,13.0,-6.4,1024,1024,1024,1024,0,0,0,0,65,5.682,64.22,166.010504,P-GPS,,50.6
992,510400,2026-01-11 17:26:30,0.0,5,7.316,0.0,0.0,0.0,39.0,12.4,-6.0,1024,1024,1024,1024,0,0,0,0,65,5.682,64.22,166.010504,P-GPS,,50.6
993,510500,2026-01-11 17:26:30,0.0,5,7.316,0.0,0.0,0.0,38.9,12.3,-6.0,1024,1024,1024,1024,0,0,0,0,65,5.682,64.22,166.010504,P-GPS,,50.6
994,510600,2026-01-11 17:26:30,0.0,5,7.316,0.0,0.0,0.0,38.8,11.9,-6.1,1024,1024,1024,1024,0,0,0,0,65,5.682,64.22,166.010504,P-GPS,,50.6
995,510700,2026-01-11 17:26:30,0.0,5,7.316,0.0,0.0,0.0,38.7,12.7,-6.0,1024,1024,1024,1024,0,0,0,0,65,5.682,64.22,165.68242,P-GPS,,50.5
996,510800,2026-01-11 17:26:31,0.0,5,7.316,0.0,0.0,0.0,38.8,13.0,-5.4,1024,1024,1024,1024,0,0,0,0,65,5.682,64.22,165.68242,P-GPS,,50.5
997,510900,2026-01-11 17:26:31,0.0,5,7.316,0.0,0.0,0.0,38.9,13.3,-5.2,1024,1024,1024,1024,0,0,0,0,65,5.682,64.22,165.68242,P-GPS,,50.5
998,511000,2026-01-11 17:26:31,0.0,5,7.316,0.0,0.0,0.0,38.9,13.1,-4.6,1024,1024,1024,1024,0,0,0,0,65,5.682,64.22,165.68242,P-GPS,,50.5
999,511100,2026-01-11 17:26:31,0.0,5,7.316,0.0,0.0,0.0,39.0,12.9,-4.5,1024,1024,1024,1024,0,0,0,0,65,5.682,64.22,165.68242,P-GPS,,50.5
1000,511200,2026-01-11 17:26:31,0.0,5,7.316,0.0,0.0,0.0,39.0,12.8,-4.8,1024,1024,1024,1024,0,0,0,0,65,5.682,64.22,165.68242,P-GPS,,50.5
1001,511300,2026-01-11 17:26:31,0.0,5,7.316,0.0,0.0,0.0,39.0,12.6,-5.5,1024,1024,1024,1024,0,0,0,0,65,5.682,64.22,165.68242,P-GPS,,50.5
1002,511400,2026-01-11 17:26:31,0.0,5,7.316,0.0,0.0,0.0,38.9,12.4,-5.6,1024,1024,1024,1024,0,0,0,0,65,5.682,64.22,165.68242,P-GPS,,50.5
1003,511500,2026-01-11 17:26:31,0.0,5,7.316,0.0,0.0,0.0,38.9,11.8,-6.0,1024,1024,1024,1024,0,0,0,0,65,5.682,64.22,165.68242,P-GPS,,50.5
1004,511600,2026-01-11 17:26:31,0.0,5,7.316,0.0,0.0,0.0,38.9,11.6,-6.7,1024,1024,1024,1024,0,0,0,0,65,5.682,64.22,165.68242,P-GPS,,50.5
1005,511700,2026-01-11 17:26:31,0.0,5,7.316,0.0,0.0,0.0,38.8,11.5,-7.2,1024,1024,1024,1024,0,0,0,0,65,5.682,64.22,165.68242,P-GPS,,50.5
1006,511800,2026-01-11 17:26:32,0.0,5,7.316,0.0,0.0,0.0,38.8,11.6,-7.4,1024,1024,1024,1024,0,0,0,0,65,5.682,64.22,165.354336,P-GPS,,50.4
1007,511900,2026-01-11 17:26:32,0.0,5,7.326,0.0,0.0,0.0,38.7,11.2,-7.4,1024,1024,1024,1024,0,0,0,0,65,5.677,64.4,165.354336,P-GPS,,50.4
1008,512000,2026-01-11 17:26:32,0.0,5,7.326,0.0,0.0,0.0,38.9,11.2,-7.5,1024,1024,1024,1024,0,0,0,0,65,5.677,64.4,165.354336,P-GPS,,50.4
1009,512100,2026-01-11 17:26:32,0.0,5,7.326,0.0,0.0,0.0,38.9,11.0,-7.4,1024,1024,1024,1024,0,0,0,0,65,5.677,64.4,165.354336,P-GPS,,50.4
1010,512200,2026-01-11 17:26:32,0.0,5,7.326,0.0,0.0,0.0,38.8,11.4,-7.3,1024,1024,1024,1024,0,0,0,0,65,5.677,64.4,165.026252,P-GPS,,50.3
1011,512300,2026-01-11 17:26:32,0.0,5,7.326,0.0,0.0,0.0,38.8,11.2,-7.2,1024,1024,1024,1024,0,0,0,0,65,5.677,64.4,165.026252,P-GPS,,50.3
1012,512400,2026-01-11 17:26:32,0.0,5,7.326,0.0,0.0,0.0,38.8,11.4,-6.6,1024,1024,1024,1024,0,0,0,0,65,5.677,64.4,165.026252,P-GPS,,50.3
1013,512500,2026-01-11 17:26:32,0.0,5,7.326,0.0,0.0,0.0,38.8,11.8,-5.6,1024,1024,1024,1024,0,0,0,0,65,5.677,64.4,164.698168,P-GPS,,50.2
1014,512600,2026-01-11 17:26:32,0.0,5,7.326,0.0,0.0,0.0,39.0,10.9,-5.6,1024,1024,1024,1024,0,0,0,0,65,5.677,64.4,164.698168,P-GPS,,50.2
1015,512700,2026-01-11 17:26:32,0.0,5,7.326,0.0,0.0,0.0,39.0,11.3,-5.8,1024,1024,1024,1024,0,0,0,0,65,5.677,64.4,164.698168,P-GPS,,50.2
1016,512800,2026-01-11 17:26:33,0.0,5,7.326,0.0,0.0,0.0,38.9,11.6,-6.1,1024,1024,1024,1024,0,0,0,0,65,5.677,64.4,164.370084,P-GPS,,50.1
1017,512900,2026-01-11 17:26:33,0.0,5,7.326,0.0,0.0,0.0,38.8,11.6,-6.4,1024,1024,1024,1024,0,0,0,0,65,5.677,64.4,164.370084,P-GPS,,50.1
1018,513000,2026-01-11 17:26:33,0.0,5,7.364,0.0,0.0,0.0,38.8,11.3,-6.1,1024,1024,1024,1024,0,0,0,0,64,5.08,64.4,164.370084,P-GPS,,50.1
1019,513100,2026-01-11 17:26:33,0.0,5,7.364,0.0,0.0,0.0,38.8,11.8,-6.0,1024,1024,1024,1024,0,0,0,0,64,5.08,64.4,164.370084,P-GPS,,50.1
1020,513200,2026-01-11 17:26:33,0.0,5,7.364,0.0,0.0,0.0,38.8,12.0,-6.1,1024,1024,1024,1024,0,0,0,0,64,5.08,64.4,164.370084,P-GPS,,50.1
1021,513300,2026-01-11 17:26:33,0.0,5,7.364,0.0,0.0,0.0,39.1,11.5,-5.5,1024,1024,1024,1024,0,0,0,0,64,5.08,64.4,164.370084,P-GPS,,50.1
