index,time(millisecond),timestamp,speed(mph),gpslevel,voltage(v),xSpeed(mph),ySpeed(mph),zSpeed(mph),compass_heading(degrees),pitch(degrees),roll(degrees),rc_elevator,rc_aileron,rc_throttle,rc_rudder,rc_elevator(percent),rc_aileron(percent),rc_throttle(percent),rc_rudder(percent),battery_percent,current(A),battery_temperature(f),ascent(feet),flycState,message,height_above_takeoff(meters)
429,240100,2026-01-06 16:42:05,0.223694,5,7.367,0.223694,0.0,0.0,21.8,5.6,-4.8,1024,1024,1024,1024,0,0,0,0,63,4.702,71.6,101.70604,P-GPS,,31.0
430,240200,2026-01-06 16:42:05,0.0,5,7.367,0.0,0.0,0.0,21.9,4.9,-4.5,1024,1024,1024,1024,0,0,0,0,63,4.702,71.6,101.70604,P-GPS,,31.0
431,240300,2026-01-06 16:42:06,0.223694,5,7.367,0.223694,0.0,0.0,21.9,4.9,-4.6,1024,1024,1024,1024,0,0,0,0,63,4.702,71.6,101.70604,P-GPS,,31.0
432,240400,2026-01-06 16:42:06,0.0,5,7.367,0.0,0.0,0.0,21.9,5.1,-4.7,1024,1024,1024,1024,0,0,0,0,63,4.702,71.6,101.70604,P-GPS,,31.0
433,240500,2026-01-06 16:42:06,0.0,5,7.367,0.0,0.0,0.0,21.8,5.5,-5.0,1024,1024,1024,1024,0,0,0,0,63,4.702,71.6,101.70604,P-GPS,,31.0
434,240600,2026-01-06 16:42:06,0.0,5,7.367,0.0,0.0,0.0,21.8,5.3,-5.2,1024,1024,1024,1024,0,0,0,0,63,4.702,71.6,101.70604,P-GPS,,31.0
435,240700,2026-01-06 16:42:06,0.0,5,7.304,0.0,0.0,0.0,21.9,5.0,-5.1,1024,1024,1024,1024,0,0,0,0,63,5.054,71.6,101.70604,P-GPS,,31.0
436,240800,2026-01-06 16:42:06,0.0,5,7.304,0.0,0.0,0.0,21.9,4.7,-5.1,1024,1024,1024,1024,0,0,0,0,63,5.054,71.6,101.70604,P-GPS,,31.0
437,240900,2026-01-06 16:42:06,0.0,5,7.304,0.0,0.0,0.0,21.9,4.8,-4.9,1024,1024,1024,1024,0,0,0,0,63,5.054,71.6,101.70604,P-GPS,,31.0
438,241000,2026-01-06 16:42:06,0.0,5,7.304,0.0,0.0,0.0,21.9,4.7,-5.0,1024,1024,1024,1024,0,0,0,0,63,5.054,71.6,101.70604,P-GPS,,31.0
439,241100,2026-01-06 16:42:06,0.0,5,7.304,0.0,0.0,0.0,21.9,4.6,-5.1,1024,1024,1024,1024,0,0,0,0,63,5.054,71.6,101.70604,P-GPS,,31.0
440,241200,2026-01-06 16:42:06,0.0,5,7.304,0.0,0.0,0.0,22.0,4.2,-4.8,1024,1024,1024,1024,0,0,0,0,63,5.054,71.6,101.70604,P-GPS,,31.0
441,241300,2026-01-06 16:42:06,0.0,5,7.304,0.0,0.0,0.0,22.0,4.3,-4.7,1024,1024,1024,1024,0,0,0,0,63,5.054,71.6,101.70604,P-GPS,,31.0
442,241400,2026-01-06 16:42:07,0.0,5,7.304,0.0,0.0,0.0,21.8,4.7,-4.9,1024,1024,1024,1024,0,0,0,0,63,5.054,71.6,101.70604,P-GPS,,31.0
443,241500,2026-01-06 16:42:07,0.0,5,7.304,0.0,0.0,0.0,21.7,5.4,-4.9,1024,1024,1024,1024,0,0,0,0,63,5.054,71.6,101.70604,P-GPS,,31.0
444,241600,2026-01-06 16:42:07,0.0,5,7.304,0.0,0.0,0.0,21.9,5.1,-4.7,1024,1024,1024,1024,0,0,0,0,63,5.054,71.6,101.70604,P-GPS,,31.0
445,241700,2026-01-06 16:42:07,0.0,5,7.304,0.0,0.0,0.0,21.8,5.1,-4.7,1024,1024,1024,1024,0,0,0,0,63,5.054,71.6,101.70604,P-GPS,,31.0
446,241800,2026-01-06 16:42:07,0.0,5,7.298,0.0,0.0,0.0,21.8,5.0,-4.7,1024,1024,1024,1024,0,0,0,0,63,5.382,71.6,101.70604,P-GPS,,31.0
447,241900,2026-01-06 16:42:07,0.0,5,7.298,0.0,0.0,0.0,21.7,5.0,-4.9,1024,1024,1024,1024,0,0,0,0,63,5.382,71.6,101.70604,P-GPS,,31.0
448,242000,2026-01-06 16:42:07,0.0,5,7.298,0.0,0.0,0.0,21.7,4.9,-5.1,1024,1024,1024,1024,0,0,0,0,63,5.382,71.6,101.377956,P-GPS,,30.9
449,242100,2026-01-06 16:42:07,0.0,5,7.298,0.0,0.0,0.0,21.7,4.5,-4.8,1024,1024,1024,1024,0,0,0,0,63,5.382,71.6,101.377956,P-GPS,,30.9
450,242200,2026-01-06 16:42:07,0.0,5,7.298,0.0,0.0,0.0,21.6,4.4,-4.9,1024,1024,1024,1024,0,0,0,0,63,5.382,71.6,101.377956,P-GPS,,30.9
451,242300,2026-01-06 16:42:08,0.0,5,7.298,0.0,0.0,0.0,21.6,4.7,-4.8,1024,1024,1024,1024,0,0,0,0,63,5.382,71.6,101.377956,P-GPS,,30.9
452,242400,2026-01-06 16:42:08,0.0,5,7.298,0.0,0.0,0.0,21.7,4.7,-4.3,1024,1024,1024,1024,0,0,0,0,63,5.382,71.6,101.377956,P-GPS,,30.9
453,242500,2026-01-06 16:42:08,0.0,5,7.298,0.0,0.0,0.0,21.7,4.2,-4.5,1024,1024,1024,1024,0,0,0,0,63,5.382,71.6,101.377956,P-GPS,,30.9
454,242600,2026-01-06 16:42:08,0.0,5,7.298,0.0,0.0,0.0,21.7,4.4,-4.9,1024,1024,1024,1024,0,0,0,0,63,5.382,71.6,101.377956,P-GPS,,30.9
455,242700,2026-01-06 16:42:08,0.0,5,7.298,0.0,0.0,0.0,21.6,4.4,-5.1,1024,1024,1024,1024,0,0,0,0,63,5.382,71.6,101.377956,P-GPS,,30.9
456,242800,2026-01-06 16:42:08,0.0,5,7.298,0.0,0.0,0.0,21.8,3.9,-5.7,1024,1024,1024,1024,0,0,0,0,63,5.382,71.6,101.377956,P-GPS,,30.9
457,242900,2026-01-06 16:42:08,0.0,5,7.308,0.0,0.0,0.0,22.0,3.9,-4.6,1024,1024,1024,1024,0,0,0,0,63,5.18,71.6,101.377956,P-GPS,,30.9
458,243000,2026-01-06 16:42:08,0.0,5,7.308,0.0,0.0,0.0,21.9,4.8,-4.7,1024,1024,1024,1024,0,0,0,0,63,5.18,71.6,101.377956,P-GPS,,30.9
459,243100,2026-01-06 16:42:08,0.0,5,7.308,0.0,0.0,0.0,21.9,5.5,-4.8,1024,1024,1024,1024,0,0,0,0,63,5.18,71.6,101.377956,P-GPS,,30.9
460,243200,2026-01-06 16:42:08,0.0,5,7.308,0.0,0.0,0.0,21.9,5.5,-4.7,1024,1024,1024,1024,0,0,0,0,63,5.18,71.6,101.049872,P-GPS,,30.8
461,243300,2026-01-06 16:42:08,0.0,5,7.308,0.0,0.0,0.0,22.1,4.8,-3.7,1024,1024,1024,1024,0,0,0,0,63,5.18,71.6,101.049872,P-GPS,,30.8
462,243400,2026-01-06 16:42:09,0.0,5,7.308,0.0,0.0,0.0,22.0,4.1,-3.1,1024,1024,1024,1024,0,0,0,0,63,5.18,71.6,101.377956,P-GPS,,30.9
463,243500,2026-01-06 16:42:09,0.0,5,7.308,0.0,0.0,0.0,21.8,4.0,-3.7,1024,1024,1024,1024,0,0,0,0,63,5.18,71.6,101.377956,P-GPS,,30.9
464,243600,2026-01-06 16:42:09,0.0,5,7.308,0.0,0.0,0.0,21.8,4.3,-3.9,1024,1024,1024,1024,0,0,0,0,63,5.18,71.6,101.377956,P-GPS,,30.9
465,243700,2026-01-06 16:42:09,0.0,5,7.308,0.0,0.0,0.0,22.0,3.7,-4.3,1024,1024,1024,1024,0,0,0,0,63,5.18,71.6,101.377956,P-GPS,,30.9
466,243800,2026-01-06 16:42:09,0.0,5,7.308,0.0,0.0,0.0,22.0,3.2,-4.0,1024,1024,1024,1024,0,0,0,0,63,5.18,71.6,101.377956,P-GPS,,30.9
467,243900,2026-01-06 16:42:09,0.0,5,7.308,0.0,0.0,0.0,22.0,3.5,-3.9,1024,1024,1024,1024,0,0,0,0,63,5.18,71.6,101.377956,P-GPS,,30.9
468,244000,2026-01-06 16:42:09,0.0,5,7.308,0.0,0.0,0.0,22.0,3.3,-3.6,1024,1024,1024,1024,0,0,0,0,63,5.18,71.6,101.377956,P-GPS,,30.9
469,244100,2026-01-06 16:42:09,0.0,5,7.308,0.0,0.0,0.0,21.9,3.7,-3.2,1024,1024,1024,1024,0,0,0,0,63,5.18,71.6,101.377956,P-GPS,,30.9
470,244200,2026-01-06 16:42:09,0.0,5,7.308,0.0,0.0,0.0,21.8,4.0,-3.0,1024,1024,1024,1024,0,0,0,0,63,5.18,71.6,101.377956,P-GPS,,30.9
471,244300,2026-01-06 16:42:09,0.0,5,7.308,0.0,0.0,0.0,21.8,3.8,-3.2,1024,1024,1024,1024,0,0,0,0,63,5.18,71.6,101.049872,P-GPS,,30.8
472,244400,2026-01-06 16:42:10,0.0,5,7.308,0.0,0.0,0.0,21.8,4.1,-3.3,1024,1024,1024,1024,0,0,0,0,63,5.18,71.6,101.049872,P-GPS,,30.8
473,244500,2026-01-06 16:42:10,0.0,5,7.308,0.0,0.0,0.0,21.9,4.7,-2.9,1024,1024,1024,1024,0,0,0,0,63,5.18,71.6,101.049872,P-GPS,,30.8
474,244600,2026-01-06 16:42:10,0.0,5,7.308,0.0,0.0,0.0,21.8,3.9,-2.9,1024,1024,1024,1024,0,0,0,0,63,5.18,71.6,101.049872,P-GPS,,30.8
475,244700,2026-01-06 16:42:10,0.0,5,7.308,0.0,0.0,0.0,21.8,3.5,-2.7,1024,1024,1024,1024,0,0,0,0,63,5.18,71.6,101.049872,P-GPS,,30.8
476,244800,2026-01-06 16:42:10,0.0,5,7.308,0.0,0.0,0.0,21.8,3.0,-3.3,1024,1024,1024,1024,0,0,0,0,63,5.18,71.6,101.049872,P-GPS,,30.8
477,244900,2026-01-06 16:42:10,0.0,5,7.308,0.0,0.0,0.0,21.8,3.1,-3.2,1024,1024,1024,1024,0,0,0,0,63,5.18,71.6,100.721788,P-GPS,,30.7
478,245000,2026-01-06 16:42:10,0.0,5,7.308,0.0,0.0,0.0,21.8,3.3,-2.7,1024,1024,1024,1024,0,0,0,0,63,5.18,71.6,101.049872,P-GPS,,30.8
479,245100,2026-01-06 16:42:10,0.0,5,7.308,0.0,0.0,0.0,21.8,3.9,-3.2,1024,1024,1024,1024,0,0,0,0,63,5.18,71.6,100.721788,P-GPS,,30.7
480,245200,2026-01-06 16:42:10,0.0,5,7.334,0.0,0.0,0.0,21.8,3.9,-3.2,1024,1024,1024,1024,0,0,0,0,63,4.573,71.78,100.721788,P-GPS,,30.7
481,245300,2026-01-06 16:42:10,0.0,5,7.334,0.0,0.0,0.0,21.9,4.3,-3.2,1024,1024,1024,1024,0,0,0,0,63,4.573,71.78,100.721788,P-GPS,,30.7
482,245400,2026-01-06 16:42:11,0.0,5,7.334,0.0,0.0,0.0,21.9,4.7,-3.0,1024,1024,1024,1024,0,0,0,0,63,4.573,71.78,100.721788,P-GPS,,30.7
483,245500,2026-01-06 16:42:11,0.0,5,7.334,0.0,0.0,0.0,21.9,4.2,-3.0,1024,1024,1024,1024,0,0,0,0,63,4.573,71.78,100.721788,P-GPS,,30.7
484,245600,2026-01-06 16:42:11,0.0,5,7.334,0.0,0.0,0.0,21.9,4.0,-3.0,1024,1024,1024,1024,0,0,0,0,63,4.573,71.78,100.721788,P-GPS,,30.7
485,245700,2026-01-06 16:42:11,0.0,5,7.334,0.0,0.0,0.0,21.8,4.3,-2.6,1024,1024,1024,1024,0,0,0,0,63,4.573,71.78,100.721788,P-GPS,,30.7
486,245800,2026-01-06 16:42:11,0.0,5,7.334,0.0,0.0,0.0,21.8,4.3,-3.1,1024,1024,1024,1024,0,0,0,0,63,4.573,71.78,100.721788,P-GPS,,30.7
487,245900,2026-01-06 16:42:11,0.0,5,7.334,0.0,0.0,0.0,21.9,4.1,-3.0,1024,1024,1024,1024,0,0,0,0,63,4.573,71.78,100.721788,P-GPS,,30.7
488,246000,2026-01-06 16:42:11,0.0,5,7.334,0.0,0.0,0.0,21.8,3.9,-3.1,1024,1024,1024,1024,0,0,0,0,63,4.573,71.78,101.049872,P-GPS,,30.8
489,246100,2026-01-06 16:42:11,0.0,5,7.334,0.0,0.0,0.0,21.8,4.2,-3.2,1024,1024,1024,1024,0,0,0,0,63,4.573,71.78,101.049872,P-GPS,,30.8
490,246200,2026-01-06 16:42:11,0.0,5,7.334,0.0,0.0,0.0,21.8,4.2,-3.5,1024,1024,1024,1024,0,0,0,0,63,4.573,71.78,101.049872,P-GPS,,30.8
491,246300,2026-01-06 16:42:11,0.0,5,7.334,0.0,0.0,0.0,21.8,4.1,-3.5,1024,1024,1024,1024,0,0,0,0,63,4.573,71.78,101.049872,P-GPS,,30.8
492,246400,2026-01-06 16:42:12,0.0,5,7.334,0.0,0.0,0.0,21.8,4.0,-3.1,1024,1024,1024,1024,0,0,0,0,63,4.573,71.78,101.049872,P-GPS,,30.8
493,246500,2026-01-06 16:42:12,0.0,5,7.334,0.0,0.0,0.0,21.8,4.5,-2.9,1024,1024,1024,1024,0,0,0,0,63,4.573,71.78,101.049872,P-GPS,,30.8
494,246600,2026-01-06 16:42:12,0.0,5,7.334,0.0,0.0,0.0,21.8,4.7,-3.1,1024,1024,1024,1024,0,0,0,0,63,4.573,71.78,101.049872,P-GPS,,30.8
495,246700,2026-01-06 16:42:12,0.0,5,7.334,0.0,0.0,0.0,21.8,4.2,-3.8,1024,1024,1024,1024,0,0,0,0,63,4.573,71.78,101.049872,P-GPS,,30.8
496,246800,2026-01-06 16:42:12,0.0,5,7.334,0.0,0.0,0.0,21.9,3.5,-3.7,1024,1024,1024,1024,0,0,0,0,63,4.573,71.78,101.049872,P-GPS,,30.8
497,246900,2026-01-06 16:42:12,0.0,5,7.334,0.0,0.0,0.0,22.0,3.4,-3.5,1024,1024,1024,1024,0,0,0,0,63,4.573,71.78,100.721788,P-GPS,,30.7
498,247000,2026-01-06 16:42:12,0.0,5,7.334,0.0,0.0,0.0,22.0,3.2,-3.2,1024,1024,1024,1024,0,0,0,0,63,4.573,71.78,100.721788,P-GPS,,30.7
499,247100,2026-01-06 16:42:12,0.0,5,7.327,0.0,0.0,0.0,21.9,3.5,-3.5,1024,1024,1024,1024,0,0,0,0,63,4.643,71.78,100.721788,P-GPS,,30.7
500,247200,2026-01-06 16:42:12,0.0,5,7.327,0.0,0.0,0.0,21.8,4.0,-3.5,1024,1024,1024,1024,0,0,0,0,63,4.643,71.78,100.721788,P-GPS,,30.7
501,247300,2026-01-06 16:42:12,0.0,5,7.327,0.0,0.0,0.0,21.8,4.1,-3.2,1024,1024,1024,1024,0,0,0,0,63,4.643,71.78,100.721788,P-GPS,,30.7
502,247400,2026-01-06 16:42:13,0.0,5,7.327,0.0,0.0,0.0,21.8,4.1,-3.4,1024,1024,1024,1024,0,0,0,0,63,4.643,71.78,101.049872,P-GPS,,30.8
503,247500,2026-01-06 16:42:13,0.0,5,7.327,0.0,0.0,0.0,21.8,4.0,-3.5,1024,1024,1024,1024,0,0,0,0,63,4.643,71.78,101.049872,P-GPS,,30.8
504,247600,2026-01-06 16:42:13,0.0,5,7.327,0.0,0.0,0.0,21.8,4.2,-3.9,1024,1024,1024,1024,0,0,0,0,63,4.643,71.78,101.049872,P-GPS,,30.8
505,247700,2026-01-06 16:42:13,0.0,5,7.327,0.0,0.0,0.0,21.7,4.7,-4.0,1024,1024,1024,1024,0,0,0,0,63,4.643,71.78,101.049872,P-GPS,,30.8
506,247800,2026-01-06 16:42:13,0.0,5,7.327,0.0,0.0,0.0,21.8,4.6,-3.6,1024,1024,1024,1024,0,0,0,0,63,4.643,71.78,101.049872,P-GPS,,30.8
507,247900,2026-01-06 16:42:13,0.0,5,7.327,0.0,0.0,0.0,21.8,4.6,-3.5,1024,1024,1024,1024,0,0,0,0,63,4.643,71.78,101.049872,P-GPS,,30.8
508,248000,2026-01-06 16:42:13,0.0,5,7.327,0.0,0.0,0.0,21.7,4.9,-3.6,1024,1024,1024,1024,0,0,0,0,63,4.643,71.78,101.049872,P-GPS,,30.8
509,248100,2026-01-06 16:42:13,0.0,5,7.327,0.0,0.0,0.0,21.7,4.9,-3.5,1024,1024,1024,1024,0,0,0,0,63,4.643,71.78,101.049872,P-GPS,,30.8
510,248200,2026-01-06 16:42:13,0.0,5,7.327,0.0,0.0,0.0,21.7,5.4,-3.5,1024,1024,1024,1024,0,0,0,0,63,4.643,71.78,101.049872,P-GPS,,30.8
511,248300,2026-01-06 16:42:13,0.0,5,7.327,0.0,0.0,0.0,21.8,5.5,-3.6,1024,1024,1024,1024,0,0,0,0,63,4.643,71.78,101.049872,P-GPS,,30.8
512,248400,2026-01-06 16:42:14,0.0,5,7.327,0.0,0.0,0.0,21.8,5.3,-3.5,1024,1024,1024,1024,0,0,0,0,63,4.643,71.78,101.049872,P-GPS,,30.8
513,248500,2026-01-06 16:42:14,0.0,5,7.327,0.0,0.0,0.0,21.8,4.7,-3.5,1024,1024,1024,1024,0,0,0,0,63,4.643,71.78,101.049872,P-GPS,,30.8
514,248600,2026-01-06 16:42:14,0.0,5,7.327,0.0,0.0,0.0,21.8,4.9,-3.6,1024,1024,1024,1024,0,0,0,0,63,4.589,71.78,101.049872,P-GPS,,30.8
515,248700,2026-01-06 16:42:14,0.0,5,7.327,0.0,0.0,0.0,21.9,5.0,-3.3,1024,1024,1024,1024,0,0,0,0,63,4.589,71.78,101.049872,P-GPS,,30.8
516,248800,2026-01-06 16:42:14,0.0,5,7.327,0.0,0.0,0.0,21.9,4.8,-3.3,1024,1024,1024,1024,0,0,0,0,63,4.589,71.78,101.049872,P-GPS,,30.8
517,248900,2026-01-06 16:42:14,0.0,5,7.327,0.0,0.0,0.0,22.0,4.2,-3.1,1024,1024,1024,1024,0,0,0,0,63,4.589,71.78,101.049872,P-GPS,,30.8
518,249000,2026-01-06 16:42:14,0.0,5,7.327,0.0,0.0,0.0,21.9,4.7,-3.0,1024,1024,1024,1024,0,0,0,0,63,4.589,71.78,101.049872,P-GPS,,30.8
519,249100,2026-01-06 16:42:14,0.0,5,7.327,0.0,0.0,0.0,21.8,5.1,-3.0,1024,1024,1024,1024,0,0,0,0,63,4.589,71.78,101.049872,P-GPS,,30.8
520,249200,2026-01-06 16:42:14,0.0,5,7.327,0.0,0.0,0.0,21.9,5.1,-3.2,1024,1024,1024,1024,0,0,0,0,63,4.589,71.78,101.049872,P-GPS,,30.8
521,249300,2026-01-06 16:42:15,0.0,5,7.327,0.0,0.0,0.0,21.8,4.7,-3.5,1024,1024,1024,1024,0,0,0,0,63,4.589,71.78,101.049872,P-GPS,,30.8
522,249400,2026-01-06 16:42:15,0.0,5,7.327,0.0,0.0,0.0,21.9,4.8,-3.4,1024,1024,1024,1024,0,0,0,0,63,4.589,71.78,100.721788,P-GPS,,30.7
523,249500,2026-01-06 16:42:15,0.0,5,7.327,0.0,0.0,0.0,21.8,5.2,-3.4,1024,1024,1024,1024,0,0,0,0,63,4.589,71.78,100.721788,P-GPS,,30.7
524,249600,2026-01-06 16:42:15,0.0,5,7.327,0.0,0.0,0.0,21.9,4.7,-3.5,1024,1024,1024,1024,0,0,0,0,63,4.589,71.78,100.721788,P-GPS,,30.7
525,249700,2026-01-06 16:42:15,0.0,5,7.322,0.0,0.0,0.0,21.9,5.0,-3.3,1024,1024,1024,1024,0,0,0,0,63,4.693,71.78,100.721788,P-GPS,,30.7
526,249800,2026-01-06 16:42:15,0.0,5,7.322,0.0,0.0,0.0,21.9,4.9,-3.2,1024,1024,1024,1024,0,0,0,0,63,4.693,71.78,100.721788,P-GPS,,30.7
527,249900,2026-01-06 16:42:15,0.0,5,7.322,0.0,0.0,0.0,21.9,4.7,-3.4,1024,1024,1024,1024,0,0,0,0,63,4.693,71.78,100.721788,P-GPS,,30.7
528,250000,2026-01-06 16:42:15,0.0,5,7.322,0.0,0.0,0.0,21.8,4.7,-3.5,1024,1024,1024,1024,0,0,0,0,63,4.693,71.78,100.721788,P-GPS,,30.7
529,250100,2026-01-06 16:42:15,0.0,5,7.322,0.0,0.0,0.0,21.7,4.7,-3.6,1024,1024,1024,1024,0,0,0,0,63,4.693,71.78,101.049872,P-GPS,,30.8
530,250200,2026-01-06 16:42:15,0.0,5,7.322,0.0,0.0,0.0,21.6,4.9,-3.6,1024,1024,1024,1024,0,0,0,0,63,4.693,71.78,101.049872,P-GPS,,30.8
531,250300,2026-01-06 16:42:15,0.0,5,7.322,0.0,0.0,0.0,21.6,5.4,-4.0,1024,1024,1024,1024,0,0,0,0,63,4.693,71.78,101.049872,P-GPS,,30.8
532,250400,2026-01-06 16:42:16,0.0,5,7.322,0.0,0.0,0.0,21.6,5.1,-3.6,1024,1024,1024,1024,0,0,0,0,63,4.693,71.78,101.049872,P-GPS,,30.8
533,250500,2026-01-06 16:42:16,0.0,5,7.322,0.0,0.0,0.0,21.5,5.4,-4.1,1024,1024,1024,1024,0,0,0,0,63,4.693,71.78,101.049872,P-GPS,,30.8
534,250600,2026-01-06 16:42:16,0.0,5,7.322,0.0,0.0,0.0,21.5,5.0,-3.9,1024,1024,1024,1024,0,0,0,0,63,4.693,71.78,100.721788,P-GPS,,30.7
535,250700,2026-01-06 16:42:16,0.0,5,7.322,0.0,0.0,0.0,21.6,4.5,-3.6,1024,1024,1024,1024,0,0,0,0,63,4.693,71.78,100.721788,P-GPS,,30.7
536,250800,2026-01-06 16:42:16,0.0,5,7.322,0.0,0.0,0.0,21.6,3.6,-3.9,1024,1024,1024,1024,0,0,0,0,63,4.693,71.78,100.721788,P-GPS,,30.7
537,250900,2026-01-06 16:42:16,0.0,5,7.348,0.0,0.0,0.0,21.6,3.8,-3.9,1024,1024,1024,1024,0,0,0,0,63,4.39,71.78,100.721788,P-GPS,,30.7
538,251000,2026-01-06 16:42:16,0.0,5,7.348,0.0,0.0,0.0,21.6,3.4,-3.7,1024,1024,1024,1024,0,0,0,0,63,4.39,71.78,100.393704,P-GPS,,30.6
539,251100,2026-01-06 16:42:16,0.0,5,7.348,0.0,0.0,0.0,21.6,3.8,-3.8,1024,1024,1024,1024,0,0,0,0,63,4.39,71.78,100.393704,P-GPS,,30.6
540,251200,2026-01-06 16:42:16,0.0,5,7.348,0.0,0.0,0.0,21.6,4.0,-3.8,1024,1024,1024,1024,0,0,0,0,63,4.39,71.78,100.393704,P-GPS,,30.6
541,251300,2026-01-06 16:42:16,0.0,5,7.348,0.0,0.0,0.0,21.6,4.5,-3.8,1024,1024,1024,1024,0,0,0,0,63,4.39,71.78,100.393704,P-GPS,,30.6
542,251400,2026-01-06 16:42:17,0.0,5,7.348,0.0,0.0,0.0,21.7,4.3,-3.8,1024,1024,1024,1024,0,0,0,0,63,4.39,71.78,100.393704,P-GPS,,30.6
543,251500,2026-01-06 16:42:17,0.0,5,7.348,0.0,0.0,0.0,21.6,4.4,-4.0,1024,1024,1024,1024,0,0,0,0,63,4.39,71.78,100.393704,P-GPS,,30.6
544,251600,2026-01-06 16:42:17,0.0,5,7.348,0.0,0.0,0.0,21.6,4.0,-4.2,1024,1024,1024,1024,0,0,0,0,63,4.39,71.78,100.393704,P-GPS,,30.6
545,251700,2026-01-06 16:42:17,0.0,5,7.348,0.0,0.0,0.0,21.5,3.8,-4.2,1024,1024,1024,1024,0,0,0,0,63,4.39,71.78,100.393704,P-GPS,,30.6
546,251800,2026-01-06 16:42:17,0.0,5,7.348,0.0,0.0,0.0,21.5,4.0,-4.6,1024,1024,1024,1024,0,0,0,0,63,4.39,71.78,100.393704,P-GPS,,30.6
547,251900,2026-01-06 16:42:17,0.0,5,7.348,0.0,0.0,0.0,21.5,4.8,-4.8,1024,1024,1024,1024,0,0,0,0,63,4.39,71.78,100.393704,P-GPS,,30.6
548,252000,2026-01-06 16:42:17,0.0,5,7.356,0.0,0.0,0.0,21.6,4.6,-4.6,1024,1024,1024,1024,0,0,0,0,62,4.277,71.78,100.393704,P-GPS,,30.6
549,252100,2026-01-06 16:42:17,0.0,5,7.356,0.0,0.0,0.0,21.6,5.0,-4.3,1024,1024,1024,1024,0,0,0,0,62,4.277,71.78,100.393704,P-GPS,,30.6
550,252200,2026-01-06 16:42:17,0.0,5,7.356,0.0,0.0,0.0,21.6,4.8,-4.6,1024,1024,1024,1024,0,0,0,0,62,4.277,71.78,100.393704,P-GPS,,30.6
551,252300,2026-01-06 16:42:17,0.0,5,7.356,0.0,0.0,0.0,21.7,4.7,-4.4,1024,1024,1024,1024,0,0,0,0,62,4.277,71.78,100.393704,P-GPS,,30.6
552,252400,2026-01-06 16:42:18,0.0,5,7.356,0.0,0.0,0.0,21.7,4.5,-4.5,1024,1024,1024,1024,0,0,0,0,62,4.277,71.78,100.393704,P-GPS,,30.6
553,252500,2026-01-06 16:42:18,0.0,5,7.356,0.0,0.0,0.0,21.8,4.3,-4.7,1024,1024,1024,1024,0,0,0,0,62,4.277,71.78,100.393704,P-GPS,,30.6
554,252600,2026-01-06 16:42:18,0.0,5,7.356,0.0,0.0,0.0,21.9,3.7,-5.0,1024,1024,1024,1024,0,0,0,0,62,4.277,71.78,100.393704,P-GPS,,30.6
555,252700,2026-01-06 16:42:18,0.0,5,7.356,0.0,0.0,0.0,21.9,3.8,-5.1,1024,1024,1024,1024,0,0,0,0,62,4.277,71.78,100.393704,P-GPS,,30.6
556,252800,2026-01-06 16:42:18,0.0,5,7.356,0.0,0.0,0.0,21.8,3.9,-5.1,1024,1024,1024,1024,0,0,0,0,62,4.277,71.78,100.393704,P-GPS,,30.6
557,252900,2026-01-06 16:42:18,0.0,5,7.356,0.0,0.0,0.0,21.8,4.1,-5.0,1024,1024,1024,1024,0,0,0,0,62,4.277,71.78,100.393704,P-GPS,,30.6
558,253000,2026-01-06 16:42:18,0.0,5,7.356,0.0,0.0,0.0,21.8,4.1,-5.1,1024,1024,1024,1024,0,0,0,0,62,4.277,71.78,100.393704,P-GPS,,30.6
559,253100,2026-01-06 16:42:18,0.0,5,7.356,0.0,0.0,0.0,21.8,4.2,-5.2,1024,1024,1024,1024,0,0,0,0,62,4.277,71.78,100.393704,P-GPS,,30.6
560,253200,2026-01-06 16:42:18,0.0,5,7.356,0.0,0.0,0.0,21.8,4.2,-5.1,1024,1024,1024,1024,0,0,0,0,62,4.277,71.78,100.393704,P-GPS,,30.6
561,253300,2026-01-06 16:42:18,0.0,5,7.356,0.0,0.0,0.0,21.8,4.2,-5.1,1024,1024,1024,1024,0,0,0,0,62,4.277,71.78,100.393704,P-GPS,,30.6
562,253400,2026-01-06 16:42:19,0.0,5,7.356,0.0,0.0,0.0,21.8,4.1,-5.4,1024,1024,1024,1024,0,0,0,0,62,4.277,71.78,100.393704,P-GPS,,30.6
563,253500,2026-01-06 16:42:19,0.0,5,7.356,0.0,0.0,0.0,21.8,4.2,-5.4,1024,1024,1024,1024,0,0,0,0,62,4.277,71.78,100.393704,P-GPS,,30.6
564,253600,2026-01-06 16:42:19,0.0,5,7.356,0.0,0.0,0.0,21.9,4.2,-5.3,1024,1024,1024,1024,0,0,0,0,62,4.277,71.78,100.393704,P-GPS,,30.6
565,253700,2026-01-06 16:42:19,0.0,5,7.356,0.0,0.0,0.0,21.9,4.3,-5.3,1024,1024,1024,1024,0,0,0,0,62,4.277,71.78,100.393704,P-GPS,,30.6
566,253800,2026-01-06 16:42:19,0.0,5,7.356,0.0,0.0,0.0,21.8,4.2,-5.2,1024,1024,1024,1024,0,0,0,0,62,4.277,71.78,100.393704,P-GPS,,30.6
567,253900,2026-01-06 16:42:19,0.0,5,7.356,0.0,0.0,0.0,21.9,4.3,-5.1,1024,1024,1024,1024,0,0,0,0,62,4.277,71.78,100.393704,P-GPS,,30.6
568,254000,2026-01-06 16:42:19,0.0,5,7.356,0.0,0.0,0.0,21.9,4.4,-5.2,1024,1024,1024,1024,0,0,0,0,62,4.277,71.78,100.393704,P-GPS,,30.6
569,254100,2026-01-06 16:42:19,0.0,5,7.356,0.0,0.0,0.0,21.8,4.7,-5.1,1024,1024,1024,1024,0,0,0,0,62,4.277,71.78,100.393704,P-GPS,,30.6
570,254200,2026-01-06 16:42:19,0.0,5,7.356,0.0,0.0,0.0,21.8,4.7,-5.0,1024,1024,1024,1024,0,0,0,0,62,4.277,71.78,100.06562,P-GPS,,30.5
571,254300,2026-01-06 16:42:20,0.0,5,7.317,0.0,0.0,0.0,21.8,4.8,-4.7,1024,1024,1024,1024,0,0,0,0,62,4.833,71.78,100.06562,P-GPS,,30.5
572,254400,2026-01-06 16:42:20,0.0,5,7.317,0.0,0.0,0.0,21.8,4.5,-4.7,1024,1024,1024,1024,0,0,0,0,62,4.833,71.78,100.06562,P-GPS,,30.5
573,254500,2026-01-06 16:42:20,0.0,5,7.317,0.0,0.0,0.0,21.8,4.6,-4.6,1024,1024,1024,1024,0,0,0,0,62,4.833,71.78,100.06562,P-GPS,,30.5
574,254600,2026-01-06 16:42:20,0.0,5,7.317,0.0,0.0,0.0,21.8,4.5,-4.3,1024,1024,1024,1024,0,0,0,0,62,4.833,71.78,100.06562,P-GPS,,30.5
575,254700,2026-01-06 16:42:20,0.0,5,7.317,0.0,0.0,0.0,21.8,4.8,-4.6,1024,1024,1024,1024,0,0,0,0,62,4.833,71.78,100.06562,P-GPS,,30.5
576,254800,2026-01-06 16:42:20,0.0,5,7.317,0.0,0.0,0.0,21.8,4.7,-4.6,1024,1024,1024,1024,0,0,0,0,62,4.833,71.78,100.06562,P-GPS,,30.5
577,254900,2026-01-06 16:42:20,0.0,5,7.317,0.0,0.0,0.0,21.7,4.8,-4.8,1024,1024,1024,1024,0,0,0,0,62,4.833,71.78,100.06562,P-GPS,,30.5
578,255000,2026-01-06 16:42:20,0.0,5,7.317,0.0,0.0,0.0,21.7,5.1,-4.8,1024,1024,1024,1024,0,0,0,0,62,4.833,71.78,100.06562,P-GPS,,30.5
579,255100,2026-01-06 16:42:20,0.0,5,7.317,0.0,0.0,0.0,21.8,5.2,-4.7,1024,1024,1024,1024,0,0,0,0,62,4.833,71.78,100.06562,P-GPS,,30.5
580,255200,2026-01-06 16:42:20,0.0,5,7.317,0.0,0.0,0.0,21.8,5.1,-4.5,1024,1024,1024,1024,0,0,0,0,62,4.833,71.78,100.06562,P-GPS,,30.5
581,255300,2026-01-06 16:42:20,0.0,5,7.317,0.0,0.0,0.0,21.9,4.9,-4.4,1024,1024,1024,1024,0,0,0,0,62,4.833,71.78,100.06562,P-GPS,,30.5
582,255400,2026-01-06 16:42:21,0.0,5,7.315,0.0,0.0,0.0,21.8,4.9,-4.2,1024,1024,1024,1024,0,0,0,0,62,4.885,71.78,100.06562,P-GPS,,30.5
583,255500,2026-01-06 16:42:21,0.0,5,7.315,0.0,0.0,0.0,21.7,5.0,-4.6,1024,1024,1024,1024,0,0,0,0,62,4.885,71.78,100.06562,P-GPS,,30.5
584,255600,2026-01-06 16:42:21,0.0,5,7.315,0.0,0.0,0.0,21.7,5.0,-4.7,1024,1024,1024,1024,0,0,0,0,62,4.885,71.78,100.06562,P-GPS,,30.5
585,255700,2026-01-06 16:42:21,0.0,5,7.315,0.0,0.0,0.0,21.8,4.7,-4.8,1024,1024,1024,1024,0,0,0,0,62,4.885,71.78,100.06562,P-GPS,,30.5
586,255800,2026-01-06 16:42:21,0.0,5,7.315,0.0,0.0,0.0,21.8,4.4,-4.7,1024,1024,1024,1024,0,0,0,0,62,4.885,71.78,100.06562,P-GPS,,30.5
587,255900,2026-01-06 16:42:21,0.0,5,7.315,0.0,0.0,0.0,21.7,5.3,-4.6,1024,1024,1024,1024,0,0,0,0,62,4.885,71.78,100.06562,P-GPS,,30.5
588,256000,2026-01-06 16:42:21,0.0,5,7.315,0.0,0.0,0.0,21.7,5.8,-4.6,1024,1024,1024,1024,0,0,0,0,62,4.885,71.78,100.06562,P-GPS,,30.5
589,256100,2026-01-06 16:42:21,0.0,5,7.315,0.0,0.0,0.0,21.7,5.7,-4.7,1024,1024,1024,1024,0,0,0,0,62,4.885,71.78,100.06562,P-GPS,,30.5
590,256200,2026-01-06 16:42:21,0.0,5,7.315,0.0,0.0,0.0,21.7,5.6,-4.9,1024,1024,1024,1024,0,0,0,0,62,4.885,71.78,100.06562,P-GPS,,30.5
591,256300,2026-01-06 16:42:21,0.0,5,7.315,0.0,0.0,0.0,21.7,5.5,-4.9,1024,1024,1024,1024,0,0,0,0,62,4.885,71.78,100.06562,P-GPS,,30.5
592,256400,2026-01-06 16:42:22,0.0,5,7.315,0.0,0.0,0.0,21.9,5.0,-4.7,1024,1024,1024,1024,0,0,0,0,62,4.885,71.78,100.06562,P-GPS,,30.5
593,256500,2026-01-06 16:42:22,0.0,5,7.322,0.0,0.0,0.0,21.8,5.3,-4.7,1024,1024,1024,1024,0,0,0,0,62,4.732,71.96,100.06562,P-GPS,,30.5
594,256600,2026-01-06 16:42:22,0.0,5,7.322,0.0,0.0,0.0,21.9,5.3,-4.1,1024,1024,1024,1024,0,0,0,0,62,4.732,71.96,100.06562,P-GPS,,30.5
595,256700,2026-01-06 16:42:22,0.0,5,7.322,0.0,0.0,0.0,21.8,5.8,-4.4,1024,1024,1024,1024,0,0,0,0,62,4.732,71.96,100.06562,P-GPS,,30.5
596,256800,2026-01-06 16:42:22,0.0,5,7.322,0.0,0.0,0.0,21.8,5.7,-4.2,1024,1024,1024,1024,0,0,0,0,62,4.732,71.96,100.06562,P-GPS,,30.5
597,256900,2026-01-06 16:42:22,0.0,5,7.322,0.0,0.0,0.0,21.7,5.2,-4.4,1024,1024,1024,1024,0,0,0,0,62,4.732,71.96,100.06562,P-GPS,,30.5
598,257000,2026-01-06 16:42:22,0.0,5,7.322,0.0,0.0,0.0,21.8,5.4,-4.3,1024,1024,1024,1024,0,0,0,0,62,4.732,71.96,100.393704,P-GPS,,30.6
599,257100,2026-01-06 16:42:22,0.0,5,7.322,0.0,0.0,0.0,21.8,5.3,-4.5,1024,1024,1024,1024,0,0,0,0,62,4.732,71.96,100.393704,P-GPS,,30.6
600,257200,2026-01-06 16:42:22,0.0,5,7.322,0.0,0.0,0.0,21.8,4.9,-4.7,1024,1024,1024,1024,0,0,0,0,62,4.732,71.96,100.393704,P-GPS,,30.6
601,257300,2026-01-06 16:42:22,0.0,5,7.322,0.0,0.0,0.0,21.9,5.2,-4.5,1024,1024,1024,1024,0,0,0,0,62,4.732,71.96,100.393704,P-GPS,,30.6
602,257400,2026-01-06 16:42:23,0.0,5,7.322,0.0,0.0,0.0,21.8,5.6,-4.4,1024,1024,1024,1024,0,0,0,0,62,4.732,71.96,100.393704,P-GPS,,30.6
603,257500,2026-01-06 16:42:23,0.0,5,7.322,0.0,0.0,0.0,21.8,5.1,-4.7,1024,1024,1024,1024,0,0,0,0,62,4.732,71.96,100.393704,P-GPS,,30.6
604,257600,2026-01-06 16:42:23,0.0,5,7.322,0.0,0.0,0.0,21.8,5.3,-4.7,1024,1024,1024,1024,0,0,0,0,62,4.732,71.96,100.393704,P-GPS,,30.6
605,257700,2026-01-06 16:42:23,0.0,5,7.325,0.0,0.0,0.0,21.8,5.5,-4.6,1024,1024,1024,1024,0,0,0,0,62,4.66,71.96,100.393704,P-GPS,,30.6
