time(millisecond),timestamp,speed(mph),gpslevel,voltage(v),xSpeed(mph),ySpeed(mph),zSpeed(mph),compass_heading(degrees),pitch(degrees),roll(degrees),rc_elevator,rc_aileron,rc_throttle,rc_rudder,rc_elevator(percent),rc_aileron(percent),rc_throttle(percent),rc_rudder(percent),battery_percent,current(A),battery_temperature(f),ascent(feet),flycState,message,height_above_takeoff(meters)
397900,2026-01-06 16:48:19,0.0,5,7.045,0.0,0.0,0.0,10.2,0.2,-7.7,1024,1024,1024,1024,0,0,0,0,51,6.504,76.1,167.32284,P-GPS,,51.0
398000,2026-01-06 16:48:19,0.0,5,7.045,0.0,0.0,0.0,10.3,0.7,-7.5,1024,1024,1024,1024,0,0,0,0,51,6.504,76.1,167.650924,P-GPS,,51.1
398100,2026-01-06 16:48:20,0.0,5,7.045,0.0,0.0,0.0,10.4,0.5,-7.1,1024,1024,1024,1024,0,0,0,0,51,6.504,76.1,167.650924,P-GPS,,51.1
398200,2026-01-06 16:48:20,0.0,5,7.045,0.0,0.0,0.0,10.4,0.3,-6.8,1024,1024,1024,1024,0,0,0,0,51,6.504,76.1,167.650924,P-GPS,,51.1
398300,2026-01-06 16:48:20,0.0,5,7.122,0.0,0.0,0.0,10.5,0.0,-6.6,1024,1024,1024,1024,0,0,0,0,51,4.443,76.1,167.979008,P-GPS,,51.2
398400,2026-01-06 16:48:20,0.0,5,7.122,0.0,0.0,0.0,10.3,0.7,-5.9,1024,1024,1024,1024,0,0,0,0,51,4.443,76.1,167.979008,P-GPS,,51.2
398500,2026-01-06 16:48:20,0.0,5,7.122,0.0,0.0,0.0,10.3,0.6,-6.2,1024,1024,1024,1024,0,0,0,0,51,4.443,76.1,167.979008,P-GPS,,51.2
398600,2026-01-06 16:48:20,0.0,5,7.122,0.0,0.0,0.0,10.2,1.2,-6.0,1024,1024,1024,1024,0,0,0,0,51,4.443,76.1,167.979008,P-GPS,,51.2
398700,2026-01-06 16:48:20,0.0,5,7.122,0.0,0.0,0.0,10.3,1.2,-5.9,1024,1024,1024,1024,0,0,0,0,51,4.443,76.1,167.979008,P-GPS,,51.2
398800,2026-01-06 16:48:20,0.0,5,7.122,0.0,0.0,0.0,10.4,1.0,-5.7,1024,1024,1024,1024,0,0,0,0,51,4.443,76.1,167.979008,P-GPS,,51.2
398900,2026-01-06 16:48:20,0.0,5,7.122,0.0,0.0,0.0,10.3,1.7,-6.0,1024,1024,1024,1024,0,0,0,0,51,4.443,76.1,167.979008,P-GPS,,51.2
399000,2026-01-06 16:48:20,0.0,5,7.122,0.0,0.0,0.0,10.3,1.7,-5.7,1024,1024,1024,1024,0,0,0,0,51,4.443,76.1,167.979008,P-GPS,,51.2
399100,2026-01-06 16:48:21,0.0,5,7.122,0.0,0.0,0.0,10.3,2.2,-5.9,1024,1024,1024,1024,0,0,0,0,51,4.443,76.1,167.979008,P-GPS,,51.2
399200,2026-01-06 16:48:21,0.0,5,7.122,0.0,0.0,0.0,10.4,2.3,-6.1,1024,1024,1024,1024,0,0,0,0,51,4.443,76.1,167.979008,P-GPS,,51.2
399300,2026-01-06 16:48:21,0.0,5,7.122,0.0,0.0,0.0,10.4,2.1,-6.1,1024,1024,1024,1024,0,0,0,0,51,4.443,76.1,167.979008,P-GPS,,51.2
399400,2026-01-06 16:48:21,0.0,5,7.114,0.0,0.0,0.0,10.3,2.6,-6.1,1024,1024,1024,1024,0,0,0,0,51,5.254,76.28,168.307092,P-GPS,,51.3
399500,2026-01-06 16:48:21,0.0,5,7.114,0.0,0.0,0.0,10.3,3.3,-6.0,1024,1024,1024,1024,0,0,0,0,51,5.254,76.28,168.307092,P-GPS,,51.3
399600,2026-01-06 16:48:21,0.0,5,7.114,0.0,0.0,0.0,10.2,3.8,-6.3,1024,1024,1024,1024,0,0,0,0,51,5.254,76.28,168.307092,P-GPS,,51.3
399700,2026-01-06 16:48:21,0.0,5,7.114,0.0,0.0,0.0,10.1,4.0,-6.3,1024,1024,1024,1024,0,0,0,0,51,5.254,76.28,168.307092,P-GPS,,51.3
399800,2026-01-06 16:48:21,0.0,5,7.114,0.0,0.0,0.0,10.2,3.7,-6.2,1024,1024,1024,1024,0,0,0,0,51,5.254,76.28,168.307092,P-GPS,,51.3
399900,2026-01-06 16:48:21,0.0,5,7.114,0.0,0.0,0.0,10.2,3.7,-6.3,1024,1024,1024,1024,0,0,0,0,51,5.254,76.28,168.307092,P-GPS,,51.3
400000,2026-01-06 16:48:21,0.0,5,7.114,0.0,0.0,0.0,10.2,3.4,-6.3,1024,1024,1024,1024,0,0,0,0,51,5.254,76.28,168.307092,P-GPS,,51.3
400100,2026-01-06 16:48:21,0.0,5,7.114,0.0,0.0,0.0,10.1,3.3,-6.3,1024,1024,1024,1024,0,0,0,0,51,5.254,76.28,168.307092,P-GPS,,51.3
400200,2026-01-06 16:48:22,0.0,5,7.114,0.0,0.0,0.0,10.1,2.9,-6.6,1024,1024,1024,1024,0,0,0,0,51,5.254,76.28,168.307092,P-GPS,,51.3
400300,2026-01-06 16:48:22,0.0,5,7.114,0.0,0.0,0.0,10.1,2.7,-7.3,1024,1024,1024,1024,0,0,0,0,51,5.254,76.28,168.307092,P-GPS,,51.3
400400,2026-01-06 16:48:22,0.0,5,7.114,0.0,0.0,0.0,10.0,2.5,-7.9,1024,1024,1024,1024,0,0,0,0,51,5.254,76.28,168.635176,P-GPS,,51.4
401100,2026-01-06 16:48:23,0.0,5,7.124,0.0,0.0,0.0,10.2,2.2,-8.0,1024,1024,1024,1024,0,0,0,0,51,4.989,76.28,168.307092,P-GPS,,51.3
401300,2026-01-06 16:48:23,0.0,5,7.124,0.0,0.0,0.0,10.7,0.9,-7.2,1024,1024,1024,1024,0,0,0,0,51,4.989,76.28,168.307092,P-GPS,,51.3
401400,2026-01-06 16:48:23,0.0,5,7.124,0.0,0.0,0.0,10.5,2.3,-7.4,1024,1024,1024,1024,0,0,0,0,51,4.989,76.28,168.307092,P-GPS,,51.3
401500,2026-01-06 16:48:23,0.0,5,7.124,0.0,0.0,0.0,10.2,3.2,-7.4,1024,1024,1024,1024,0,0,0,0,51,4.989,76.28,168.307092,P-GPS,,51.3
401600,2026-01-06 16:48:23,0.0,5,7.124,0.0,0.0,0.0,10.1,3.8,-7.3,1024,1024,1024,1024,0,0,0,0,51,4.989,76.28,167.979008,P-GPS,,51.2
401700,2026-01-06 16:48:23,0.0,5,7.113,0.0,0.0,0.0,10.1,3.8,-6.7,1024,1024,1024,1024,0,0,0,0,51,5.337,76.46,167.979008,P-GPS,,51.2
401800,2026-01-06 16:48:23,0.0,5,7.113,0.0,0.0,0.0,10.3,3.1,-6.1,1024,1024,1024,1024,0,0,0,0,51,5.337,76.46,167.979008,P-GPS,,51.2
401900,2026-01-06 16:48:23,0.0,5,7.113,0.0,0.0,0.0,10.3,2.8,-5.6,1024,1024,1024,1024,0,0,0,0,51,5.337,76.46,167.979008,P-GPS,,51.2
402000,2026-01-06 16:48:23,0.0,5,7.113,0.0,0.0,0.0,10.3,2.9,-5.7,1024,1024,1024,1024,0,0,0,0,51,5.337,76.46,167.979008,P-GPS,,51.2
402100,2026-01-06 16:48:23,0.0,5,7.113,0.0,0.0,0.0,10.2,2.9,-5.9,1024,1024,1024,1024,0,0,0,0,51,5.337,76.46,167.979008,P-GPS,,51.2
402200,2026-01-06 16:48:24,0.0,5,7.113,0.0,0.0,0.0,10.1,3.0,-5.4,1024,1024,1024,1024,0,0,0,0,51,5.337,76.46,167.650924,P-GPS,,51.1
402300,2026-01-06 16:48:24,0.0,5,7.113,0.0,0.0,0.0,10.1,2.4,-5.5,1024,1024,1024,1024,0,0,0,0,51,5.337,76.46,167.650924,P-GPS,,51.1
402400,2026-01-06 16:48:24,0.0,5,7.113,0.0,0.0,0.0,10.1,1.8,-5.4,1024,1024,1024,1024,0,0,0,0,51,5.337,76.46,167.650924,P-GPS,,51.1
402500,2026-01-06 16:48:24,0.0,5,7.113,0.0,0.0,0.0,10.1,2.5,-5.5,1024,1024,1024,1024,0,0,0,0,51,5.337,76.46,167.650924,P-GPS,,51.1
402600,2026-01-06 16:48:24,0.0,5,7.113,0.0,0.0,0.0,10.1,2.8,-5.9,1024,1024,1024,1024,0,0,0,0,51,5.337,76.46,167.650924,P-GPS,,51.1
402700,2026-01-06 16:48:24,0.0,5,7.113,0.0,0.0,0.0,10.1,2.5,-6.3,1024,1024,1024,1024,0,0,0,0,51,5.337,76.46,167.650924,P-GPS,,51.1
402800,2026-01-06 16:48:24,0.0,5,7.124,0.0,0.0,0.0,10.1,2.2,-6.2,1024,1024,1024,1024,0,0,0,0,51,4.982,76.46,167.650924,P-GPS,,51.1
402900,2026-01-06 16:48:24,0.0,5,7.124,0.0,0.0,0.0,10.1,2.2,-6.3,1024,1024,1024,1024,0,0,0,0,51,4.982,76.46,167.650924,P-GPS,,51.1
403000,2026-01-06 16:48:24,0.0,5,7.124,0.0,0.0,0.0,10.1,2.4,-5.8,1024,1024,1024,1024,0,0,0,0,51,4.982,76.46,167.650924,P-GPS,,51.1
403100,2026-01-06 16:48:24,0.0,5,7.124,0.0,0.0,0.0,10.3,2.5,-5.5,1024,1024,1024,1024,0,0,0,0,51,4.982,76.46,167.979008,P-GPS,,51.2
403200,2026-01-06 16:48:25,0.0,5,7.124,0.0,0.0,0.0,10.3,3.1,-5.9,1024,1024,1024,1024,0,0,0,0,51,4.982,76.46,167.979008,P-GPS,,51.2
403300,2026-01-06 16:48:25,0.0,5,7.124,0.0,0.0,0.0,10.0,3.7,-6.6,1024,1024,1024,1024,0,0,0,0,51,4.982,76.46,167.979008,P-GPS,,51.2
403400,2026-01-06 16:48:25,0.0,5,7.124,0.0,0.0,0.0,10.0,3.3,-6.9,1024,1024,1024,1024,0,0,0,0,51,4.982,76.46,167.979008,P-GPS,,51.2
403500,2026-01-06 16:48:25,0.0,5,7.124,0.0,0.0,0.0,10.1,3.3,-6.6,1024,1024,1024,1024,0,0,0,0,51,4.982,76.46,167.979008,P-GPS,,51.2
403600,2026-01-06 16:48:25,0.0,5,7.124,0.0,0.0,0.0,10.4,1.5,-6.4,1024,1024,1024,1024,0,0,0,0,51,4.982,76.46,167.979008,P-GPS,,51.2
403700,2026-01-06 16:48:25,0.0,5,7.124,0.0,0.0,0.0,10.4,1.5,-7.2,1024,1024,1024,1024,0,0,0,0,51,4.982,76.46,167.979008,P-GPS,,51.2
403800,2026-01-06 16:48:25,0.0,5,7.124,0.0,0.0,0.0,10.1,2.8,-7.9,1024,1024,1024,1024,0,0,0,0,51,4.982,76.46,167.979008,P-GPS,,51.2
404100,2026-01-06 16:48:25,0.0,5,7.132,0.0,0.0,0.0,10.2,2.0,-7.5,1024,1024,1024,1024,0,0,0,0,51,4.922,76.46,167.979008,P-GPS,,51.2
404200,2026-01-06 16:48:26,0.0,5,7.132,0.0,0.0,0.0,10.4,1.4,-7.4,1024,1024,1024,1024,0,0,0,0,51,4.922,76.46,167.979008,P-GPS,,51.2
404300,2026-01-06 16:48:26,0.0,5,7.132,0.0,0.0,0.0,10.3,1.7,-7.4,1024,1024,1024,1024,0,0,0,0,51,4.922,76.46,167.979008,P-GPS,,51.2
404400,2026-01-06 16:48:26,0.0,5,7.132,0.0,0.0,0.0,10.3,2.4,-7.5,1024,1024,1024,1024,0,0,0,0,51,4.922,76.46,168.307092,P-GPS,,51.3
404500,2026-01-06 16:48:26,0.0,5,7.132,0.0,0.0,0.0,10.3,2.0,-7.4,1024,1024,1024,1024,0,0,0,0,51,4.922,76.46,168.307092,P-GPS,,51.3
404600,2026-01-06 16:48:26,0.0,5,7.132,0.0,0.0,0.0,10.2,2.6,-7.5,1024,1024,1024,1024,0,0,0,0,51,4.922,76.46,168.307092,P-GPS,,51.3
404700,2026-01-06 16:48:26,0.0,5,7.132,0.0,0.0,0.0,10.1,2.8,-7.5,1024,1024,1024,1024,0,0,0,0,51,4.922,76.46,168.307092,P-GPS,,51.3
404800,2026-01-06 16:48:26,0.0,5,7.132,0.0,0.0,0.0,10.2,2.7,-7.8,1024,1024,1024,1024,0,0,0,0,51,4.922,76.46,168.307092,P-GPS,,51.3
404900,2026-01-06 16:48:26,0.0,5,7.132,0.0,0.0,0.0,10.3,2.7,-7.9,1024,1024,1024,1024,0,0,0,0,51,4.922,76.46,168.307092,P-GPS,,51.3
405200,2026-01-06 16:48:27,0.0,5,7.132,0.0,0.0,0.0,10.3,1.7,-8.4,1024,1024,1024,1024,0,0,0,0,51,4.922,76.46,167.979008,P-GPS,,51.2
405500,2026-01-06 16:48:27,0.0,5,7.132,0.0,0.0,0.0,10.5,0.7,-7.2,1024,1024,1024,1024,0,0,0,0,51,4.922,76.46,167.979008,P-GPS,,51.2
405600,2026-01-06 16:48:27,0.0,5,7.132,0.0,0.0,0.0,10.5,1.0,-7.4,1024,1024,1024,1024,0,0,0,0,51,4.922,76.46,167.979008,P-GPS,,51.2
405700,2026-01-06 16:48:27,0.0,5,7.132,0.0,0.0,0.0,10.6,0.8,-7.9,1024,1024,1024,1024,0,0,0,0,51,4.922,76.46,167.979008,P-GPS,,51.2
405800,2026-01-06 16:48:27,0.0,5,7.132,0.0,0.0,0.0,10.5,1.2,-7.6,1024,1024,1024,1024,0,0,0,0,51,4.922,76.46,167.979008,P-GPS,,51.2
405900,2026-01-06 16:48:27,0.0,5,7.132,0.0,0.0,0.0,10.3,2.4,-7.7,1024,1024,1024,1024,0,0,0,0,51,4.922,76.46,167.979008,P-GPS,,51.2
406000,2026-01-06 16:48:27,0.0,5,7.132,0.0,0.0,0.0,10.3,2.5,-7.5,1024,1024,1024,1024,0,0,0,0,51,4.922,76.46,167.650924,P-GPS,,51.1
406100,2026-01-06 16:48:27,0.0,5,7.132,0.0,0.0,0.0,10.3,2.8,-6.8,1024,1024,1024,1024,0,0,0,0,51,4.922,76.46,167.650924,P-GPS,,51.1
406200,2026-01-06 16:48:28,0.0,5,7.111,0.0,0.0,0.0,10.4,2.1,-6.3,1024,1024,1024,1024,0,0,0,0,50,5.366,76.46,167.650924,P-GPS,,51.1
406300,2026-01-06 16:48:28,0.0,5,7.111,0.0,0.0,0.0,10.3,2.3,-6.4,1024,1024,1024,1024,0,0,0,0,50,5.366,76.46,167.650924,P-GPS,,51.1
406400,2026-01-06 16:48:28,0.0,5,7.111,0.0,0.0,0.0,10.2,2.9,-6.4,1024,1024,1024,1024,0,0,0,0,50,5.366,76.46,167.650924,P-GPS,,51.1
406500,2026-01-06 16:48:28,0.0,5,7.111,0.0,0.0,0.0,10.1,3.5,-6.2,1024,1024,1024,1024,0,0,0,0,50,5.366,76.46,167.32284,P-GPS,,51.0
406600,2026-01-06 16:48:28,0.0,5,7.111,0.0,0.0,0.0,10.2,3.1,-6.2,1024,1024,1024,1024,0,0,0,0,50,5.366,76.46,167.32284,P-GPS,,51.0
406700,2026-01-06 16:48:28,0.0,5,7.111,0.0,0.0,0.0,10.2,3.3,-6.4,1024,1024,1024,1024,0,0,0,0,50,5.366,76.46,167.32284,P-GPS,,51.0
406800,2026-01-06 16:48:28,0.0,5,7.111,0.0,0.0,0.0,10.3,3.9,-6.4,1024,1024,1024,1024,0,0,0,0,50,5.366,76.46,167.32284,P-GPS,,51.0
406900,2026-01-06 16:48:28,0.0,5,7.111,0.0,0.0,0.0,10.4,4.3,-6.0,1024,1024,1024,1024,0,0,0,0,50,5.366,76.46,167.32284,P-GPS,,51.0
407000,2026-01-06 16:48:28,0.0,5,7.111,0.0,0.0,0.0,10.4,4.0,-6.4,1024,1024,1024,1024,0,0,0,0,50,5.366,76.46,167.32284,P-GPS,,51.0
407100,2026-01-06 16:48:29,0.0,5,7.111,0.0,0.0,0.0,10.4,4.4,-6.7,1024,1024,1024,1024,0,0,0,0,50,5.366,76.46,167.32284,P-GPS,,51.0
407200,2026-01-06 16:48:29,0.0,5,7.111,0.0,0.0,0.0,10.4,4.9,-6.8,1024,1024,1024,1024,0,0,0,0,50,5.366,76.46,167.32284,P-GPS,,51.0
407300,2026-01-06 16:48:29,0.0,5,7.129,0.0,0.0,0.0,10.4,5.1,-6.2,1024,1024,1024,1024,0,0,0,0,50,4.882,76.64,166.994756,P-GPS,,50.9
407400,2026-01-06 16:48:29,0.0,5,7.129,0.0,0.0,0.0,10.3,5.6,-6.3,1024,1024,1024,1024,0,0,0,0,50,4.882,76.64,166.994756,P-GPS,,50.9
407500,2026-01-06 16:48:29,0.0,5,7.129,0.0,0.0,0.0,10.3,5.6,-6.8,1024,1024,1024,1024,0,0,0,0,50,4.882,76.64,166.994756,P-GPS,,50.9
407600,2026-01-06 16:48:29,0.0,5,7.129,0.0,0.0,0.0,10.2,5.9,-6.6,1024,1024,1024,1024,0,0,0,0,50,4.882,76.64,166.994756,P-GPS,,50.9
407700,2026-01-06 16:48:29,0.0,5,7.129,0.0,0.0,0.0,10.2,5.2,-6.2,1024,1024,1024,1024,0,0,0,0,50,4.882,76.64,166.994756,P-GPS,,50.9
407800,2026-01-06 16:48:29,0.0,5,7.129,0.0,0.0,0.0,10.2,4.8,-5.8,1024,1024,1024,1024,0,0,0,0,50,4.882,76.64,166.994756,P-GPS,,50.9
407900,2026-01-06 16:48:29,0.0,5,7.129,0.0,0.0,0.0,10.3,3.7,-5.8,1024,1024,1024,1024,0,0,0,0,50,4.882,76.64,166.994756,P-GPS,,50.9
408000,2026-01-06 16:48:29,0.0,5,7.129,0.0,0.0,0.0,10.3,3.1,-5.8,1024,1024,1024,1024,0,0,0,0,50,4.882,76.64,166.994756,P-GPS,,50.9
408100,2026-01-06 16:48:30,0.0,5,7.129,0.0,0.0,0.0,10.2,3.9,-6.2,1024,1024,1024,1024,0,0,0,0,50,4.882,76.64,166.994756,P-GPS,,50.9
408200,2026-01-06 16:48:30,0.0,5,7.129,0.0,0.0,0.0,10.0,4.9,-6.8,1024,1024,1024,1024,0,0,0,0,50,4.882,76.64,166.994756,P-GPS,,50.9
408300,2026-01-06 16:48:30,0.0,5,7.129,0.0,0.0,0.0,9.9,4.6,-7.2,1024,1024,1024,1024,0,0,0,0,50,4.882,76.64,166.994756,P-GPS,,50.9
408400,2026-01-06 16:48:30,0.0,5,7.115,0.0,0.0,0.0,10.0,4.2,-7.3,1024,1024,1024,1024,0,0,0,0,50,5.31,76.64,166.994756,P-GPS,,50.9
408500,2026-01-06 16:48:30,0.0,5,7.115,0.0,0.0,0.0,10.1,4.2,-7.8,1024,1024,1024,1024,0,0,0,0,50,5.31,76.64,166.994756,P-GPS,,50.9
408600,2026-01-06 16:48:30,0.0,5,7.115,0.0,0.0,0.0,10.1,3.4,-7.9,1024,1024,1024,1024,0,0,0,0,50,5.31,76.64,166.994756,P-GPS,,50.9
408700,2026-01-06 16:48:30,0.0,5,7.115,0.0,0.0,0.0,10.0,3.7,-7.6,1024,1024,1024,1024,0,0,0,0,50,5.31,76.64,166.994756,P-GPS,,50.9
408800,2026-01-06 16:48:30,0.0,5,7.115,0.0,0.0,0.0,10.1,3.3,-7.4,1024,1024,1024,1024,0,0,0,0,50,5.31,76.64,166.994756,P-GPS,,50.9
408900,2026-01-06 16:48:30,0.0,5,7.115,0.0,0.0,0.0,10.2,3.1,-7.3,1024,1024,1024,1024,0,0,0,0,50,5.31,76.64,166.994756,P-GPS,,50.9
409000,2026-01-06 16:48:30,0.0,5,7.115,0.0,0.0,0.0,10.2,3.3,-7.2,1024,1024,1024,1024,0,0,0,0,50,5.31,76.64,166.994756,P-GPS,,50.9
409100,2026-01-06 16:48:30,0.0,5,7.115,0.0,0.0,0.0,10.2,2.9,-7.1,1024,1024,1024,1024,0,0,0,0,50,5.31,76.64,166.994756,P-GPS,,50.9
409200,2026-01-06 16:48:31,0.0,5,7.115,0.0,0.0,0.0,10.2,3.0,-7.1,1024,1024,1024,1024,0,0,0,0,50,5.31,76.64,166.994756,P-GPS,,50.9
409300,2026-01-06 16:48:31,0.0,5,7.115,0.0,0.0,0.0,10.1,2.6,-6.9,1024,1024,1024,1024,0,0,0,0,50,5.31,76.64,166.994756,P-GPS,,50.9
409400,2026-01-06 16:48:31,0.0,5,7.115,0.0,0.0,0.0,10.1,2.3,-7.2,1024,1024,1024,1024,0,0,0,0,50,5.31,76.64,166.994756,P-GPS,,50.9
409500,2026-01-06 16:48:31,0.0,5,7.106,0.0,0.0,0.0,10.2,1.9,-7.3,1024,1024,1024,1024,0,0,0,0,50,5.282,76.64,166.994756,P-GPS,,50.9
409600,2026-01-06 16:48:31,0.0,5,7.106,0.0,0.0,0.0,10.3,1.7,-7.1,1024,1024,1024,1024,0,0,0,0,50,5.282,76.64,166.994756,P-GPS,,50.9
409700,2026-01-06 16:48:31,0.0,5,7.106,0.0,0.0,0.0,10.3,1.7,-7.3,1024,1024,1024,1024,0,0,0,0,50,5.282,76.64,166.994756,P-GPS,,50.9
409800,2026-01-06 16:48:31,0.0,5,7.106,0.0,0.0,0.0,10.2,2.2,-7.4,1024,1024,1024,1024,0,0,0,0,50,5.282,76.64,166.994756,P-GPS,,50.9
409900,2026-01-06 16:48:31,0.0,5,7.106,0.0,0.0,0.0,10.2,2.1,-7.1,1024,1024,1024,1024,0,0,0,0,50,5.282,76.64,167.32284,P-GPS,,51.0
410000,2026-01-06 16:48:31,0.0,5,7.106,0.0,0.0,0.0,10.2,1.9,-7.1,1024,1024,1024,1024,0,0,0,0,50,5.282,76.64,167.32284,P-GPS,,51.0
410100,2026-01-06 16:48:32,0.0,5,7.106,0.0,0.0,0.0,10.2,1.9,-7.0,1024,1024,1024,1024,0,0,0,0,50,5.282,76.64,167.32284,P-GPS,,51.0
410200,2026-01-06 16:48:32,0.0,5,7.106,0.0,0.0,0.0,10.2,1.9,-7.2,1024,1024,1024,1024,0,0,0,0,50,5.282,76.64,167.32284,P-GPS,,51.0
410300,2026-01-06 16:48:32,0.0,5,7.106,0.0,0.0,0.0,10.3,1.6,-7.3,1024,1024,1024,1024,0,0,0,0,50,5.282,76.64,167.32284,P-GPS,,51.0
410400,2026-01-06 16:48:32,0.0,5,7.106,0.0,0.0,0.0,10.4,1.2,-7.4,1024,1024,1024,1024,0,0,0,0,50,5.282,76.64,167.650924,P-GPS,,51.1
410500,2026-01-06 16:48:32,0.0,5,7.106,0.0,0.0,0.0,10.3,1.1,-7.9,1024,1024,1024,1024,0,0,0,0,50,5.282,76.64,167.650924,P-GPS,,51.1
410600,2026-01-06 16:48:32,0.0,5,7.106,0.0,0.0,0.0,10.3,0.9,-7.6,1024,1024,1024,1024,0,0,0,0,50,5.207,76.64,167.650924,P-GPS,,51.1
410700,2026-01-06 16:48:32,0.0,5,7.106,0.0,0.0,0.0,10.3,1.2,-7.5,1024,1024,1024,1024,0,0,0,0,50,5.207,76.64,167.650924,P-GPS,,51.1
410800,2026-01-06 16:48:32,0.0,5,7.106,0.0,0.0,0.0,10.4,1.1,-7.4,1024,1024,1024,1024,0,0,0,0,50,5.207,76.64,167.650924,P-GPS,,51.1
410900,2026-01-06 16:48:32,0.0,5,7.106,0.0,0.0,0.0,10.4,0.9,-7.6,1024,1024,1024,1024,0,0,0,0,50,5.207,76.64,167.650924,P-GPS,,51.1
411000,2026-01-06 16:48:32,0.0,5,7.106,0.0,0.0,0.0,10.5,0.6,-7.7,1024,1024,1024,1024,0,0,0,0,50,5.207,76.64,167.650924,P-GPS,,51.1
411100,2026-01-06 16:48:32,0.0,5,7.106,0.0,0.0,0.0,10.3,1.4,-7.8,1024,1024,1024,1024,0,0,0,0,50,5.207,76.64,167.650924,P-GPS,,51.1
411200,2026-01-06 16:48:33,0.0,5,7.106,0.0,0.0,0.0,10.3,1.3,-7.8,1024,1024,1024,1024,0,0,0,0,50,5.207,76.64,167.650924,P-GPS,,51.1
411300,2026-01-06 16:48:33,0.0,5,7.106,0.0,0.0,0.0,10.3,1.4,-7.7,1024,1024,1024,1024,0,0,0,0,50,5.207,76.64,167.650924,P-GPS,,51.1
411400,2026-01-06 16:48:33,0.0,5,7.106,0.0,0.0,0.0,10.3,1.6,-7.5,1024,1024,1024,1024,0,0,0,0,50,5.207,76.64,167.650924,P-GPS,,51.1
411500,2026-01-06 16:48:33,0.0,5,7.106,0.0,0.0,0.0,10.3,1.7,-7.3,1024,1024,1024,1024,0,0,0,0,50,5.207,76.64,167.650924,P-GPS,,51.1
411600,2026-01-06 16:48:33,0.0,5,7.106,0.0,0.0,0.0,10.3,1.7,-7.2,1024,1024,1024,1024,0,0,0,0,50,5.207,76.64,167.650924,P-GPS,,51.1
411700,2026-01-06 16:48:33,0.0,5,7.106,0.0,0.0,0.0,10.3,1.7,-7.4,1024,1024,1024,1024,0,0,0,0,50,5.207,76.64,167.650924,P-GPS,,51.1
411800,2026-01-06 16:48:33,0.0,5,7.102,0.0,0.0,0.0,10.3,2.0,-7.2,1024,1024,1024,1024,0,0,0,0,50,5.273,76.64,167.650924,P-GPS,,51.1
411900,2026-01-06 16:48:33,0.0,5,7.102,0.0,0.0,0.0,10.3,2.0,-7.0,1024,1024,1024,1024,0,0,0,0,50,5.273,76.64,167.650924,P-GPS,,51.1
412000,2026-01-06 16:48:33,0.0,5,7.102,0.0,0.0,0.0,10.4,2.0,-6.8,1024,1024,1024,1024,0,0,0,0,50,5.273,76.64,167.650924,P-GPS,,51.1
412100,2026-01-06 16:48:34,0.0,5,7.102,0.0,0.0,0.0,10.4,1.5,-7.1,1024,1024,1024,1024,0,0,0,0,50,5.273,76.64,167.650924,P-GPS,,51.1
412200,2026-01-06 16:48:34,0.0,5,7.102,0.0,0.0,0.0,10.4,1.0,-7.1,1024,1024,1024,1024,0,0,0,0,50,5.273,76.64,167.650924,P-GPS,,51.1
412300,2026-01-06 16:48:34,0.0,5,7.102,0.0,0.0,0.0,10.3,1.0,-7.5,1024,1024,1024,1024,0,0,0,0,50,5.273,76.64,167.650924,P-GPS,,51.1
412400,2026-01-06 16:48:34,0.0,5,7.102,0.0,0.0,0.0,10.4,0.9,-7.5,1024,1024,1024,1024,0,0,0,0,50,5.273,76.64,167.650924,P-GPS,,51.1
412500,2026-01-06 16:48:34,0.0,5,7.102,0.0,0.0,0.0,10.4,0.6,-7.6,1024,1024,1024,1024,0,0,0,0,50,5.273,76.64,167.650924,P-GPS,,51.1
412600,2026-01-06 16:48:34,0.0,5,7.102,0.0,0.0,0.0,10.4,0.7,-7.7,1024,1024,1024,1024,0,0,0,0,50,5.273,76.64,167.650924,P-GPS,,51.1
412700,2026-01-06 16:48:34,0.0,5,7.102,0.0,0.0,0.0,10.5,0.1,-7.5,1024,1024,1024,1024,0,0,0,0,50,5.273,76.64,167.650924,P-GPS,,51.1
412800,2026-01-06 16:48:34,0.0,5,7.102,0.0,0.0,0.0,10.5,0.3,-7.3,1024,1024,1024,1024,0,0,0,0,50,5.273,76.64,167.650924,P-GPS,,51.1
412900,2026-01-06 16:48:34,0.0,5,7.104,0.0,0.0,0.0,10.4,0.7,-6.8,1024,1024,1024,1024,0,0,0,0,50,5.208,76.82,167.650924,P-GPS,,51.1
413000,2026-01-06 16:48:34,0.0,5,7.104,0.0,0.0,0.0,10.3,1.3,-7.0,1024,1024,1024,1024,0,0,0,0,50,5.208,76.82,167.650924,P-GPS,,51.1
413100,2026-01-06 16:48:34,0.0,5,7.104,0.0,0.0,0.0,10.3,1.4,-7.0,1024,1024,1024,1024,0,0,0,0,50,5.208,76.82,167.650924,P-GPS,,51.1
413200,2026-01-06 16:48:35,0.0,5,7.104,0.0,0.0,0.0,10.4,1.4,-7.1,1024,1024,1024,1024,0,0,0,0,50,5.208,76.82,167.650924,P-GPS,,51.1
413300,2026-01-06 16:48:35,0.0,5,7.104,0.0,0.0,0.0,10.5,0.7,-7.2,1024,1024,1024,1024,0,0,0,0,50,5.208,76.82,167.650924,P-GPS,,51.1
413400,2026-01-06 16:48:35,0.0,5,7.104,0.0,0.0,0.0,10.5,-0.2,-7.3,1024,1024,1024,1024,0,0,0,0,50,5.208,76.82,167.650924,P-GPS,,51.1
413500,2026-01-06 16:48:35,0.0,5,7.104,0.0,0.0,0.0,10.4,0.0,-7.3,1024,1024,1024,1024,0,0,0,0,50,5.208,76.82,167.650924,P-GPS,,51.1
413600,2026-01-06 16:48:35,0.0,5,7.104,0.0,0.0,0.0,10.4,0.1,-7.3,1024,1024,1024,1024,0,0,0,0,50,5.208,76.82,167.650924,P-GPS,,51.1
413700,2026-01-06 16:48:35,0.0,5,7.104,0.0,0.0,0.0,10.3,0.3,-7.2,1024,1024,1024,1024,0,0,0,0,50,5.208,76.82,167.650924,P-GPS,,51.1
413800,2026-01-06 16:48:35,0.0,5,7.104,0.0,0.0,0.0,10.3,0.4,-7.3,1024,1024,1024,1024,0,0,0,0,50,5.208,76.82,167.650924,P-GPS,,51.1
413900,2026-01-06 16:48:35,0.0,5,7.104,0.0,0.0,0.0,10.3,0.6,-7.7,1024,1024,1024,1024,0,0,0,0,50,5.208,76.82,167.650924,P-GPS,,51.1
414000,2026-01-06 16:48:35,0.0,5,7.104,0.0,0.0,0.0,10.2,1.5,-7.9,1024,1024,1024,1024,0,0,0,0,50,5.208,76.82,167.650924,P-GPS,,51.1
414100,2026-01-06 16:48:36,0.0,5,7.104,0.0,0.0,0.0,10.2,2.2,-7.7,1024,1024,1024,1024,0,0,0,0,50,5.208,76.82,167.650924,P-GPS,,51.1
414200,2026-01-06 16:48:36,0.0,5,7.104,0.0,0.0,0.0,10.1,2.8,-7.4,1024,1024,1024,1024,0,0,0,0,50,5.208,76.82,167.32284,P-GPS,,51.0
414300,2026-01-06 16:48:36,0.0,5,7.104,0.0,0.0,0.0,10.2,2.2,-7.1,1024,1024,1024,1024,0,0,0,0,50,5.208,76.82,167.32284,P-GPS,,51.0
414400,2026-01-06 16:48:36,0.0,5,7.104,0.0,0.0,0.0,10.3,1.5,-6.7,1024,1024,1024,1024,0,0,0,0,50,5.208,76.82,167.32284,P-GPS,,51.0
414500,2026-01-06 16:48:36,0.0,5,7.104,0.0,0.0,0.0,10.3,1.2,-6.6,1024,1024,1024,1024,0,0,0,0,50,5.208,76.82,167.32284,P-GPS,,51.0
414600,2026-01-06 16:48:36,0.0,5,7.104,0.0,0.0,0.0,10.3,0.8,-6.2,1024,1024,1024,1024,0,0,0,0,50,5.208,76.82,167.32284,P-GPS,,51.0
414700,2026-01-06 16:48:36,0.0,5,7.104,0.0,0.0,0.0,10.3,0.8,-6.0,1024,1024,1024,1024,0,0,0,0,50,5.208,76.82,167.32284,P-GPS,,51.0
414800,2026-01-06 16:48:36,0.0,5,7.104,0.0,0.0,0.0,10.3,0.8,-6.3,1024,1024,1024,1024,0,0,0,0,50,5.208,76.82,167.32284,P-GPS,,51.0
414900,2026-01-06 16:48:36,0.0,5,7.104,0.0,0.0,0.0,10.4,0.7,-6.6,1024,1024,1024,1024,0,0,0,0,50,5.208,76.82,167.32284,P-GPS,,51.0
415000,2026-01-06 16:48:36,0.0,5,7.104,0.0,0.0,0.0,10.6,0.1,-6.5,1024,1024,1024,1024,0,0,0,0,50,5.208,76.82,167.32284,P-GPS,,51.0
415100,2026-01-06 16:48:36,0.0,5,7.112,0.0,0.0,0.0,10.5,0.0,-6.9,1024,1024,1024,1024,0,0,0,0,50,5.141,76.82,167.650924,P-GPS,,51.1
415200,2026-01-06 16:48:37,0.0,5,7.112,0.0,0.0,0.0,10.4,0.0,-7.2,1024,1024,1024,1024,0,0,0,0,50,5.141,76.82,167.650924,P-GPS,,51.1
415300,2026-01-06 16:48:37,0.0,5,7.112,0.0,0.0,0.0,10.4,0.2,-7.2,1024,1024,1024,1024,0,0,0,0,50,5.141,76.82,167.650924,P-GPS,,51.1
415400,2026-01-06 16:48:37,0.0,5,7.112,0.0,0.0,0.0,10.1,1.7,-7.5,1024,1024,1024,1024,0,0,0,0,50,5.141,76.82,167.650924,P-GPS,,51.1
415500,2026-01-06 16:48:37,0.0,5,7.112,0.0,0.0,0.0,10.0,2.5,-7.4,1024,1024,1024,1024,0,0,0,0,50,5.141,76.82,167.650924,P-GPS,,51.1
415600,2026-01-06 16:48:37,0.0,5,7.112,0.0,0.0,0.0,10.3,1.5,-6.9,1024,1024,1024,1024,0,0,0,0,50,5.141,76.82,167.650924,P-GPS,,51.1
415700,2026-01-06 16:48:37,0.0,5,7.112,0.0,0.0,0.0,10.3,1.7,-6.5,1024,1024,1024,1024,0,0,0,0,50,5.141,76.82,167.32284,P-GPS,,51.0
415800,2026-01-06 16:48:37,0.0,5,7.112,0.0,0.0,0.0,10.3,2.5,-7.0,1024,1024,1024,1024,0,0,0,0,50,5.141,76.82,167.650924,P-GPS,,51.1
415900,2026-01-06 16:48:37,0.0,5,7.112,0.0,0.0,0.0,10.2,2.6,-7.6,1024,1024,1024,1024,0,0,0,0,50,5.141,76.82,167.650924,P-GPS,,51.1
416000,2026-01-06 16:48:37,0.0,5,7.112,0.0,0.0,0.0,10.3,2.4,-7.3,1024,1024,1024,1024,0,0,0,0,50,5.141,76.82,167.32284,P-GPS,,51.0
416100,2026-01-06 16:48:37,0.0,5,7.112,0.0,0.0,0.0,10.2,2.5,-7.1,1024,1024,1024,1024,0,0,0,0,50,5.141,76.82,167.32284,P-GPS,,51.0
416200,2026-01-06 16:48:38,0.0,5,7.112,0.0,0.0,0.0,10.0,3.6,-7.8,1024,1024,1024,1024,0,0,0,0,50,5.141,76.82,167.32284,P-GPS,,51.0
416300,2026-01-06 16:48:38,0.0,5,7.112,0.0,0.0,0.0,10.2,2.5,-7.3,1024,1024,1024,1024,0,0,0,0,50,5.027,76.82,167.32284,P-GPS,,51.0
416400,2026-01-06 16:48:38,0.0,5,7.112,0.0,0.0,0.0,10.1,3.8,-7.4,1024,1024,1024,1024,0,0,0,0,50,5.027,76.82,167.32284,P-GPS,,51.0
416500,2026-01-06 16:48:38,0.0,5,7.112,0.0,0.0,0.0,9.9,4.2,-7.1,1024,1024,1024,1024,0,0,0,0,50,5.027,76.82,167.32284,P-GPS,,51.0
416600,2026-01-06 16:48:38,0.0,5,7.112,0.0,0.0,0.0,10.1,3.8,-7.3,1024,1024,1024,1024,0,0,0,0,50,5.027,76.82,167.32284,P-GPS,,51.0
416700,2026-01-06 16:48:38,0.0,5,7.112,0.0,0.0,0.0,10.1,3.6,-7.3,1024,1024,1024,1024,0,0,0,0,50,5.027,76.82,167.32284,P-GPS,,51.0
416800,2026-01-06 16:48:38,0.0,5,7.112,0.0,0.0,0.0,10.2,2.5,-7.1,1024,1024,1024,1024,0,0,0,0,50,5.027,76.82,167.32284,P-GPS,,51.0
416900,2026-01-06 16:48:38,0.0,5,7.112,0.0,0.0,0.0,10.3,2.0,-7.0,1024,1024,1024,1024,0,0,0,0,50,5.027,76.82,167.32284,P-GPS,,51.0
417000,2026-01-06 16:48:38,0.0,5,7.112,0.0,0.0,0.0,10.2,3.1,-8.6,1024,1024,1024,1024,0,0,0,0,50,5.027,76.82,167.32284,P-GPS,,51.0
417100,2026-01-06 16:48:39,0.0,5,7.112,0.0,0.0,0.0,10.1,3.1,-9.6,1024,1024,1024,1024,0,0,0,0,50,5.027,76.82,167.32284,P-GPS,,51.0
417200,2026-01-06 16:48:39,0.0,5,7.112,0.0,0.0,0.0,10.1,3.4,-9.2,1024,1024,1024,1024,0,0,0,0,50,5.027,76.82,167.32284,P-GPS,,51.0
417300,2026-01-06 16:48:39,0.0,5,7.112,0.0,0.0,0.0,10.1,3.0,-8.6,1024,1024,1024,1024,0,0,0,0,50,5.027,76.82,167.32284,P-GPS,,51.0
417400,2026-01-06 16:48:39,0.0,5,7.126,0.0,0.0,0.0,10.1,2.7,-8.8,1024,1024,1024,1024,0,0,0,0,50,4.794,76.82,166.994756,P-GPS,,50.9
417500,2026-01-06 16:48:39,0.0,5,7.126,0.0,0.0,0.0,10.2,2.6,-8.6,1024,1024,1024,1024,0,0,0,0,50,4.794,76.82,166.994756,P-GPS,,50.9
417600,2026-01-06 16:48:39,0.0,5,7.126,0.0,0.0,0.0,10.3,2.6,-8.6,1024,1024,1024,1024,0,0,0,0,50,4.794,76.82,166.994756,P-GPS,,50.9
417700,2026-01-06 16:48:39,0.0,5,7.126,0.0,0.0,0.0,10.3,2.2,-8.4,1024,1024,1024,1024,0,0,0,0,50,4.794,76.82,166.994756,P-GPS,,50.9
417800,2026-01-06 16:48:39,0.0,5,7.126,0.0,0.0,0.0,10.4,1.8,-8.1,1024,1024,1024,1024,0,0,0,0,50,4.794,76.82,166.994756,P-GPS,,50.9
417900,2026-01-06 16:48:39,0.0,5,7.126,0.0,0.0,0.0,10.4,1.6,-8.5,1024,1024,1024,1024,0,0,0,0,50,4.794,76.82,166.994756,P-GPS,,50.9
418000,2026-01-06 16:48:39,0.223694,5,7.126,-0.223694,0.0,0.0,10.4,1.6,-9.2,1024,1024,1024,1024,0,0,0,0,50,4.794,76.82,166.994756,P-GPS,,50.9
418100,2026-01-06 16:48:40,0.223694,5,7.126,-0.223694,0.0,0.0,10.3,0.9,-8.9,1024,1024,1024,1024,0,0,0,0,50,4.794,76.82,166.994756,P-GPS,,50.9
418200,2026-01-06 16:48:40,0.223694,5,7.126,-0.223694,0.0,0.0,10.4,0.2,-8.3,1024,1024,1024,1024,0,0,0,0,50,4.794,76.82,166.994756,P-GPS,,50.9
418300,2026-01-06 16:48:40,0.223694,5,7.126,-0.223694,0.0,0.0,10.5,-0.4,-7.6,1024,1024,1024,1024,0,0,0,0,50,4.794,76.82,166.994756,P-GPS,,50.9
418400,2026-01-06 16:48:40,0.0,5,7.126,0.0,0.0,0.0,10.5,-0.7,-6.4,1024,1024,1024,1024,0,0,0,0,50,4.794,76.82,166.994756,P-GPS,,50.9
418500,2026-01-06 16:48:40,0.0,5,7.089,0.0,0.0,0.0,10.4,-0.2,-5.9,1024,1024,1024,1024,0,0,0,0,50,5.115,76.82,166.994756,P-GPS,,50.9
418600,2026-01-06 16:48:40,0.0,5,7.089,0.0,0.0,0.0,10.4,0.4,-5.6,1024,1024,1024,1024,0,0,0,0,50,5.115,76.82,166.994756,P-GPS,,50.9
418700,2026-01-06 16:48:40,0.0,5,7.089,0.0,0.0,0.0,10.3,0.4,-6.1,1024,1024,1024,1024,0,0,0,0,50,5.115,76.82,166.994756,P-GPS,,50.9
418800,2026-01-06 16:48:40,0.0,5,7.089,0.0,0.0,0.0,10.5,-1.4,-6.0,1024,1024,1024,1024,0,0,0,0,50,5.115,76.82,166.994756,P-GPS,,50.9
418900,2026-01-06 16:48:40,0.0,5,7.089,0.0,0.0,0.0,10.4,1.1,-6.9,1024,1024,1024,1024,0,0,0,0,50,5.115,76.82,166.994756,P-GPS,,50.9
419000,2026-01-06 16:48:41,0.0,5,7.089,0.0,0.0,0.0,10.7,0.1,-6.8,1024,1024,1024,1024,0,0,0,0,50,5.115,76.82,166.994756,P-GPS,,50.9
419100,2026-01-06 16:48:41,0.0,5,7.089,0.0,0.0,0.0,10.9,-1.3,-6.8,1024,1024,1024,1024,0,0,0,0,50,5.115,76.82,166.994756,P-GPS,,50.9
419200,2026-01-06 16:48:41,0.0,5,7.089,0.0,0.0,0.0,11.0,-1.6,-7.0,1024,1024,918,1024,0,0,-16,0,50,5.115,76.82,166.994756,P-GPS,,50.9
419300,2026-01-06 16:48:41,0.0,5,7.089,0.0,0.0,0.0,10.7,-1.6,-6.7,1024,1024,918,1024,0,0,-16,0,50,5.115,76.82,166.994756,P-GPS,,50.9
419400,2026-01-06 16:48:41,0.0,5,7.089,0.0,0.0,0.0,10.7,-1.4,-6.7,1024,1024,918,1024,0,0,-16,0,50,5.115,76.82,166.994756,P-GPS,,50.9
419500,2026-01-06 16:48:41,0.0,5,7.089,0.0,0.0,0.0,10.5,-0.2,-7.9,1024,1024,918,1024,0,0,-16,0,50,5.115,76.82,167.32284,P-GPS,,51.0
419600,2026-01-06 16:48:41,0.0,5,7.097,0.0,0.0,0.0,10.4,0.8,-8.3,1024,1024,918,1024,0,0,-16,0,49,5.109,76.82,167.32284,P-GPS,,51.0
419700,2026-01-06 16:48:41,0.0,5,7.097,0.0,0.0,0.0,10.6,0.8,-8.1,1024,1024,918,1024,0,0,-16,0,49,5.109,76.82,167.32284,P-GPS,,51.0
419800,2026-01-06 16:48:41,0.0,5,7.097,0.0,0.0,0.0,10.5,-0.1,-7.1,1024,1024,435,1024,0,0,-89,0,49,5.109,76.82,167.32284,P-GPS,,51.0
419900,2026-01-06 16:48:41,0.0,5,7.097,0.0,0.0,0.0,10.2,0.9,-6.6,1024,1024,364,1024,0,0,-100,0,49,5.109,76.82,167.32284,P-GPS,,51.0
420000,2026-01-06 16:48:41,0.0,5,7.097,0.0,0.0,0.0,10.3,0.0,-6.4,1024,1024,364,1024,0,0,-100,0,49,5.109,76.82,167.32284,P-GPS,,51.0
