time(millisecond),timestamp,speed(mph),gpslevel,voltage(v),xSpeed(mph),ySpeed(mph),zSpeed(mph),compass_heading(degrees),pitch(degrees),roll(degrees),rc_elevator,rc_aileron,rc_throttle,rc_rudder,rc_elevator(percent),rc_aileron(percent),rc_throttle(percent),rc_rudder(percent),battery_percent,current(A),battery_temperature(f),ascent(feet),flycState,message,height_above_takeoff(meters)
338600,2026-01-06 16:47:20,0.0,5,7.181,0.0,0.0,0.0,10.3,3.8,-4.5,1024,1024,1024,1024,0,0,0,0,56,6.442,74.66,37.073492,P-GPS,,11.3
338700,2026-01-06 16:47:20,0.0,5,7.181,0.0,0.0,0.0,10.2,3.8,-4.7,1024,1024,1024,1024,0,0,0,0,56,6.442,74.66,37.073492,P-GPS,,11.3
338800,2026-01-06 16:47:20,0.0,5,7.181,0.0,0.0,0.0,10.1,3.8,-5.0,1024,1024,1024,1024,0,0,0,0,56,6.442,74.66,37.401576,P-GPS,,11.4
338900,2026-01-06 16:47:20,0.0,5,7.181,0.0,0.0,0.0,10.1,4.0,-5.1,1024,1024,1024,1024,0,0,0,0,56,6.442,74.66,37.401576,P-GPS,,11.4
339000,2026-01-06 16:47:20,0.0,5,7.181,0.0,0.0,0.0,10.2,3.7,-5.1,1024,1024,1024,1024,0,0,0,0,56,6.442,74.66,37.401576,P-GPS,,11.4
339100,2026-01-06 16:47:20,0.0,5,7.181,0.0,0.0,0.0,10.2,3.4,-4.8,1024,1024,1024,1024,0,0,0,0,56,6.442,74.66,37.401576,P-GPS,,11.4
339200,2026-01-06 16:47:21,0.0,5,7.181,0.0,0.0,0.0,10.3,3.1,-4.6,1024,1024,1024,1024,0,0,0,0,56,6.442,74.66,37.073492,P-GPS,,11.3
339300,2026-01-06 16:47:21,0.0,5,7.181,0.0,0.0,0.0,10.4,2.7,-4.4,1024,1024,1024,1024,0,0,0,0,56,6.442,74.66,37.073492,P-GPS,,11.3
339400,2026-01-06 16:47:21,0.0,5,7.181,0.0,0.0,0.0,10.4,2.4,-4.4,1024,1024,1024,1024,0,0,0,0,56,6.442,74.66,37.073492,P-GPS,,11.3
339500,2026-01-06 16:47:21,0.0,5,7.181,0.0,0.0,0.0,10.3,2.4,-4.3,1024,1024,1024,1024,0,0,0,0,56,6.442,74.66,37.073492,P-GPS,,11.3
339600,2026-01-06 16:47:21,0.0,5,7.181,0.0,0.0,0.0,10.3,2.6,-4.4,1024,1024,1024,1024,0,0,0,0,56,6.442,74.66,37.073492,P-GPS,,11.3
339700,2026-01-06 16:47:21,0.0,5,7.181,0.0,0.0,0.0,10.2,2.3,-4.4,1024,1024,1024,1024,0,0,0,0,56,6.442,74.66,37.073492,P-GPS,,11.3
339800,2026-01-06 16:47:21,0.0,5,7.181,0.0,0.0,0.0,10.3,2.2,-4.5,1024,1024,1024,1024,0,0,0,0,56,6.442,74.66,37.073492,P-GPS,,11.3
339900,2026-01-06 16:47:21,0.0,5,7.181,0.0,0.0,0.0,10.3,2.3,-4.6,1024,1024,1024,1024,0,0,0,0,56,6.442,74.66,37.073492,P-GPS,,11.3
340000,2026-01-06 16:47:21,0.0,5,7.181,0.0,0.0,0.0,10.3,2.3,-4.8,1024,1024,1024,1024,0,0,0,0,55,6.442,74.66,37.073492,P-GPS,,11.3
340100,2026-01-06 16:47:21,0.0,5,7.242,0.0,0.0,0.0,10.3,2.0,-4.9,1024,1024,1024,1024,0,0,0,0,55,5.128,74.66,37.073492,P-GPS,,11.3
340200,2026-01-06 16:47:22,0.0,5,7.242,0.0,0.0,0.0,10.2,1.5,-4.8,1024,1024,1024,1024,0,0,0,0,55,5.128,74.66,37.073492,P-GPS,,11.3
340300,2026-01-06 16:47:22,0.0,5,7.242,0.0,0.0,0.0,10.3,1.4,-4.7,1024,1024,1024,1024,0,0,0,0,55,5.128,74.66,37.073492,P-GPS,,11.3
340400,2026-01-06 16:47:22,0.0,5,7.242,0.0,0.0,0.0,10.3,1.5,-4.5,1024,1024,1024,1024,0,0,0,0,55,5.128,74.66,37.073492,P-GPS,,11.3
340500,2026-01-06 16:47:22,0.0,5,7.242,0.0,0.0,0.0,10.3,0.8,-4.5,1024,1024,1024,1024,0,0,0,0,55,5.128,74.66,37.073492,P-GPS,,11.3
340600,2026-01-06 16:47:22,0.0,5,7.242,0.0,0.0,0.0,10.3,1.0,-4.6,1024,1024,1024,1024,0,0,0,0,55,5.128,74.66,37.073492,P-GPS,,11.3
340700,2026-01-06 16:47:22,0.0,5,7.242,0.0,0.0,0.0,10.2,1.4,-4.9,1024,1024,1024,1024,0,0,0,0,55,5.128,74.66,37.073492,P-GPS,,11.3
340800,2026-01-06 16:47:22,0.0,5,7.242,0.0,0.0,0.0,10.2,1.4,-4.9,1024,1024,1024,1024,0,0,0,0,55,5.128,74.66,37.073492,P-GPS,,11.3
340900,2026-01-06 16:47:22,0.0,5,7.242,0.0,0.0,0.0,10.3,1.3,-4.8,1024,1024,1024,1024,0,0,0,0,55,5.128,74.66,37.073492,P-GPS,,11.3
341000,2026-01-06 16:47:22,0.0,5,7.242,0.0,0.0,0.0,10.3,1.7,-4.6,1024,1024,1024,1024,0,0,0,0,55,5.128,74.66,37.073492,P-GPS,,11.3
341100,2026-01-06 16:47:23,0.0,5,7.242,0.0,0.0,0.0,10.4,1.8,-4.5,1024,1024,1024,1024,0,0,0,0,55,5.128,74.66,37.073492,P-GPS,,11.3
341200,2026-01-06 16:47:23,0.0,5,7.235,0.0,0.0,0.0,10.5,1.9,-4.5,1024,1024,1024,1024,0,0,0,0,55,5.209,74.66,37.073492,P-GPS,,11.3
341300,2026-01-06 16:47:23,0.0,5,7.235,0.0,0.0,0.0,10.4,2.5,-4.2,1024,1024,1024,1024,0,0,0,0,55,5.209,74.66,36.745408,P-GPS,,11.2
341400,2026-01-06 16:47:23,0.0,5,7.235,0.0,0.0,0.0,10.3,3.2,-3.8,1024,1024,1024,1024,0,0,0,0,55,5.209,74.66,36.745408,P-GPS,,11.2
341500,2026-01-06 16:47:23,0.0,5,7.235,0.0,0.0,0.0,10.5,2.6,-3.5,1024,1024,1024,1024,0,0,0,0,55,5.209,74.66,36.745408,P-GPS,,11.2
341600,2026-01-06 16:47:23,0.0,5,7.235,0.0,0.0,0.0,10.5,2.6,-3.4,1024,1024,1024,1024,0,0,0,0,55,5.209,74.66,36.745408,P-GPS,,11.2
341700,2026-01-06 16:47:23,0.0,5,7.235,0.0,0.0,0.0,10.3,3.2,-3.8,1024,1024,1024,1024,0,0,0,0,55,5.209,74.66,36.745408,P-GPS,,11.2
341800,2026-01-06 16:47:23,0.0,5,7.235,0.0,0.0,0.0,10.2,3.5,-4.0,1024,1024,1024,1024,0,0,0,0,55,5.209,74.66,36.745408,P-GPS,,11.2
341900,2026-01-06 16:47:23,0.0,5,7.235,0.0,0.0,0.0,10.3,3.3,-3.8,1024,1024,1024,1024,0,0,0,0,55,5.209,74.66,36.745408,P-GPS,,11.2
342000,2026-01-06 16:47:23,0.0,5,7.235,0.0,0.0,0.0,10.2,3.2,-3.7,1024,1024,1024,1024,0,0,0,0,55,5.209,74.66,36.745408,P-GPS,,11.2
342100,2026-01-06 16:47:23,0.0,5,7.235,0.0,0.0,0.0,10.2,2.7,-3.6,1024,1024,1024,1024,0,0,0,0,55,5.209,74.66,36.745408,P-GPS,,11.2
342200,2026-01-06 16:47:24,0.0,5,7.235,0.0,0.0,0.0,10.2,2.3,-4.2,1024,1024,1024,1024,0,0,0,0,55,5.209,74.66,37.073492,P-GPS,,11.3
342300,2026-01-06 16:47:24,0.0,5,7.222,0.0,0.0,0.0,10.2,1.7,-4.0,1024,1024,1024,1024,0,0,0,0,55,5.358,74.66,37.073492,P-GPS,,11.3
342400,2026-01-06 16:47:24,0.0,5,7.222,0.0,0.0,0.0,10.1,2.1,-4.3,1024,1024,1024,1024,0,0,0,0,55,5.358,74.66,37.073492,P-GPS,,11.3
342500,2026-01-06 16:47:24,0.0,5,7.222,0.0,0.0,0.0,10.2,2.3,-4.8,1024,1024,1024,1024,0,0,0,0,55,5.358,74.66,37.073492,P-GPS,,11.3
342600,2026-01-06 16:47:24,0.0,5,7.222,0.0,0.0,0.0,10.3,2.3,-5.4,1024,1024,1024,1024,0,0,0,0,55,5.358,74.66,37.073492,P-GPS,,11.3
342700,2026-01-06 16:47:24,0.0,5,7.222,0.0,0.0,0.0,10.4,2.7,-5.5,1024,1024,1024,1024,0,0,0,0,55,5.358,74.66,37.073492,P-GPS,,11.3
342800,2026-01-06 16:47:24,0.0,5,7.222,0.0,0.0,0.0,10.4,2.9,-4.8,1024,1024,1024,1024,0,0,0,0,55,5.358,74.66,37.073492,P-GPS,,11.3
342900,2026-01-06 16:47:24,0.0,5,7.222,0.0,0.0,0.0,10.5,2.9,-3.9,1024,1024,1024,1024,0,0,0,0,55,5.358,74.66,37.073492,P-GPS,,11.3
343000,2026-01-06 16:47:24,0.0,5,7.222,0.0,0.0,0.0,10.4,3.2,-4.1,1024,1024,1024,1024,0,0,0,0,55,5.358,74.66,36.745408,P-GPS,,11.2
343100,2026-01-06 16:47:25,0.0,5,7.222,0.0,0.0,0.0,10.4,2.9,-4.1,1024,1024,1024,1024,0,0,0,0,55,5.358,74.66,36.745408,P-GPS,,11.2
343200,2026-01-06 16:47:25,0.0,5,7.222,0.0,0.0,0.0,10.3,3.1,-4.1,1024,1024,1024,1024,0,0,0,0,55,5.358,74.66,36.745408,P-GPS,,11.2
343300,2026-01-06 16:47:25,0.0,5,7.222,0.0,0.0,0.0,10.4,2.3,-3.8,1024,1024,1024,1024,0,0,0,0,55,5.358,74.66,36.745408,P-GPS,,11.2
343400,2026-01-06 16:47:25,0.0,5,7.209,0.0,0.0,0.0,10.4,1.5,-3.8,1024,1024,1024,1024,0,0,0,0,55,5.531,74.84,36.745408,P-GPS,,11.2
343500,2026-01-06 16:47:25,0.0,5,7.209,0.0,0.0,0.0,10.3,1.7,-4.0,1024,1024,1024,1024,0,0,0,0,55,5.531,74.84,36.745408,P-GPS,,11.2
343600,2026-01-06 16:47:25,0.0,5,7.209,0.0,0.0,0.0,10.2,1.7,-4.0,1024,1024,1024,1024,0,0,0,0,55,5.531,74.84,36.745408,P-GPS,,11.2
343700,2026-01-06 16:47:25,0.0,5,7.209,0.0,0.0,0.0,10.3,1.7,-4.2,1024,1024,1024,1024,0,0,0,0,55,5.531,74.84,36.745408,P-GPS,,11.2
343800,2026-01-06 16:47:25,0.0,5,7.209,0.0,0.0,0.0,10.4,1.5,-4.4,1024,1024,1024,1024,0,0,0,0,55,5.531,74.84,36.745408,P-GPS,,11.2
343900,2026-01-06 16:47:25,0.0,5,7.209,0.0,0.0,0.0,10.3,2.3,-4.6,1024,1024,1024,1024,0,0,0,0,55,5.531,74.84,36.745408,P-GPS,,11.2
344000,2026-01-06 16:47:25,0.0,5,7.209,0.0,0.0,0.0,10.2,2.7,-4.6,1024,1024,1024,1024,0,0,0,0,55,5.531,74.84,36.745408,P-GPS,,11.2
344100,2026-01-06 16:47:25,0.0,5,7.209,0.0,0.0,0.0,10.4,2.1,-4.7,1024,1024,1024,1024,0,0,0,0,55,5.531,74.84,36.745408,P-GPS,,11.2
344200,2026-01-06 16:47:26,0.0,5,7.209,0.0,0.0,0.0,10.5,2.0,-4.7,1024,1024,1024,1024,0,0,0,0,55,5.531,74.84,36.745408,P-GPS,,11.2
344300,2026-01-06 16:47:26,0.0,5,7.209,0.0,0.0,0.0,10.3,2.8,-5.0,1024,1024,1024,1024,0,0,0,0,55,5.531,74.84,36.745408,P-GPS,,11.2
344400,2026-01-06 16:47:26,0.0,5,7.209,0.0,0.0,0.0,10.3,3.0,-5.1,1024,1024,1024,1024,0,0,0,0,55,5.531,74.84,36.745408,P-GPS,,11.2
344500,2026-01-06 16:47:26,0.0,5,7.209,0.0,0.0,0.0,10.3,2.8,-4.9,1024,1024,1024,1024,0,0,0,0,55,5.531,74.84,36.745408,P-GPS,,11.2
344600,2026-01-06 16:47:26,0.0,5,7.221,0.0,0.0,0.0,10.3,2.5,-4.8,1024,1024,1024,1024,0,0,0,0,55,5.233,74.84,36.745408,P-GPS,,11.2
344700,2026-01-06 16:47:26,0.0,5,7.221,0.0,0.0,0.0,10.6,1.8,-4.5,1024,1024,1024,1024,0,0,0,0,55,5.233,74.84,36.745408,P-GPS,,11.2
344800,2026-01-06 16:47:26,0.0,5,7.221,0.0,0.0,0.0,10.6,2.3,-4.4,1024,1024,1024,1024,0,0,0,0,55,5.233,74.84,36.745408,P-GPS,,11.2
344900,2026-01-06 16:47:26,0.0,5,7.221,0.0,0.0,0.0,10.5,3.2,-4.4,1024,1024,1024,1024,0,0,0,0,55,5.233,74.84,36.745408,P-GPS,,11.2
345000,2026-01-06 16:47:26,0.0,5,7.221,0.0,0.0,0.0,10.4,3.3,-4.9,1024,1024,1024,1024,0,0,0,0,55,5.233,74.84,36.745408,P-GPS,,11.2
345100,2026-01-06 16:47:26,0.0,5,7.221,0.0,0.0,0.0,10.3,2.9,-4.4,1024,1024,1024,1024,0,0,0,0,55,5.233,74.84,36.745408,P-GPS,,11.2
345200,2026-01-06 16:47:27,0.0,5,7.221,0.0,0.0,0.0,10.2,3.2,-4.4,1024,1024,1024,1024,0,0,0,0,55,5.233,74.84,36.745408,P-GPS,,11.2
345300,2026-01-06 16:47:27,0.0,5,7.221,0.0,0.0,0.0,10.2,3.2,-4.3,1024,1024,1024,1024,0,0,0,0,55,5.233,74.84,36.745408,P-GPS,,11.2
345400,2026-01-06 16:47:27,0.0,5,7.221,0.0,0.0,0.0,10.2,3.0,-4.4,1024,1024,1024,1024,0,0,0,0,55,5.233,74.84,36.745408,P-GPS,,11.2
345500,2026-01-06 16:47:27,0.0,5,7.221,0.0,0.0,0.0,10.3,2.6,-4.5,1024,1024,1024,1024,0,0,0,0,55,5.233,74.84,36.745408,P-GPS,,11.2
345600,2026-01-06 16:47:27,0.0,5,7.221,0.0,0.0,0.0,10.5,2.3,-4.8,1024,1024,1024,1024,0,0,0,0,55,5.233,74.84,36.745408,P-GPS,,11.2
345700,2026-01-06 16:47:27,0.0,5,7.219,0.0,0.0,0.0,10.5,3.1,-4.9,1024,1024,1024,1024,0,0,0,0,55,5.311,74.84,36.745408,P-GPS,,11.2
345800,2026-01-06 16:47:27,0.0,5,7.219,0.0,0.0,0.0,10.3,3.8,-5.1,1024,1024,1024,1024,0,0,0,0,55,5.311,74.84,36.745408,P-GPS,,11.2
345900,2026-01-06 16:47:27,0.0,5,7.219,0.0,0.0,0.0,10.2,3.7,-5.0,1024,1024,1024,1024,0,0,0,0,55,5.311,74.84,36.745408,P-GPS,,11.2
346000,2026-01-06 16:47:27,0.0,5,7.219,0.0,0.0,0.0,10.3,3.1,-5.0,1024,1024,1024,1024,0,0,0,0,55,5.311,74.84,37.073492,P-GPS,,11.3
346100,2026-01-06 16:47:28,0.0,5,7.219,0.0,0.0,0.0,10.5,3.4,-4.7,1024,1024,1024,1024,0,0,0,0,55,5.311,74.84,37.073492,P-GPS,,11.3
346200,2026-01-06 16:47:28,0.0,5,7.219,0.0,0.0,0.0,10.5,3.5,-5.0,1024,1024,1024,1024,0,0,0,0,55,5.311,74.84,37.073492,P-GPS,,11.3
346300,2026-01-06 16:47:28,0.0,5,7.219,0.0,0.0,0.0,10.5,3.7,-5.0,1024,1024,1024,1024,0,0,0,0,55,5.311,74.84,37.073492,P-GPS,,11.3
346400,2026-01-06 16:47:28,0.0,5,7.219,0.0,0.0,0.0,10.6,3.9,-5.2,1024,1024,1024,1024,0,0,0,0,55,5.311,74.84,36.745408,P-GPS,,11.2
346500,2026-01-06 16:47:28,0.0,5,7.219,0.0,0.0,0.0,10.6,3.9,-4.6,1024,1024,1024,1024,0,0,0,0,55,5.311,74.84,36.745408,P-GPS,,11.2
346600,2026-01-06 16:47:28,0.0,5,7.219,0.0,0.0,0.0,10.6,4.1,-4.8,1024,1024,1024,1024,0,0,0,0,55,5.311,74.84,36.745408,P-GPS,,11.2
346700,2026-01-06 16:47:28,0.0,5,7.219,0.0,0.0,0.0,10.5,4.1,-5.0,1024,1024,1024,1024,0,0,0,0,55,5.311,74.84,36.745408,P-GPS,,11.2
346800,2026-01-06 16:47:28,0.0,5,7.198,0.0,0.0,0.0,10.5,4.3,-5.1,1024,1024,1024,1024,0,0,0,0,55,5.454,74.84,36.745408,P-GPS,,11.2
346900,2026-01-06 16:47:28,0.0,5,7.198,0.0,0.0,0.0,10.5,3.7,-4.8,1024,1024,1024,1024,0,0,0,0,55,5.454,74.84,36.745408,P-GPS,,11.2
347000,2026-01-06 16:47:28,0.0,5,7.198,0.0,0.0,0.0,10.4,4.5,-4.8,1024,1024,1024,1024,0,0,0,0,55,5.454,74.84,36.745408,P-GPS,,11.2
347100,2026-01-06 16:47:28,0.0,5,7.198,0.0,0.0,0.0,10.3,4.5,-5.0,1024,1024,1024,1024,0,0,0,0,55,5.454,74.84,36.745408,P-GPS,,11.2
347200,2026-01-06 16:47:29,0.0,5,7.198,0.0,0.0,0.0,10.3,4.1,-4.7,1024,1024,1024,1024,0,0,0,0,55,5.454,74.84,36.745408,P-GPS,,11.2
347300,2026-01-06 16:47:29,0.0,5,7.198,0.0,0.0,0.0,10.3,3.6,-5.0,1024,1024,1024,1024,0,0,0,0,55,5.454,74.84,36.745408,P-GPS,,11.2
347400,2026-01-06 16:47:29,0.0,5,7.198,0.0,0.0,0.0,10.5,2.9,-4.6,1024,1024,1024,1024,0,0,0,0,55,5.454,74.84,36.745408,P-GPS,,11.2
347600,2026-01-06 16:47:29,0.0,5,7.198,0.0,0.0,0.0,10.3,4.6,-4.9,1024,1024,1024,1024,0,0,0,0,55,5.454,74.84,36.745408,P-GPS,,11.2
347700,2026-01-06 16:47:29,0.0,5,7.198,0.0,0.0,0.0,10.3,5.1,-4.6,1024,1024,1024,1024,0,0,0,0,55,5.454,74.84,36.745408,P-GPS,,11.2
347800,2026-01-06 16:47:29,0.0,5,7.198,0.0,0.0,0.0,10.3,4.5,-4.8,1024,1024,1024,1024,0,0,0,0,55,5.454,74.84,36.745408,P-GPS,,11.2
347900,2026-01-06 16:47:29,0.0,5,7.231,0.0,0.0,0.0,10.4,4.4,-4.6,1024,1024,1024,1024,0,0,0,0,55,5.338,74.84,36.745408,P-GPS,,11.2
348000,2026-01-06 16:47:29,0.0,5,7.231,0.0,0.0,0.0,10.5,3.9,-4.4,1024,1024,1024,1024,0,0,0,0,55,5.338,74.84,36.745408,P-GPS,,11.2
348100,2026-01-06 16:47:30,0.0,5,7.231,0.0,0.0,0.0,10.3,4.3,-4.6,1024,1024,1024,1024,0,0,0,0,55,5.338,74.84,36.745408,P-GPS,,11.2
348200,2026-01-06 16:47:30,0.0,5,7.231,0.0,0.0,0.0,10.0,4.3,-4.5,1024,1024,1024,1024,0,0,0,0,55,5.338,74.84,36.745408,P-GPS,,11.2
348300,2026-01-06 16:47:30,0.0,5,7.231,0.0,0.0,0.0,9.7,3.9,-4.6,1024,1024,1024,1024,0,0,0,0,55,5.338,74.84,36.745408,P-GPS,,11.2
348400,2026-01-06 16:47:30,0.0,5,7.231,0.0,0.0,0.0,9.8,4.2,-4.3,1024,1024,1024,1024,0,0,0,0,55,5.338,74.84,36.745408,P-GPS,,11.2
348500,2026-01-06 16:47:30,0.0,5,7.231,0.0,0.0,0.0,10.1,3.4,-4.6,1024,1024,1024,1024,0,0,0,0,55,5.338,74.84,36.745408,P-GPS,,11.2
348600,2026-01-06 16:47:30,0.0,5,7.231,0.0,0.0,0.0,10.3,3.5,-4.5,1024,1024,1024,1024,0,0,0,0,55,5.338,74.84,36.745408,P-GPS,,11.2
348700,2026-01-06 16:47:30,0.0,5,7.231,0.0,0.0,0.0,10.2,3.9,-4.6,1024,1024,1024,1024,0,0,0,0,55,5.338,74.84,36.745408,P-GPS,,11.2
348800,2026-01-06 16:47:30,0.0,5,7.231,0.0,0.0,0.0,10.4,3.8,-4.9,1024,1024,1024,1024,0,0,0,0,55,5.338,74.84,36.417324,P-GPS,,11.1
348900,2026-01-06 16:47:30,0.0,5,7.231,0.0,0.0,0.0,10.5,3.7,-4.8,1024,1024,1024,1024,0,0,0,0,55,5.338,74.84,36.417324,P-GPS,,11.1
349000,2026-01-06 16:47:30,0.0,5,7.213,0.0,0.0,0.0,10.5,4.1,-4.4,1024,1024,1024,1024,0,0,0,0,55,5.151,74.84,36.417324,P-GPS,,11.1
349100,2026-01-06 16:47:30,0.0,5,7.213,0.0,0.0,0.0,10.4,4.5,-4.3,1024,1024,1024,1024,0,0,0,0,55,5.151,74.84,36.417324,P-GPS,,11.1
349200,2026-01-06 16:47:31,0.0,5,7.213,0.0,0.0,0.0,10.4,4.7,-4.1,1024,1024,1024,1024,0,0,0,0,55,5.151,74.84,36.417324,P-GPS,,11.1
349300,2026-01-06 16:47:31,0.0,5,7.213,0.0,0.0,0.0,10.4,4.4,-4.0,1024,1024,1024,1024,0,0,0,0,55,5.151,74.84,36.417324,P-GPS,,11.1
349400,2026-01-06 16:47:31,0.0,5,7.213,0.0,0.0,0.0,10.4,4.0,-4.1,1024,1024,1024,1024,0,0,0,0,55,5.151,74.84,36.417324,P-GPS,,11.1
349500,2026-01-06 16:47:31,0.0,5,7.213,0.0,0.0,0.0,10.4,3.7,-4.0,1024,1024,1024,1024,0,0,0,0,55,5.151,74.84,36.417324,P-GPS,,11.1
349600,2026-01-06 16:47:31,0.0,5,7.213,0.0,0.0,0.0,10.3,3.8,-4.2,1024,1024,1024,1024,0,0,0,0,55,5.151,74.84,36.417324,P-GPS,,11.1
349700,2026-01-06 16:47:31,0.0,5,7.213,0.0,0.0,0.0,10.4,3.4,-4.4,1024,1024,1024,1024,0,0,0,0,55,5.151,74.84,36.417324,P-GPS,,11.1
349800,2026-01-06 16:47:31,0.0,5,7.213,0.0,0.0,0.0,10.5,3.4,-4.2,1024,1024,1024,1024,0,0,0,0,55,5.151,74.84,36.417324,P-GPS,,11.1
349900,2026-01-06 16:47:31,0.0,5,7.213,0.0,0.0,0.0,10.5,3.9,-4.0,1024,1024,1024,1024,0,0,0,0,55,5.151,74.84,36.08924,P-GPS,,11.0
350000,2026-01-06 16:47:31,0.0,5,7.213,0.0,0.0,0.0,10.6,3.9,-3.9,1024,1024,1024,1024,0,0,0,0,55,5.151,74.84,36.08924,P-GPS,,11.0
350100,2026-01-06 16:47:31,0.0,5,7.213,0.0,0.0,0.0,10.6,3.9,-3.9,1024,1024,1024,1024,0,0,0,0,55,5.151,74.84,36.08924,P-GPS,,11.0
350200,2026-01-06 16:47:32,0.0,5,7.22,0.0,0.0,0.0,10.6,3.9,-3.5,1024,1024,1024,1024,0,0,0,0,55,5.097,75.02,36.08924,P-GPS,,11.0
350300,2026-01-06 16:47:32,0.0,5,7.22,0.0,0.0,0.0,10.5,3.8,-3.4,1024,1024,1024,1024,0,0,0,0,55,5.097,75.02,36.08924,P-GPS,,11.0
350400,2026-01-06 16:47:32,0.0,5,7.22,0.0,0.0,0.0,10.5,4.1,-3.3,1024,1024,1024,1024,0,0,0,0,55,5.097,75.02,36.08924,P-GPS,,11.0
350500,2026-01-06 16:47:32,0.0,5,7.22,0.0,0.0,0.0,10.5,4.5,-3.6,1024,1024,1024,1024,0,0,0,0,55,5.097,75.02,36.08924,P-GPS,,11.0
350600,2026-01-06 16:47:32,0.0,5,7.22,0.0,0.0,0.0,10.4,4.2,-3.7,1024,1024,1024,1024,0,0,0,0,55,5.097,75.02,36.08924,P-GPS,,11.0
350700,2026-01-06 16:47:32,0.0,5,7.22,0.0,0.0,0.0,10.4,4.8,-3.9,1024,1024,1024,1024,0,0,0,0,55,5.097,75.02,36.08924,P-GPS,,11.0
350800,2026-01-06 16:47:32,0.0,5,7.22,0.0,0.0,0.0,10.4,5.3,-3.9,1024,1024,1024,1024,0,0,0,0,55,5.097,75.02,36.08924,P-GPS,,11.0
350900,2026-01-06 16:47:32,0.0,5,7.22,0.0,0.0,0.0,10.4,5.2,-3.0,1024,1024,1024,1024,0,0,0,0,55,5.097,75.02,36.08924,P-GPS,,11.0
351000,2026-01-06 16:47:32,0.0,5,7.22,0.0,0.0,0.0,10.2,4.5,-3.2,1024,1024,1024,1024,0,0,0,0,55,5.097,75.02,36.08924,P-GPS,,11.0
351100,2026-01-06 16:47:33,0.0,5,7.22,0.0,0.0,0.0,10.0,4.4,-3.8,1024,1024,1024,1024,0,0,0,0,55,5.097,75.02,36.08924,P-GPS,,11.0
351200,2026-01-06 16:47:33,0.0,5,7.22,0.0,0.0,0.0,9.9,3.7,-4.0,1024,1024,1024,1024,0,0,0,0,55,5.097,75.02,36.08924,P-GPS,,11.0
351300,2026-01-06 16:47:33,0.0,5,7.215,0.0,0.0,0.0,10.1,2.8,-4.3,1024,1024,1024,1024,0,0,0,0,54,5.101,75.02,36.08924,P-GPS,,11.0
351400,2026-01-06 16:47:33,0.0,5,7.215,0.0,0.0,0.0,10.1,2.8,-4.7,1024,1024,1024,1024,0,0,0,0,54,5.101,75.02,36.08924,P-GPS,,11.0
351500,2026-01-06 16:47:33,0.0,5,7.215,0.0,0.0,0.0,10.2,2.7,-4.7,1024,1024,1024,1024,0,0,0,0,54,5.101,75.02,36.417324,P-GPS,,11.1
351600,2026-01-06 16:47:33,0.0,5,7.215,0.0,0.0,0.0,10.3,2.7,-4.9,1024,1024,1024,1024,0,0,0,0,54,5.101,75.02,36.417324,P-GPS,,11.1
351700,2026-01-06 16:47:33,0.0,5,7.215,0.0,0.0,0.0,10.4,3.5,-4.7,1024,1024,1024,1024,0,0,0,0,54,5.101,75.02,36.417324,P-GPS,,11.1
351800,2026-01-06 16:47:33,0.0,5,7.215,0.0,0.0,0.0,10.4,4.0,-4.1,1024,1024,1024,1024,0,0,0,0,54,5.101,75.02,36.417324,P-GPS,,11.1
351900,2026-01-06 16:47:33,0.0,5,7.215,0.0,0.0,0.0,10.5,4.1,-3.8,1024,1024,1024,1024,0,0,0,0,54,5.101,75.02,36.417324,P-GPS,,11.1
352000,2026-01-06 16:47:33,0.0,5,7.215,0.0,0.0,0.0,10.5,3.9,-3.6,1024,1024,1024,1024,0,0,0,0,54,5.101,75.02,36.417324,P-GPS,,11.1
352100,2026-01-06 16:47:33,0.0,5,7.215,0.0,0.0,0.0,10.5,3.9,-3.6,1024,1024,1024,1024,0,0,0,0,54,5.101,75.02,36.417324,P-GPS,,11.1
352200,2026-01-06 16:47:34,0.0,5,7.215,0.0,0.0,0.0,10.4,4.0,-3.3,1024,1024,1024,1024,0,0,0,0,54,5.101,75.02,36.417324,P-GPS,,11.1
352300,2026-01-06 16:47:34,0.0,5,7.215,0.0,0.0,0.0,10.4,4.0,-3.4,1024,1024,1024,1024,0,0,0,0,54,5.101,75.02,36.417324,P-GPS,,11.1
352400,2026-01-06 16:47:34,0.0,5,7.22,0.0,0.0,0.0,10.4,3.8,-3.2,1024,1024,1024,1024,0,0,0,0,54,4.834,75.02,36.08924,P-GPS,,11.0
352500,2026-01-06 16:47:34,0.0,5,7.22,0.0,0.0,0.0,10.3,3.6,-2.8,1024,1024,1024,1024,0,0,0,0,54,4.834,75.02,36.08924,P-GPS,,11.0
352600,2026-01-06 16:47:34,0.0,5,7.22,0.0,0.0,0.0,10.3,3.2,-2.9,1024,1024,1024,1024,0,0,0,0,54,4.834,75.02,36.08924,P-GPS,,11.0
352700,2026-01-06 16:47:34,0.0,5,7.22,0.0,0.0,0.0,10.3,3.4,-3.1,1024,1024,1024,1024,0,0,0,0,54,4.834,75.02,36.08924,P-GPS,,11.0
352800,2026-01-06 16:47:34,0.0,5,7.22,0.0,0.0,0.0,10.2,3.1,-3.3,1024,1024,1024,1024,0,0,0,0,54,4.834,75.02,36.08924,P-GPS,,11.0
352900,2026-01-06 16:47:34,0.0,5,7.22,0.0,0.0,0.0,10.1,2.8,-3.2,1024,1024,1024,1024,0,0,0,0,54,4.834,75.02,36.08924,P-GPS,,11.0
353000,2026-01-06 16:47:34,0.0,5,7.22,0.0,0.0,0.0,10.1,2.8,-2.9,1024,1024,1024,1024,0,0,0,0,54,4.834,75.02,36.08924,P-GPS,,11.0
353100,2026-01-06 16:47:34,0.0,5,7.22,0.0,0.0,0.0,10.1,2.3,-2.8,1024,1024,1024,1024,0,0,0,0,54,4.834,75.02,36.08924,P-GPS,,11.0
353200,2026-01-06 16:47:35,0.0,5,7.22,0.0,0.0,0.0,10.1,2.3,-2.5,1024,1024,1024,1024,0,0,0,0,54,4.834,75.02,36.08924,P-GPS,,11.0
353300,2026-01-06 16:47:35,0.0,5,7.22,0.0,0.0,0.0,10.2,1.6,-2.7,1024,1024,1024,1024,0,0,0,0,54,4.834,75.02,36.08924,P-GPS,,11.0
353400,2026-01-06 16:47:35,0.0,5,7.22,0.0,0.0,0.0,10.3,1.7,-2.7,1024,1024,1024,1024,0,0,0,0,54,4.834,75.02,36.08924,P-GPS,,11.0
353500,2026-01-06 16:47:35,0.0,5,7.215,0.0,0.0,0.0,10.3,2.0,-2.9,1024,1024,1024,1024,0,0,0,0,54,4.949,75.02,36.08924,P-GPS,,11.0
353600,2026-01-06 16:47:35,0.0,5,7.215,0.0,0.0,0.0,10.3,1.8,-3.2,1024,1024,1024,1024,0,0,0,0,54,4.949,75.02,36.08924,P-GPS,,11.0
353700,2026-01-06 16:47:35,0.0,5,7.215,0.0,0.0,0.0,10.3,2.4,-3.5,1024,1024,1024,1024,0,0,0,0,54,4.949,75.02,36.08924,P-GPS,,11.0
353800,2026-01-06 16:47:35,0.0,5,7.215,0.0,0.0,0.0,10.4,2.7,-3.7,1024,1024,1024,1024,0,0,0,0,54,4.949,75.02,36.08924,P-GPS,,11.0
353900,2026-01-06 16:47:35,0.0,5,7.215,0.0,0.0,0.0,10.3,3.0,-3.8,1024,1024,1024,1024,0,0,0,0,54,4.949,75.02,36.08924,P-GPS,,11.0
354000,2026-01-06 16:47:35,0.0,5,7.215,0.0,0.0,0.0,10.3,3.4,-3.9,1024,1024,1024,1024,0,0,0,0,54,4.949,75.02,36.08924,P-GPS,,11.0
354100,2026-01-06 16:47:36,0.0,5,7.215,0.0,0.0,0.0,10.3,3.3,-3.7,1024,1024,1024,1024,0,0,0,0,54,4.949,75.02,36.08924,P-GPS,,11.0
354200,2026-01-06 16:47:36,0.0,5,7.215,0.0,0.0,0.0,10.3,3.4,-3.7,1024,1024,1024,1024,0,0,0,0,54,4.949,75.02,36.08924,P-GPS,,11.0
354300,2026-01-06 16:47:36,0.0,5,7.215,0.0,0.0,0.0,10.3,3.2,-3.7,1024,1024,1024,1024,0,0,0,0,54,4.949,75.02,36.08924,P-GPS,,11.0
354400,2026-01-06 16:47:36,0.0,5,7.215,0.0,0.0,0.0,10.3,3.2,-3.5,1024,1024,1024,1024,0,0,0,0,54,4.949,75.02,36.08924,P-GPS,,11.0
354500,2026-01-06 16:47:36,0.0,5,7.215,0.0,0.0,0.0,10.3,3.2,-3.4,1024,1024,1024,1024,0,0,0,0,54,4.949,75.02,36.08924,P-GPS,,11.0
354600,2026-01-06 16:47:36,0.0,5,7.21,0.0,0.0,0.0,10.3,3.4,-3.2,1024,1024,1024,1024,0,0,0,0,54,4.953,75.02,36.08924,P-GPS,,11.0
354700,2026-01-06 16:47:36,0.0,5,7.21,0.0,0.0,0.0,10.3,3.3,-3.2,1024,1024,1024,1024,0,0,0,0,54,4.953,75.02,36.08924,P-GPS,,11.0
354800,2026-01-06 16:47:36,0.0,5,7.21,0.0,0.0,0.0,10.3,3.0,-3.3,1024,1024,1024,1024,0,0,0,0,54,4.953,75.02,36.08924,P-GPS,,11.0
354900,2026-01-06 16:47:36,0.0,5,7.21,0.0,0.0,0.0,10.2,3.6,-3.1,1024,1024,1024,1024,0,0,0,0,54,4.953,75.02,36.08924,P-GPS,,11.0
355000,2026-01-06 16:47:36,0.0,5,7.21,0.0,0.0,0.0,10.1,3.6,-2.8,1024,1024,1024,1024,0,0,0,0,54,4.953,75.02,36.08924,P-GPS,,11.0
355100,2026-01-06 16:47:36,0.0,5,7.21,0.0,0.0,0.0,10.3,2.8,-2.4,1024,1024,1024,1024,0,0,0,0,54,4.953,75.02,36.08924,P-GPS,,11.0
355200,2026-01-06 16:47:37,0.0,5,7.21,0.0,0.0,0.0,10.1,3.2,-2.4,1024,1024,1024,1024,0,0,0,0,54,4.953,75.02,36.08924,P-GPS,,11.0
355300,2026-01-06 16:47:37,0.0,5,7.21,0.0,0.0,0.0,10.1,2.4,-2.6,1024,1024,1024,1024,0,0,0,0,54,4.953,75.02,36.08924,P-GPS,,11.0
355400,2026-01-06 16:47:37,0.0,5,7.21,0.0,0.0,0.0,10.2,1.6,-2.6,1024,1024,1024,1024,0,0,0,0,54,4.953,75.02,36.08924,P-GPS,,11.0
355500,2026-01-06 16:47:37,0.0,5,7.21,0.0,0.0,0.0,10.3,1.4,-2.8,1024,1024,1024,1024,0,0,0,0,54,4.953,75.02,36.08924,P-GPS,,11.0
355600,2026-01-06 16:47:37,0.0,5,7.21,0.0,0.0,0.0,10.4,1.2,-3.3,1024,1024,1024,1024,0,0,0,0,54,4.953,75.02,36.08924,P-GPS,,11.0
355700,2026-01-06 16:47:37,0.0,5,7.195,0.0,0.0,0.0,10.5,1.2,-3.6,1024,1024,1024,1024,0,0,0,0,54,5.275,75.2,36.08924,P-GPS,,11.0
355800,2026-01-06 16:47:37,0.0,5,7.195,0.0,0.0,0.0,10.5,2.1,-3.7,1024,1024,1024,1024,0,0,0,0,54,5.275,75.2,36.08924,P-GPS,,11.0
355900,2026-01-06 16:47:37,0.0,5,7.195,0.0,0.0,0.0,10.5,2.2,-3.7,1024,1024,1024,1024,0,0,0,0,54,5.275,75.2,36.417324,P-GPS,,11.1
356000,2026-01-06 16:47:37,0.0,5,7.195,0.0,0.0,0.0,10.4,3.1,-3.9,1024,1024,1024,1024,0,0,0,0,54,5.275,75.2,36.417324,P-GPS,,11.1
356100,2026-01-06 16:47:38,0.0,5,7.195,0.0,0.0,0.0,10.3,3.7,-3.8,1024,1024,1024,1024,0,0,0,0,54,5.275,75.2,36.417324,P-GPS,,11.1
356200,2026-01-06 16:47:38,0.0,5,7.195,0.0,0.0,0.0,10.2,3.9,-3.8,1024,1024,1024,1024,0,0,0,0,54,5.275,75.2,36.417324,P-GPS,,11.1
356300,2026-01-06 16:47:38,0.0,5,7.195,0.0,0.0,0.0,10.2,3.3,-3.6,1024,1024,1024,1024,0,0,0,0,54,5.275,75.2,36.417324,P-GPS,,11.1
356400,2026-01-06 16:47:38,0.0,5,7.195,0.0,0.0,0.0,10.2,2.8,-3.4,1024,1024,1024,1024,0,0,0,0,54,5.275,75.2,36.417324,P-GPS,,11.1
356500,2026-01-06 16:47:38,0.0,5,7.195,0.0,0.0,0.0,10.1,2.6,-3.0,1024,1024,1024,1024,0,0,0,0,54,5.275,75.2,36.417324,P-GPS,,11.1
356600,2026-01-06 16:47:38,0.0,5,7.195,0.0,0.0,0.0,10.2,2.2,-2.9,1024,1024,1024,1024,0,0,0,0,54,5.275,75.2,36.417324,P-GPS,,11.1
356700,2026-01-06 16:47:38,0.0,5,7.195,0.0,0.0,0.0,10.3,1.8,-2.7,1024,1024,1241,1024,0,0,33,0,54,5.275,75.2,36.417324,P-GPS,,11.1
356800,2026-01-06 16:47:38,0.0,5,7.195,0.0,0.0,0.0,10.5,1.4,-2.6,1024,1024,1665,1024,0,0,97,0,54,5.275,75.2,36.417324,P-GPS,,11.1
356900,2026-01-06 16:47:38,0.0,5,7.195,0.0,0.0,0.0,10.5,1.6,-2.8,1024,1024,1684,1024,0,0,100,0,54,5.094,75.2,36.417324,P-GPS,,11.1
357000,2026-01-06 16:47:38,0.0,5,7.195,0.0,0.0,0.0,10.4,3.0,-2.8,1024,1024,1684,1024,0,0,100,0,54,5.094,75.2,36.417324,P-GPS,,11.1
