time(millisecond),timestamp,speed(mph),gpslevel,voltage(v),xSpeed(mph),ySpeed(mph),zSpeed(mph),compass_heading(degrees),pitch(degrees),roll(degrees),rc_elevator,rc_aileron,rc_throttle,rc_rudder,rc_elevator(percent),rc_aileron(percent),rc_throttle(percent),rc_rudder(percent),battery_percent,current(A),battery_temperature(f),ascent(feet),flycState,message,height_above_takeoff(meters)
93900,2026-01-06 16:38:59,0.0,5,7.485,0.0,0.0,0.0,17.7,-0.9,-6.4,1024,1024,1024,1024,0,0,0,0,73,4.969,66.56,167.32284,P-GPS,,51.0
94000,2026-01-06 16:38:59,0.0,5,7.485,0.0,0.0,0.0,17.8,-1.1,-5.9,1024,1024,1024,1024,0,0,0,0,73,4.969,66.56,167.32284,P-GPS,,51.0
94100,2026-01-06 16:38:59,0.0,5,7.485,0.0,0.0,0.0,17.8,-0.9,-5.3,1024,1024,1024,1024,0,0,0,0,73,4.969,66.56,167.32284,P-GPS,,51.0
94200,2026-01-06 16:38:59,0.0,5,7.485,0.0,0.0,0.0,17.7,-0.2,-4.9,1024,1024,1024,1024,0,0,0,0,73,4.969,66.56,167.32284,P-GPS,,51.0
94300,2026-01-06 16:38:59,0.0,5,7.485,0.0,0.0,0.0,17.6,0.1,-5.0,1024,1024,1024,1024,0,0,0,0,73,4.969,66.56,167.32284,P-GPS,,51.0
94400,2026-01-06 16:38:59,0.0,5,7.485,0.0,0.0,0.0,17.7,0.5,-4.8,1024,1024,1024,1024,0,0,0,0,73,4.969,66.56,167.32284,P-GPS,,51.0
94500,2026-01-06 16:38:59,0.0,5,7.485,0.0,0.0,0.0,17.7,0.8,-4.8,1024,1024,1024,1024,0,0,0,0,73,4.969,66.56,167.32284,P-GPS,,51.0
94600,2026-01-06 16:39:00,0.0,5,7.485,0.0,0.0,0.0,17.6,1.2,-4.8,1024,1024,1024,1024,0,0,0,0,73,4.969,66.56,167.32284,P-GPS,,51.0
94700,2026-01-06 16:39:00,0.0,5,7.485,0.0,0.0,0.0,17.6,1.1,-4.7,1024,1024,1024,1024,0,0,0,0,73,4.969,66.56,167.32284,P-GPS,,51.0
94800,2026-01-06 16:39:00,0.0,5,7.415,0.0,0.0,0.0,17.6,0.9,-4.3,1024,1024,1024,1024,0,0,0,0,73,5.067,66.74,167.32284,P-GPS,,51.0
94900,2026-01-06 16:39:00,0.0,5,7.415,0.0,0.0,0.0,17.8,0.4,-4.2,1024,1024,1024,1024,0,0,0,0,73,5.067,66.74,166.994756,P-GPS,,50.9
95000,2026-01-06 16:39:00,0.0,5,7.415,0.0,0.0,0.0,17.9,-0.4,-3.8,1024,1024,1024,1024,0,0,0,0,73,5.067,66.74,166.994756,P-GPS,,50.9
95100,2026-01-06 16:39:00,0.0,5,7.415,0.0,0.0,0.0,17.8,-0.3,-4.3,1024,1024,1024,1024,0,0,0,0,73,5.067,66.74,166.994756,P-GPS,,50.9
95200,2026-01-06 16:39:00,0.0,5,7.415,0.0,0.0,0.0,17.9,-0.8,-4.2,1024,1024,1024,1024,0,0,0,0,73,5.067,66.74,166.994756,P-GPS,,50.9
95300,2026-01-06 16:39:00,0.0,5,7.415,0.0,0.0,0.0,17.9,-1.0,-3.7,1024,1024,1024,1024,0,0,0,0,73,5.067,66.74,166.994756,P-GPS,,50.9
95400,2026-01-06 16:39:00,0.0,5,7.415,0.0,0.0,0.0,17.9,-1.0,-3.8,1024,1024,1024,1024,0,0,0,0,73,5.067,66.74,166.994756,P-GPS,,50.9
95500,2026-01-06 16:39:01,0.0,5,7.415,0.0,0.0,0.0,17.9,-0.9,-4.0,1024,1024,1024,1024,0,0,0,0,73,5.067,66.74,166.994756,P-GPS,,50.9
95600,2026-01-06 16:39:01,0.0,5,7.415,0.0,0.0,0.0,18.0,-1.0,-3.8,1024,1024,1024,1024,0,0,0,0,73,5.067,66.74,166.994756,P-GPS,,50.9
95700,2026-01-06 16:39:01,0.0,5,7.415,0.0,0.0,0.0,17.9,-0.5,-4.1,1024,1024,1024,1024,0,0,0,0,73,5.067,66.74,166.994756,P-GPS,,50.9
95800,2026-01-06 16:39:01,0.0,5,7.415,0.0,0.0,0.0,17.9,-0.7,-4.2,1024,1024,1024,1024,0,0,0,0,73,5.067,66.74,166.994756,P-GPS,,50.9
95900,2026-01-06 16:39:01,0.0,5,7.417,0.0,0.0,0.0,17.8,0.0,-4.3,1024,1024,1024,1024,0,0,0,0,73,5.108,66.74,166.994756,P-GPS,,50.9
96000,2026-01-06 16:39:01,0.0,5,7.417,0.0,0.0,0.0,17.7,0.2,-4.5,1024,1024,1024,1024,0,0,0,0,73,5.108,66.74,166.994756,P-GPS,,50.9
96100,2026-01-06 16:39:01,0.0,5,7.417,0.0,0.0,0.0,17.8,0.4,-4.4,1024,1024,1024,1024,0,0,0,0,73,5.108,66.74,166.994756,P-GPS,,50.9
96200,2026-01-06 16:39:01,0.0,5,7.417,0.0,0.0,0.0,17.8,0.1,-4.3,1024,1024,1024,1024,0,0,0,0,73,5.108,66.74,166.994756,P-GPS,,50.9
96300,2026-01-06 16:39:01,0.0,5,7.417,0.0,0.0,0.0,17.8,0.5,-4.5,1024,1024,1024,1024,0,0,0,0,73,5.108,66.74,166.666672,P-GPS,,50.8
96400,2026-01-06 16:39:01,0.0,5,7.417,0.0,0.0,0.0,17.8,0.4,-4.2,1024,1024,1024,1024,0,0,0,0,73,5.108,66.74,166.666672,P-GPS,,50.8
96500,2026-01-06 16:39:01,0.0,5,7.417,0.0,0.0,0.0,17.8,0.6,-4.2,1024,1024,1024,1024,0,0,0,0,73,5.108,66.74,166.666672,P-GPS,,50.8
96600,2026-01-06 16:39:02,0.0,5,7.417,0.0,0.0,0.0,17.8,0.5,-4.1,1024,1024,1024,1024,0,0,0,0,73,5.108,66.74,166.666672,P-GPS,,50.8
96700,2026-01-06 16:39:02,0.0,5,7.417,0.0,0.0,0.0,17.8,0.7,-4.3,1024,1024,1024,1024,0,0,0,0,73,5.108,66.74,166.666672,P-GPS,,50.8
96800,2026-01-06 16:39:02,0.0,5,7.417,0.0,0.0,0.0,17.7,0.9,-4.3,1024,1024,1024,1024,0,0,0,0,73,5.108,66.74,166.994756,P-GPS,,50.9
96900,2026-01-06 16:39:02,0.0,5,7.417,0.0,0.0,0.0,17.6,1.3,-4.6,1024,1024,1024,1024,0,0,0,0,73,5.108,66.74,166.994756,P-GPS,,50.9
97000,2026-01-06 16:39:02,0.0,5,7.417,0.0,0.0,0.0,17.9,0.7,-3.9,1024,1024,1024,1024,0,0,0,0,73,5.108,66.74,166.994756,P-GPS,,50.9
97100,2026-01-06 16:39:02,0.0,5,7.412,0.0,0.0,0.0,17.8,0.4,-4.3,1024,1024,1024,1024,0,0,0,0,73,5.123,66.74,166.994756,P-GPS,,50.9
97200,2026-01-06 16:39:02,0.0,5,7.412,0.0,0.0,0.0,17.8,0.1,-4.6,1024,1024,1024,1024,0,0,0,0,73,5.123,66.74,166.994756,P-GPS,,50.9
97300,2026-01-06 16:39:02,0.0,5,7.412,0.0,0.0,0.0,17.8,0.5,-4.7,1024,1024,1024,1024,0,0,0,0,73,5.123,66.74,166.994756,P-GPS,,50.9
97400,2026-01-06 16:39:02,0.0,5,7.412,0.0,0.0,0.0,17.8,0.0,-4.7,1024,1024,1024,1024,0,0,0,0,73,5.123,66.74,167.32284,P-GPS,,51.0
97500,2026-01-06 16:39:02,0.0,5,7.412,0.0,0.0,0.0,17.8,-0.1,-4.9,1024,1024,1024,1024,0,0,0,0,73,5.123,66.74,167.32284,P-GPS,,51.0
97600,2026-01-06 16:39:03,0.0,5,7.412,0.0,0.0,0.0,17.8,0.1,-4.8,1024,1024,1024,1024,0,0,0,0,73,5.123,66.74,167.32284,P-GPS,,51.0
97700,2026-01-06 16:39:03,0.0,5,7.412,0.0,0.0,0.0,17.9,0.0,-4.6,1024,1024,1024,1024,0,0,0,0,73,5.123,66.74,167.32284,P-GPS,,51.0
97800,2026-01-06 16:39:03,0.0,5,7.412,0.0,0.0,0.0,17.9,-0.3,-4.6,1024,1024,1024,1024,0,0,0,0,73,5.123,66.74,167.32284,P-GPS,,51.0
97900,2026-01-06 16:39:03,0.0,5,7.412,0.0,0.0,0.0,17.9,0.0,-4.5,1024,1024,1024,1024,0,0,0,0,73,5.123,66.74,167.32284,P-GPS,,51.0
98000,2026-01-06 16:39:03,0.0,5,7.412,0.0,0.0,0.0,17.9,0.7,-4.4,1024,1024,1024,1024,0,0,0,0,73,5.123,66.74,167.32284,P-GPS,,51.0
98100,2026-01-06 16:39:03,0.0,5,7.412,0.0,0.0,0.0,17.9,0.8,-4.5,1024,1024,1024,1024,0,0,0,0,73,5.123,66.74,167.32284,P-GPS,,51.0
98200,2026-01-06 16:39:03,0.0,5,7.42,0.0,0.0,0.0,17.9,0.8,-4.5,1024,1024,1024,1024,0,0,0,0,73,4.999,66.74,166.994756,P-GPS,,50.9
98300,2026-01-06 16:39:03,0.223694,5,7.42,0.223694,0.0,0.0,17.9,1.4,-4.5,1024,1024,1024,1024,0,0,0,0,73,4.999,66.74,166.994756,P-GPS,,50.9
98400,2026-01-06 16:39:03,0.0,5,7.42,0.0,0.0,0.0,17.8,1.6,-4.6,1024,1024,1024,1024,0,0,0,0,73,4.999,66.74,166.994756,P-GPS,,50.9
98500,2026-01-06 16:39:03,0.0,5,7.42,0.0,0.0,0.0,17.8,1.7,-4.3,1024,1024,1024,1024,0,0,0,0,73,4.999,66.74,166.994756,P-GPS,,50.9
98600,2026-01-06 16:39:04,0.0,5,7.42,0.0,0.0,0.0,17.8,1.5,-4.4,1024,1024,1024,1024,0,0,0,0,73,4.999,66.74,166.994756,P-GPS,,50.9
98700,2026-01-06 16:39:04,0.0,5,7.42,0.0,0.0,0.0,17.7,1.7,-5.0,1024,1024,1024,1024,0,0,0,0,73,4.999,66.74,166.994756,P-GPS,,50.9
98800,2026-01-06 16:39:04,0.0,5,7.42,0.0,0.0,0.0,17.7,1.4,-5.0,1024,1024,1024,1024,0,0,0,0,73,4.999,66.74,166.994756,P-GPS,,50.9
98900,2026-01-06 16:39:04,0.0,5,7.42,0.0,0.0,0.0,17.7,1.1,-5.1,1024,1024,1024,1024,0,0,0,0,73,4.999,66.74,166.994756,P-GPS,,50.9
99000,2026-01-06 16:39:04,0.0,5,7.42,0.0,0.0,0.0,17.8,1.0,-5.3,1024,1024,1024,1024,0,0,0,0,73,4.999,66.74,166.994756,P-GPS,,50.9
99100,2026-01-06 16:39:04,0.0,5,7.42,0.0,0.0,0.0,17.9,1.0,-4.8,1024,1024,1024,1024,0,0,0,0,73,4.999,66.74,166.994756,P-GPS,,50.9
99200,2026-01-06 16:39:04,0.0,5,7.42,0.0,0.0,0.0,17.8,0.5,-4.8,1024,1024,1024,1024,0,0,0,0,73,4.999,66.74,166.994756,P-GPS,,50.9
99300,2026-01-06 16:39:04,0.0,5,7.408,0.0,0.0,0.0,17.7,0.7,-5.1,1024,1024,1024,1024,0,0,0,0,73,5.118,66.92,167.32284,P-GPS,,51.0
99400,2026-01-06 16:39:04,0.0,5,7.408,0.0,0.0,0.0,17.7,0.5,-5.0,1024,1024,1024,1024,0,0,0,0,73,5.118,66.92,167.32284,P-GPS,,51.0
99500,2026-01-06 16:39:04,0.0,5,7.408,0.0,0.0,0.0,17.7,0.4,-5.0,1024,1024,1024,1024,0,0,0,0,73,5.118,66.92,167.32284,P-GPS,,51.0
99600,2026-01-06 16:39:05,0.0,5,7.408,0.0,0.0,0.0,17.8,0.5,-5.1,1024,1024,1024,1024,0,0,0,0,73,5.118,66.92,167.32284,P-GPS,,51.0
99700,2026-01-06 16:39:05,0.0,5,7.408,0.0,0.0,0.0,17.8,0.8,-5.3,1024,1024,1024,1024,0,0,0,0,73,5.118,66.92,167.32284,P-GPS,,51.0
99800,2026-01-06 16:39:05,0.0,5,7.408,0.0,0.0,0.0,17.8,0.7,-5.2,1024,1024,1024,1024,0,0,0,0,73,5.118,66.92,167.32284,P-GPS,,51.0
99900,2026-01-06 16:39:05,0.0,5,7.408,0.0,0.0,0.0,17.9,0.4,-4.9,1024,1024,1024,1024,0,0,0,0,73,5.118,66.92,167.32284,P-GPS,,51.0
100000,2026-01-06 16:39:05,0.0,5,7.408,0.0,0.0,0.0,17.9,0.3,-4.8,1024,1024,1024,1024,0,0,0,0,73,5.118,66.92,167.32284,P-GPS,,51.0
100100,2026-01-06 16:39:05,0.0,5,7.408,0.0,0.0,0.0,17.8,0.9,-4.8,1024,1024,1024,1024,0,0,0,0,73,5.118,66.92,166.994756,P-GPS,,50.9
100200,2026-01-06 16:39:05,0.0,5,7.408,0.0,0.0,0.0,17.8,1.4,-4.6,1024,1024,1024,1024,0,0,0,0,73,5.118,66.92,166.994756,P-GPS,,50.9
100300,2026-01-06 16:39:05,0.0,5,7.408,0.0,0.0,0.0,17.8,0.8,-4.6,1024,1024,1024,1024,0,0,0,0,73,5.118,66.92,166.994756,P-GPS,,50.9
100400,2026-01-06 16:39:05,0.0,5,7.408,0.0,0.0,0.0,18.0,0.1,-4.3,1024,1024,1024,1024,0,0,0,0,73,5.118,66.92,166.994756,P-GPS,,50.9
100500,2026-01-06 16:39:05,0.0,5,7.408,0.0,0.0,0.0,18.0,0.4,-4.5,1024,1024,1024,1024,0,0,0,0,73,5.118,66.92,166.994756,P-GPS,,50.9
100600,2026-01-06 16:39:06,0.223694,5,7.408,0.223694,0.0,0.0,18.0,1.3,-4.7,1024,1024,1024,1024,0,0,0,0,73,5.118,66.92,166.994756,P-GPS,,50.9
100700,2026-01-06 16:39:06,0.223694,5,7.408,0.223694,0.0,0.0,17.9,2.2,-4.5,1024,1024,1024,1024,0,0,0,0,73,5.118,66.92,166.666672,P-GPS,,50.8
100800,2026-01-06 16:39:06,0.223694,5,7.408,0.223694,0.0,0.0,18.1,2.2,-4.1,1024,1024,1024,1024,0,0,0,0,73,5.118,66.92,166.666672,P-GPS,,50.8
100900,2026-01-06 16:39:06,0.223694,5,7.408,0.223694,0.0,0.0,18.2,2.8,-4.0,1024,1024,1024,1024,0,0,0,0,73,5.118,66.92,166.666672,P-GPS,,50.8
101000,2026-01-06 16:39:06,0.223694,5,7.408,0.223694,0.0,0.0,18.1,3.7,-3.8,1024,1024,1024,1024,0,0,0,0,73,5.118,66.92,166.666672,P-GPS,,50.8
101100,2026-01-06 16:39:06,0.223694,5,7.408,0.223694,0.0,0.0,18.1,4.5,-3.6,1024,1024,1024,1024,0,0,0,0,73,5.118,66.92,166.666672,P-GPS,,50.8
101200,2026-01-06 16:39:06,0.223694,5,7.408,0.223694,0.0,0.0,18.0,5.0,-3.5,1024,1024,1024,1024,0,0,0,0,72,5.118,66.92,166.666672,P-GPS,,50.8
101300,2026-01-06 16:39:06,0.223694,5,7.408,0.223694,0.0,0.0,18.1,5.2,-3.2,1024,1024,1024,1024,0,0,0,0,72,5.118,66.92,166.666672,P-GPS,,50.8
101400,2026-01-06 16:39:06,0.223694,5,7.408,0.223694,0.0,0.0,18.0,4.6,-3.2,1024,1024,1024,1024,0,0,0,0,72,5.118,66.92,166.666672,P-GPS,,50.8
102200,2026-01-06 16:39:07,0.0,5,7.416,0.0,0.0,0.0,17.5,3.1,-5.1,1024,1024,1024,1024,0,0,0,0,72,4.863,66.92,167.32284,P-GPS,,51.0
102300,2026-01-06 16:39:07,0.0,5,7.416,0.0,0.0,0.0,17.5,3.0,-5.2,1024,1024,1024,1024,0,0,0,0,72,4.863,66.92,167.32284,P-GPS,,51.0
102400,2026-01-06 16:39:07,0.0,5,7.416,0.0,0.0,0.0,17.5,2.5,-5.4,1024,1024,1024,1024,0,0,0,0,72,4.863,66.92,167.32284,P-GPS,,51.0
102500,2026-01-06 16:39:07,0.0,5,7.416,0.0,0.0,0.0,17.6,2.5,-5.3,1024,1024,1024,1024,0,0,0,0,72,4.863,66.92,167.650924,P-GPS,,51.1
102600,2026-01-06 16:39:08,0.0,5,7.416,0.0,0.0,0.0,17.6,2.3,-5.1,1024,1024,1024,1024,0,0,0,0,72,4.863,66.92,167.650924,P-GPS,,51.1
102700,2026-01-06 16:39:08,0.0,5,7.431,0.0,0.0,0.0,17.6,2.3,-5.3,1024,1024,1024,1024,0,0,0,0,72,4.758,66.92,167.650924,P-GPS,,51.1
102800,2026-01-06 16:39:08,0.0,5,7.431,0.0,0.0,0.0,17.4,2.7,-5.6,1024,1024,1024,1024,0,0,0,0,72,4.758,66.92,167.650924,P-GPS,,51.1
102900,2026-01-06 16:39:08,0.0,5,7.431,0.0,0.0,0.0,17.4,2.5,-5.2,1024,1024,1024,1024,0,0,0,0,72,4.758,66.92,167.650924,P-GPS,,51.1
103000,2026-01-06 16:39:08,0.0,5,7.431,0.0,0.0,0.0,17.4,2.0,-5.5,1024,1024,1024,1024,0,0,0,0,72,4.758,66.92,167.650924,P-GPS,,51.1
103100,2026-01-06 16:39:08,0.0,5,7.431,0.0,0.0,0.0,17.2,2.3,-5.7,1024,1024,1024,1024,0,0,0,0,72,4.758,66.92,167.650924,P-GPS,,51.1
103200,2026-01-06 16:39:08,0.0,5,7.431,0.0,0.0,0.0,17.3,2.1,-5.6,1024,1024,1024,1024,0,0,0,0,72,4.758,66.92,167.650924,P-GPS,,51.1
103300,2026-01-06 16:39:08,0.0,5,7.431,0.0,0.0,0.0,17.3,1.8,-5.2,1024,1024,1024,1024,0,0,0,0,72,4.758,66.92,167.650924,P-GPS,,51.1
103400,2026-01-06 16:39:08,0.0,5,7.431,0.0,0.0,0.0,17.4,1.5,-5.0,1024,1024,1024,1024,0,0,0,0,72,4.758,66.92,167.650924,P-GPS,,51.1
103500,2026-01-06 16:39:08,0.0,5,7.431,0.0,0.0,0.0,17.4,1.5,-4.9,1024,1024,1024,1024,0,0,0,0,72,4.758,66.92,167.650924,P-GPS,,51.1
103600,2026-01-06 16:39:09,0.0,5,7.431,0.0,0.0,0.0,17.4,1.5,-5.0,1024,1024,1024,1024,0,0,0,0,72,4.758,66.92,167.650924,P-GPS,,51.1
103700,2026-01-06 16:39:09,0.0,5,7.431,0.0,0.0,0.0,17.4,1.9,-5.3,1024,1024,1024,1024,0,0,0,0,72,4.758,66.92,167.650924,P-GPS,,51.1
103800,2026-01-06 16:39:09,0.0,5,7.424,0.0,0.0,0.0,17.5,2.1,-5.4,1024,1024,1024,1024,0,0,0,0,72,4.807,67.1,167.650924,P-GPS,,51.1
103900,2026-01-06 16:39:09,0.0,5,7.424,0.0,0.0,0.0,17.7,1.5,-5.2,1024,1024,1024,1024,0,0,0,0,72,4.807,67.1,167.650924,P-GPS,,51.1
104000,2026-01-06 16:39:09,0.0,5,7.424,0.0,0.0,0.0,17.7,1.2,-5.1,1024,1024,1024,1024,0,0,0,0,72,4.807,67.1,167.650924,P-GPS,,51.1
104100,2026-01-06 16:39:09,0.0,5,7.424,0.0,0.0,0.0,17.8,0.5,-4.6,1024,1024,1024,1024,0,0,0,0,72,4.807,67.1,167.650924,P-GPS,,51.1
104200,2026-01-06 16:39:09,0.0,5,7.424,0.0,0.0,0.0,17.9,0.0,-4.7,1024,1024,1024,1024,0,0,0,0,72,4.807,67.1,167.650924,P-GPS,,51.1
104300,2026-01-06 16:39:09,0.0,5,7.424,0.0,0.0,0.0,17.9,-0.2,-4.6,1024,1024,1024,1024,0,0,0,0,72,4.807,67.1,167.650924,P-GPS,,51.1
104400,2026-01-06 16:39:09,0.0,5,7.424,0.0,0.0,0.0,17.9,-0.1,-4.6,1024,1024,1024,1024,0,0,0,0,72,4.807,67.1,167.650924,P-GPS,,51.1
104500,2026-01-06 16:39:09,0.0,5,7.424,0.0,0.0,0.0,17.9,0.0,-4.7,1024,1024,1024,1024,0,0,0,0,72,4.807,67.1,167.650924,P-GPS,,51.1
104600,2026-01-06 16:39:10,0.0,5,7.424,0.0,0.0,0.0,17.8,0.0,-5.0,1024,1024,1024,1024,0,0,0,0,72,4.807,67.1,167.650924,P-GPS,,51.1
104700,2026-01-06 16:39:10,0.0,5,7.424,0.0,0.0,0.0,17.7,0.6,-5.3,1024,1024,1024,1024,0,0,0,0,72,4.807,67.1,167.650924,P-GPS,,51.1
104800,2026-01-06 16:39:10,0.0,5,7.424,0.0,0.0,0.0,17.9,-0.4,-5.1,1024,1024,1024,1024,0,0,0,0,72,4.807,67.1,167.650924,P-GPS,,51.1
104900,2026-01-06 16:39:10,0.0,5,7.409,0.0,0.0,0.0,17.8,-0.7,-5.3,1024,1024,1024,1024,0,0,0,0,72,5.137,67.1,167.650924,P-GPS,,51.1
105000,2026-01-06 16:39:10,0.0,5,7.409,0.0,0.0,0.0,17.9,-1.5,-5.1,1024,1024,1024,1024,0,0,0,0,72,5.137,67.1,167.650924,P-GPS,,51.1
105100,2026-01-06 16:39:10,0.0,5,7.409,0.0,0.0,0.0,18.0,-1.7,-5.0,1024,1024,1024,1024,0,0,0,0,72,5.137,67.1,167.650924,P-GPS,,51.1
105200,2026-01-06 16:39:10,0.0,5,7.409,0.0,0.0,0.0,17.9,-1.6,-5.2,1024,1024,1024,1024,0,0,0,0,72,5.137,67.1,167.650924,P-GPS,,51.1
105300,2026-01-06 16:39:10,0.0,5,7.409,0.0,0.0,0.0,17.9,-1.6,-5.1,1024,1024,1024,1024,0,0,0,0,72,5.137,67.1,167.650924,P-GPS,,51.1
105400,2026-01-06 16:39:10,0.0,5,7.409,0.0,0.0,0.0,17.9,-1.1,-5.1,1024,1024,1024,1024,0,0,0,0,72,5.137,67.1,167.650924,P-GPS,,51.1
105500,2026-01-06 16:39:10,0.0,5,7.409,0.0,0.0,0.0,17.8,-0.5,-5.0,1024,1024,1024,1024,0,0,0,0,72,5.137,67.1,167.650924,P-GPS,,51.1
105600,2026-01-06 16:39:11,0.0,5,7.409,0.0,0.0,0.0,17.7,0.1,-5.2,1024,1024,1024,1024,0,0,0,0,72,5.137,67.1,167.650924,P-GPS,,51.1
105700,2026-01-06 16:39:11,0.0,5,7.409,0.0,0.0,0.0,17.8,0.1,-5.3,1024,1024,1024,1024,0,0,0,0,72,5.137,67.1,167.650924,P-GPS,,51.1
105800,2026-01-06 16:39:11,0.0,5,7.409,0.0,0.0,0.0,18.0,0.0,-4.9,1024,1024,1024,1024,0,0,0,0,72,5.137,67.1,167.650924,P-GPS,,51.1
105900,2026-01-06 16:39:11,0.0,5,7.409,0.0,0.0,0.0,18.0,0.7,-5.0,1024,1024,1024,1024,0,0,0,0,72,5.137,67.1,167.650924,P-GPS,,51.1
106000,2026-01-06 16:39:11,0.0,5,7.409,0.0,0.0,0.0,17.9,1.1,-5.6,1024,1024,1024,1024,0,0,0,0,72,5.003,67.1,167.650924,P-GPS,,51.1
106100,2026-01-06 16:39:11,0.0,5,7.409,0.0,0.0,0.0,17.9,0.6,-5.8,1024,1024,1024,1024,0,0,0,0,72,5.003,67.1,167.650924,P-GPS,,51.1
106200,2026-01-06 16:39:11,0.0,5,7.409,0.0,0.0,0.0,17.9,0.6,-5.9,1024,1024,1024,1024,0,0,0,0,72,5.003,67.1,167.650924,P-GPS,,51.1
106300,2026-01-06 16:39:11,0.0,5,7.409,0.0,0.0,0.0,17.8,0.9,-6.2,1024,1024,1024,1024,0,0,0,0,72,5.003,67.1,167.650924,P-GPS,,51.1
106400,2026-01-06 16:39:11,0.0,5,7.409,0.0,0.0,0.0,17.7,1.4,-6.3,1024,1024,1024,1024,0,0,0,0,72,5.003,67.1,167.650924,P-GPS,,51.1
106500,2026-01-06 16:39:11,0.0,5,7.409,0.0,0.0,0.0,17.7,2.0,-6.3,1024,1024,1024,1024,0,0,0,0,72,5.003,67.1,167.650924,P-GPS,,51.1
106600,2026-01-06 16:39:12,0.0,5,7.409,0.0,0.0,0.0,17.7,1.7,-6.1,1024,1024,1024,1024,0,0,0,0,72,5.003,67.1,167.650924,P-GPS,,51.1
106700,2026-01-06 16:39:12,0.0,5,7.409,0.0,0.0,0.0,17.7,1.9,-6.1,1024,1024,1024,1024,0,0,0,0,72,5.003,67.1,167.650924,P-GPS,,51.1
106800,2026-01-06 16:39:12,0.0,5,7.409,0.0,0.0,0.0,17.6,2.3,-5.9,1024,1024,1024,1024,0,0,0,0,72,5.003,67.1,167.650924,P-GPS,,51.1
106900,2026-01-06 16:39:12,0.0,5,7.409,0.0,0.0,0.0,17.8,1.7,-5.6,1024,1024,1024,1024,0,0,0,0,72,5.003,67.1,167.650924,P-GPS,,51.1
107000,2026-01-06 16:39:12,0.0,5,7.409,0.0,0.0,0.0,17.7,1.8,-5.6,1024,1024,1024,1024,0,0,0,0,72,5.003,67.1,167.650924,P-GPS,,51.1
107100,2026-01-06 16:39:12,0.0,5,7.414,0.0,0.0,0.0,17.7,2.0,-5.6,1024,1024,1024,1024,0,0,0,0,72,4.955,67.1,167.650924,P-GPS,,51.1
107200,2026-01-06 16:39:12,0.0,5,7.414,0.0,0.0,0.0,17.9,1.9,-5.7,1024,1024,1024,1024,0,0,0,0,72,4.955,67.1,167.650924,P-GPS,,51.1
107300,2026-01-06 16:39:12,0.0,5,7.414,0.0,0.0,0.0,18.0,1.2,-5.6,1024,1024,1024,1024,0,0,0,0,72,4.955,67.1,167.650924,P-GPS,,51.1
107400,2026-01-06 16:39:12,0.0,5,7.414,0.0,0.0,0.0,17.9,0.8,-5.4,1024,1024,1024,1024,0,0,0,0,72,4.955,67.1,167.650924,P-GPS,,51.1
107500,2026-01-06 16:39:12,0.0,5,7.414,0.0,0.0,0.0,18.0,0.9,-5.7,1024,1024,1024,1024,0,0,0,0,72,4.955,67.1,167.32284,P-GPS,,51.0
107600,2026-01-06 16:39:13,0.0,5,7.414,0.0,0.0,0.0,18.0,0.7,-5.0,1024,1024,1024,1024,0,0,0,0,72,4.955,67.1,167.32284,P-GPS,,51.0
107700,2026-01-06 16:39:13,0.0,5,7.414,0.0,0.0,0.0,18.0,0.4,-5.3,1024,1024,1024,1024,0,0,0,0,72,4.955,67.1,167.32284,P-GPS,,51.0
107800,2026-01-06 16:39:13,0.0,5,7.414,0.0,0.0,0.0,17.9,1.8,-5.4,1024,1024,1024,1024,0,0,0,0,72,4.955,67.1,167.32284,P-GPS,,51.0
107900,2026-01-06 16:39:13,0.0,5,7.414,0.0,0.0,0.0,17.9,2.0,-5.3,1024,1024,1024,1024,0,0,0,0,72,4.955,67.1,167.32284,P-GPS,,51.0
108000,2026-01-06 16:39:13,0.0,5,7.414,0.0,0.0,0.0,17.9,1.4,-5.5,1024,1024,1024,1024,0,0,0,0,72,4.955,67.1,167.32284,P-GPS,,51.0
108100,2026-01-06 16:39:13,0.0,5,7.414,0.0,0.0,0.0,17.7,1.6,-5.6,1024,1024,1024,1024,0,0,0,0,72,4.955,67.1,167.32284,P-GPS,,51.0
108200,2026-01-06 16:39:13,0.0,5,7.417,0.0,0.0,0.0,17.5,1.7,-5.8,1024,1024,1024,1024,0,0,0,0,72,4.856,67.1,167.32284,P-GPS,,51.0
108300,2026-01-06 16:39:13,0.0,5,7.417,0.0,0.0,0.0,17.4,1.9,-5.6,1024,1024,1024,1024,0,0,0,0,72,4.856,67.1,166.994756,P-GPS,,50.9
108400,2026-01-06 16:39:13,0.0,5,7.417,0.0,0.0,0.0,17.6,1.6,-5.1,1024,1024,1024,1024,0,0,0,0,72,4.856,67.1,166.994756,P-GPS,,50.9
108500,2026-01-06 16:39:13,0.0,5,7.417,0.0,0.0,0.0,17.7,1.4,-4.9,1024,1024,1024,1024,0,0,0,0,72,4.856,67.1,166.994756,P-GPS,,50.9
108600,2026-01-06 16:39:14,0.0,5,7.417,0.0,0.0,0.0,17.8,0.5,-4.8,1024,1024,1024,1024,0,0,0,0,72,4.856,67.1,166.994756,P-GPS,,50.9
108700,2026-01-06 16:39:14,0.0,5,7.417,0.0,0.0,0.0,17.7,1.8,-5.4,1024,1024,1024,1024,0,0,0,0,72,4.856,67.1,166.994756,P-GPS,,50.9
108800,2026-01-06 16:39:14,0.0,5,7.417,0.0,0.0,0.0,17.5,2.6,-5.6,1024,1024,1024,1024,0,0,0,0,72,4.856,67.1,167.32284,P-GPS,,51.0
108900,2026-01-06 16:39:14,0.0,5,7.417,0.0,0.0,0.0,17.6,2.5,-5.7,1024,1024,1024,1024,0,0,0,0,72,4.856,67.1,167.32284,P-GPS,,51.0
109000,2026-01-06 16:39:14,0.0,5,7.417,0.0,0.0,0.0,17.7,2.5,-5.8,1024,1024,1024,1024,0,0,0,0,72,4.856,67.1,167.32284,P-GPS,,51.0
109200,2026-01-06 16:39:14,0.0,5,7.417,0.0,0.0,0.0,17.7,2.2,-6.1,1024,1024,1024,1024,0,0,0,0,72,4.856,67.1,167.32284,P-GPS,,51.0
109300,2026-01-06 16:39:14,0.0,5,7.417,0.0,0.0,0.0,17.7,2.4,-6.0,1024,1024,1024,1024,0,0,0,0,72,4.856,67.1,167.32284,P-GPS,,51.0
109400,2026-01-06 16:39:14,0.0,5,7.417,0.0,0.0,0.0,17.7,2.0,-6.0,1024,1024,1024,1024,0,0,0,0,72,4.856,67.1,167.32284,P-GPS,,51.0
109500,2026-01-06 16:39:14,0.0,5,7.417,0.0,0.0,0.0,17.7,2.3,-6.2,1024,1024,1024,1024,0,0,0,0,72,4.856,67.1,167.32284,P-GPS,,51.0
109600,2026-01-06 16:39:15,0.0,5,7.417,0.0,0.0,0.0,17.7,2.3,-6.1,1024,1024,1024,1024,0,0,0,0,72,4.856,67.1,167.32284,P-GPS,,51.0
109700,2026-01-06 16:39:15,0.0,5,7.417,0.0,0.0,0.0,17.6,2.4,-6.2,1024,1024,1024,1024,0,0,0,0,72,4.856,67.1,167.32284,P-GPS,,51.0
109800,2026-01-06 16:39:15,0.0,5,7.417,0.0,0.0,0.0,17.6,2.8,-6.0,1024,1024,1024,1024,0,0,0,0,72,4.856,67.1,167.32284,P-GPS,,51.0
109900,2026-01-06 16:39:15,0.0,5,7.417,0.0,0.0,0.0,17.6,2.7,-6.2,1024,1024,1024,1024,0,0,0,0,72,4.856,67.1,167.32284,P-GPS,,51.0
110000,2026-01-06 16:39:15,0.0,5,7.417,0.0,0.0,0.0,17.6,2.9,-6.2,1024,1024,1024,1024,0,0,0,0,72,4.856,67.1,167.32284,P-GPS,,51.0
110100,2026-01-06 16:39:15,0.0,5,7.417,0.0,0.0,0.0,17.7,2.9,-6.1,1024,1024,1024,1024,0,0,0,0,72,4.856,67.1,167.32284,P-GPS,,51.0
110200,2026-01-06 16:39:15,0.0,5,7.417,0.0,0.0,0.0,17.8,2.4,-6.3,1024,1024,1024,1024,0,0,0,0,72,4.856,67.1,167.32284,P-GPS,,51.0
110300,2026-01-06 16:39:15,0.0,5,7.417,0.0,0.0,0.0,17.9,2.2,-6.1,1024,1024,1024,1024,0,0,0,0,72,4.856,67.1,166.994756,P-GPS,,50.9
110400,2026-01-06 16:39:15,0.0,5,7.417,0.0,0.0,0.0,17.8,2.2,-5.9,1024,1024,1024,1024,0,0,0,0,72,4.856,67.1,166.994756,P-GPS,,50.9
110500,2026-01-06 16:39:15,0.0,5,7.406,0.0,0.0,0.0,17.8,1.9,-6.1,1024,1024,1024,1024,0,0,0,0,72,4.875,67.28,166.994756,P-GPS,,50.9
110600,2026-01-06 16:39:16,0.0,5,7.406,0.0,0.0,0.0,17.8,2.1,-6.2,1024,1024,1024,1024,0,0,0,0,72,4.875,67.28,166.994756,P-GPS,,50.9
110700,2026-01-06 16:39:16,0.0,5,7.406,0.0,0.0,0.0,17.8,2.5,-6.1,1024,1024,1024,1024,0,0,0,0,72,4.875,67.28,166.994756,P-GPS,,50.9
110800,2026-01-06 16:39:16,0.0,5,7.406,0.0,0.0,0.0,17.9,2.5,-6.0,1024,1024,1024,1024,0,0,0,0,72,4.875,67.28,166.994756,P-GPS,,50.9
110900,2026-01-06 16:39:16,0.0,5,7.406,0.0,0.0,0.0,17.8,2.9,-5.8,1024,1024,1024,1024,0,0,0,0,72,4.875,67.28,166.994756,P-GPS,,50.9
111000,2026-01-06 16:39:16,0.0,5,7.406,0.0,0.0,0.0,17.7,2.8,-5.7,1024,1024,1024,1024,0,0,0,0,72,4.875,67.28,166.994756,P-GPS,,50.9
111100,2026-01-06 16:39:16,0.0,5,7.406,0.0,0.0,0.0,17.8,2.7,-5.5,1024,1024,1024,1024,0,0,0,0,72,4.875,67.28,166.994756,P-GPS,,50.9
111200,2026-01-06 16:39:16,0.0,5,7.406,0.0,0.0,0.0,17.9,2.0,-5.7,1024,1024,1024,1024,0,0,0,0,72,4.875,67.28,166.994756,P-GPS,,50.9
111300,2026-01-06 16:39:16,0.0,5,7.406,0.0,0.0,0.0,17.8,2.2,-6.0,1024,1024,1024,1024,0,0,0,0,72,4.875,67.28,167.32284,P-GPS,,51.0
111400,2026-01-06 16:39:16,0.0,5,7.406,0.0,0.0,0.0,17.7,2.7,-6.1,1024,1024,1024,1024,0,0,0,0,72,4.875,67.28,167.32284,P-GPS,,51.0
111500,2026-01-06 16:39:17,0.0,5,7.406,0.0,0.0,0.0,17.8,2.7,-6.1,1024,1024,1024,1024,0,0,0,0,72,4.875,67.28,167.32284,P-GPS,,51.0
111600,2026-01-06 16:39:17,0.0,5,7.42,0.0,0.0,0.0,17.8,2.5,-5.9,1024,1024,1024,1024,0,0,0,0,72,4.941,67.28,167.32284,P-GPS,,51.0
111700,2026-01-06 16:39:17,0.0,5,7.42,0.0,0.0,0.0,17.8,2.7,-6.0,1024,1024,1024,1024,0,0,0,0,72,4.941,67.28,167.32284,P-GPS,,51.0
111800,2026-01-06 16:39:17,0.0,5,7.42,0.0,0.0,0.0,17.8,2.6,-5.7,1024,1024,1024,1024,0,0,0,0,72,4.941,67.28,167.32284,P-GPS,,51.0
111900,2026-01-06 16:39:17,0.0,5,7.42,0.0,0.0,0.0,17.8,2.5,-5.7,1024,1024,1024,1024,0,0,0,0,72,4.941,67.28,167.32284,P-GPS,,51.0
112000,2026-01-06 16:39:17,0.0,5,7.42,0.0,0.0,0.0,17.7,2.7,-5.9,1024,1024,1024,1024,0,0,0,0,72,4.941,67.28,167.32284,P-GPS,,51.0
112100,2026-01-06 16:39:17,0.0,5,7.42,0.0,0.0,0.0,17.7,3.1,-5.9,1024,1024,1024,1024,0,0,0,0,72,4.941,67.28,167.32284,P-GPS,,51.0
112200,2026-01-06 16:39:17,0.0,5,7.42,0.0,0.0,0.0,17.7,2.9,-6.2,1024,1024,1024,1024,0,0,0,0,72,4.941,67.28,167.32284,P-GPS,,51.0
112300,2026-01-06 16:39:17,0.0,5,7.42,0.0,0.0,0.0,17.7,3.0,-6.4,1024,1024,1024,1024,0,0,0,0,72,4.941,67.28,167.32284,P-GPS,,51.0
112400,2026-01-06 16:39:17,0.0,5,7.42,0.0,0.0,0.0,17.7,3.2,-6.5,1024,1024,1024,1024,0,0,0,0,72,4.941,67.28,167.32284,P-GPS,,51.0
112500,2026-01-06 16:39:17,0.0,5,7.42,0.0,0.0,0.0,17.8,3.3,-6.4,1024,1024,1024,1024,0,0,0,0,72,4.941,67.28,167.32284,P-GPS,,51.0
112600,2026-01-06 16:39:18,0.0,5,7.42,0.0,0.0,0.0,17.7,3.0,-6.4,1024,1024,1024,1024,0,0,0,0,72,4.941,67.28,167.32284,P-GPS,,51.0
112700,2026-01-06 16:39:18,0.0,5,7.41,0.0,0.0,0.0,17.8,3.0,-6.1,1024,1024,1024,1024,0,0,0,0,72,4.901,67.28,167.32284,P-GPS,,51.0
112800,2026-01-06 16:39:18,0.0,5,7.41,0.0,0.0,0.0,17.8,2.6,-6.2,1024,1024,1024,1024,0,0,0,0,72,4.901,67.28,167.32284,P-GPS,,51.0
112900,2026-01-06 16:39:18,0.0,5,7.41,0.0,0.0,0.0,17.9,1.8,-6.0,1024,1024,809,1024,0,0,-33,0,72,4.901,67.28,167.32284,P-GPS,,51.0
113000,2026-01-06 16:39:18,0.0,5,7.41,0.0,0.0,0.0,17.9,1.9,-6.1,1024,1024,364,1024,0,0,-100,0,72,4.901,67.28,167.32284,P-GPS,,51.0
113100,2026-01-06 16:39:18,0.0,5,7.41,0.0,0.0,0.0,17.8,2.9,-5.8,1024,1024,364,1024,0,0,-100,0,72,4.901,67.28,167.32284,P-GPS,,51.0
113200,2026-01-06 16:39:18,0.0,5,7.41,0.0,0.0,0.0,17.8,3.4,-5.8,1024,1024,364,1024,0,0,-100,0,72,4.901,67.28,167.32284,P-GPS,,51.0
