time(millisecond),timestamp,speed(mph),gpslevel,voltage(v),xSpeed(mph),ySpeed(mph),zSpeed(mph),compass_heading(degrees),pitch(degrees),roll(degrees),rc_elevator,rc_aileron,rc_throttle,rc_rudder,rc_elevator(percent),rc_aileron(percent),rc_throttle(percent),rc_rudder(percent),battery_percent,current(A),battery_temperature(f),ascent(feet),flycState,message,height_above_takeoff(meters)
197300,2026-01-07 15:36:20,0.0,5,7.356,0.0,0.0,-4.250186,35.5,5.7,1.2,1024,1024,1684,1024,0,0,100,0,66,5.574,68.54,92.191604,P-GPS,,28.1
197400,2026-01-07 15:36:20,0.0,5,7.356,0.0,0.0,-4.250186,35.4,5.3,1.3,1024,1024,1684,1024,0,0,100,0,66,5.574,68.54,92.847772,P-GPS,,28.3
197500,2026-01-07 15:36:21,0.0,5,7.356,0.0,0.0,-4.250186,35.4,4.8,1.3,1024,1024,1684,1024,0,0,100,0,66,5.574,68.54,93.50394,P-GPS,,28.5
197600,2026-01-07 15:36:21,0.0,5,7.356,0.0,0.0,-4.250186,35.4,4.6,1.3,1024,1024,1684,1024,0,0,100,0,66,5.574,68.54,94.488192,P-GPS,,28.8
197700,2026-01-07 15:36:21,0.0,5,7.356,0.0,0.0,-4.47388,35.5,4.5,1.8,1024,1024,1684,1024,0,0,100,0,66,5.574,68.54,95.14436,P-GPS,,29.0
197800,2026-01-07 15:36:21,0.0,5,7.356,0.0,0.0,-4.47388,35.5,4.8,2.1,1024,1024,1684,1024,0,0,100,0,66,5.574,68.54,95.800528,P-GPS,,29.2
197900,2026-01-07 15:36:21,0.0,5,7.356,0.0,0.0,-4.47388,35.5,4.6,1.9,1024,1024,1684,1024,0,0,100,0,66,5.574,68.54,96.456696,P-GPS,,29.4
198000,2026-01-07 15:36:21,0.0,5,7.356,0.0,0.0,-4.250186,35.5,4.3,1.4,1024,1024,1024,1024,0,0,0,0,66,5.574,68.54,97.112864,P-GPS,,29.6
198100,2026-01-07 15:36:21,0.0,5,7.356,0.0,0.0,-4.47388,35.5,4.4,1.2,1024,1024,1024,1024,0,0,0,0,66,5.574,68.54,97.769032,P-GPS,,29.8
198200,2026-01-07 15:36:21,0.0,5,7.356,0.0,0.0,-4.250186,35.5,4.6,1.4,1024,1024,1024,1024,0,0,0,0,66,5.574,68.54,98.4252,P-GPS,,30.0
198300,2026-01-07 15:36:21,0.0,5,7.335,0.0,0.0,-4.250186,35.6,4.6,1.3,1024,1024,1024,1024,0,0,0,0,66,5.933,68.72,99.081368,P-GPS,,30.2
198400,2026-01-07 15:36:22,0.0,5,7.335,0.0,0.0,-3.802798,35.6,4.3,1.4,1024,1024,1024,1024,0,0,0,0,66,5.933,68.72,99.409452,P-GPS,,30.3
198500,2026-01-07 15:36:22,0.0,5,7.335,0.0,0.0,-3.131716,35.6,4.3,1.7,1024,1024,1024,1024,0,0,0,0,66,5.933,68.72,100.06562,P-GPS,,30.5
198600,2026-01-07 15:36:22,0.0,5,7.335,0.0,0.0,-2.460634,35.6,4.1,1.9,1024,1024,1024,1024,0,0,0,0,66,5.933,68.72,100.393704,P-GPS,,30.6
198700,2026-01-07 15:36:22,0.0,5,7.335,0.0,0.0,-1.565858,35.6,4.0,2.1,1024,1024,1024,1024,0,0,0,0,66,5.933,68.72,100.721788,P-GPS,,30.7
198800,2026-01-07 15:36:22,0.0,5,7.335,0.0,0.0,-0.894776,35.6,4.1,2.1,1024,1024,1024,1024,0,0,0,0,66,5.933,68.72,100.721788,P-GPS,,30.7
198900,2026-01-07 15:36:22,0.0,5,7.335,0.0,0.0,-0.447388,35.6,4.1,2.0,1024,1024,1024,1024,0,0,0,0,66,5.933,68.72,101.049872,P-GPS,,30.8
199000,2026-01-07 15:36:22,0.0,5,7.335,0.0,0.0,0.0,35.7,4.0,2.0,1024,1024,1024,1024,0,0,0,0,66,5.933,68.72,101.049872,P-GPS,,30.8
199100,2026-01-07 15:36:22,0.0,5,7.335,0.0,0.0,0.0,35.7,3.9,1.8,1024,1024,1024,1024,0,0,0,0,66,5.933,68.72,101.049872,P-GPS,,30.8
199200,2026-01-07 15:36:22,0.0,5,7.335,0.0,0.0,0.0,35.6,3.7,1.6,1024,1024,1024,1024,0,0,0,0,66,5.933,68.72,101.049872,P-GPS,,30.8
199300,2026-01-07 15:36:22,0.0,5,7.335,0.0,0.0,0.0,35.6,3.6,1.7,1024,1024,1024,1024,0,0,0,0,66,5.933,68.72,101.049872,P-GPS,,30.8
199400,2026-01-07 15:36:22,0.0,5,7.399,0.0,0.0,0.0,35.5,3.7,2.0,1024,1024,1024,1024,0,0,0,0,66,4.143,68.72,101.049872,P-GPS,,30.8
199500,2026-01-07 15:36:23,0.0,5,7.399,0.0,0.0,0.0,35.5,3.6,2.1,1024,1024,1024,1024,0,0,0,0,66,4.143,68.72,101.049872,P-GPS,,30.8
199600,2026-01-07 15:36:23,0.0,5,7.399,0.0,0.0,0.0,35.6,3.6,2.2,1024,1024,1024,1024,0,0,0,0,66,4.143,68.72,101.049872,P-GPS,,30.8
199700,2026-01-07 15:36:23,0.0,5,7.399,0.0,0.0,0.0,35.5,3.5,2.0,1024,1024,1024,1024,0,0,0,0,66,4.143,68.72,101.049872,P-GPS,,30.8
199800,2026-01-07 15:36:23,0.0,5,7.399,0.0,0.0,0.0,35.6,3.5,2.6,1024,1024,1024,1024,0,0,0,0,66,4.143,68.72,101.049872,P-GPS,,30.8
199900,2026-01-07 15:36:23,0.0,5,7.399,0.0,0.0,0.0,35.6,3.2,2.6,1024,1024,1024,1024,0,0,0,0,66,4.143,68.72,101.049872,P-GPS,,30.8
200000,2026-01-07 15:36:23,0.0,5,7.399,0.0,0.0,0.0,35.7,3.7,2.6,1024,1024,1024,1024,0,0,0,0,66,4.143,68.72,101.049872,P-GPS,,30.8
200100,2026-01-07 15:36:23,0.0,5,7.399,0.0,0.0,0.0,35.6,4.2,2.7,1024,1024,1024,1024,0,0,0,0,66,4.143,68.72,101.049872,P-GPS,,30.8
200200,2026-01-07 15:36:23,0.0,5,7.399,0.0,0.0,0.0,35.6,4.2,2.9,1024,1024,1024,1024,0,0,0,0,66,4.143,68.72,101.049872,P-GPS,,30.8
200300,2026-01-07 15:36:23,0.0,5,7.399,0.0,0.0,0.0,35.7,4.2,2.8,1024,1024,1024,1024,0,0,0,0,66,4.143,68.72,101.049872,P-GPS,,30.8
200400,2026-01-07 15:36:24,0.0,5,7.399,0.0,0.0,0.0,35.8,3.6,3.1,1024,1024,1024,1024,0,0,0,0,66,4.143,68.72,101.049872,P-GPS,,30.8
200500,2026-01-07 15:36:24,0.0,5,7.389,0.0,0.0,0.0,35.7,3.3,3.2,1024,1024,1024,1024,0,0,0,0,66,4.927,68.72,101.049872,P-GPS,,30.8
200600,2026-01-07 15:36:24,0.0,5,7.389,0.0,0.0,0.0,35.7,2.8,3.2,1024,1024,1024,1024,0,0,0,0,66,4.927,68.72,101.049872,P-GPS,,30.8
200700,2026-01-07 15:36:24,0.0,5,7.389,0.0,0.0,0.0,35.7,3.0,3.4,1024,1024,1024,1024,0,0,0,0,66,4.927,68.72,101.049872,P-GPS,,30.8
200800,2026-01-07 15:36:24,0.0,5,7.389,0.0,0.0,0.0,35.7,3.1,3.4,1024,1024,1024,1024,0,0,0,0,66,4.927,68.72,101.049872,P-GPS,,30.8
200900,2026-01-07 15:36:24,0.0,5,7.389,0.0,0.0,0.0,35.7,2.5,3.5,1024,1024,1024,1024,0,0,0,0,66,4.927,68.72,101.049872,P-GPS,,30.8
201000,2026-01-07 15:36:24,0.0,5,7.389,0.0,0.0,0.0,35.6,2.5,3.3,1024,1024,1024,1024,0,0,0,0,66,4.927,68.72,101.049872,P-GPS,,30.8
201100,2026-01-07 15:36:24,0.0,5,7.389,0.0,0.0,0.0,35.6,3.3,2.9,1024,1024,1024,1024,0,0,0,0,66,4.927,68.72,101.049872,P-GPS,,30.8
201200,2026-01-07 15:36:24,0.0,5,7.389,0.0,0.0,0.0,35.6,3.4,2.9,1024,1024,1024,1024,0,0,0,0,66,4.927,68.72,101.049872,P-GPS,,30.8
201300,2026-01-07 15:36:24,0.0,5,7.389,0.0,0.0,0.0,35.7,3.5,2.8,1024,1024,1024,1024,0,0,0,0,66,4.927,68.72,101.049872,P-GPS,,30.8
201400,2026-01-07 15:36:24,0.0,5,7.389,0.0,0.0,0.0,35.6,3.5,2.7,1024,1024,1024,1024,0,0,0,0,66,4.927,68.72,100.721788,P-GPS,,30.7
201500,2026-01-07 15:36:25,0.0,5,7.389,0.0,0.0,0.0,35.5,3.7,2.8,1024,1024,1024,1024,0,0,0,0,66,4.927,68.72,100.721788,P-GPS,,30.7
201600,2026-01-07 15:36:25,0.0,5,7.381,0.0,0.0,0.0,35.4,3.5,2.8,1024,1024,1024,1024,0,0,0,0,66,4.989,68.72,100.721788,P-GPS,,30.7
201700,2026-01-07 15:36:25,0.0,5,7.381,0.0,0.0,0.0,35.5,4.0,2.9,1024,1024,1024,1024,0,0,0,0,66,4.989,68.72,100.721788,P-GPS,,30.7
201800,2026-01-07 15:36:25,0.0,5,7.381,0.0,0.0,0.0,35.7,5.2,2.6,1024,1024,1024,1024,0,0,0,0,66,4.989,68.72,101.049872,P-GPS,,30.8
201900,2026-01-07 15:36:25,0.0,5,7.381,0.0,0.0,0.0,35.6,5.1,2.6,1024,1024,1024,1024,0,0,0,0,66,4.989,68.72,100.721788,P-GPS,,30.7
202000,2026-01-07 15:36:25,0.0,5,7.381,0.0,0.0,0.0,35.6,4.8,2.5,1024,1024,1024,1024,0,0,0,0,66,4.989,68.72,100.721788,P-GPS,,30.7
202100,2026-01-07 15:36:25,0.0,5,7.381,0.0,0.0,0.0,35.6,4.6,2.6,1024,1024,1024,1024,0,0,0,0,66,4.989,68.72,100.721788,P-GPS,,30.7
202200,2026-01-07 15:36:25,0.0,5,7.381,0.0,0.0,0.0,35.6,4.1,3.0,1024,1024,1024,1024,0,0,0,0,66,4.989,68.72,100.721788,P-GPS,,30.7
202300,2026-01-07 15:36:25,0.0,5,7.381,0.0,0.0,0.0,35.7,3.8,3.0,1024,1024,1024,1024,0,0,0,0,66,4.989,68.72,100.721788,P-GPS,,30.7
202400,2026-01-07 15:36:26,0.0,5,7.381,0.0,0.0,0.0,35.8,3.6,2.9,1024,1024,1024,1024,0,0,0,0,66,4.989,68.72,100.721788,P-GPS,,30.7
202500,2026-01-07 15:36:26,0.0,5,7.381,0.0,0.0,0.0,35.8,3.1,3.3,1024,1024,1024,1024,0,0,0,0,66,4.989,68.72,100.721788,P-GPS,,30.7
202600,2026-01-07 15:36:26,0.0,5,7.381,0.0,0.0,0.0,35.8,3.1,3.4,1024,1024,1024,1024,0,0,0,0,66,4.989,68.72,100.721788,P-GPS,,30.7
202700,2026-01-07 15:36:26,0.0,5,7.381,0.0,0.0,0.0,35.7,2.6,3.0,1024,1024,1024,1024,0,0,0,0,66,4.989,68.72,100.721788,P-GPS,,30.7
202800,2026-01-07 15:36:26,0.0,5,7.381,0.0,0.0,0.0,35.6,2.5,3.1,1024,1024,1024,1024,0,0,0,0,66,4.989,68.72,100.721788,P-GPS,,30.7
202900,2026-01-07 15:36:26,0.0,5,7.381,0.0,0.0,0.0,35.6,2.7,3.2,1024,1024,1024,1024,0,0,0,0,66,4.989,68.72,100.721788,P-GPS,,30.7
203000,2026-01-07 15:36:26,0.0,5,7.381,0.0,0.0,0.0,35.7,3.2,3.2,1024,1024,1024,1024,0,0,0,0,66,4.989,68.72,100.721788,P-GPS,,30.7
203100,2026-01-07 15:36:26,0.0,5,7.381,0.0,0.0,0.0,35.6,3.6,2.8,1024,1024,1024,1024,0,0,0,0,66,4.989,68.72,100.721788,P-GPS,,30.7
203200,2026-01-07 15:36:26,0.0,5,7.381,0.0,0.0,0.0,35.6,3.4,2.8,1024,1024,1024,1024,0,0,0,0,66,4.989,68.72,100.721788,P-GPS,,30.7
203300,2026-01-07 15:36:26,0.0,5,7.381,0.0,0.0,0.0,35.6,3.5,3.2,1024,1024,1024,1024,0,0,0,0,65,4.989,68.72,100.721788,P-GPS,,30.7
203400,2026-01-07 15:36:26,0.0,5,7.381,0.0,0.0,0.0,35.7,3.5,3.4,1024,1024,1024,1024,0,0,0,0,65,4.989,68.72,100.721788,P-GPS,,30.7
203500,2026-01-07 15:36:27,0.0,5,7.381,0.0,0.0,0.0,35.6,3.9,3.5,1024,1024,1024,1024,0,0,0,0,65,4.989,68.72,100.721788,P-GPS,,30.7
203600,2026-01-07 15:36:27,0.0,5,7.381,0.0,0.0,0.0,35.6,4.0,3.7,1024,1024,1024,1024,0,0,0,0,65,4.989,68.72,100.721788,P-GPS,,30.7
203700,2026-01-07 15:36:27,0.0,5,7.381,0.0,0.0,0.0,35.6,4.0,3.7,1024,1024,1024,1024,0,0,0,0,65,4.989,68.72,100.721788,P-GPS,,30.7
203800,2026-01-07 15:36:27,0.0,5,7.39,0.0,0.0,0.0,35.5,4.2,3.8,1024,1024,1024,1024,0,0,0,0,65,4.864,68.9,100.721788,P-GPS,,30.7
203900,2026-01-07 15:36:27,0.0,5,7.39,0.0,0.0,0.0,35.7,3.9,3.9,1024,1024,1024,1024,0,0,0,0,65,4.864,68.9,100.393704,P-GPS,,30.6
204000,2026-01-07 15:36:27,0.0,5,7.39,0.0,0.0,0.0,35.9,4.2,3.5,1024,1024,1024,1024,0,0,0,0,65,4.864,68.9,100.393704,P-GPS,,30.6
204100,2026-01-07 15:36:27,0.0,5,7.39,0.0,0.0,0.0,35.9,4.2,3.2,1024,1024,1024,1024,0,0,0,0,65,4.864,68.9,100.393704,P-GPS,,30.6
204200,2026-01-07 15:36:27,0.0,5,7.39,0.0,0.0,0.0,35.8,3.8,3.3,1024,1024,1024,1024,0,0,0,0,65,4.864,68.9,100.393704,P-GPS,,30.6
204300,2026-01-07 15:36:27,0.0,5,7.39,0.0,0.0,0.0,35.8,3.6,3.2,1024,1024,1024,1024,0,0,0,0,65,4.864,68.9,100.393704,P-GPS,,30.6
204400,2026-01-07 15:36:28,0.0,5,7.39,0.0,0.0,0.0,35.8,3.0,3.1,1024,1024,1024,1024,0,0,0,0,65,4.864,68.9,100.393704,P-GPS,,30.6
204500,2026-01-07 15:36:28,0.0,5,7.39,0.0,0.0,0.0,35.8,2.6,3.2,1024,1024,1024,1024,0,0,0,0,65,4.864,68.9,100.393704,P-GPS,,30.6
204600,2026-01-07 15:36:28,0.0,5,7.39,0.0,0.0,0.0,35.7,2.8,3.3,1024,1024,1024,1024,0,0,0,0,65,4.864,68.9,100.393704,P-GPS,,30.6
204700,2026-01-07 15:36:28,0.0,5,7.39,0.0,0.0,0.0,35.7,2.7,3.1,1024,1024,1024,1024,0,0,0,0,65,4.864,68.9,100.393704,P-GPS,,30.6
204800,2026-01-07 15:36:28,0.0,5,7.39,0.0,0.0,0.0,35.7,2.7,3.1,1024,1024,1024,1024,0,0,0,0,65,4.864,68.9,100.393704,P-GPS,,30.6
204900,2026-01-07 15:36:28,0.0,5,7.382,0.0,0.0,0.0,35.8,2.9,3.3,1024,1024,1024,1024,0,0,0,0,65,4.952,68.9,100.393704,P-GPS,,30.6
205000,2026-01-07 15:36:28,0.0,5,7.382,0.0,0.0,0.0,35.7,3.4,3.3,1024,1024,1024,1024,0,0,0,0,65,4.952,68.9,100.393704,P-GPS,,30.6
205100,2026-01-07 15:36:28,0.0,5,7.382,0.0,0.0,0.0,35.8,3.1,3.5,1024,1024,1024,1024,0,0,0,0,65,4.952,68.9,100.06562,P-GPS,,30.5
205200,2026-01-07 15:36:28,0.0,5,7.382,0.0,0.0,0.0,35.7,3.0,3.8,1024,1024,1024,1024,0,0,0,0,65,4.952,68.9,100.393704,P-GPS,,30.6
205300,2026-01-07 15:36:28,0.0,5,7.382,0.0,0.0,0.0,35.5,2.6,3.6,1024,1024,1024,1024,0,0,0,0,65,4.952,68.9,100.06562,P-GPS,,30.5
205400,2026-01-07 15:36:28,0.0,5,7.382,0.0,0.0,0.0,35.6,3.2,3.6,1024,1024,1024,1024,0,0,0,0,65,4.952,68.9,100.06562,P-GPS,,30.5
205500,2026-01-07 15:36:29,0.0,5,7.382,0.0,0.0,0.0,35.8,3.4,4.1,1024,1024,1024,1024,0,0,0,0,65,4.952,68.9,100.06562,P-GPS,,30.5
205600,2026-01-07 15:36:29,0.0,5,7.382,0.0,0.0,0.0,35.8,3.5,4.3,1024,1024,1024,1024,0,0,0,0,65,4.952,68.9,100.06562,P-GPS,,30.5
205700,2026-01-07 15:36:29,0.0,5,7.382,0.0,0.0,0.0,35.7,3.1,4.3,1024,1024,1024,1024,0,0,0,0,65,4.952,68.9,100.393704,P-GPS,,30.6
205800,2026-01-07 15:36:29,0.0,5,7.382,0.0,0.0,0.0,35.7,3.3,4.3,1024,1024,1024,1024,0,0,0,0,65,4.952,68.9,100.393704,P-GPS,,30.6
205900,2026-01-07 15:36:29,0.0,5,7.382,0.0,0.0,0.0,35.6,3.5,4.3,1024,1024,1024,1024,0,0,0,0,65,4.952,68.9,100.393704,P-GPS,,30.6
206000,2026-01-07 15:36:29,0.0,5,7.382,0.0,0.0,0.0,35.6,3.7,4.3,1024,1024,1024,1024,0,0,0,0,65,4.916,68.9,100.393704,P-GPS,,30.6
206100,2026-01-07 15:36:29,0.0,5,7.382,0.0,0.0,0.0,35.6,4.0,4.2,1024,1024,1024,1024,0,0,0,0,65,4.916,68.9,100.393704,P-GPS,,30.6
206200,2026-01-07 15:36:29,0.0,5,7.382,0.0,0.0,0.0,35.5,3.9,4.2,1024,1024,1024,1024,0,0,0,0,65,4.916,68.9,100.393704,P-GPS,,30.6
206300,2026-01-07 15:36:29,0.0,5,7.382,0.0,0.0,0.0,35.5,3.6,4.3,1024,1024,1024,1024,0,0,0,0,65,4.916,68.9,100.393704,P-GPS,,30.6
206400,2026-01-07 15:36:29,0.0,5,7.382,0.0,0.0,0.0,35.4,4.1,4.0,1024,1024,1024,1024,0,0,0,0,65,4.916,68.9,100.393704,P-GPS,,30.6
206500,2026-01-07 15:36:30,0.0,5,7.382,0.0,0.0,0.0,35.5,4.7,4.3,1024,1024,1024,1024,0,0,0,0,65,4.916,68.9,100.393704,P-GPS,,30.6
206600,2026-01-07 15:36:30,0.0,5,7.382,0.0,0.0,0.0,35.6,5.1,4.4,1024,1024,1024,1024,0,0,0,0,65,4.916,68.9,100.721788,P-GPS,,30.7
206700,2026-01-07 15:36:30,0.0,5,7.382,0.0,0.0,0.0,35.6,4.8,4.7,1024,1024,1024,1024,0,0,0,0,65,4.916,68.9,100.721788,P-GPS,,30.7
206800,2026-01-07 15:36:30,0.0,5,7.382,0.0,0.0,0.0,35.6,5.0,4.7,1024,1024,1024,1024,0,0,0,0,65,4.916,68.9,100.721788,P-GPS,,30.7
206900,2026-01-07 15:36:30,0.0,5,7.382,0.0,0.0,0.0,35.7,4.9,4.6,1024,1024,1024,1024,0,0,0,0,65,4.916,68.9,100.721788,P-GPS,,30.7
207000,2026-01-07 15:36:30,0.0,5,7.382,0.0,0.0,0.0,35.7,5.1,4.5,1024,1024,1024,1024,0,0,0,0,65,4.916,68.9,100.721788,P-GPS,,30.7
207100,2026-01-07 15:36:30,0.0,5,7.397,0.0,0.0,0.0,35.7,5.3,4.3,1024,1024,1024,1024,0,0,0,0,65,4.716,69.08,100.721788,P-GPS,,30.7
207200,2026-01-07 15:36:30,0.0,5,7.397,0.0,0.0,0.0,35.7,5.0,4.3,1024,1024,1024,1024,0,0,0,0,65,4.716,69.08,100.721788,P-GPS,,30.7
207300,2026-01-07 15:36:30,0.0,5,7.397,0.0,0.0,0.0,35.7,5.4,4.1,1024,1024,1024,1024,0,0,0,0,65,4.716,69.08,100.721788,P-GPS,,30.7
207400,2026-01-07 15:36:31,0.0,5,7.397,0.0,0.0,0.0,35.7,5.3,3.8,1024,1024,1024,1024,0,0,0,0,65,4.716,69.08,100.721788,P-GPS,,30.7
207500,2026-01-07 15:36:31,0.0,5,7.397,0.0,0.0,0.0,35.7,5.3,3.7,1024,1024,1024,1024,0,0,0,0,65,4.716,69.08,100.721788,P-GPS,,30.7
207600,2026-01-07 15:36:31,0.0,5,7.397,0.0,0.0,0.0,35.7,5.1,3.9,1024,1024,1024,1024,0,0,0,0,65,4.716,69.08,100.721788,P-GPS,,30.7
207700,2026-01-07 15:36:31,0.0,5,7.397,0.0,0.0,0.0,35.7,4.4,3.8,1024,1024,1024,1024,0,0,0,0,65,4.716,69.08,100.393704,P-GPS,,30.6
207800,2026-01-07 15:36:31,0.0,5,7.397,0.0,0.0,0.0,35.7,4.4,3.9,1024,1024,1024,1024,0,0,0,0,65,4.716,69.08,100.393704,P-GPS,,30.6
207900,2026-01-07 15:36:31,0.0,5,7.397,0.0,0.0,0.0,35.6,4.5,4.2,1024,1024,1024,1024,0,0,0,0,65,4.716,69.08,100.393704,P-GPS,,30.6
208000,2026-01-07 15:36:31,0.0,5,7.397,0.0,0.0,0.0,35.6,4.3,3.9,1024,1024,1024,1024,0,0,0,0,65,4.716,69.08,100.393704,P-GPS,,30.6
208100,2026-01-07 15:36:31,0.0,5,7.397,0.0,0.0,0.0,35.5,4.1,3.8,1024,1024,1024,1024,0,0,0,0,65,4.716,69.08,100.393704,P-GPS,,30.6
208200,2026-01-07 15:36:31,0.0,5,7.39,0.0,0.0,0.0,35.5,4.0,3.7,1024,1024,1024,1024,0,0,0,0,65,4.679,69.08,100.393704,P-GPS,,30.6
208300,2026-01-07 15:36:31,0.0,5,7.39,0.0,0.0,0.0,35.6,4.0,3.8,1024,1024,1024,1024,0,0,0,0,65,4.679,69.08,100.393704,P-GPS,,30.6
208400,2026-01-07 15:36:31,0.0,5,7.39,0.0,0.0,0.0,35.6,4.1,3.9,1024,1024,1024,1024,0,0,0,0,65,4.679,69.08,100.393704,P-GPS,,30.6
208500,2026-01-07 15:36:32,0.0,5,7.39,0.0,0.0,0.0,35.7,4.7,3.8,1024,1024,1024,1024,0,0,0,0,65,4.679,69.08,100.06562,P-GPS,,30.5
208600,2026-01-07 15:36:32,0.0,5,7.39,0.0,0.0,0.0,35.7,4.9,3.9,1024,1024,1024,1024,0,0,0,0,65,4.679,69.08,100.06562,P-GPS,,30.5
208700,2026-01-07 15:36:32,0.0,5,7.39,0.0,0.0,0.0,35.7,4.8,3.8,1024,1024,1024,1024,0,0,0,0,65,4.679,69.08,100.06562,P-GPS,,30.5
208800,2026-01-07 15:36:32,0.0,5,7.39,0.0,0.0,0.0,35.6,5.0,3.8,1024,1024,1024,1024,0,0,0,0,65,4.679,69.08,100.06562,P-GPS,,30.5
208900,2026-01-07 15:36:32,0.0,5,7.39,0.0,0.0,0.0,35.6,4.7,4.0,1024,1024,1024,1024,0,0,0,0,65,4.679,69.08,100.06562,P-GPS,,30.5
209000,2026-01-07 15:36:32,0.0,5,7.39,0.0,0.0,0.0,35.6,4.4,3.9,1024,1024,1024,1024,0,0,0,0,65,4.679,69.08,100.06562,P-GPS,,30.5
209100,2026-01-07 15:36:32,0.0,5,7.39,0.0,0.0,0.0,35.7,4.9,3.8,1024,1024,1024,1024,0,0,0,0,65,4.679,69.08,100.06562,P-GPS,,30.5
209200,2026-01-07 15:36:32,0.0,5,7.39,0.0,0.0,0.0,35.8,5.1,3.6,1024,1024,1024,1024,0,0,0,0,65,4.679,69.08,99.737536,P-GPS,,30.4
209300,2026-01-07 15:36:32,0.0,5,7.393,0.0,0.0,0.0,35.7,5.0,3.6,1024,1024,1024,1024,0,0,0,0,65,4.835,69.08,99.737536,P-GPS,,30.4
209400,2026-01-07 15:36:33,0.0,5,7.393,0.0,0.0,0.0,35.8,5.2,3.5,1024,1024,1024,1024,0,0,0,0,65,4.835,69.08,99.737536,P-GPS,,30.4
209500,2026-01-07 15:36:33,0.0,5,7.393,0.0,0.0,0.0,35.8,5.1,3.5,1024,1024,1024,1024,0,0,0,0,65,4.835,69.08,99.737536,P-GPS,,30.4
209600,2026-01-07 15:36:33,0.0,5,7.393,0.0,0.0,0.0,35.8,5.0,3.7,1024,1024,1024,1024,0,0,0,0,65,4.835,69.08,99.737536,P-GPS,,30.4
209700,2026-01-07 15:36:33,0.0,5,7.393,0.0,0.0,0.0,35.8,5.4,3.8,1024,1024,1024,1024,0,0,0,0,65,4.835,69.08,99.737536,P-GPS,,30.4
209800,2026-01-07 15:36:33,0.0,5,7.393,0.0,0.0,0.0,35.8,5.4,3.9,1024,1024,1024,1024,0,0,0,0,65,4.835,69.08,99.737536,P-GPS,,30.4
209900,2026-01-07 15:36:33,0.0,5,7.393,0.0,0.0,0.0,35.8,5.7,3.9,1024,1024,1024,1024,0,0,0,0,65,4.835,69.08,99.737536,P-GPS,,30.4
210000,2026-01-07 15:36:33,0.0,5,7.393,0.0,0.0,0.0,35.8,5.9,3.7,1024,1024,1024,1024,0,0,0,0,65,4.835,69.08,99.737536,P-GPS,,30.4
210100,2026-01-07 15:36:33,0.0,5,7.393,0.0,0.0,0.0,35.8,5.4,3.7,1024,1024,1024,1024,0,0,0,0,65,4.835,69.08,99.737536,P-GPS,,30.4
210200,2026-01-07 15:36:33,0.0,5,7.393,0.0,0.0,0.0,35.7,5.4,3.9,1024,1024,1024,1024,0,0,0,0,65,4.835,69.08,99.737536,P-GPS,,30.4
210300,2026-01-07 15:36:33,0.0,5,7.393,0.0,0.0,0.0,35.6,4.9,3.3,1024,1024,1024,1024,0,0,0,0,65,4.835,69.08,99.737536,P-GPS,,30.4
210400,2026-01-07 15:36:33,0.0,5,7.395,0.0,0.0,0.0,35.7,5.0,3.7,1024,1024,1024,1024,0,0,0,0,65,4.702,69.08,99.737536,P-GPS,,30.4
210500,2026-01-07 15:36:34,0.0,5,7.395,0.0,0.0,0.0,35.8,5.5,3.6,1024,1024,1024,1024,0,0,0,0,65,4.702,69.08,99.737536,P-GPS,,30.4
210600,2026-01-07 15:36:34,0.0,5,7.395,0.0,0.0,0.0,35.8,5.5,3.3,1024,1024,1024,1024,0,0,0,0,65,4.702,69.08,99.737536,P-GPS,,30.4
210700,2026-01-07 15:36:34,0.0,5,7.395,0.0,0.0,0.0,35.8,5.0,3.7,1024,1024,1024,1024,0,0,0,0,65,4.702,69.08,99.737536,P-GPS,,30.4
210800,2026-01-07 15:36:34,0.0,5,7.395,0.0,0.0,0.0,35.8,5.1,3.8,1024,1024,1024,1024,0,0,0,0,65,4.702,69.08,99.737536,P-GPS,,30.4
210900,2026-01-07 15:36:34,0.0,5,7.395,0.0,0.0,0.0,35.8,5.4,3.8,1024,1024,1024,1024,0,0,0,0,65,4.702,69.08,99.737536,P-GPS,,30.4
211000,2026-01-07 15:36:34,0.0,5,7.395,0.0,0.0,0.0,35.8,5.3,3.9,1024,1024,1024,1024,0,0,0,0,65,4.702,69.08,99.737536,P-GPS,,30.4
211100,2026-01-07 15:36:34,0.0,5,7.395,0.0,0.0,0.0,35.7,5.2,3.8,1024,1024,1024,1024,0,0,0,0,65,4.702,69.08,99.737536,P-GPS,,30.4
211200,2026-01-07 15:36:34,0.0,5,7.395,0.0,0.0,0.0,35.7,5.0,4.0,1024,1024,1024,1024,0,0,0,0,65,4.702,69.08,99.737536,P-GPS,,30.4
211300,2026-01-07 15:36:34,0.0,5,7.395,0.0,0.0,0.0,35.8,5.2,3.9,1024,1024,1024,1024,0,0,0,0,65,4.702,69.08,99.409452,P-GPS,,30.3
211400,2026-01-07 15:36:34,0.0,5,7.395,0.0,0.0,0.0,35.7,5.5,3.5,1024,1024,1024,1024,0,0,0,0,65,4.702,69.08,99.409452,P-GPS,,30.3
211500,2026-01-07 15:36:35,0.0,5,7.396,0.0,0.0,0.0,35.7,5.5,3.3,1024,1024,1024,1024,0,0,0,0,65,4.647,69.08,99.409452,P-GPS,,30.3
211600,2026-01-07 15:36:35,0.0,5,7.396,0.0,0.0,0.0,35.6,5.4,3.2,1024,1024,1024,1024,0,0,0,0,65,4.647,69.08,99.409452,P-GPS,,30.3
211700,2026-01-07 15:36:35,0.0,5,7.396,0.0,0.0,0.0,35.8,5.6,3.4,1024,1024,1024,1024,0,0,0,0,65,4.647,69.08,99.409452,P-GPS,,30.3
211800,2026-01-07 15:36:35,0.0,5,7.396,0.0,0.0,0.0,35.9,5.7,3.3,1024,1024,1024,1024,0,0,0,0,65,4.647,69.08,99.409452,P-GPS,,30.3
211900,2026-01-07 15:36:35,0.0,5,7.396,0.0,0.0,0.0,35.9,5.4,3.6,1024,1024,1024,1024,0,0,0,0,65,4.647,69.08,99.409452,P-GPS,,30.3
212000,2026-01-07 15:36:35,0.0,5,7.396,0.0,0.0,0.0,36.0,5.1,3.4,1024,1024,1024,1024,0,0,0,0,65,4.647,69.08,99.737536,P-GPS,,30.4
212100,2026-01-07 15:36:35,0.0,5,7.396,0.0,0.0,0.0,36.1,4.6,4.0,1024,1024,1024,1024,0,0,0,0,65,4.647,69.08,99.737536,P-GPS,,30.4
212200,2026-01-07 15:36:35,0.0,5,7.396,0.0,0.0,0.0,36.2,5.0,3.7,1024,1024,1024,1024,0,0,0,0,65,4.647,69.08,99.737536,P-GPS,,30.4
212300,2026-01-07 15:36:35,0.223694,5,7.396,0.0,-0.223694,0.0,36.0,2.1,4.7,1024,1024,1024,1024,0,0,0,0,65,4.647,69.08,99.737536,P-GPS,,30.4
212400,2026-01-07 15:36:35,0.0,5,7.396,0.0,0.0,0.0,35.7,2.0,5.2,1024,1024,1024,1024,0,0,0,0,65,4.647,69.08,99.737536,P-GPS,,30.4
212500,2026-01-07 15:36:36,0.0,5,7.396,0.0,0.0,0.0,35.6,2.5,5.2,1024,1024,1024,1024,0,0,0,0,65,4.647,69.08,99.737536,P-GPS,,30.4
212600,2026-01-07 15:36:36,0.0,5,7.398,0.0,0.0,0.0,35.6,3.3,4.7,1024,1024,1024,1024,0,0,0,0,65,4.629,69.26,99.737536,P-GPS,,30.4
212700,2026-01-07 15:36:36,0.0,5,7.398,0.0,0.0,0.0,35.6,3.5,4.5,1024,1024,1024,1024,0,0,0,0,65,4.629,69.26,99.737536,P-GPS,,30.4
212800,2026-01-07 15:36:36,0.0,5,7.398,0.0,0.0,0.0,35.7,3.9,4.2,1024,1024,1024,1024,0,0,0,0,65,4.629,69.26,99.737536,P-GPS,,30.4
212900,2026-01-07 15:36:36,0.0,5,7.398,0.0,0.0,0.0,35.7,4.4,4.1,1024,1024,1024,1024,0,0,0,0,65,4.629,69.26,99.737536,P-GPS,,30.4
213000,2026-01-07 15:36:36,0.0,5,7.398,0.0,0.0,0.0,35.7,4.5,4.1,1024,1024,1024,1024,0,0,0,0,65,4.629,69.26,99.737536,P-GPS,,30.4
213100,2026-01-07 15:36:36,0.0,5,7.398,0.0,0.0,0.0,35.7,4.4,4.0,1024,1024,1024,1024,0,0,0,0,65,4.629,69.26,99.737536,P-GPS,,30.4
213200,2026-01-07 15:36:36,0.0,5,7.398,0.0,0.0,0.0,35.7,4.2,3.8,1024,1024,1024,1024,0,0,0,0,65,4.629,69.26,99.409452,P-GPS,,30.3
213300,2026-01-07 15:36:36,0.0,5,7.398,0.0,0.0,0.0,35.7,3.5,4.0,1024,1024,1024,1024,0,0,0,0,65,4.629,69.26,99.409452,P-GPS,,30.3
213400,2026-01-07 15:36:36,0.0,5,7.398,0.0,0.0,0.0,35.7,3.6,3.8,1024,1024,1024,1024,0,0,0,0,65,4.629,69.26,99.409452,P-GPS,,30.3
213500,2026-01-07 15:36:37,0.0,5,7.398,0.0,0.0,0.0,36.1,5.4,3.0,1024,1024,1024,1024,0,0,0,0,65,4.629,69.26,99.409452,P-GPS,,30.3
213600,2026-01-07 15:36:37,0.0,5,7.398,0.0,0.0,0.0,36.2,3.3,3.4,1024,1024,1024,1024,0,0,0,0,65,4.629,69.26,99.409452,P-GPS,,30.3
213700,2026-01-07 15:36:37,0.0,5,7.398,0.0,0.0,0.0,35.8,0.0,4.1,1024,1024,1024,1024,0,0,0,0,65,4.629,69.26,99.409452,P-GPS,,30.3
213800,2026-01-07 15:36:37,0.0,5,7.398,0.0,0.0,0.0,35.4,0.3,4.0,1024,1024,1024,1024,0,0,0,0,65,4.629,69.26,99.409452,P-GPS,,30.3
213900,2026-01-07 15:36:37,0.0,5,7.398,0.0,0.0,0.0,35.4,1.5,4.3,1024,1024,1024,1024,0,0,0,0,65,4.629,69.26,99.409452,P-GPS,,30.3
214000,2026-01-07 15:36:37,0.0,5,7.398,0.0,0.0,0.0,35.6,2.7,3.9,1024,1024,1024,1024,0,0,0,0,65,4.629,69.26,99.409452,P-GPS,,30.3
214100,2026-01-07 15:36:37,0.0,5,7.398,0.0,0.0,0.0,35.9,3.9,3.8,1024,1024,1024,1024,0,0,0,0,65,4.629,69.26,99.409452,P-GPS,,30.3
214200,2026-01-07 15:36:37,0.0,5,7.398,0.0,0.0,0.0,35.8,3.0,3.7,1024,1024,1024,1024,0,0,0,0,65,4.629,69.26,99.409452,P-GPS,,30.3
214300,2026-01-07 15:36:37,0.0,5,7.398,0.0,0.0,0.0,35.9,3.9,3.4,1024,1024,1024,1024,0,0,0,0,65,4.629,69.26,99.737536,P-GPS,,30.4
214400,2026-01-07 15:36:38,0.0,5,7.398,0.0,0.0,0.0,35.9,4.2,3.6,1024,1024,1024,1024,0,0,0,0,65,4.629,69.26,99.737536,P-GPS,,30.4
214500,2026-01-07 15:36:38,0.0,5,7.398,0.0,0.0,0.0,35.8,2.0,4.2,1024,1024,1024,1024,0,0,0,0,65,4.629,69.26,99.737536,P-GPS,,30.4
214600,2026-01-07 15:36:38,0.0,5,7.398,0.0,0.0,0.0,35.6,1.0,4.5,1024,1024,1024,1024,0,0,0,0,65,4.629,69.26,99.737536,P-GPS,,30.4
214700,2026-01-07 15:36:38,0.0,5,7.398,0.0,0.0,0.0,35.5,1.2,4.0,1024,1024,1024,1024,0,0,0,0,65,4.629,69.26,99.737536,P-GPS,,30.4
214800,2026-01-07 15:36:38,0.0,5,7.397,0.0,0.0,0.0,35.5,2.3,3.9,1024,1024,1024,1024,0,0,0,0,65,4.723,69.26,99.737536,P-GPS,,30.4
214900,2026-01-07 15:36:38,0.0,5,7.397,0.0,0.0,0.0,35.6,2.6,4.0,1024,1024,1024,1024,0,0,0,0,65,4.723,69.26,100.06562,P-GPS,,30.5
215000,2026-01-07 15:36:38,0.0,5,7.397,0.0,0.0,0.0,35.8,3.3,4.1,1024,1024,1024,1024,0,0,0,0,65,4.723,69.26,100.06562,P-GPS,,30.5
215100,2026-01-07 15:36:38,0.0,5,7.397,0.0,0.0,0.0,35.8,3.1,4.1,1024,1024,1024,1024,0,0,0,0,65,4.723,69.26,100.06562,P-GPS,,30.5
215200,2026-01-07 15:36:38,0.0,5,7.397,0.0,0.0,0.0,35.8,3.5,3.8,1024,1024,1024,1024,0,0,0,0,65,4.723,69.26,100.06562,P-GPS,,30.5
215300,2026-01-07 15:36:38,0.0,5,7.397,0.0,0.0,0.0,35.7,3.0,3.9,1024,1024,1024,1024,0,0,0,0,65,4.723,69.26,100.06562,P-GPS,,30.5
215400,2026-01-07 15:36:38,0.0,5,7.397,0.0,0.0,0.0,35.7,4.0,3.8,1024,1024,1024,1024,0,0,0,0,65,4.723,69.26,100.06562,P-GPS,,30.5
215500,2026-01-07 15:36:39,0.0,5,7.397,0.0,0.0,0.0,35.7,4.8,3.5,1024,1024,1024,1024,0,0,0,0,65,4.723,69.26,100.06562,P-GPS,,30.5
215600,2026-01-07 15:36:39,0.0,5,7.397,0.0,0.0,0.0,35.8,3.9,3.2,1024,1024,1024,1024,0,0,0,0,65,4.723,69.26,100.06562,P-GPS,,30.5
215700,2026-01-07 15:36:39,0.0,5,7.397,0.0,0.0,0.0,35.6,3.4,3.8,1024,1024,1024,1024,0,0,0,0,65,4.723,69.26,100.06562,P-GPS,,30.5
215800,2026-01-07 15:36:39,0.0,5,7.397,0.0,0.0,0.0,35.6,2.2,3.8,1024,1024,1024,1024,0,0,0,0,65,4.723,69.26,100.06562,P-GPS,,30.5
215900,2026-01-07 15:36:39,0.0,5,7.386,0.0,0.0,0.0,35.6,2.7,3.3,1024,1024,1024,1024,0,0,0,0,64,4.613,69.26,100.06562,P-GPS,,30.5
216000,2026-01-07 15:36:39,0.0,5,7.386,0.0,0.0,0.0,35.6,3.3,3.2,1024,1024,1024,1024,0,0,0,0,64,4.613,69.26,100.06562,P-GPS,,30.5
216100,2026-01-07 15:36:39,0.0,5,7.386,0.0,0.0,0.0,35.8,3.7,2.9,1024,1024,1024,1024,0,0,0,0,64,4.613,69.26,100.06562,P-GPS,,30.5
216200,2026-01-07 15:36:39,0.0,5,7.386,0.0,0.0,0.0,35.8,4.4,2.7,1024,1024,1024,1024,0,0,0,0,64,4.613,69.26,100.06562,P-GPS,,30.5
216300,2026-01-07 15:36:39,0.0,5,7.386,0.0,0.0,0.0,35.7,3.6,2.9,1024,1024,1024,1024,0,0,0,0,64,4.613,69.26,100.06562,P-GPS,,30.5
216400,2026-01-07 15:36:40,0.0,5,7.386,0.0,0.0,0.0,35.7,2.6,3.5,1024,1024,1024,1024,0,0,0,0,64,4.613,69.26,100.06562,P-GPS,,30.5
216500,2026-01-07 15:36:40,0.0,5,7.386,0.0,0.0,0.0,35.8,2.3,3.6,1024,1024,1024,1024,0,0,0,0,64,4.613,69.26,100.06562,P-GPS,,30.5
216600,2026-01-07 15:36:40,0.0,5,7.386,0.0,0.0,0.0,35.7,3.2,3.2,1024,1024,1024,1024,0,0,0,0,64,4.613,69.26,100.06562,P-GPS,,30.5
216700,2026-01-07 15:36:40,0.0,5,7.386,0.0,0.0,0.0,35.5,2.5,3.2,1024,1024,1024,1024,0,0,0,0,64,4.613,69.26,100.06562,P-GPS,,30.5
216800,2026-01-07 15:36:40,0.0,5,7.386,0.0,0.0,0.0,35.4,1.0,3.8,1024,1024,1024,1024,0,0,0,0,64,4.613,69.26,100.06562,P-GPS,,30.5
216900,2026-01-07 15:36:40,0.0,5,7.386,0.0,0.0,0.0,35.5,3.1,3.0,1024,1024,1024,1024,0,0,0,0,64,4.613,69.26,100.06562,P-GPS,,30.5
217000,2026-01-07 15:36:40,0.0,5,7.392,0.0,0.0,0.0,35.5,2.5,4.0,1024,1024,1024,1024,0,0,0,0,64,4.736,69.26,100.06562,P-GPS,,30.5
217100,2026-01-07 15:36:40,0.0,5,7.392,0.0,0.0,0.0,35.7,3.1,3.9,1024,1024,1024,1024,0,0,0,0,64,4.736,69.26,100.06562,P-GPS,,30.5
217200,2026-01-07 15:36:40,0.0,5,7.392,0.0,0.0,0.0,35.8,3.8,3.4,1024,1024,1024,1024,0,0,0,0,64,4.736,69.26,100.06562,P-GPS,,30.5
217300,2026-01-07 15:36:40,0.0,5,7.392,0.0,0.0,0.0,35.7,2.7,3.7,1024,1024,1024,1024,0,0,0,0,64,4.736,69.26,100.06562,P-GPS,,30.5
217400,2026-01-07 15:36:40,0.0,5,7.392,0.0,0.0,0.0,35.6,3.0,3.5,1024,1024,1024,1024,0,0,0,0,64,4.736,69.26,100.06562,P-GPS,,30.5
217500,2026-01-07 15:36:41,0.0,5,7.392,0.0,0.0,0.0,35.7,2.6,3.5,1024,1024,1024,1024,0,0,0,0,64,4.736,69.26,100.06562,P-GPS,,30.5
217600,2026-01-07 15:36:41,0.0,5,7.392,0.0,0.0,0.0,35.6,2.7,3.3,1024,1024,1024,1024,0,0,0,0,64,4.736,69.26,100.06562,P-GPS,,30.5
217700,2026-01-07 15:36:41,0.0,5,7.392,0.0,0.0,0.0,35.8,2.1,3.7,1024,1024,1024,1024,0,0,0,0,64,4.736,69.26,100.06562,P-GPS,,30.5
217800,2026-01-07 15:36:41,0.0,5,7.392,0.0,0.0,0.0,35.8,2.6,3.8,1024,1024,1024,1024,0,0,0,0,64,4.736,69.26,100.06562,P-GPS,,30.5
217900,2026-01-07 15:36:41,0.0,5,7.392,0.0,0.0,0.0,35.7,2.5,3.9,1024,1024,1024,1024,0,0,0,0,64,4.736,69.26,100.393704,P-GPS,,30.6
218000,2026-01-07 15:36:41,0.0,5,7.392,0.0,0.0,0.0,35.7,3.0,4.4,1024,1024,1024,1024,0,0,0,0,64,4.736,69.26,100.06562,P-GPS,,30.5
218100,2026-01-07 15:36:41,0.0,5,7.376,0.0,0.0,0.0,36.0,3.2,4.6,1024,1024,1024,1024,0,0,0,0,64,4.828,69.26,100.06562,P-GPS,,30.5
218200,2026-01-07 15:36:41,0.0,5,7.376,0.0,0.0,0.0,35.9,2.9,4.7,1024,1024,1024,1024,0,0,0,0,64,4.828,69.26,100.06562,P-GPS,,30.5
218300,2026-01-07 15:36:41,0.0,5,7.376,0.0,0.0,0.0,35.8,3.0,4.9,1024,1024,1024,1024,0,0,0,0,64,4.828,69.26,100.06562,P-GPS,,30.5
218400,2026-01-07 15:36:41,0.0,5,7.376,0.0,0.0,0.0,35.9,3.4,5.0,1024,1024,1024,1024,0,0,0,0,64,4.828,69.26,100.06562,P-GPS,,30.5
218500,2026-01-07 15:36:42,0.0,5,7.376,0.0,0.0,0.0,36.1,3.4,4.1,1024,1024,1024,1024,0,0,0,0,64,4.828,69.26,100.06562,P-GPS,,30.5
218600,2026-01-07 15:36:42,0.0,5,7.376,0.0,0.0,0.0,35.8,2.0,3.7,1024,1024,1024,1024,0,0,0,0,64,4.828,69.26,100.06562,P-GPS,,30.5
218700,2026-01-07 15:36:42,0.0,5,7.376,0.0,0.0,0.0,35.6,0.8,3.2,1024,1024,1024,1024,0,0,0,0,64,4.828,69.26,99.737536,P-GPS,,30.4
218800,2026-01-07 15:36:42,0.0,5,7.376,0.0,0.0,0.0,35.5,0.4,3.6,1024,1024,1024,1024,0,0,0,0,64,4.828,69.26,99.737536,P-GPS,,30.4
218900,2026-01-07 15:36:42,0.0,5,7.376,0.0,0.0,0.0,35.4,1.9,2.9,1024,1024,1024,1024,0,0,0,0,64,4.828,69.26,99.737536,P-GPS,,30.4
219000,2026-01-07 15:36:42,0.0,5,7.376,0.0,0.0,0.0,35.5,0.8,3.4,1024,1024,1024,1024,0,0,0,0,64,4.828,69.26,99.737536,P-GPS,,30.4
219100,2026-01-07 15:36:42,0.0,5,7.376,0.0,0.0,0.0,35.6,1.6,3.2,1024,1024,1024,1024,0,0,0,0,64,4.828,69.26,99.737536,P-GPS,,30.4
219200,2026-01-07 15:36:42,0.0,5,7.379,0.0,0.0,0.0,35.6,2.6,3.3,1024,1024,1024,1024,0,0,0,0,64,4.949,69.26,99.737536,P-GPS,,30.4
219300,2026-01-07 15:36:42,0.0,5,7.379,0.0,0.0,0.0,35.7,2.5,3.5,1024,1024,1024,1024,0,0,0,0,64,4.949,69.26,99.737536,P-GPS,,30.4
219400,2026-01-07 15:36:42,0.0,5,7.379,0.0,0.0,0.0,35.7,2.6,3.6,1024,1024,1024,1024,0,0,0,0,64,4.949,69.26,99.737536,P-GPS,,30.4
219500,2026-01-07 15:36:43,0.0,5,7.379,0.0,0.0,0.0,35.6,2.5,3.8,1024,1024,1024,1024,0,0,0,0,64,4.949,69.26,99.737536,P-GPS,,30.4
219600,2026-01-07 15:36:43,0.0,5,7.379,0.0,0.0,0.0,35.8,2.3,4.1,1024,1024,1024,1024,0,0,0,0,64,4.949,69.26,99.737536,P-GPS,,30.4
219700,2026-01-07 15:36:43,0.0,5,7.379,0.0,0.0,0.0,35.7,2.7,3.6,1024,1024,1024,1024,0,0,0,0,64,4.949,69.26,100.06562,P-GPS,,30.5
219800,2026-01-07 15:36:43,0.0,5,7.379,0.0,0.0,0.0,35.7,2.2,3.8,1024,1024,1024,1024,0,0,0,0,64,4.949,69.26,100.06562,P-GPS,,30.5
219900,2026-01-07 15:36:43,0.0,5,7.379,0.0,0.0,0.0,35.5,1.9,3.3,1024,1024,1024,1024,0,0,0,0,64,4.949,69.26,100.06562,P-GPS,,30.5
220000,2026-01-07 15:36:43,0.0,5,7.379,0.0,0.0,0.0,35.6,1.3,3.9,1024,1024,1024,1024,0,0,0,0,64,4.949,69.26,100.06562,P-GPS,,30.5
220100,2026-01-07 15:36:43,0.0,5,7.379,0.0,0.0,0.0,35.5,2.5,4.0,1024,1024,1024,1024,0,0,0,0,64,4.949,69.26,100.06562,P-GPS,,30.5
220200,2026-01-07 15:36:43,0.223694,5,7.379,0.223694,0.0,0.0,35.5,3.5,4.1,1024,1024,1024,1024,0,0,0,0,64,4.949,69.26,100.06562,P-GPS,,30.5
220300,2026-01-07 15:36:43,0.223694,5,7.395,0.223694,0.0,0.0,35.5,3.7,4.0,1024,1024,1024,1024,0,0,0,0,64,4.785,69.26,100.06562,P-GPS,,30.5
220400,2026-01-07 15:36:43,0.223694,5,7.395,0.223694,0.0,0.0,35.5,4.0,4.2,1024,1024,1024,1024,0,0,0,0,64,4.785,69.26,100.06562,P-GPS,,30.5
220500,2026-01-07 15:36:44,0.0,5,7.395,0.0,0.0,0.0,35.5,4.4,4.2,1024,1024,1024,1024,0,0,0,0,64,4.785,69.26,99.737536,P-GPS,,30.4
220600,2026-01-07 15:36:44,0.0,5,7.395,0.0,0.0,0.0,35.6,4.5,4.3,1024,1024,1024,1024,0,0,0,0,64,4.785,69.26,99.737536,P-GPS,,30.4
220700,2026-01-07 15:36:44,0.0,5,7.395,0.0,0.0,0.0,35.6,4.5,4.1,1024,1024,1024,1024,0,0,0,0,64,4.785,69.26,99.737536,P-GPS,,30.4
220800,2026-01-07 15:36:44,0.0,5,7.395,0.0,0.0,0.0,35.6,4.3,4.2,1024,1024,1024,1024,0,0,0,0,64,4.785,69.26,99.737536,P-GPS,,30.4
220900,2026-01-07 15:36:44,0.0,5,7.395,0.0,0.0,0.0,35.6,4.1,4.1,1024,1024,1024,1024,0,0,0,0,64,4.785,69.26,99.737536,P-GPS,,30.4
221000,2026-01-07 15:36:44,0.0,5,7.395,0.0,0.0,0.0,35.5,3.7,3.9,1024,1024,1024,1024,0,0,0,0,64,4.785,69.26,99.737536,P-GPS,,30.4
221100,2026-01-07 15:36:44,0.0,5,7.395,0.0,0.0,0.0,35.6,3.8,4.1,1024,1024,1024,1024,0,0,0,0,64,4.785,69.26,99.409452,P-GPS,,30.3
221200,2026-01-07 15:36:44,0.0,5,7.395,0.0,0.0,0.0,35.6,3.7,3.9,1024,1024,1024,1024,0,0,0,0,64,4.785,69.26,99.409452,P-GPS,,30.3
221300,2026-01-07 15:36:44,0.0,5,7.395,0.0,0.0,0.0,35.7,4.0,3.8,1024,1024,1024,1024,0,0,0,0,64,4.785,69.26,99.409452,P-GPS,,30.3
221400,2026-01-07 15:36:44,0.0,5,7.391,0.0,0.0,0.0,35.8,4.3,3.6,1024,1024,1024,1024,0,0,0,0,64,4.739,69.44,99.409452,P-GPS,,30.3
221500,2026-01-07 15:36:45,0.0,5,7.391,0.0,0.0,0.0,35.9,4.2,4.0,1024,1024,1024,1024,0,0,0,0,64,4.739,69.44,99.409452,P-GPS,,30.3
221600,2026-01-07 15:36:45,0.0,5,7.391,0.0,0.0,0.0,35.8,4.0,3.9,1024,1024,1024,1024,0,0,0,0,64,4.739,69.44,99.409452,P-GPS,,30.3
221700,2026-01-07 15:36:45,0.0,5,7.391,0.0,0.0,0.0,35.8,3.6,3.7,1024,1024,1024,1024,0,0,0,0,64,4.739,69.44,99.409452,P-GPS,,30.3
221800,2026-01-07 15:36:45,0.0,5,7.391,0.0,0.0,0.0,35.7,3.2,3.6,1024,1024,1024,1024,0,0,0,0,64,4.739,69.44,99.409452,P-GPS,,30.3
221900,2026-01-07 15:36:45,0.0,5,7.391,0.0,0.0,0.0,35.6,3.1,3.1,1024,1024,1024,1024,0,0,0,0,64,4.739,69.44,99.409452,P-GPS,,30.3
222000,2026-01-07 15:36:45,0.0,5,7.391,0.0,0.0,0.0,35.6,3.2,3.0,1024,1024,1024,1024,0,0,0,0,64,4.739,69.44,99.409452,P-GPS,,30.3
222100,2026-01-07 15:36:45,0.0,5,7.391,0.0,0.0,0.0,35.6,3.4,3.2,1024,1024,1024,1024,0,0,0,0,64,4.739,69.44,99.081368,P-GPS,,30.2
222200,2026-01-07 15:36:45,0.0,5,7.391,0.0,0.0,0.0,35.7,3.2,3.4,1024,1024,1024,1024,0,0,0,0,64,4.739,69.44,99.081368,P-GPS,,30.2
222300,2026-01-07 15:36:45,0.0,5,7.391,0.0,0.0,0.0,35.6,3.6,3.1,1024,1024,1024,1024,0,0,0,0,64,4.739,69.44,99.081368,P-GPS,,30.2
222400,2026-01-07 15:36:45,0.0,5,7.391,0.0,0.0,0.0,35.7,3.4,3.3,1024,1024,1024,1024,0,0,0,0,64,4.739,69.44,99.081368,P-GPS,,30.2
222500,2026-01-07 15:36:46,0.0,5,7.379,0.0,0.0,0.0,35.6,3.4,3.2,1024,1024,1024,1024,0,0,0,0,64,4.835,69.44,99.081368,P-GPS,,30.2
222600,2026-01-07 15:36:46,0.0,5,7.379,0.0,0.0,0.0,35.6,3.7,3.0,1024,1024,1024,1024,0,0,0,0,64,4.835,69.44,99.081368,P-GPS,,30.2
222700,2026-01-07 15:36:46,0.0,5,7.379,0.0,0.0,0.0,35.6,3.4,2.8,1024,1024,1024,1024,0,0,0,0,64,4.835,69.44,99.081368,P-GPS,,30.2
222800,2026-01-07 15:36:46,0.0,5,7.379,0.0,0.0,0.0,35.7,2.9,2.9,1024,1024,1024,1024,0,0,0,0,64,4.835,69.44,99.081368,P-GPS,,30.2
222900,2026-01-07 15:36:46,0.0,5,7.379,0.0,0.0,0.0,35.6,3.2,2.9,1024,1024,1024,1024,0,0,0,0,64,4.835,69.44,99.081368,P-GPS,,30.2
223000,2026-01-07 15:36:46,0.0,5,7.379,0.0,0.0,0.0,35.5,3.3,2.9,1024,1024,1024,1024,0,0,0,0,64,4.835,69.44,99.081368,P-GPS,,30.2
223100,2026-01-07 15:36:46,0.0,5,7.379,0.0,0.0,0.0,35.6,3.0,3.1,1024,1024,1024,1024,0,0,0,0,64,4.835,69.44,99.409452,P-GPS,,30.3
223200,2026-01-07 15:36:46,0.0,5,7.379,0.0,0.0,0.0,35.6,3.3,3.5,1024,1024,1024,1024,0,0,0,0,64,4.835,69.44,99.409452,P-GPS,,30.3
223300,2026-01-07 15:36:46,0.0,5,7.379,0.0,0.0,0.0,35.5,3.5,3.7,1024,1024,1024,1024,0,0,0,0,64,4.835,69.44,99.409452,P-GPS,,30.3
223400,2026-01-07 15:36:46,0.0,5,7.379,0.0,0.0,0.0,35.6,3.4,3.8,1024,1024,1024,1024,0,0,0,0,64,4.835,69.44,99.409452,P-GPS,,30.3
223500,2026-01-07 15:36:47,0.0,5,7.379,0.0,0.0,0.0,35.6,3.4,3.7,1024,1024,1024,1024,0,0,0,0,64,4.835,69.44,99.409452,P-GPS,,30.3
223600,2026-01-07 15:36:47,0.0,5,7.39,0.0,0.0,0.0,35.5,3.2,3.6,1024,1024,1024,1024,0,0,0,0,64,4.713,69.44,99.409452,P-GPS,,30.3
223700,2026-01-07 15:36:47,0.0,5,7.39,0.0,0.0,0.0,35.6,3.1,3.7,1024,1024,1024,1024,0,0,0,0,64,4.713,69.44,99.409452,P-GPS,,30.3
223800,2026-01-07 15:36:47,0.0,5,7.39,0.0,0.0,0.0,35.6,3.3,3.6,1024,1024,1024,1024,0,0,0,0,64,4.713,69.44,99.409452,P-GPS,,30.3
223900,2026-01-07 15:36:47,0.0,5,7.39,0.0,0.0,0.0,35.6,3.4,3.4,1024,1024,1024,1024,0,0,0,0,64,4.713,69.44,99.409452,P-GPS,,30.3
224000,2026-01-07 15:36:47,0.0,5,7.39,0.0,0.0,0.0,35.6,3.4,3.4,1024,1024,1024,1024,0,0,0,0,64,4.713,69.44,99.409452,P-GPS,,30.3
224100,2026-01-07 15:36:47,0.0,5,7.39,0.0,0.0,0.0,35.6,3.2,3.3,1024,1024,1024,1024,0,0,0,0,64,4.713,69.44,99.409452,P-GPS,,30.3
224200,2026-01-07 15:36:47,0.0,5,7.39,0.0,0.0,0.0,35.6,3.4,3.3,1024,1024,1024,1024,0,0,0,0,64,4.713,69.44,99.409452,P-GPS,,30.3
224300,2026-01-07 15:36:47,0.0,5,7.39,0.0,0.0,0.0,35.6,3.2,3.3,1024,1024,1024,1024,0,0,0,0,64,4.713,69.44,99.409452,P-GPS,,30.3
224400,2026-01-07 15:36:47,0.0,5,7.39,0.0,0.0,0.0,35.6,3.1,3.3,1024,1024,1024,1024,0,0,0,0,64,4.713,69.44,99.409452,P-GPS,,30.3
224500,2026-01-07 15:36:48,0.0,5,7.39,0.0,0.0,0.0,35.6,3.2,3.3,1024,1024,1024,1024,0,0,0,0,64,4.713,69.44,99.409452,P-GPS,,30.3
224600,2026-01-07 15:36:48,0.0,5,7.39,0.0,0.0,0.0,35.5,3.2,3.3,1024,1024,1024,1024,0,0,0,0,64,4.713,69.44,99.409452,P-GPS,,30.3
224700,2026-01-07 15:36:48,0.0,5,7.39,0.0,0.0,0.0,35.6,3.2,3.4,1024,1024,1024,1024,0,0,0,0,64,4.713,69.44,99.409452,P-GPS,,30.3
224800,2026-01-07 15:36:48,0.0,5,7.39,0.0,0.0,0.0,35.6,3.5,3.4,1024,1024,1024,1024,0,0,0,0,64,4.713,69.44,99.409452,P-GPS,,30.3
224900,2026-01-07 15:36:48,0.0,5,7.39,0.0,0.0,0.0,35.6,3.7,3.5,1024,1024,1024,1024,0,0,0,0,64,4.713,69.44,99.409452,P-GPS,,30.3
225000,2026-01-07 15:36:48,0.0,5,7.39,0.0,0.0,0.0,35.5,3.6,3.4,1024,1024,1024,1024,0,0,0,0,64,4.713,69.44,99.409452,P-GPS,,30.3
225100,2026-01-07 15:36:48,0.0,5,7.39,0.0,0.0,0.0,35.6,3.4,3.3,1024,1024,1024,1024,0,0,0,0,64,4.713,69.44,99.409452,P-GPS,,30.3
225200,2026-01-07 15:36:48,0.0,5,7.39,0.0,0.0,0.0,35.6,3.4,3.1,1024,1024,1024,1024,0,0,0,0,64,4.713,69.44,99.737536,P-GPS,,30.4
225300,2026-01-07 15:36:48,0.0,5,7.39,0.0,0.0,0.0,35.6,3.6,3.2,1024,1024,1024,1024,0,0,0,0,64,4.713,69.44,99.737536,P-GPS,,30.4
225400,2026-01-07 15:36:49,0.0,5,7.39,0.0,0.0,0.0,35.6,3.4,3.1,1024,1024,1024,1024,0,0,0,0,64,4.713,69.44,99.737536,P-GPS,,30.4
225500,2026-01-07 15:36:49,0.0,5,7.39,0.0,0.0,0.0,35.6,3.6,3.1,1024,1024,1024,1024,0,0,0,0,64,4.713,69.44,99.737536,P-GPS,,30.4
225600,2026-01-07 15:36:49,0.0,5,7.39,0.0,0.0,0.0,35.6,3.7,3.3,1024,1024,1024,1024,0,0,0,0,64,4.713,69.44,99.737536,P-GPS,,30.4
225700,2026-01-07 15:36:49,0.0,5,7.39,0.0,0.0,0.0,35.7,3.9,3.3,1024,1024,1024,1024,0,0,0,0,64,4.713,69.44,99.737536,P-GPS,,30.4
225800,2026-01-07 15:36:49,0.0,5,7.393,0.0,0.0,0.0,35.7,4.0,3.2,1024,1024,1024,1024,0,0,0,0,64,4.676,69.44,99.737536,P-GPS,,30.4
225900,2026-01-07 15:36:49,0.0,5,7.393,0.0,0.0,0.0,35.7,3.9,3.0,1024,1024,1024,1024,0,0,0,0,64,4.676,69.44,99.737536,P-GPS,,30.4
226000,2026-01-07 15:36:49,0.0,5,7.393,0.0,0.0,0.0,35.7,3.9,2.8,1024,1024,1024,1024,0,0,0,0,64,4.676,69.44,99.737536,P-GPS,,30.4
226100,2026-01-07 15:36:49,0.0,5,7.393,0.0,0.0,0.0,35.7,3.9,2.6,1024,1024,1024,1024,0,0,0,0,64,4.676,69.44,99.737536,P-GPS,,30.4
226200,2026-01-07 15:36:49,0.0,5,7.393,0.0,0.0,0.0,35.7,4.0,2.6,1024,1024,1024,1024,0,0,0,0,64,4.676,69.44,99.737536,P-GPS,,30.4
226300,2026-01-07 15:36:49,0.0,5,7.393,0.0,0.0,0.0,35.7,3.9,2.6,1024,1024,1024,1024,0,0,0,0,64,4.676,69.44,99.737536,P-GPS,,30.4
226400,2026-01-07 15:36:49,0.0,5,7.393,0.0,0.0,0.0,35.7,3.9,2.6,1024,1024,1024,1024,0,0,0,0,64,4.676,69.44,99.737536,P-GPS,,30.4
226500,2026-01-07 15:36:50,0.0,5,7.393,0.0,0.0,0.0,35.7,4.0,2.7,1024,1024,1024,1024,0,0,0,0,64,4.676,69.44,99.737536,P-GPS,,30.4
226600,2026-01-07 15:36:50,0.0,5,7.393,0.0,0.0,0.0,35.7,4.1,2.7,1024,1024,1024,1024,0,0,0,0,64,4.676,69.44,99.737536,P-GPS,,30.4
226700,2026-01-07 15:36:50,0.0,5,7.393,0.0,0.0,0.0,35.7,4.0,2.7,1024,1024,1024,1024,0,0,0,0,64,4.676,69.44,99.737536,P-GPS,,30.4
226800,2026-01-07 15:36:50,0.0,5,7.393,0.0,0.0,0.0,35.8,3.7,2.6,1024,1024,1024,1024,0,0,0,0,64,4.676,69.44,99.737536,P-GPS,,30.4
226900,2026-01-07 15:36:50,0.0,5,7.382,0.0,0.0,0.0,35.7,3.4,2.4,1024,1024,1024,1024,0,0,0,0,64,4.663,69.62,99.737536,P-GPS,,30.4
227000,2026-01-07 15:36:50,0.0,5,7.382,0.0,0.0,0.0,35.7,3.4,2.3,1024,1024,1024,1024,0,0,0,0,64,4.663,69.62,99.737536,P-GPS,,30.4
227100,2026-01-07 15:36:50,0.0,5,7.382,0.0,0.0,0.0,35.7,3.1,2.1,1024,1024,1024,1024,0,0,0,0,64,4.663,69.62,99.737536,P-GPS,,30.4
227200,2026-01-07 15:36:50,0.0,5,7.382,0.0,0.0,0.0,35.7,3.0,2.1,1024,1024,1024,1024,0,0,0,0,64,4.663,69.62,99.737536,P-GPS,,30.4
227300,2026-01-07 15:36:50,0.0,5,7.382,0.0,0.0,0.0,35.7,3.1,1.8,1024,1024,1102,1024,0,0,12,0,64,4.663,69.62,99.737536,P-GPS,,30.4
227400,2026-01-07 15:36:51,0.0,5,7.382,0.0,0.0,0.0,35.7,3.0,1.6,1024,1024,1102,1024,0,0,12,0,64,4.663,69.62,99.737536,P-GPS,,30.4
227500,2026-01-07 15:36:51,0.0,5,7.382,0.0,0.0,0.0,35.7,2.8,1.5,1024,1024,1673,1024,0,0,98,0,64,4.663,69.62,99.737536,P-GPS,,30.4
227600,2026-01-07 15:36:51,0.0,5,7.382,0.0,0.0,0.0,35.7,2.6,1.4,1024,1024,1684,1024,0,0,100,0,64,4.663,69.62,99.737536,P-GPS,,30.4
227700,2026-01-07 15:36:51,0.0,5,7.382,0.0,0.0,-0.223694,35.6,2.5,1.5,1024,1024,1684,1024,0,0,100,0,64,4.663,69.62,99.737536,P-GPS,,30.4
227800,2026-01-07 15:36:51,0.0,5,7.382,0.0,0.0,-0.894776,35.7,2.6,1.1,1024,1024,1684,1024,0,0,100,0,64,4.663,69.62,99.737536,P-GPS,,30.4
227900,2026-01-07 15:36:51,0.0,5,7.382,0.0,0.0,-1.565858,35.8,2.9,1.4,1024,1024,1684,1024,0,0,100,0,64,4.663,69.62,100.06562,P-GPS,,30.5
228000,2026-01-07 15:36:51,0.0,5,7.281,0.0,0.0,-2.460634,35.8,3.1,1.5,1024,1024,1684,1024,0,0,100,0,64,5.898,69.62,100.393704,P-GPS,,30.6
228100,2026-01-07 15:36:51,0.0,5,7.281,0.0,0.0,-3.131716,35.8,3.3,1.7,1024,1024,1684,1024,0,0,100,0,64,5.898,69.62,100.721788,P-GPS,,30.7
228200,2026-01-07 15:36:51,0.0,5,7.281,0.0,0.0,-3.802798,35.7,3.0,1.7,1024,1024,1684,1024,0,0,100,0,64,5.898,69.62,101.377956,P-GPS,,30.9
228300,2026-01-07 15:36:51,0.0,5,7.281,0.0,0.0,-4.250186,35.6,2.8,1.6,1024,1024,1684,1024,0,0,100,0,64,5.898,69.62,101.70604,P-GPS,,31.0
228400,2026-01-07 15:36:51,0.0,5,7.281,0.0,0.0,-4.250186,35.7,3.1,1.6,1024,1024,1684,1024,0,0,100,0,64,5.898,69.62,102.362208,P-GPS,,31.2
228500,2026-01-07 15:36:52,0.0,5,7.281,0.0,0.0,-4.250186,35.7,3.4,1.2,1024,1024,1684,1024,0,0,100,0,64,5.898,69.62,103.018376,P-GPS,,31.4
228600,2026-01-07 15:36:52,0.0,5,7.281,0.0,0.0,-4.250186,35.8,3.5,1.1,1024,1024,1684,1024,0,0,100,0,64,5.898,69.62,103.674544,P-GPS,,31.6
228700,2026-01-07 15:36:52,0.0,5,7.281,0.0,0.0,-4.250186,35.8,3.4,1.2,1024,1024,1684,1024,0,0,100,0,64,5.898,69.62,104.330712,P-GPS,,31.8
228800,2026-01-07 15:36:52,0.0,5,7.281,0.0,0.0,-4.250186,35.8,3.4,1.3,1024,1024,1684,1024,0,0,100,0,64,5.898,69.62,104.658796,P-GPS,,31.9
277200,2026-01-07 15:37:40,0.0,5,7.318,0.0,0.0,3.802798,82.0,0.5,3.1,1024,1024,364,1024,0,0,-100,0,61,5.262,70.88,104.658796,P-GPS,,31.9
277300,2026-01-07 15:37:40,0.0,5,7.318,0.0,0.0,3.802798,82.1,2.5,3.7,1024,1024,364,1024,0,0,-100,0,61,5.262,70.88,104.002628,P-GPS,,31.7
277400,2026-01-07 15:37:40,0.0,5,7.318,0.0,0.0,4.026492,82.3,1.5,4.0,1024,1024,364,1024,0,0,-100,0,61,5.262,70.88,103.34646,P-GPS,,31.5
277500,2026-01-07 15:37:41,0.0,5,7.318,0.0,0.0,3.802798,82.5,0.3,3.9,1024,1024,364,1024,0,0,-100,0,61,5.262,70.88,102.690292,P-GPS,,31.3
277600,2026-01-07 15:37:41,0.0,5,7.335,0.0,0.0,3.802798,82.5,2.2,3.6,1024,1024,364,1024,0,0,-100,0,61,5.112,70.88,102.034124,P-GPS,,31.1
277700,2026-01-07 15:37:41,0.0,5,7.335,0.0,0.0,3.802798,82.6,3.6,4.1,1024,1024,364,1024,0,0,-100,0,61,5.112,70.88,101.377956,P-GPS,,30.9
277800,2026-01-07 15:37:41,0.0,5,7.335,0.0,0.0,3.802798,82.5,3.2,4.3,1024,1024,364,1024,0,0,-100,0,61,5.112,70.88,100.721788,P-GPS,,30.7
277900,2026-01-07 15:37:41,0.0,5,7.335,0.0,0.0,3.802798,82.5,1.5,4.1,1024,1024,364,1024,0,0,-100,0,61,5.112,70.88,100.06562,P-GPS,,30.5
278000,2026-01-07 15:37:41,0.0,5,7.335,0.0,0.0,3.802798,82.5,2.1,3.2,1024,1024,364,1024,0,0,-100,0,61,5.112,70.88,99.409452,P-GPS,,30.3
278100,2026-01-07 15:37:41,0.0,5,7.335,0.0,0.0,4.026492,82.4,1.7,3.0,1024,1024,364,1024,0,0,-100,0,61,5.112,70.88,98.753284,P-GPS,,30.1
278200,2026-01-07 15:37:41,0.0,5,7.335,0.0,0.0,4.026492,82.6,1.7,3.6,1024,1024,364,1024,0,0,-100,0,61,5.112,70.88,98.097116,P-GPS,,29.9
278300,2026-01-07 15:37:41,0.0,5,7.335,0.0,0.0,4.026492,82.3,0.2,4.1,1024,1024,364,1024,0,0,-100,0,61,5.112,70.88,97.440948,P-GPS,,29.7
278400,2026-01-07 15:37:42,0.0,5,7.335,0.0,0.0,4.250186,82.2,1.8,4.6,1024,1024,364,1024,0,0,-100,0,61,5.112,70.88,96.78478,P-GPS,,29.5
278500,2026-01-07 15:37:42,0.0,5,7.335,0.0,0.0,4.026492,82.5,0.4,4.5,1024,1024,364,1024,0,0,-100,0,61,5.112,70.88,96.128612,P-GPS,,29.3
278600,2026-01-07 15:37:42,0.0,5,7.313,0.0,0.0,4.026492,82.8,2.5,4.5,1024,1024,364,1024,0,0,-100,0,60,4.988,70.88,95.800528,P-GPS,,29.2
278700,2026-01-07 15:37:42,0.0,5,7.313,0.0,0.0,4.026492,82.8,1.4,4.1,1024,1024,364,1024,0,0,-100,0,60,4.988,70.88,95.14436,P-GPS,,29.0
278800,2026-01-07 15:37:42,0.0,5,7.313,0.0,0.0,3.802798,82.8,1.5,4.7,1024,1024,364,1024,0,0,-100,0,60,4.988,70.88,94.816276,P-GPS,,28.9
278900,2026-01-07 15:37:42,0.0,5,7.313,0.0,0.0,3.802798,82.6,1.4,4.0,1024,1024,364,1024,0,0,-100,0,60,4.988,70.88,94.160108,P-GPS,,28.7
279000,2026-01-07 15:37:42,0.0,5,7.313,0.0,0.0,3.802798,82.5,2.4,3.5,1024,1024,364,1024,0,0,-100,0,60,4.988,70.88,93.50394,P-GPS,,28.5
279100,2026-01-07 15:37:42,0.223694,5,7.313,-0.223694,0.0,3.802798,82.3,1.9,1.4,1024,1024,364,1024,0,0,-100,0,60,4.988,70.88,92.847772,P-GPS,,28.3
279200,2026-01-07 15:37:42,0.223694,5,7.313,-0.223694,0.0,3.802798,82.3,1.4,1.2,1024,1024,364,1024,0,0,-100,0,60,4.988,70.88,92.191604,P-GPS,,28.1
