index,time(millisecond),timestamp,speed(mph),gpslevel,voltage(v),xSpeed(mph),ySpeed(mph),zSpeed(mph),compass_heading(degrees),pitch(degrees),roll(degrees),rc_elevator,rc_aileron,rc_throttle,rc_rudder,rc_elevator(percent),rc_aileron(percent),rc_throttle(percent),rc_rudder(percent),battery_percent,current(A),battery_temperature(f),ascent(feet),flycState,message,height_above_takeoff(meters)
406,486800,2026-01-07 12:38:08,0.0,5,7.41,0.0,0.0,0.0,23.0,5.0,2.2,1024,1024,1024,1024,0,0,0,0,65,5.069,72.86,101.70604,P-GPS,,31.0
407,486900,2026-01-07 12:38:08,0.0,5,7.41,0.0,0.0,0.0,22.9,4.6,2.1,1024,1024,1024,1024,0,0,0,0,65,5.069,72.86,101.70604,P-GPS,,31.0
408,487000,2026-01-07 12:38:08,0.0,5,7.41,0.0,0.0,0.0,22.9,4.6,2.2,1024,1024,1024,1024,0,0,0,0,65,5.069,72.86,101.70604,P-GPS,,31.0
409,487100,2026-01-07 12:38:08,0.0,5,7.41,0.0,0.0,0.0,22.9,4.1,2.4,1024,1024,1024,1024,0,0,0,0,65,5.069,72.86,101.70604,P-GPS,,31.0
410,487200,2026-01-07 12:38:08,0.0,5,7.41,0.0,0.0,0.0,22.9,4.2,2.7,1024,1024,1024,1024,0,0,0,0,65,5.069,72.86,101.70604,P-GPS,,31.0
411,487400,2026-01-07 12:38:08,0.0,5,7.41,0.0,0.0,0.0,22.9,4.8,2.9,1024,1024,1024,1024,0,0,0,0,65,5.069,72.86,101.70604,P-GPS,,31.0
412,487500,2026-01-07 12:38:08,0.0,5,7.41,0.0,0.0,0.0,22.9,4.8,3.0,1024,1024,1024,1024,0,0,0,0,65,5.069,72.86,101.70604,P-GPS,,31.0
413,487600,2026-01-07 12:38:08,0.0,5,7.41,0.0,0.0,0.0,22.9,4.8,3.1,1024,1024,1024,1024,0,0,0,0,65,5.069,72.86,101.70604,P-GPS,,31.0
414,487700,2026-01-07 12:38:09,0.0,5,7.41,0.0,0.0,0.0,22.9,4.9,3.0,1024,1024,1024,1024,0,0,0,0,65,5.069,72.86,101.70604,P-GPS,,31.0
415,487800,2026-01-07 12:38:09,0.0,5,7.41,0.0,0.0,0.0,22.9,5.2,3.1,1024,1024,1024,1024,0,0,0,0,65,5.069,72.86,101.70604,P-GPS,,31.0
416,487900,2026-01-07 12:38:09,0.0,5,7.41,0.0,0.0,0.0,22.9,5.7,3.0,1024,1024,1024,1024,0,0,0,0,65,5.069,72.86,101.70604,P-GPS,,31.0
417,488000,2026-01-07 12:38:09,0.0,5,7.41,0.0,0.0,0.0,22.8,5.6,3.0,1024,1024,1024,1024,0,0,0,0,65,5.069,72.86,101.70604,P-GPS,,31.0
418,488100,2026-01-07 12:38:09,0.0,5,7.41,0.0,0.0,0.0,22.9,5.9,3.1,1024,1024,1024,1024,0,0,0,0,65,5.069,72.86,101.70604,P-GPS,,31.0
419,488200,2026-01-07 12:38:09,0.0,5,7.41,0.0,0.0,0.0,22.9,6.1,3.1,1024,1024,1024,1024,0,0,0,0,65,5.069,72.86,101.70604,P-GPS,,31.0
420,488300,2026-01-07 12:38:09,0.0,5,7.41,0.0,0.0,0.0,23.0,6.0,3.0,1024,1024,1024,1024,0,0,0,0,65,5.069,72.86,101.70604,P-GPS,,31.0
421,488400,2026-01-07 12:38:09,0.0,5,7.41,0.0,0.0,0.0,23.0,5.8,2.9,1024,1024,1024,1024,0,0,0,0,65,5.069,72.86,101.70604,P-GPS,,31.0
422,488500,2026-01-07 12:38:09,0.0,5,7.41,0.0,0.0,0.0,23.0,5.6,2.9,1024,1024,1024,1024,0,0,0,0,65,5.069,72.86,101.70604,P-GPS,,31.0
423,488600,2026-01-07 12:38:09,0.0,5,7.41,0.0,0.0,0.0,23.0,5.5,3.1,1024,1024,1024,1024,0,0,0,0,65,5.069,72.86,101.70604,P-GPS,,31.0
424,488700,2026-01-07 12:38:10,0.0,5,7.385,0.0,0.0,0.0,22.9,5.2,3.2,1024,1024,1024,1024,0,0,0,0,65,4.785,72.86,101.70604,P-GPS,,31.0
425,488800,2026-01-07 12:38:10,0.0,5,7.385,0.0,0.0,0.0,22.9,5.4,3.3,1024,1024,1024,1024,0,0,0,0,65,4.785,72.86,101.70604,P-GPS,,31.0
426,488900,2026-01-07 12:38:10,0.0,5,7.385,0.0,0.0,0.0,22.9,5.4,3.2,1024,1024,1024,1024,0,0,0,0,65,4.785,72.86,101.377956,P-GPS,,30.9
427,489000,2026-01-07 12:38:10,0.0,5,7.385,0.0,0.0,0.0,22.8,5.3,3.5,1024,1024,1024,1024,0,0,0,0,65,4.785,72.86,101.377956,P-GPS,,30.9
428,489100,2026-01-07 12:38:10,0.0,5,7.385,0.0,0.0,0.0,22.8,5.2,3.3,1024,1024,1024,1024,0,0,0,0,65,4.785,72.86,101.377956,P-GPS,,30.9
429,489200,2026-01-07 12:38:10,0.0,5,7.385,0.0,0.0,0.0,22.8,5.4,3.5,1024,1024,1024,1024,0,0,0,0,65,4.785,72.86,101.377956,P-GPS,,30.9
430,489300,2026-01-07 12:38:10,0.0,5,7.385,0.0,0.0,0.0,22.9,5.6,3.5,1024,1024,1024,1024,0,0,0,0,65,4.785,72.86,101.377956,P-GPS,,30.9
431,489400,2026-01-07 12:38:10,0.0,5,7.385,0.0,0.0,0.0,23.0,6.0,3.5,1024,1024,1024,1024,0,0,0,0,65,4.785,72.86,101.377956,P-GPS,,30.9
432,489500,2026-01-07 12:38:10,0.0,5,7.385,0.0,0.0,0.0,23.0,6.0,3.4,1024,1024,1024,1024,0,0,0,0,65,4.785,72.86,101.377956,P-GPS,,30.9
433,489600,2026-01-07 12:38:10,0.0,5,7.385,0.0,0.0,0.0,23.0,5.9,3.5,1024,1024,1024,1024,0,0,0,0,65,4.785,72.86,101.377956,P-GPS,,30.9
434,489700,2026-01-07 12:38:11,0.0,5,7.385,0.0,0.0,0.0,22.9,6.0,3.3,1024,1024,1024,1024,0,0,0,0,65,4.897,72.86,101.377956,P-GPS,,30.9
435,489800,2026-01-07 12:38:11,0.0,5,7.385,0.0,0.0,0.0,23.0,6.3,3.1,1024,1024,1024,1024,0,0,0,0,65,4.897,72.86,101.377956,P-GPS,,30.9
436,489900,2026-01-07 12:38:11,0.0,5,7.385,0.0,0.0,0.0,23.0,6.4,3.1,1024,1024,1024,1024,0,0,0,0,65,4.897,72.86,101.377956,P-GPS,,30.9
437,490000,2026-01-07 12:38:11,0.0,5,7.385,0.0,0.0,0.0,23.0,6.4,2.9,1024,1024,1024,1024,0,0,0,0,65,4.897,72.86,101.377956,P-GPS,,30.9
438,490100,2026-01-07 12:38:11,0.0,5,7.385,0.0,0.0,0.0,23.0,6.2,2.8,1024,1024,1024,1024,0,0,0,0,65,4.897,72.86,101.049872,P-GPS,,30.8
439,490200,2026-01-07 12:38:11,0.0,5,7.385,0.0,0.0,0.0,23.0,6.0,2.7,1024,1024,1024,1024,0,0,0,0,65,4.897,72.86,101.049872,P-GPS,,30.8
440,490300,2026-01-07 12:38:11,0.0,5,7.385,0.0,0.0,0.0,23.0,5.9,2.5,1024,1024,1024,1024,0,0,0,0,65,4.897,72.86,101.049872,P-GPS,,30.8
441,490400,2026-01-07 12:38:11,0.0,5,7.385,0.0,0.0,0.0,23.0,5.8,2.4,1024,1024,1024,1024,0,0,0,0,65,4.897,72.86,101.049872,P-GPS,,30.8
442,490500,2026-01-07 12:38:11,0.0,5,7.385,0.0,0.0,0.0,23.0,5.6,2.2,1024,1024,1024,1024,0,0,0,0,65,4.897,72.86,101.049872,P-GPS,,30.8
443,490600,2026-01-07 12:38:11,0.0,5,7.377,0.0,0.0,0.0,23.0,5.5,2.2,1024,1024,1024,1024,0,0,0,0,65,4.926,72.86,101.049872,P-GPS,,30.8
444,490700,2026-01-07 12:38:12,0.0,5,7.377,0.0,0.0,0.0,22.9,5.5,2.2,1024,1024,1024,1024,0,0,0,0,65,4.926,72.86,100.721788,P-GPS,,30.7
445,490800,2026-01-07 12:38:12,0.0,5,7.377,0.0,0.0,0.0,23.0,5.5,2.1,1024,1024,1024,1024,0,0,0,0,65,4.926,72.86,100.721788,P-GPS,,30.7
446,490900,2026-01-07 12:38:12,0.0,5,7.377,0.0,0.0,0.0,23.0,5.1,2.2,1024,1024,1024,1024,0,0,0,0,65,4.926,72.86,100.721788,P-GPS,,30.7
447,491000,2026-01-07 12:38:12,0.0,5,7.377,0.0,0.0,0.0,23.0,5.3,2.2,1024,1024,1024,1024,0,0,0,0,65,4.926,72.86,100.721788,P-GPS,,30.7
448,491100,2026-01-07 12:38:12,0.0,5,7.377,0.0,0.0,0.0,23.0,5.5,2.4,1024,1024,1024,1024,0,0,0,0,65,4.926,72.86,100.721788,P-GPS,,30.7
449,491200,2026-01-07 12:38:12,0.0,5,7.377,0.0,0.0,0.0,22.9,5.2,2.4,1024,1024,1024,1024,0,0,0,0,65,4.926,72.86,100.721788,P-GPS,,30.7
450,491300,2026-01-07 12:38:12,0.0,5,7.377,0.0,0.0,0.0,22.9,4.9,2.4,1024,1024,1024,1024,0,0,0,0,65,4.926,72.86,100.721788,P-GPS,,30.7
451,491400,2026-01-07 12:38:12,0.0,5,7.377,0.0,0.0,0.0,23.0,4.9,2.5,1024,1024,1024,1024,0,0,0,0,65,4.926,72.86,100.721788,P-GPS,,30.7
452,491500,2026-01-07 12:38:12,0.0,5,7.377,0.0,0.0,0.0,22.9,4.8,2.7,1024,1024,1024,1024,0,0,0,0,65,4.926,72.86,100.721788,P-GPS,,30.7
453,491600,2026-01-07 12:38:12,0.0,5,7.377,0.0,0.0,0.0,23.0,4.9,2.7,1024,1024,1024,1024,0,0,0,0,65,4.926,72.86,100.721788,P-GPS,,30.7
454,491700,2026-01-07 12:38:13,0.0,5,7.377,0.0,0.0,0.0,22.9,4.7,3.0,1024,1024,1024,1024,0,0,0,0,65,4.926,72.86,100.721788,P-GPS,,30.7
455,491800,2026-01-07 12:38:13,0.0,5,7.377,0.0,0.0,0.0,22.8,4.6,3.2,1024,1024,1024,1024,0,0,0,0,65,4.926,72.86,100.721788,P-GPS,,30.7
456,491900,2026-01-07 12:38:13,0.0,5,7.377,0.0,0.0,0.0,22.9,4.7,3.4,1024,1024,1024,1024,0,0,0,0,65,4.926,72.86,100.721788,P-GPS,,30.7
457,492000,2026-01-07 12:38:13,0.0,5,7.377,0.0,0.0,0.0,22.9,4.6,3.8,1024,1024,1024,1024,0,0,0,0,65,4.926,72.86,100.721788,P-GPS,,30.7
458,492100,2026-01-07 12:38:13,0.0,5,7.377,0.0,0.0,0.0,22.9,4.8,4.1,1024,1024,1024,1024,0,0,0,0,65,4.926,72.86,100.721788,P-GPS,,30.7
459,492200,2026-01-07 12:38:13,0.0,5,7.377,0.0,0.0,0.0,22.9,4.9,4.2,1024,1024,1024,1024,0,0,0,0,65,4.926,72.86,101.049872,P-GPS,,30.8
460,492300,2026-01-07 12:38:13,0.0,5,7.377,0.0,0.0,0.0,22.9,4.9,4.3,1024,1024,1024,1024,0,0,0,0,65,4.926,72.86,101.049872,P-GPS,,30.8
461,492400,2026-01-07 12:38:13,0.0,5,7.377,0.0,0.0,0.0,22.9,4.8,4.4,1024,1024,1024,1024,0,0,0,0,65,4.926,72.86,101.049872,P-GPS,,30.8
462,492500,2026-01-07 12:38:13,0.0,5,7.377,0.0,0.0,0.0,22.9,4.5,4.2,1024,1024,1024,1024,0,0,0,0,65,4.926,72.86,101.049872,P-GPS,,30.8
463,492600,2026-01-07 12:38:13,0.0,5,7.377,0.0,0.0,0.0,22.9,4.5,4.2,1024,1024,1024,1024,0,0,0,0,65,4.926,72.86,101.049872,P-GPS,,30.8
464,492700,2026-01-07 12:38:14,0.0,5,7.377,0.0,0.0,0.0,23.0,4.4,4.1,1024,1024,1024,1024,0,0,0,0,65,4.926,72.86,101.049872,P-GPS,,30.8
465,492800,2026-01-07 12:38:14,0.0,5,7.38,0.0,0.0,0.0,23.0,4.6,4.0,1024,1024,1024,1024,0,0,0,0,65,4.908,72.86,101.049872,P-GPS,,30.8
466,492900,2026-01-07 12:38:14,0.0,5,7.38,0.0,0.0,0.0,23.0,4.6,3.7,1024,1024,1024,1024,0,0,0,0,65,4.908,72.86,101.049872,P-GPS,,30.8
467,493000,2026-01-07 12:38:14,0.0,5,7.38,0.0,0.0,0.0,22.9,4.7,3.3,1024,1024,1024,1024,0,0,0,0,65,4.908,72.86,100.721788,P-GPS,,30.7
468,493100,2026-01-07 12:38:14,0.0,5,7.38,0.0,0.0,0.0,22.9,4.6,3.3,1024,1024,1024,1024,0,0,0,0,65,4.908,72.86,100.721788,P-GPS,,30.7
469,493200,2026-01-07 12:38:14,0.0,5,7.38,0.0,0.0,0.0,23.0,4.4,3.0,1024,1024,1024,1024,0,0,0,0,65,4.908,72.86,100.721788,P-GPS,,30.7
470,493300,2026-01-07 12:38:14,0.0,5,7.38,0.0,0.0,0.0,23.0,4.5,2.9,1024,1024,1024,1024,0,0,0,0,65,4.908,72.86,100.721788,P-GPS,,30.7
471,493400,2026-01-07 12:38:14,0.0,5,7.38,0.0,0.0,0.0,23.0,4.5,2.9,1024,1024,1024,1024,0,0,0,0,65,4.908,72.86,100.721788,P-GPS,,30.7
472,493500,2026-01-07 12:38:14,0.0,5,7.38,0.0,0.0,0.0,22.9,4.8,2.9,1024,1024,1024,1024,0,0,0,0,65,4.908,72.86,100.721788,P-GPS,,30.7
473,493600,2026-01-07 12:38:14,0.0,5,7.38,0.0,0.0,0.0,22.8,4.5,2.9,1024,1024,1024,1024,0,0,0,0,65,4.908,72.86,100.721788,P-GPS,,30.7
474,493700,2026-01-07 12:38:15,0.0,5,7.38,0.0,0.0,0.0,22.8,4.7,2.9,1024,1024,1024,1024,0,0,0,0,65,4.908,72.86,100.721788,P-GPS,,30.7
475,493800,2026-01-07 12:38:15,0.0,5,7.38,0.0,0.0,0.0,22.9,4.7,3.4,1024,1024,1024,1024,0,0,0,0,65,4.908,72.86,100.721788,P-GPS,,30.7
476,493900,2026-01-07 12:38:15,0.0,5,7.375,0.0,0.0,0.0,22.8,4.5,3.4,1024,1024,1024,1024,0,0,0,0,65,4.982,73.04,100.721788,P-GPS,,30.7
477,494000,2026-01-07 12:38:15,0.0,5,7.375,0.0,0.0,0.0,22.8,4.8,3.4,1024,1024,1024,1024,0,0,0,0,65,4.982,73.04,100.721788,P-GPS,,30.7
478,494100,2026-01-07 12:38:15,0.0,5,7.375,0.0,0.0,0.0,22.9,5.6,3.2,1024,1024,1024,1024,0,0,0,0,65,4.982,73.04,100.721788,P-GPS,,30.7
479,494200,2026-01-07 12:38:15,0.223694,5,7.375,0.223694,0.0,0.0,22.9,6.3,3.2,1024,1024,1024,1024,0,0,0,0,65,4.982,73.04,100.721788,P-GPS,,30.7
480,494300,2026-01-07 12:38:15,0.223694,5,7.375,0.223694,0.0,0.0,22.9,6.8,3.2,1024,1024,1024,1024,0,0,0,0,65,4.982,73.04,100.721788,P-GPS,,30.7
481,494400,2026-01-07 12:38:15,0.0,5,7.375,0.0,0.0,0.0,22.9,6.9,3.5,1024,1024,1024,1024,0,0,0,0,65,4.982,73.04,101.049872,P-GPS,,30.8
482,494500,2026-01-07 12:38:15,0.0,5,7.375,0.0,0.0,0.0,23.0,6.9,3.4,1024,1024,1024,1024,0,0,0,0,65,4.982,73.04,101.049872,P-GPS,,30.8
483,494600,2026-01-07 12:38:15,0.0,5,7.375,0.0,0.0,0.0,23.0,6.8,3.5,1024,1024,1024,1024,0,0,0,0,65,4.982,73.04,101.049872,P-GPS,,30.8
484,494700,2026-01-07 12:38:15,0.0,5,7.375,0.0,0.0,0.0,23.0,6.5,3.5,1024,1024,1024,1024,0,0,0,0,65,4.982,73.04,101.049872,P-GPS,,30.8
485,494800,2026-01-07 12:38:16,0.0,5,7.375,0.0,0.0,0.0,23.0,6.6,3.5,1024,1024,1024,1024,0,0,0,0,65,4.982,73.04,101.049872,P-GPS,,30.8
486,494900,2026-01-07 12:38:16,0.0,5,7.375,0.0,0.0,0.0,22.9,6.5,3.4,1024,1024,1024,1024,0,0,0,0,65,4.982,73.04,101.049872,P-GPS,,30.8
487,495000,2026-01-07 12:38:16,0.0,5,7.375,0.0,0.0,0.0,23.0,6.2,3.5,1024,1024,1024,1024,0,0,0,0,65,4.982,73.04,101.049872,P-GPS,,30.8
488,495100,2026-01-07 12:38:16,0.0,5,7.393,0.0,0.0,0.0,23.0,6.0,3.1,1024,1024,1024,1024,0,0,0,0,65,4.651,73.04,101.049872,P-GPS,,30.8
489,495200,2026-01-07 12:38:16,0.0,5,7.393,0.0,0.0,0.0,23.1,6.0,3.3,1024,1024,1024,1024,0,0,0,0,65,4.651,73.04,101.049872,P-GPS,,30.8
490,495300,2026-01-07 12:38:16,0.0,5,7.393,0.0,0.0,0.0,23.2,6.0,3.6,1024,1024,1024,1024,0,0,0,0,65,4.651,73.04,101.049872,P-GPS,,30.8
491,495400,2026-01-07 12:38:16,0.0,5,7.393,0.0,0.0,0.0,23.0,5.6,3.5,1024,1024,1024,1024,0,0,0,0,65,4.651,73.04,101.049872,P-GPS,,30.8
492,495500,2026-01-07 12:38:16,0.0,5,7.393,0.0,0.0,0.0,23.1,6.1,3.8,1024,1024,1024,1024,0,0,0,0,65,4.651,73.04,101.049872,P-GPS,,30.8
493,495600,2026-01-07 12:38:16,0.0,5,7.393,0.0,0.0,0.0,23.0,5.4,4.0,1024,1024,1024,1024,0,0,0,0,65,4.651,73.04,101.049872,P-GPS,,30.8
494,495700,2026-01-07 12:38:17,0.0,5,7.393,0.0,0.0,0.0,23.0,4.5,4.2,1024,1024,1024,1024,0,0,0,0,65,4.651,73.04,101.049872,P-GPS,,30.8
495,495800,2026-01-07 12:38:17,0.0,5,7.393,0.0,0.0,0.0,23.0,4.8,4.5,1024,1024,1024,1024,0,0,0,0,65,4.651,73.04,101.049872,P-GPS,,30.8
496,495900,2026-01-07 12:38:17,0.0,5,7.393,0.0,0.0,0.0,23.1,5.3,4.9,1024,1024,1024,1024,0,0,0,0,65,4.651,73.04,101.049872,P-GPS,,30.8
497,496000,2026-01-07 12:38:17,0.0,5,7.393,0.0,0.0,0.0,23.1,5.5,4.9,1024,1024,1024,1024,0,0,0,0,65,4.651,73.04,101.049872,P-GPS,,30.8
498,496100,2026-01-07 12:38:17,0.0,5,7.393,0.0,0.0,0.0,23.1,5.2,4.8,1024,1024,1024,1024,0,0,0,0,65,4.651,73.04,101.377956,P-GPS,,30.9
499,496200,2026-01-07 12:38:17,0.0,5,7.389,0.0,0.0,0.0,23.2,5.3,5.1,1024,1024,1024,1024,0,0,0,0,64,4.609,73.04,101.377956,P-GPS,,30.9
500,496300,2026-01-07 12:38:17,0.0,5,7.389,0.0,0.0,0.0,23.2,5.3,4.9,1024,1024,1024,1024,0,0,0,0,64,4.609,73.04,101.377956,P-GPS,,30.9
501,496400,2026-01-07 12:38:17,0.0,5,7.389,0.0,0.0,0.0,23.1,5.0,5.0,1024,1024,1024,1024,0,0,0,0,64,4.609,73.04,101.377956,P-GPS,,30.9
502,496500,2026-01-07 12:38:17,0.0,5,7.389,0.0,0.0,0.0,23.1,4.8,4.7,1024,1024,1024,1024,0,0,0,0,64,4.609,73.04,101.377956,P-GPS,,30.9
503,496600,2026-01-07 12:38:17,0.0,5,7.389,0.0,0.0,0.0,23.3,5.0,4.8,1024,1024,1024,1024,0,0,0,0,64,4.609,73.04,101.377956,P-GPS,,30.9
504,496700,2026-01-07 12:38:18,0.0,5,7.389,0.0,0.0,0.0,23.2,5.3,4.6,1024,1024,1024,1024,0,0,0,0,64,4.609,73.04,101.049872,P-GPS,,30.8
505,496800,2026-01-07 12:38:18,0.0,5,7.389,0.0,0.0,0.0,23.2,6.3,4.5,1024,1024,1024,1024,0,0,0,0,64,4.609,73.04,101.049872,P-GPS,,30.8
506,496900,2026-01-07 12:38:18,0.0,5,7.389,0.0,0.0,0.0,23.1,6.3,4.6,1024,1024,1024,1024,0,0,0,0,64,4.609,73.04,101.049872,P-GPS,,30.8
507,497000,2026-01-07 12:38:18,0.0,5,7.389,0.0,0.0,0.0,23.1,5.7,4.3,1024,1024,1024,1024,0,0,0,0,64,4.609,73.04,101.049872,P-GPS,,30.8
508,497100,2026-01-07 12:38:18,0.0,5,7.389,0.0,0.0,0.0,23.1,5.7,4.6,1024,1024,1024,1024,0,0,0,0,64,4.609,73.04,101.049872,P-GPS,,30.8
509,497200,2026-01-07 12:38:18,0.0,5,7.389,0.0,0.0,0.0,23.1,5.4,4.4,1024,1024,1024,1024,0,0,0,0,64,4.609,73.04,101.049872,P-GPS,,30.8
510,497300,2026-01-07 12:38:18,0.0,5,7.383,0.0,0.0,0.0,23.1,5.5,4.4,1024,1024,1024,1024,0,0,0,0,64,4.56,73.04,100.721788,P-GPS,,30.7
511,497400,2026-01-07 12:38:18,0.0,5,7.383,0.0,0.0,0.0,23.1,5.4,4.3,1024,1024,1024,1024,0,0,0,0,64,4.56,73.04,100.721788,P-GPS,,30.7
512,497500,2026-01-07 12:38:18,0.0,5,7.383,0.0,0.0,0.0,23.0,5.5,4.3,1024,1024,1024,1024,0,0,0,0,64,4.56,73.04,100.721788,P-GPS,,30.7
513,497600,2026-01-07 12:38:18,0.0,5,7.383,0.0,0.0,0.0,23.0,5.7,4.3,1024,1024,1024,1024,0,0,0,0,64,4.56,73.04,100.721788,P-GPS,,30.7
514,497700,2026-01-07 12:38:18,0.0,5,7.383,0.0,0.0,0.0,23.0,5.7,4.4,1024,1024,1024,1024,0,0,0,0,64,4.56,73.04,100.721788,P-GPS,,30.7
515,497800,2026-01-07 12:38:19,0.0,5,7.383,0.0,0.0,0.0,23.0,6.0,4.2,1024,1024,1024,1024,0,0,0,0,64,4.56,73.04,100.721788,P-GPS,,30.7
516,497900,2026-01-07 12:38:19,0.0,5,7.383,0.0,0.0,0.0,23.0,6.3,4.1,1024,1024,1024,1024,0,0,0,0,64,4.56,73.04,100.393704,P-GPS,,30.6
517,498000,2026-01-07 12:38:19,0.0,5,7.383,0.0,0.0,0.0,23.0,6.5,4.1,1024,1024,1024,1024,0,0,0,0,64,4.56,73.04,100.393704,P-GPS,,30.6
518,498100,2026-01-07 12:38:19,0.0,5,7.383,0.0,0.0,0.0,23.0,6.5,4.2,1024,1024,1024,1024,0,0,0,0,64,4.56,73.04,100.393704,P-GPS,,30.6
519,498200,2026-01-07 12:38:19,0.0,5,7.383,0.0,0.0,0.0,23.0,6.2,4.2,1024,1024,1024,1024,0,0,0,0,64,4.56,73.04,100.393704,P-GPS,,30.6
520,498300,2026-01-07 12:38:19,0.0,5,7.383,0.0,0.0,0.0,23.0,6.0,4.3,1024,1024,1024,1024,0,0,0,0,64,4.56,73.04,100.393704,P-GPS,,30.6
521,498400,2026-01-07 12:38:19,0.0,5,7.382,0.0,0.0,0.0,23.0,6.3,4.5,1024,1024,1024,1024,0,0,0,0,64,4.66,73.04,100.393704,P-GPS,,30.6
522,498500,2026-01-07 12:38:19,0.0,5,7.382,0.0,0.0,0.0,23.0,6.6,4.5,1024,1024,1024,1024,0,0,0,0,64,4.66,73.04,100.06562,P-GPS,,30.5
523,498600,2026-01-07 12:38:19,0.0,5,7.382,0.0,0.0,0.0,23.0,7.0,4.3,1024,1024,1024,1024,0,0,0,0,64,4.66,73.04,100.06562,P-GPS,,30.5
524,498700,2026-01-07 12:38:20,0.0,5,7.382,0.0,0.0,0.0,23.0,7.1,4.1,1024,1024,1024,1024,0,0,0,0,64,4.66,73.04,100.06562,P-GPS,,30.5
525,498800,2026-01-07 12:38:20,0.0,5,7.382,0.0,0.0,0.0,23.0,7.4,4.2,1024,1024,1024,1024,0,0,0,0,64,4.66,73.04,100.06562,P-GPS,,30.5
526,498900,2026-01-07 12:38:20,0.0,5,7.382,0.0,0.0,0.0,23.0,7.6,4.0,1024,1024,1024,1024,0,0,0,0,64,4.66,73.04,100.06562,P-GPS,,30.5
527,499000,2026-01-07 12:38:20,0.0,5,7.382,0.0,0.0,0.0,23.0,7.4,3.8,1024,1024,1024,1024,0,0,0,0,64,4.66,73.04,100.06562,P-GPS,,30.5
528,499100,2026-01-07 12:38:20,0.0,5,7.382,0.0,0.0,0.0,23.0,7.1,3.7,1024,1024,1024,1024,0,0,0,0,64,4.66,73.04,100.06562,P-GPS,,30.5
529,499200,2026-01-07 12:38:20,0.0,5,7.382,0.0,0.0,0.0,23.0,7.0,3.9,1024,1024,1024,1024,0,0,0,0,64,4.66,73.04,99.737536,P-GPS,,30.4
530,499300,2026-01-07 12:38:20,0.0,5,7.382,0.0,0.0,0.0,22.9,6.7,3.9,1024,1024,1024,1024,0,0,0,0,64,4.66,73.04,99.737536,P-GPS,,30.4
531,499400,2026-01-07 12:38:20,0.0,5,7.382,0.0,0.0,0.0,22.9,6.7,4.2,1024,1024,1024,1024,0,0,0,0,64,4.66,73.04,99.737536,P-GPS,,30.4
532,499500,2026-01-07 12:38:20,0.0,5,7.382,0.0,0.0,0.0,23.0,6.9,4.1,1024,1024,1024,1024,0,0,0,0,64,4.65,73.04,99.737536,P-GPS,,30.4
533,499600,2026-01-07 12:38:20,0.0,5,7.382,0.0,0.0,0.0,23.0,6.8,4.1,1024,1024,1024,1024,0,0,0,0,64,4.65,73.04,99.737536,P-GPS,,30.4
534,499700,2026-01-07 12:38:20,0.0,5,7.382,0.0,0.0,0.0,23.0,7.1,4.1,1024,1024,1024,1024,0,0,0,0,64,4.65,73.04,99.737536,P-GPS,,30.4
535,499800,2026-01-07 12:38:21,0.0,5,7.382,0.0,0.0,0.0,23.0,7.1,4.0,1024,1024,1024,1024,0,0,0,0,64,4.65,73.04,99.737536,P-GPS,,30.4
536,499900,2026-01-07 12:38:21,0.0,5,7.382,0.0,0.0,0.0,23.0,6.8,4.0,1024,1024,1024,1024,0,0,0,0,64,4.65,73.04,99.737536,P-GPS,,30.4
537,500000,2026-01-07 12:38:21,0.0,5,7.382,0.0,0.0,0.0,23.0,6.7,4.1,1024,1024,1024,1024,0,0,0,0,64,4.65,73.04,99.737536,P-GPS,,30.4
538,500100,2026-01-07 12:38:21,0.0,5,7.382,0.0,0.0,0.0,23.0,6.8,4.0,1024,1024,1024,1024,0,0,0,0,64,4.65,73.04,99.737536,P-GPS,,30.4
539,500200,2026-01-07 12:38:21,0.0,5,7.382,0.0,0.0,0.0,23.1,6.9,4.1,1024,1024,1024,1024,0,0,0,0,64,4.65,73.04,99.737536,P-GPS,,30.4
540,500300,2026-01-07 12:38:21,0.0,5,7.382,0.0,0.0,0.0,23.1,7.0,4.3,1024,1024,1024,1024,0,0,0,0,64,4.65,73.04,99.737536,P-GPS,,30.4
541,500400,2026-01-07 12:38:21,0.0,5,7.382,0.0,0.0,0.0,23.0,7.1,4.1,1024,1024,1024,1024,0,0,0,0,64,4.65,73.04,99.737536,P-GPS,,30.4
542,500500,2026-01-07 12:38:21,0.0,5,7.382,0.0,0.0,0.0,23.0,7.0,4.2,1024,1024,1024,1024,0,0,0,0,64,4.65,73.04,99.737536,P-GPS,,30.4
543,500600,2026-01-07 12:38:21,0.0,5,7.389,0.0,0.0,0.0,23.0,7.1,4.2,1024,1024,1024,1024,0,0,0,0,64,4.619,73.04,99.737536,P-GPS,,30.4
544,500700,2026-01-07 12:38:22,0.0,5,7.389,0.0,0.0,0.0,23.0,7.0,4.0,1024,1024,1024,1024,0,0,0,0,64,4.619,73.04,99.737536,P-GPS,,30.4
545,500800,2026-01-07 12:38:22,0.0,5,7.389,0.0,0.0,0.0,23.1,7.1,4.2,1024,1024,1024,1024,0,0,0,0,64,4.619,73.04,99.737536,P-GPS,,30.4
546,500900,2026-01-07 12:38:22,0.0,5,7.389,0.0,0.0,0.0,23.0,6.7,4.1,1024,1024,1024,1024,0,0,0,0,64,4.619,73.04,99.737536,P-GPS,,30.4
547,501000,2026-01-07 12:38:22,0.0,5,7.389,0.0,0.0,0.0,23.0,6.5,3.9,1024,1024,1024,1024,0,0,0,0,64,4.619,73.04,99.737536,P-GPS,,30.4
548,501100,2026-01-07 12:38:22,0.0,5,7.389,0.0,0.0,0.0,23.0,6.0,4.2,1024,1024,1024,1024,0,0,0,0,64,4.619,73.04,99.737536,P-GPS,,30.4
549,501200,2026-01-07 12:38:22,0.0,5,7.389,0.0,0.0,0.0,23.1,6.2,4.3,1024,1024,1024,1024,0,0,0,0,64,4.619,73.04,99.737536,P-GPS,,30.4
550,501300,2026-01-07 12:38:22,0.0,5,7.389,0.0,0.0,0.0,23.1,6.3,4.4,1024,1024,1024,1024,0,0,0,0,64,4.619,73.04,99.737536,P-GPS,,30.4
551,501400,2026-01-07 12:38:22,0.0,5,7.389,0.0,0.0,0.0,23.1,6.2,4.4,1024,1024,1024,1024,0,0,0,0,64,4.619,73.04,100.06562,P-GPS,,30.5
552,501500,2026-01-07 12:38:22,0.0,5,7.389,0.0,0.0,0.0,23.0,5.8,4.4,1024,1024,1024,1024,0,0,0,0,64,4.619,73.04,100.06562,P-GPS,,30.5
553,501600,2026-01-07 12:38:22,0.0,5,7.389,0.0,0.0,0.0,23.1,6.0,4.4,1024,1024,1024,1024,0,0,0,0,64,4.619,73.04,100.06562,P-GPS,,30.5
554,501700,2026-01-07 12:38:23,0.0,5,7.389,0.0,0.0,0.0,23.1,6.2,4.3,1024,1024,1024,1024,0,0,0,0,64,4.619,73.04,100.06562,P-GPS,,30.5
555,501800,2026-01-07 12:38:23,0.0,5,7.389,0.0,0.0,0.0,23.1,6.5,4.2,1024,1024,1024,1024,0,0,0,0,64,4.619,73.04,100.06562,P-GPS,,30.5
556,501900,2026-01-07 12:38:23,0.0,5,7.389,0.0,0.0,0.0,23.1,6.6,4.1,1024,1024,1024,1024,0,0,0,0,64,4.619,73.04,100.06562,P-GPS,,30.5
557,502000,2026-01-07 12:38:23,0.0,5,7.389,0.0,0.0,0.0,23.1,6.5,4.1,1024,1024,1024,1024,0,0,0,0,64,4.619,73.04,100.06562,P-GPS,,30.5
558,502100,2026-01-07 12:38:23,0.0,5,7.389,0.0,0.0,0.0,23.1,5.9,4.1,1024,1024,1024,1024,0,0,0,0,64,4.619,73.04,100.06562,P-GPS,,30.5
559,502200,2026-01-07 12:38:23,0.0,5,7.389,0.0,0.0,0.0,23.1,5.6,4.2,1024,1024,1024,1024,0,0,0,0,64,4.619,73.04,100.06562,P-GPS,,30.5
560,502300,2026-01-07 12:38:23,0.0,5,7.389,0.0,0.0,0.0,23.1,5.8,4.2,1024,1024,1024,1024,0,0,0,0,64,4.619,73.04,100.06562,P-GPS,,30.5
561,502400,2026-01-07 12:38:23,0.0,5,7.389,0.0,0.0,0.0,23.0,6.0,4.4,1024,1024,1024,1024,0,0,0,0,64,4.619,73.04,100.06562,P-GPS,,30.5
562,502500,2026-01-07 12:38:23,0.0,5,7.389,0.0,0.0,0.0,23.0,6.1,4.3,1024,1024,1024,1024,0,0,0,0,64,4.619,73.04,100.06562,P-GPS,,30.5
563,502600,2026-01-07 12:38:23,0.0,5,7.389,0.0,0.0,0.0,23.0,6.3,4.3,1024,1024,1024,1024,0,0,0,0,64,4.619,73.04,100.393704,P-GPS,,30.6
564,502700,2026-01-07 12:38:24,0.0,5,7.389,0.0,0.0,0.0,23.0,6.1,4.2,1024,1024,1024,1024,0,0,0,0,64,4.619,73.04,100.393704,P-GPS,,30.6
565,502800,2026-01-07 12:38:24,0.0,5,7.389,0.0,0.0,0.0,23.0,5.7,4.2,1024,1024,1024,1024,0,0,0,0,64,4.619,73.04,100.393704,P-GPS,,30.6
566,502900,2026-01-07 12:38:24,0.0,5,7.387,0.0,0.0,0.0,23.1,5.9,4.2,1024,1024,1024,1024,0,0,0,0,64,4.573,73.04,100.393704,P-GPS,,30.6
567,503000,2026-01-07 12:38:24,0.0,5,7.387,0.0,0.0,0.0,23.0,6.1,4.1,1024,1024,1024,1024,0,0,0,0,64,4.573,73.04,100.393704,P-GPS,,30.6
568,503100,2026-01-07 12:38:24,0.0,5,7.387,0.0,0.0,0.0,22.9,5.6,4.0,1024,1024,1024,1024,0,0,0,0,64,4.573,73.04,100.393704,P-GPS,,30.6
569,503200,2026-01-07 12:38:24,0.0,5,7.387,0.0,0.0,0.0,23.0,5.8,4.3,1024,1024,1024,1024,0,0,0,0,64,4.573,73.04,100.393704,P-GPS,,30.6
570,503300,2026-01-07 12:38:24,0.0,5,7.387,0.0,0.0,0.0,23.1,5.7,4.4,1024,1024,1024,1024,0,0,0,0,64,4.573,73.04,100.393704,P-GPS,,30.6
571,503400,2026-01-07 12:38:24,0.0,5,7.387,0.0,0.0,0.0,23.0,5.8,4.2,1024,1024,1024,1024,0,0,0,0,64,4.573,73.04,100.393704,P-GPS,,30.6
572,503500,2026-01-07 12:38:24,0.0,5,7.387,0.0,0.0,0.0,23.1,5.8,4.2,1024,1024,1024,1024,0,0,0,0,64,4.573,73.04,100.393704,P-GPS,,30.6
573,503600,2026-01-07 12:38:24,0.0,5,7.387,0.0,0.0,0.0,23.0,5.7,4.2,1024,1024,1024,1024,0,0,0,0,64,4.573,73.04,100.393704,P-GPS,,30.6
574,503700,2026-01-07 12:38:25,0.0,5,7.387,0.0,0.0,0.0,22.9,5.7,4.0,1024,1024,1024,1024,0,0,0,0,64,4.573,73.04,100.393704,P-GPS,,30.6
575,503800,2026-01-07 12:38:25,0.0,5,7.387,0.0,0.0,0.0,23.0,5.9,3.9,1024,1024,1024,1024,0,0,0,0,64,4.573,73.04,100.393704,P-GPS,,30.6
576,503900,2026-01-07 12:38:25,0.0,5,7.387,0.0,0.0,0.0,22.9,5.7,3.5,1024,1024,1024,1024,0,0,0,0,64,4.573,73.04,100.393704,P-GPS,,30.6
577,504000,2026-01-07 12:38:25,0.0,5,7.375,0.0,0.0,0.0,22.9,5.3,3.5,1024,1024,1024,1024,0,0,0,0,64,4.698,73.04,100.393704,P-GPS,,30.6
578,504100,2026-01-07 12:38:25,0.0,5,7.375,0.0,0.0,0.0,22.9,5.2,3.5,1024,1024,1024,1024,0,0,0,0,64,4.698,73.04,100.393704,P-GPS,,30.6
579,504200,2026-01-07 12:38:25,0.0,5,7.375,0.0,0.0,0.0,22.9,5.0,3.6,1024,1024,1024,1024,0,0,0,0,64,4.698,73.04,100.393704,P-GPS,,30.6
580,504300,2026-01-07 12:38:25,0.0,5,7.375,0.0,0.0,0.0,22.9,5.2,3.8,1024,1024,1024,1024,0,0,0,0,64,4.698,73.04,100.393704,P-GPS,,30.6
581,504400,2026-01-07 12:38:25,0.0,5,7.375,0.0,0.0,0.0,22.9,5.5,3.8,1024,1024,1024,1024,0,0,0,0,64,4.698,73.04,100.393704,P-GPS,,30.6
582,504500,2026-01-07 12:38:25,0.0,5,7.375,0.0,0.0,0.0,22.9,5.8,3.7,1024,1024,1024,1024,0,0,0,0,64,4.698,73.04,100.393704,P-GPS,,30.6
583,504600,2026-01-07 12:38:25,0.0,5,7.375,0.0,0.0,0.0,22.9,5.9,3.7,1024,1024,1024,1024,0,0,0,0,64,4.698,73.04,100.393704,P-GPS,,30.6
584,504700,2026-01-07 12:38:26,0.0,5,7.375,0.0,0.0,0.0,22.9,5.8,3.5,1024,1024,1024,1024,0,0,0,0,64,4.698,73.04,100.393704,P-GPS,,30.6
585,504800,2026-01-07 12:38:26,0.0,5,7.375,0.0,0.0,0.0,22.9,5.7,3.4,1024,1024,1024,1024,0,0,0,0,64,4.698,73.04,100.393704,P-GPS,,30.6
586,504900,2026-01-07 12:38:26,0.0,5,7.375,0.0,0.0,0.0,22.9,5.6,3.4,1024,1024,1024,1024,0,0,0,0,64,4.698,73.04,100.393704,P-GPS,,30.6
587,505000,2026-01-07 12:38:26,0.0,5,7.375,0.0,0.0,0.0,22.9,5.6,3.4,1024,1024,1024,1024,0,0,0,0,64,4.698,73.04,100.393704,P-GPS,,30.6
588,505100,2026-01-07 12:38:26,0.0,5,7.377,0.0,0.0,0.0,22.9,5.6,3.5,1024,1024,1024,1024,0,0,0,0,64,4.704,73.04,100.721788,P-GPS,,30.7
589,505200,2026-01-07 12:38:26,0.0,5,7.377,0.0,0.0,0.0,22.9,5.6,3.6,1024,1024,1024,1024,0,0,0,0,64,4.704,73.04,100.721788,P-GPS,,30.7
590,505300,2026-01-07 12:38:26,0.0,5,7.377,0.0,0.0,0.0,22.9,5.6,3.6,1024,1024,1024,1024,0,0,0,0,64,4.704,73.04,100.721788,P-GPS,,30.7
591,505400,2026-01-07 12:38:26,0.0,5,7.377,0.0,0.0,0.0,22.9,5.6,3.6,1024,1024,1024,1024,0,0,0,0,64,4.704,73.04,100.721788,P-GPS,,30.7
592,505500,2026-01-07 12:38:26,0.0,5,7.377,0.0,0.0,0.0,22.9,5.6,3.5,1024,1024,1024,1024,0,0,0,0,64,4.704,73.04,100.721788,P-GPS,,30.7
593,505600,2026-01-07 12:38:27,0.0,5,7.377,0.0,0.0,0.0,22.9,5.6,3.5,1024,1024,1024,1024,0,0,0,0,64,4.704,73.04,100.721788,P-GPS,,30.7
594,505700,2026-01-07 12:38:27,0.0,5,7.377,0.0,0.0,0.0,22.9,5.3,3.6,1024,1024,1024,1024,0,0,0,0,64,4.704,73.04,100.721788,P-GPS,,30.7
595,505800,2026-01-07 12:38:27,0.0,5,7.377,0.0,0.0,0.0,22.9,5.3,3.5,1024,1024,1024,1024,0,0,0,0,64,4.704,73.04,100.721788,P-GPS,,30.7
596,505900,2026-01-07 12:38:27,0.0,5,7.377,0.0,0.0,0.0,22.9,5.3,3.5,1024,1024,1024,1024,0,0,0,0,64,4.704,73.04,100.721788,P-GPS,,30.7
597,506000,2026-01-07 12:38:27,0.0,5,7.377,0.0,0.0,0.0,22.9,5.0,3.5,1024,1024,1024,1024,0,0,0,0,64,4.704,73.04,100.721788,P-GPS,,30.7
598,506100,2026-01-07 12:38:27,0.0,5,7.377,0.0,0.0,0.0,22.9,4.9,3.4,1024,1024,1024,1024,0,0,0,0,64,4.704,73.04,100.721788,P-GPS,,30.7
599,506200,2026-01-07 12:38:27,0.0,5,7.376,0.0,0.0,0.0,22.9,4.7,3.4,1024,1024,1024,1024,0,0,0,0,64,4.735,73.04,100.721788,P-GPS,,30.7
600,506300,2026-01-07 12:38:27,0.0,5,7.376,0.0,0.0,0.0,22.9,4.5,3.5,1024,1024,1024,1024,0,0,0,0,64,4.735,73.04,100.721788,P-GPS,,30.7
601,506400,2026-01-07 12:38:27,0.0,5,7.376,0.0,0.0,0.0,22.9,4.5,3.5,1024,1024,1024,1024,0,0,0,0,64,4.735,73.04,100.721788,P-GPS,,30.7
602,506500,2026-01-07 12:38:27,0.0,5,7.376,0.0,0.0,0.0,22.9,4.6,3.5,1024,1024,1024,1024,0,0,0,0,64,4.735,73.04,100.721788,P-GPS,,30.7
603,506600,2026-01-07 12:38:27,0.0,5,7.376,0.0,0.0,0.0,22.9,4.7,3.5,1024,1024,1024,1024,0,0,0,0,64,4.735,73.04,100.721788,P-GPS,,30.7
604,506700,2026-01-07 12:38:28,0.0,5,7.376,0.0,0.0,0.0,22.9,4.6,3.6,1024,1024,1024,1024,0,0,0,0,64,4.735,73.04,100.721788,P-GPS,,30.7
605,506800,2026-01-07 12:38:28,0.0,5,7.376,0.0,0.0,0.0,22.9,4.7,3.6,1024,1024,1024,1024,0,0,0,0,64,4.735,73.04,100.721788,P-GPS,,30.7
606,506900,2026-01-07 12:38:28,0.0,5,7.376,0.0,0.0,0.0,22.9,4.8,3.6,1024,1024,1024,1024,0,0,0,0,64,4.735,73.04,100.721788,P-GPS,,30.7
607,507000,2026-01-07 12:38:28,0.0,5,7.376,0.0,0.0,0.0,22.9,4.8,3.5,1024,1024,1024,1024,0,0,0,0,64,4.735,73.04,100.721788,P-GPS,,30.7
608,507100,2026-01-07 12:38:28,0.0,5,7.376,0.0,0.0,0.0,22.9,4.9,3.5,1024,1024,1024,1024,0,0,0,0,64,4.735,73.04,100.721788,P-GPS,,30.7
609,507200,2026-01-07 12:38:28,0.0,5,7.376,0.0,0.0,0.0,23.0,5.1,3.4,1024,1024,1024,1024,0,0,0,0,64,4.735,73.04,100.721788,P-GPS,,30.7
610,507300,2026-01-07 12:38:28,0.0,5,7.377,0.0,0.0,0.0,23.0,5.0,3.5,1024,1024,1024,1024,0,0,0,0,64,4.676,73.04,100.721788,P-GPS,,30.7
611,507400,2026-01-07 12:38:28,0.0,5,7.377,0.0,0.0,0.0,22.9,4.8,3.6,1024,1024,1024,1024,0,0,0,0,64,4.676,73.04,101.049872,P-GPS,,30.8
612,507500,2026-01-07 12:38:28,0.0,5,7.377,0.0,0.0,0.0,22.9,4.9,3.5,1024,1024,1024,1024,0,0,0,0,64,4.676,73.04,101.049872,P-GPS,,30.8
613,507600,2026-01-07 12:38:28,0.0,5,7.377,0.0,0.0,0.0,22.9,5.2,3.3,1024,1024,1024,1024,0,0,0,0,64,4.676,73.04,101.049872,P-GPS,,30.8
614,507700,2026-01-07 12:38:29,0.0,5,7.377,0.0,0.0,0.0,23.0,5.4,3.3,1024,1024,1024,1024,0,0,0,0,64,4.676,73.04,100.721788,P-GPS,,30.7
615,507800,2026-01-07 12:38:29,0.0,5,7.377,0.0,0.0,0.0,23.1,5.4,3.4,1024,1024,1024,1024,0,0,0,0,64,4.676,73.04,100.721788,P-GPS,,30.7
616,507900,2026-01-07 12:38:29,0.0,5,7.377,0.0,0.0,0.0,23.0,5.1,3.3,1024,1024,1024,1024,0,0,0,0,64,4.676,73.04,100.721788,P-GPS,,30.7
617,508000,2026-01-07 12:38:29,0.0,5,7.377,0.0,0.0,0.0,23.0,4.7,3.4,1024,1024,1024,1024,0,0,0,0,64,4.676,73.04,100.721788,P-GPS,,30.7
618,508100,2026-01-07 12:38:29,0.0,5,7.377,0.0,0.0,0.0,23.1,4.2,3.8,1024,1024,1024,1024,0,0,0,0,64,4.676,73.04,100.721788,P-GPS,,30.7
619,508200,2026-01-07 12:38:29,0.0,5,7.377,0.0,0.0,0.0,23.1,4.4,3.7,1024,1024,1024,1024,0,0,0,0,64,4.676,73.04,100.721788,P-GPS,,30.7
620,508300,2026-01-07 12:38:29,0.0,5,7.377,0.0,0.0,0.0,23.0,4.4,4.0,1024,1024,1024,1024,0,0,0,0,64,4.676,73.04,100.721788,P-GPS,,30.7
