time(millisecond),timestamp,speed(mph),gpslevel,voltage(v),xSpeed(mph),ySpeed(mph),zSpeed(mph),compass_heading(degrees),pitch(degrees),roll(degrees),rc_elevator,rc_aileron,rc_throttle,rc_rudder,rc_elevator(percent),rc_aileron(percent),rc_throttle(percent),rc_rudder(percent),battery_percent,current(A),battery_temperature(f),ascent(feet),flycState,message,height_above_takeoff(meters)
311600,2026-01-07 15:38:27,0.0,5,7.295,0.0,0.0,-4.47388,38.1,3.7,1.4,1024,1024,1684,1024,0,0,100,0,58,5.659,72.5,26.574804,P-GPS,,8.1
311700,2026-01-07 15:38:27,0.0,5,7.295,0.0,0.0,-4.47388,38.1,3.6,1.9,1024,1024,1684,1024,0,0,100,0,58,5.659,72.5,27.230972,P-GPS,,8.3
311800,2026-01-07 15:38:27,0.0,5,7.295,0.0,0.0,-4.47388,38.0,3.7,2.3,1024,1024,1684,1024,0,0,100,0,58,5.659,72.5,27.88714,P-GPS,,8.5
311900,2026-01-07 15:38:27,0.223694,5,7.295,0.0,-0.223694,-4.47388,38.1,4.1,2.7,1024,1024,1684,1024,0,0,100,0,58,5.659,72.5,28.543308,P-GPS,,8.7
312000,2026-01-07 15:38:27,0.0,5,7.295,0.0,0.0,-4.250186,38.0,3.0,2.9,1024,1024,1684,1024,0,0,100,0,58,5.659,72.5,29.199476,P-GPS,,8.9
312100,2026-01-07 15:38:27,0.0,5,7.295,0.0,0.0,-4.47388,38.0,3.2,3.1,1024,1024,1684,1024,0,0,100,0,58,5.659,72.5,29.855644,P-GPS,,9.1
312200,2026-01-07 15:38:27,0.0,5,7.295,0.0,0.0,-4.47388,38.1,3.8,3.1,1024,1024,1684,1024,0,0,100,0,58,5.659,72.5,30.511812,P-GPS,,9.3
312300,2026-01-07 15:38:27,0.0,5,7.295,0.0,0.0,-4.47388,38.1,3.8,2.3,1024,1024,1684,1024,0,0,100,0,58,5.659,72.5,31.16798,P-GPS,,9.5
312400,2026-01-07 15:38:27,0.0,5,7.295,0.0,0.0,-4.47388,38.1,3.1,1.9,1024,1024,1684,1024,0,0,100,0,58,5.659,72.5,31.824148,P-GPS,,9.7
312500,2026-01-07 15:38:28,0.0,5,7.295,0.0,0.0,-4.47388,38.1,3.7,1.7,1024,1024,1684,1024,0,0,100,0,58,5.659,72.5,32.480316,P-GPS,,9.9
312600,2026-01-07 15:38:28,0.0,5,7.295,0.0,0.0,-4.250186,38.1,3.4,1.7,1024,1024,1024,1024,0,0,0,0,58,5.659,72.5,33.136484,P-GPS,,10.1
312700,2026-01-07 15:38:28,0.0,5,7.295,0.0,0.0,-4.250186,38.2,2.7,2.4,1024,1024,1024,1024,0,0,0,0,58,5.659,72.5,33.792652,P-GPS,,10.3
312800,2026-01-07 15:38:28,0.0,5,7.295,0.0,0.0,-4.250186,38.1,2.9,2.3,1024,1024,1024,1024,0,0,0,0,58,5.659,72.5,34.120736,P-GPS,,10.4
312900,2026-01-07 15:38:28,0.0,5,7.285,0.0,0.0,-3.579104,38.0,3.4,2.3,1024,1024,1024,1024,0,0,0,0,58,5.822,72.5,34.776904,P-GPS,,10.6
313000,2026-01-07 15:38:28,0.0,5,7.285,0.0,0.0,-2.908022,38.1,2.9,2.6,1024,1024,1024,1024,0,0,0,0,58,5.822,72.5,35.104988,P-GPS,,10.7
313100,2026-01-07 15:38:28,0.0,5,7.285,0.0,0.0,-2.013246,38.1,2.8,2.9,1024,1024,1024,1024,0,0,0,0,58,5.822,72.5,35.433072,P-GPS,,10.8
313200,2026-01-07 15:38:28,0.0,5,7.285,0.0,0.0,-1.342164,38.0,2.8,2.6,1024,1024,1024,1024,0,0,0,0,58,5.822,72.5,35.761156,P-GPS,,10.9
313300,2026-01-07 15:38:28,0.0,5,7.285,0.0,0.0,-0.671082,38.0,3.3,2.4,1024,1024,1024,1024,0,0,0,0,58,5.822,72.5,35.761156,P-GPS,,10.9
313400,2026-01-07 15:38:28,0.0,5,7.285,0.0,0.0,-0.223694,38.1,3.7,2.3,1024,1024,1024,1024,0,0,0,0,58,5.822,72.5,35.761156,P-GPS,,10.9
313500,2026-01-07 15:38:29,0.0,5,7.285,0.0,0.0,0.0,38.2,4.0,2.4,1024,1024,1024,1024,0,0,0,0,58,5.822,72.5,35.761156,P-GPS,,10.9
313600,2026-01-07 15:38:29,0.0,5,7.285,0.0,0.0,0.0,38.1,4.2,2.4,1024,1024,1024,1024,0,0,0,0,58,5.822,72.5,35.761156,P-GPS,,10.9
313700,2026-01-07 15:38:29,0.0,5,7.285,0.0,0.0,0.0,38.1,3.7,2.8,1024,1024,1024,1024,0,0,0,0,58,5.822,72.5,35.761156,P-GPS,,10.9
313800,2026-01-07 15:38:29,0.0,5,7.285,0.0,0.0,0.0,38.1,3.4,2.9,1024,1024,1024,1024,0,0,0,0,58,5.822,72.5,35.433072,P-GPS,,10.8
313900,2026-01-07 15:38:29,0.0,5,7.285,0.0,0.0,0.0,38.1,3.9,2.5,1024,1024,1024,1024,0,0,0,0,58,5.822,72.5,35.433072,P-GPS,,10.8
314000,2026-01-07 15:38:29,0.0,5,7.329,0.0,0.0,0.0,38.2,3.8,2.3,1024,1024,1024,1024,0,0,0,0,58,4.708,72.5,35.433072,P-GPS,,10.8
314100,2026-01-07 15:38:29,0.0,5,7.329,0.0,0.0,0.0,38.2,3.7,2.2,1024,1024,1024,1024,0,0,0,0,58,4.708,72.5,35.433072,P-GPS,,10.8
314200,2026-01-07 15:38:29,0.0,5,7.329,0.0,0.0,0.0,38.2,3.6,2.2,1024,1024,1024,1024,0,0,0,0,58,4.708,72.5,35.433072,P-GPS,,10.8
314300,2026-01-07 15:38:29,0.0,5,7.329,0.0,0.0,0.0,38.2,3.5,2.1,1024,1024,1024,1024,0,0,0,0,58,4.708,72.5,35.433072,P-GPS,,10.8
314400,2026-01-07 15:38:29,0.0,5,7.329,0.0,0.0,0.0,38.1,3.0,1.1,1024,1024,1024,1024,0,0,0,0,58,4.708,72.5,35.104988,P-GPS,,10.7
314500,2026-01-07 15:38:29,0.0,5,7.329,0.0,0.0,0.0,38.0,2.2,1.2,1024,1024,1024,1024,0,0,0,0,58,4.708,72.5,35.104988,P-GPS,,10.7
314600,2026-01-07 15:38:30,0.0,5,7.329,0.0,0.0,0.0,38.1,2.2,1.3,1024,1024,1024,1024,0,0,0,0,58,4.708,72.5,35.104988,P-GPS,,10.7
314700,2026-01-07 15:38:30,0.0,5,7.329,0.0,0.0,0.0,38.0,2.6,1.2,1024,1024,1024,1024,0,0,0,0,58,4.708,72.5,35.104988,P-GPS,,10.7
314800,2026-01-07 15:38:30,0.0,5,7.329,0.0,0.0,0.0,37.9,2.7,1.2,1024,1024,1024,1024,0,0,0,0,58,4.708,72.5,35.104988,P-GPS,,10.7
314900,2026-01-07 15:38:30,0.0,5,7.329,0.0,0.0,0.0,38.0,3.1,1.7,1024,1024,1024,1024,0,0,0,0,58,4.708,72.5,35.104988,P-GPS,,10.7
315000,2026-01-07 15:38:30,0.0,5,7.329,0.0,0.0,0.0,38.0,3.8,1.9,1024,1024,1024,1024,0,0,0,0,58,4.708,72.5,35.104988,P-GPS,,10.7
315100,2026-01-07 15:38:30,0.0,5,7.319,0.0,0.0,0.0,38.1,4.0,2.1,1024,1024,1024,1024,0,0,0,0,58,5.098,72.5,35.104988,P-GPS,,10.7
315200,2026-01-07 15:38:30,0.0,5,7.319,0.0,0.0,0.0,38.2,4.2,2.1,1024,1024,1024,1024,0,0,0,0,58,5.098,72.5,35.104988,P-GPS,,10.7
315300,2026-01-07 15:38:30,0.0,5,7.319,0.0,0.0,0.0,38.2,4.1,2.1,1024,1024,1024,1024,0,0,0,0,58,5.098,72.5,35.104988,P-GPS,,10.7
315400,2026-01-07 15:38:30,0.0,5,7.319,0.0,0.0,0.0,38.2,4.2,2.1,1024,1024,1024,1024,0,0,0,0,58,5.098,72.5,35.104988,P-GPS,,10.7
315500,2026-01-07 15:38:30,0.0,5,7.319,0.0,0.0,0.0,38.2,3.9,2.0,1024,1024,1024,1024,0,0,0,0,58,5.098,72.5,35.104988,P-GPS,,10.7
315600,2026-01-07 15:38:31,0.0,5,7.319,0.0,0.0,0.0,38.3,3.8,2.1,1024,1024,1024,1024,0,0,0,0,58,5.098,72.5,35.104988,P-GPS,,10.7
315700,2026-01-07 15:38:31,0.0,5,7.319,0.0,0.0,0.0,38.3,3.8,2.3,1024,1024,1024,1024,0,0,0,0,58,5.098,72.5,35.104988,P-GPS,,10.7
315800,2026-01-07 15:38:31,0.0,5,7.319,0.0,0.0,0.0,38.2,3.7,2.4,1024,1024,1024,1024,0,0,0,0,58,5.098,72.5,35.104988,P-GPS,,10.7
315900,2026-01-07 15:38:31,0.0,5,7.319,0.0,0.0,0.0,38.1,3.5,2.7,1024,1024,1024,1024,0,0,0,0,58,5.098,72.5,35.104988,P-GPS,,10.7
316000,2026-01-07 15:38:31,0.0,5,7.319,0.0,0.0,0.0,38.1,3.2,2.5,1024,1024,1024,1024,0,0,0,0,58,5.098,72.5,35.104988,P-GPS,,10.7
316100,2026-01-07 15:38:31,0.0,5,7.319,0.0,0.0,0.0,38.1,3.6,2.6,1024,1024,1024,1024,0,0,0,0,58,5.098,72.5,35.104988,P-GPS,,10.7
316200,2026-01-07 15:38:31,0.0,5,7.327,0.0,0.0,0.0,38.2,3.6,2.9,1024,1024,1024,1024,0,0,0,0,58,4.884,72.5,35.433072,P-GPS,,10.8
316300,2026-01-07 15:38:31,0.0,5,7.327,0.0,0.0,0.0,38.2,3.8,3.0,1024,1024,1024,1024,0,0,0,0,58,4.884,72.5,35.433072,P-GPS,,10.8
316400,2026-01-07 15:38:31,0.0,5,7.327,0.0,0.0,0.0,38.1,3.7,3.0,1024,1024,1024,1024,0,0,0,0,58,4.884,72.5,35.433072,P-GPS,,10.8
316500,2026-01-07 15:38:31,0.0,5,7.327,0.0,0.0,0.0,38.1,3.8,2.9,1024,1024,1024,1024,0,0,0,0,58,4.884,72.5,35.433072,P-GPS,,10.8
316600,2026-01-07 15:38:32,0.0,5,7.327,0.0,0.0,0.0,38.1,4.0,2.7,1024,1024,1024,1024,0,0,0,0,58,4.884,72.5,35.433072,P-GPS,,10.8
316700,2026-01-07 15:38:32,0.0,5,7.327,0.0,0.0,0.0,38.2,3.8,2.6,1024,1024,1024,1024,0,0,0,0,58,4.884,72.5,35.433072,P-GPS,,10.8
316800,2026-01-07 15:38:32,0.0,5,7.327,0.0,0.0,0.0,38.2,3.8,2.5,1024,1024,1024,1024,0,0,0,0,58,4.884,72.5,35.433072,P-GPS,,10.8
316900,2026-01-07 15:38:32,0.0,5,7.327,0.0,0.0,0.0,38.2,4.0,2.4,1024,1024,1024,1024,0,0,0,0,58,4.884,72.5,35.433072,P-GPS,,10.8
317000,2026-01-07 15:38:32,0.0,5,7.327,0.0,0.0,0.0,38.2,3.9,2.5,1024,1024,1024,1024,0,0,0,0,58,4.884,72.5,35.433072,P-GPS,,10.8
317100,2026-01-07 15:38:32,0.0,5,7.327,0.0,0.0,0.0,38.2,3.8,2.6,1024,1024,1024,1024,0,0,0,0,58,4.884,72.5,35.433072,P-GPS,,10.8
317200,2026-01-07 15:38:32,0.0,5,7.327,0.0,0.0,0.0,38.2,3.9,2.4,1024,1024,1024,1024,0,0,0,0,58,4.884,72.5,35.433072,P-GPS,,10.8
317300,2026-01-07 15:38:32,0.0,5,7.326,0.0,0.0,0.0,38.2,3.6,2.5,1024,1024,1024,1024,0,0,0,0,58,4.778,72.5,35.433072,P-GPS,,10.8
317400,2026-01-07 15:38:32,0.0,5,7.326,0.0,0.0,0.0,38.2,3.6,2.3,1024,1024,1024,1024,0,0,0,0,58,4.778,72.5,35.433072,P-GPS,,10.8
317500,2026-01-07 15:38:32,0.0,5,7.326,0.0,0.0,0.0,38.1,3.3,2.4,1024,1024,1024,1024,0,0,0,0,58,4.778,72.5,35.433072,P-GPS,,10.8
317600,2026-01-07 15:38:33,0.0,5,7.326,0.0,0.0,0.0,38.1,3.7,2.2,1024,1024,1024,1024,0,0,0,0,58,4.778,72.5,35.433072,P-GPS,,10.8
317700,2026-01-07 15:38:33,0.0,5,7.326,0.0,0.0,0.0,38.1,3.9,2.3,1024,1024,1024,1024,0,0,0,0,58,4.778,72.5,35.433072,P-GPS,,10.8
317800,2026-01-07 15:38:33,0.0,5,7.326,0.0,0.0,0.0,38.1,3.8,2.5,1024,1024,1024,1024,0,0,0,0,58,4.778,72.5,35.433072,P-GPS,,10.8
317900,2026-01-07 15:38:33,0.0,5,7.326,0.0,0.0,0.0,38.1,3.6,2.7,1024,1024,1024,1024,0,0,0,0,58,4.778,72.5,35.433072,P-GPS,,10.8
318000,2026-01-07 15:38:33,0.0,5,7.326,0.0,0.0,0.0,38.1,3.7,2.8,1024,1024,1024,1024,0,0,0,0,58,4.778,72.5,35.433072,P-GPS,,10.8
318100,2026-01-07 15:38:33,0.0,5,7.326,0.0,0.0,0.0,38.1,3.9,2.7,1024,1024,1024,1024,0,0,0,0,58,4.778,72.5,35.433072,P-GPS,,10.8
318200,2026-01-07 15:38:33,0.0,5,7.326,0.0,0.0,0.0,38.1,4.4,2.6,1024,1024,1024,1024,0,0,0,0,58,4.778,72.5,35.433072,P-GPS,,10.8
318300,2026-01-07 15:38:33,0.0,5,7.326,0.0,0.0,0.0,38.0,3.9,1.8,1024,1024,1024,1024,0,0,0,0,58,4.778,72.5,35.433072,P-GPS,,10.8
318400,2026-01-07 15:38:33,0.0,5,7.322,0.0,0.0,0.0,37.8,2.7,2.1,1024,1024,1024,1024,0,0,0,0,58,4.801,72.68,35.433072,P-GPS,,10.8
318500,2026-01-07 15:38:34,0.0,5,7.322,0.0,0.0,0.0,37.9,3.1,2.6,1024,1024,1024,1024,0,0,0,0,58,4.801,72.68,35.433072,P-GPS,,10.8
318600,2026-01-07 15:38:34,0.0,5,7.322,0.0,0.0,0.0,38.2,4.5,1.8,1024,1024,1024,1024,0,0,0,0,58,4.801,72.68,35.433072,P-GPS,,10.8
318700,2026-01-07 15:38:34,0.0,5,7.322,0.0,0.0,0.0,38.2,4.9,1.4,1024,1024,1024,1024,0,0,0,0,58,4.801,72.68,35.433072,P-GPS,,10.8
318800,2026-01-07 15:38:34,0.0,5,7.322,0.0,0.0,0.0,38.2,4.6,1.8,1024,1024,1024,1024,0,0,0,0,58,4.801,72.68,35.433072,P-GPS,,10.8
318900,2026-01-07 15:38:34,0.0,5,7.322,0.0,0.0,0.0,38.2,4.2,2.2,1024,1024,1024,1024,0,0,0,0,58,4.801,72.68,35.104988,P-GPS,,10.7
319000,2026-01-07 15:38:34,0.0,5,7.322,0.0,0.0,0.0,38.2,4.1,2.2,1024,1024,1024,1024,0,0,0,0,58,4.801,72.68,35.104988,P-GPS,,10.7
319100,2026-01-07 15:38:34,0.0,5,7.322,0.0,0.0,0.0,38.1,3.8,2.3,1024,1024,1024,1024,0,0,0,0,58,4.801,72.68,35.104988,P-GPS,,10.7
319200,2026-01-07 15:38:34,0.0,5,7.322,0.0,0.0,0.0,38.1,3.5,2.5,1024,1024,1024,1024,0,0,0,0,58,4.801,72.68,35.104988,P-GPS,,10.7
319300,2026-01-07 15:38:34,0.0,5,7.322,0.0,0.0,0.0,38.1,3.6,2.6,1024,1024,1024,1024,0,0,0,0,58,4.801,72.68,35.104988,P-GPS,,10.7
319400,2026-01-07 15:38:34,0.0,5,7.322,0.0,0.0,0.0,38.2,3.9,2.7,1024,1024,1024,1024,0,0,0,0,58,4.801,72.68,35.104988,P-GPS,,10.7
319500,2026-01-07 15:38:34,0.0,5,7.305,0.0,0.0,0.0,38.3,4.5,2.4,1024,1024,1024,1024,0,0,0,0,58,5.139,72.68,35.104988,P-GPS,,10.7
319600,2026-01-07 15:38:35,0.0,5,7.305,0.0,0.0,0.0,38.2,4.5,2.3,1024,1024,1024,1024,0,0,0,0,58,5.139,72.68,35.104988,P-GPS,,10.7
319700,2026-01-07 15:38:35,0.0,5,7.305,0.0,0.0,0.0,38.2,4.1,2.4,1024,1024,1024,1024,0,0,0,0,58,5.139,72.68,35.104988,P-GPS,,10.7
319800,2026-01-07 15:38:35,0.0,5,7.305,0.0,0.0,0.0,38.3,4.4,2.4,1024,1024,1024,1024,0,0,0,0,58,5.139,72.68,35.104988,P-GPS,,10.7
319900,2026-01-07 15:38:35,0.0,5,7.305,0.0,0.0,0.0,38.3,4.5,2.3,1024,1024,1024,1024,0,0,0,0,58,5.139,72.68,35.104988,P-GPS,,10.7
320000,2026-01-07 15:38:35,0.0,5,7.305,0.0,0.0,0.0,38.3,4.9,1.8,1024,1024,1024,1024,0,0,0,0,58,5.139,72.68,35.104988,P-GPS,,10.7
320100,2026-01-07 15:38:35,0.0,5,7.305,0.0,0.0,0.0,38.2,4.8,1.5,1024,1024,1024,1024,0,0,0,0,58,5.139,72.68,35.104988,P-GPS,,10.7
320200,2026-01-07 15:38:35,0.0,5,7.305,0.0,0.0,0.0,38.2,4.6,1.5,1024,1024,1024,1024,0,0,0,0,58,5.139,72.68,35.104988,P-GPS,,10.7
320300,2026-01-07 15:38:35,0.0,5,7.305,0.0,0.0,0.0,38.2,4.4,1.7,1024,1024,1024,1024,0,0,0,0,58,5.139,72.68,35.104988,P-GPS,,10.7
320400,2026-01-07 15:38:35,0.0,5,7.305,0.0,0.0,0.0,38.2,4.5,1.8,1024,1024,1024,1024,0,0,0,0,58,5.139,72.68,35.104988,P-GPS,,10.7
320500,2026-01-07 15:38:36,0.0,5,7.305,0.0,0.0,0.0,38.3,4.3,1.6,1024,1024,1024,1024,0,0,0,0,58,5.139,72.68,35.104988,P-GPS,,10.7
320600,2026-01-07 15:38:36,0.0,5,7.306,0.0,0.0,0.0,38.3,4.0,1.7,1024,1024,1024,1024,0,0,0,0,58,5.102,72.68,35.104988,P-GPS,,10.7
320700,2026-01-07 15:38:36,0.0,5,7.306,0.0,0.0,0.0,38.3,3.7,1.8,1024,1024,1024,1024,0,0,0,0,58,5.102,72.68,35.104988,P-GPS,,10.7
320800,2026-01-07 15:38:36,0.0,5,7.306,0.0,0.0,0.0,38.3,3.5,1.5,1024,1024,1024,1024,0,0,0,0,58,5.102,72.68,35.104988,P-GPS,,10.7
320900,2026-01-07 15:38:36,0.0,5,7.306,0.0,0.0,0.0,38.3,3.3,1.2,1024,1024,1024,1024,0,0,0,0,58,5.102,72.68,35.104988,P-GPS,,10.7
321000,2026-01-07 15:38:36,0.0,5,7.306,0.0,0.0,0.0,38.2,3.3,0.6,1024,1024,1024,1024,0,0,0,0,58,5.102,72.68,35.104988,P-GPS,,10.7
321100,2026-01-07 15:38:36,0.0,5,7.306,0.0,0.0,0.0,38.1,3.0,0.6,1024,1024,1024,1024,0,0,0,0,58,5.102,72.68,35.104988,P-GPS,,10.7
321200,2026-01-07 15:38:36,0.0,5,7.306,0.0,0.0,0.0,38.0,2.7,1.3,1024,1024,1024,1024,0,0,0,0,58,5.102,72.68,35.104988,P-GPS,,10.7
321300,2026-01-07 15:38:36,0.0,5,7.306,0.0,0.0,0.0,37.8,2.3,2.2,1024,1024,1024,1024,0,0,0,0,58,5.102,72.68,35.104988,P-GPS,,10.7
321400,2026-01-07 15:38:36,0.0,5,7.306,0.0,0.0,0.0,37.7,1.9,2.8,1024,1024,1024,1024,0,0,0,0,58,5.102,72.68,35.104988,P-GPS,,10.7
321500,2026-01-07 15:38:36,0.0,5,7.306,0.0,0.0,0.0,37.7,2.3,2.6,1024,1024,1024,1024,0,0,0,0,58,5.102,72.68,35.104988,P-GPS,,10.7
321600,2026-01-07 15:38:37,0.0,5,7.306,0.0,0.0,0.0,37.8,2.9,2.0,1024,1024,1024,1024,0,0,0,0,58,5.102,72.68,35.104988,P-GPS,,10.7
321700,2026-01-07 15:38:37,0.0,5,7.302,0.0,0.0,0.0,37.8,3.5,1.8,1024,1024,1024,1024,0,0,0,0,57,5.039,72.68,35.104988,P-GPS,,10.7
321800,2026-01-07 15:38:37,0.0,5,7.302,0.0,0.0,0.0,38.0,3.7,2.2,1024,1024,1024,1024,0,0,0,0,57,5.039,72.68,35.104988,P-GPS,,10.7
321900,2026-01-07 15:38:37,0.0,5,7.302,0.0,0.0,0.0,38.2,4.5,2.4,1024,1024,1024,1024,0,0,0,0,57,5.039,72.68,35.104988,P-GPS,,10.7
322000,2026-01-07 15:38:37,0.0,5,7.302,0.0,0.0,0.0,38.4,4.9,2.0,1024,1024,1024,1024,0,0,0,0,57,5.039,72.68,35.104988,P-GPS,,10.7
322100,2026-01-07 15:38:37,0.0,5,7.302,0.0,0.0,0.0,38.5,5.0,1.6,1024,1024,1024,1024,0,0,0,0,57,5.039,72.68,35.104988,P-GPS,,10.7
322200,2026-01-07 15:38:37,0.0,5,7.302,0.0,0.0,0.0,38.5,4.8,1.0,1024,1024,1024,1024,0,0,0,0,57,5.039,72.68,35.104988,P-GPS,,10.7
322300,2026-01-07 15:38:37,0.0,5,7.302,0.0,0.0,0.0,38.2,4.3,0.3,1024,1024,1024,1024,0,0,0,0,57,5.039,72.68,35.104988,P-GPS,,10.7
322400,2026-01-07 15:38:37,0.0,5,7.302,0.0,0.0,0.0,38.1,4.0,0.5,1024,1024,1024,1024,0,0,0,0,57,5.039,72.68,35.104988,P-GPS,,10.7
322500,2026-01-07 15:38:37,0.0,5,7.302,0.0,0.0,0.0,38.3,3.8,0.7,1024,1024,1024,1024,0,0,0,0,57,5.039,72.68,35.104988,P-GPS,,10.7
322600,2026-01-07 15:38:38,0.0,5,7.302,0.0,0.0,0.0,38.2,3.6,0.4,1024,1024,1024,1024,0,0,0,0,57,5.039,72.68,35.104988,P-GPS,,10.7
322700,2026-01-07 15:38:38,0.0,5,7.302,0.0,0.0,0.0,38.1,3.5,0.8,1024,1024,1024,1024,0,0,0,0,57,5.039,72.68,35.104988,P-GPS,,10.7
322800,2026-01-07 15:38:38,0.0,5,7.302,0.0,0.0,0.0,38.1,2.9,1.6,1024,1024,1024,1024,0,0,0,0,57,5.039,72.68,35.104988,P-GPS,,10.7
322900,2026-01-07 15:38:38,0.0,5,7.302,0.0,0.0,0.0,38.1,2.6,2.0,1024,1024,1024,1024,0,0,0,0,57,5.039,72.68,35.104988,P-GPS,,10.7
323000,2026-01-07 15:38:38,0.0,5,7.302,0.0,0.0,0.0,38.1,2.7,2.1,1024,1024,1024,1024,0,0,0,0,57,5.039,72.68,35.104988,P-GPS,,10.7
323100,2026-01-07 15:38:38,0.0,5,7.302,0.0,0.0,0.0,38.1,2.5,2.2,1024,1024,1024,1024,0,0,0,0,57,5.039,72.68,35.104988,P-GPS,,10.7
323200,2026-01-07 15:38:38,0.0,5,7.302,0.0,0.0,0.0,38.1,2.4,2.2,1024,1024,1024,1024,0,0,0,0,57,5.039,72.68,35.433072,P-GPS,,10.8
323300,2026-01-07 15:38:38,0.0,5,7.302,0.0,0.0,0.0,38.1,2.5,2.0,1024,1024,1024,1024,0,0,0,0,57,5.039,72.68,35.433072,P-GPS,,10.8
323400,2026-01-07 15:38:38,0.0,5,7.302,0.0,0.0,0.0,38.2,2.6,2.1,1024,1024,1024,1024,0,0,0,0,57,5.039,72.68,35.433072,P-GPS,,10.8
323500,2026-01-07 15:38:38,0.0,5,7.302,0.0,0.0,0.0,38.3,2.4,2.0,1024,1024,1024,1024,0,0,0,0,57,5.039,72.68,35.433072,P-GPS,,10.8
323600,2026-01-07 15:38:39,0.0,5,7.302,0.0,0.0,0.0,38.2,2.5,2.1,1024,1024,1024,1024,0,0,0,0,57,5.039,72.68,35.433072,P-GPS,,10.8
323700,2026-01-07 15:38:39,0.0,5,7.302,0.0,0.0,0.0,38.1,2.5,2.2,1024,1024,1024,1024,0,0,0,0,57,5.039,72.68,35.433072,P-GPS,,10.8
323800,2026-01-07 15:38:39,0.0,5,7.302,0.0,0.0,0.0,38.2,2.3,2.3,1024,1024,1024,1024,0,0,0,0,57,5.039,72.68,35.433072,P-GPS,,10.8
323900,2026-01-07 15:38:39,0.0,5,7.312,0.0,0.0,0.0,38.2,2.2,2.2,1024,1024,1024,1024,0,0,0,0,57,4.826,72.68,35.433072,P-GPS,,10.8
324000,2026-01-07 15:38:39,0.0,5,7.312,0.0,0.0,0.0,38.1,2.1,2.0,1024,1024,1024,1024,0,0,0,0,57,4.826,72.68,35.433072,P-GPS,,10.8
324100,2026-01-07 15:38:39,0.0,5,7.312,0.0,0.0,0.0,38.1,2.2,1.9,1024,1024,1024,1024,0,0,0,0,57,4.826,72.68,35.433072,P-GPS,,10.8
324200,2026-01-07 15:38:39,0.0,5,7.312,0.0,0.0,0.0,38.2,2.2,1.7,1024,1024,1024,1024,0,0,0,0,57,4.826,72.68,35.433072,P-GPS,,10.8
324300,2026-01-07 15:38:39,0.0,5,7.312,0.0,0.0,0.0,38.1,2.3,1.7,1024,1024,1024,1024,0,0,0,0,57,4.826,72.68,35.433072,P-GPS,,10.8
324400,2026-01-07 15:38:39,0.0,5,7.312,0.0,0.0,0.0,38.2,2.1,1.8,1024,1024,1024,1024,0,0,0,0,57,4.826,72.68,35.433072,P-GPS,,10.8
324500,2026-01-07 15:38:39,0.0,5,7.312,0.0,0.0,0.0,38.1,1.9,1.9,1024,1024,1024,1024,0,0,0,0,57,4.826,72.68,35.433072,P-GPS,,10.8
324600,2026-01-07 15:38:40,0.0,5,7.312,0.0,0.0,0.0,38.2,1.9,1.9,1024,1024,1024,1024,0,0,0,0,57,4.826,72.68,35.433072,P-GPS,,10.8
324700,2026-01-07 15:38:40,0.0,5,7.312,0.0,0.0,0.0,38.2,1.8,1.9,1024,1024,1024,1024,0,0,0,0,57,4.826,72.68,35.433072,P-GPS,,10.8
324800,2026-01-07 15:38:40,0.0,5,7.312,0.0,0.0,0.0,38.1,1.7,1.8,1024,1024,1024,1024,0,0,0,0,57,4.826,72.68,35.433072,P-GPS,,10.8
324900,2026-01-07 15:38:40,0.0,5,7.312,0.0,0.0,0.0,38.1,1.7,1.8,1024,1024,1024,1024,0,0,0,0,57,4.826,72.68,35.433072,P-GPS,,10.8
325000,2026-01-07 15:38:40,0.0,5,7.307,0.0,0.0,0.0,38.1,1.8,1.9,1024,1024,1024,1024,0,0,0,0,57,4.848,72.68,35.433072,P-GPS,,10.8
325100,2026-01-07 15:38:40,0.0,5,7.307,0.0,0.0,0.0,38.1,1.9,1.9,1024,1024,1024,1024,0,0,0,0,57,4.848,72.68,35.433072,P-GPS,,10.8
325200,2026-01-07 15:38:40,0.0,5,7.307,0.0,0.0,0.0,38.1,1.9,1.7,1024,1024,1024,1024,0,0,0,0,57,4.848,72.68,35.433072,P-GPS,,10.8
325300,2026-01-07 15:38:40,0.0,5,7.307,0.0,0.0,0.0,38.2,2.1,1.6,1024,1024,1024,1024,0,0,0,0,57,4.848,72.68,35.433072,P-GPS,,10.8
325400,2026-01-07 15:38:40,0.0,5,7.307,0.0,0.0,0.0,38.2,2.2,1.4,1024,1024,1024,1024,0,0,0,0,57,4.848,72.68,35.433072,P-GPS,,10.8
325500,2026-01-07 15:38:40,0.0,5,7.307,0.0,0.0,0.0,38.2,2.2,1.2,1024,1024,1024,1024,0,0,0,0,57,4.848,72.68,35.433072,P-GPS,,10.8
325600,2026-01-07 15:38:41,0.0,5,7.307,0.0,0.0,0.0,38.2,2.4,1.0,1024,1024,1024,1024,0,0,0,0,57,4.848,72.68,35.433072,P-GPS,,10.8
325700,2026-01-07 15:38:41,0.0,5,7.307,0.0,0.0,0.0,38.2,2.3,1.0,1024,1024,1024,1024,0,0,0,0,57,4.848,72.68,35.433072,P-GPS,,10.8
325800,2026-01-07 15:38:41,0.0,5,7.307,0.0,0.0,0.0,38.2,2.3,1.1,1024,1024,1024,1024,0,0,0,0,57,4.848,72.68,35.433072,P-GPS,,10.8
325900,2026-01-07 15:38:41,0.0,5,7.307,0.0,0.0,0.0,38.1,2.2,1.3,1024,1024,1024,1024,0,0,0,0,57,4.848,72.68,35.433072,P-GPS,,10.8
326000,2026-01-07 15:38:41,0.0,5,7.307,0.0,0.0,0.0,38.0,2.1,1.4,1024,1024,1024,1024,0,0,0,0,57,4.848,72.68,35.433072,P-GPS,,10.8
326100,2026-01-07 15:38:41,0.0,5,7.306,0.0,0.0,0.0,38.0,2.0,1.5,1024,1024,1024,1024,0,0,0,0,57,4.86,72.68,35.433072,P-GPS,,10.8
326200,2026-01-07 15:38:41,0.0,5,7.306,0.0,0.0,0.0,38.1,2.0,1.6,1024,1024,1024,1024,0,0,0,0,57,4.86,72.68,35.433072,P-GPS,,10.8
326300,2026-01-07 15:38:41,0.0,5,7.306,0.0,0.0,0.0,38.2,2.0,1.6,1024,1024,1024,1024,0,0,0,0,57,4.86,72.68,35.433072,P-GPS,,10.8
326400,2026-01-07 15:38:41,0.0,5,7.306,0.0,0.0,0.0,38.2,2.0,1.4,1024,1024,1024,1024,0,0,0,0,57,4.86,72.68,35.433072,P-GPS,,10.8
326500,2026-01-07 15:38:41,0.0,5,7.306,0.0,0.0,0.0,38.2,2.1,1.2,1024,1024,1024,1024,0,0,0,0,57,4.86,72.68,35.433072,P-GPS,,10.8
326600,2026-01-07 15:38:42,0.0,5,7.306,0.0,0.0,0.0,38.1,2.2,1.1,1024,1024,1024,1024,0,0,0,0,57,4.86,72.68,35.433072,P-GPS,,10.8
326700,2026-01-07 15:38:42,0.0,5,7.306,0.0,0.0,0.0,38.1,2.3,0.9,1024,1024,1024,1024,0,0,0,0,57,4.86,72.68,35.433072,P-GPS,,10.8
326800,2026-01-07 15:38:42,0.0,5,7.306,0.0,0.0,0.0,38.1,2.3,0.8,1024,1024,1024,1024,0,0,0,0,57,4.86,72.68,35.433072,P-GPS,,10.8
326900,2026-01-07 15:38:42,0.0,5,7.306,0.0,0.0,0.0,38.1,2.1,0.7,1024,1024,1024,1024,0,0,0,0,57,4.86,72.68,35.433072,P-GPS,,10.8
327000,2026-01-07 15:38:42,0.0,5,7.306,0.0,0.0,0.0,38.1,2.1,0.9,1024,1024,1024,1024,0,0,0,0,57,4.86,72.68,35.433072,P-GPS,,10.8
327100,2026-01-07 15:38:42,0.0,5,7.306,0.0,0.0,0.0,38.0,2.1,1.2,1024,1024,1024,1024,0,0,0,0,57,4.86,72.68,35.433072,P-GPS,,10.8
327200,2026-01-07 15:38:42,0.0,5,7.308,0.0,0.0,0.0,38.1,2.2,1.5,1024,1024,1024,1024,0,0,0,0,57,4.772,72.86,35.433072,P-GPS,,10.8
327300,2026-01-07 15:38:42,0.0,5,7.308,0.0,0.0,0.0,38.1,2.3,1.6,1024,1024,1024,1024,0,0,0,0,57,4.772,72.86,35.433072,P-GPS,,10.8
327400,2026-01-07 15:38:42,0.0,5,7.308,0.0,0.0,0.0,38.2,2.5,1.3,1024,1024,1024,1024,0,0,0,0,57,4.772,72.86,35.433072,P-GPS,,10.8
327500,2026-01-07 15:38:42,0.0,5,7.308,0.0,0.0,0.0,38.2,2.7,1.0,1024,1024,1024,1024,0,0,0,0,57,4.772,72.86,35.433072,P-GPS,,10.8
327600,2026-01-07 15:38:43,0.0,5,7.308,0.0,0.0,0.0,38.2,3.0,0.8,1024,1024,1024,1024,0,0,0,0,57,4.772,72.86,35.433072,P-GPS,,10.8
327700,2026-01-07 15:38:43,0.0,5,7.308,0.0,0.0,0.0,38.3,2.9,0.7,1024,1024,1024,1024,0,0,0,0,57,4.772,72.86,35.433072,P-GPS,,10.8
327800,2026-01-07 15:38:43,0.0,5,7.308,0.0,0.0,0.0,38.2,2.7,0.4,1024,1024,1024,1024,0,0,0,0,57,4.772,72.86,35.761156,P-GPS,,10.9
327900,2026-01-07 15:38:43,0.0,5,7.308,0.0,0.0,0.0,38.3,2.6,0.5,1024,1024,1024,1024,0,0,0,0,57,4.772,72.86,35.761156,P-GPS,,10.9
328000,2026-01-07 15:38:43,0.0,5,7.308,0.0,0.0,0.0,38.3,2.6,0.5,1024,1024,1024,1024,0,0,0,0,57,4.772,72.86,35.761156,P-GPS,,10.9
328100,2026-01-07 15:38:43,0.0,5,7.308,0.0,0.0,0.0,38.2,2.7,0.3,1024,1024,1024,1024,0,0,0,0,57,4.772,72.86,35.761156,P-GPS,,10.9
328200,2026-01-07 15:38:43,0.0,5,7.308,0.0,0.0,0.0,38.1,2.6,0.4,1024,1024,1024,1024,0,0,0,0,57,4.772,72.86,35.761156,P-GPS,,10.9
328300,2026-01-07 15:38:43,0.0,5,7.303,0.0,0.0,0.0,38.0,2.2,0.7,1024,1024,1024,1024,0,0,0,0,57,4.805,72.86,35.761156,P-GPS,,10.9
328400,2026-01-07 15:38:43,0.0,5,7.303,0.0,0.0,0.0,38.0,2.0,1.1,1024,1024,1024,1024,0,0,0,0,57,4.805,72.86,35.761156,P-GPS,,10.9
328500,2026-01-07 15:38:43,0.0,5,7.303,0.0,0.0,0.0,38.0,2.0,1.3,1024,1024,1024,1024,0,0,0,0,57,4.805,72.86,35.761156,P-GPS,,10.9
328600,2026-01-07 15:38:44,0.0,5,7.303,0.0,0.0,0.0,38.0,1.9,1.4,1024,1024,1024,1024,0,0,0,0,57,4.805,72.86,35.761156,P-GPS,,10.9
328700,2026-01-07 15:38:44,0.0,5,7.303,0.0,0.0,0.0,38.1,1.9,1.2,1024,1024,1024,1024,0,0,0,0,57,4.805,72.86,35.761156,P-GPS,,10.9
328800,2026-01-07 15:38:44,0.0,5,7.303,0.0,0.0,0.0,38.1,1.7,1.1,1024,1024,1024,1024,0,0,0,0,57,4.805,72.86,35.761156,P-GPS,,10.9
328900,2026-01-07 15:38:44,0.0,5,7.303,0.0,0.0,0.0,38.2,1.7,0.9,1024,1024,1024,1024,0,0,0,0,57,4.805,72.86,35.761156,P-GPS,,10.9
329000,2026-01-07 15:38:44,0.0,5,7.303,0.0,0.0,0.0,38.2,1.8,0.7,1024,1024,1024,1024,0,0,0,0,57,4.805,72.86,35.761156,P-GPS,,10.9
329100,2026-01-07 15:38:44,0.0,5,7.303,0.0,0.0,0.0,38.3,1.8,0.8,1024,1024,1024,1024,0,0,0,0,57,4.805,72.86,35.761156,P-GPS,,10.9
329200,2026-01-07 15:38:44,0.0,5,7.303,0.0,0.0,0.0,38.2,1.8,0.6,1024,1024,1024,1024,0,0,0,0,57,4.805,72.86,35.761156,P-GPS,,10.9
329300,2026-01-07 15:38:44,0.0,5,7.303,0.0,0.0,0.0,38.2,1.9,0.4,1024,1024,1024,1024,0,0,0,0,57,4.805,72.86,35.761156,P-GPS,,10.9
329400,2026-01-07 15:38:44,0.0,5,7.305,0.0,0.0,0.0,38.2,1.9,0.7,1024,1024,1024,1024,0,0,0,0,57,4.831,72.86,35.761156,P-GPS,,10.9
329500,2026-01-07 15:38:44,0.0,5,7.305,0.0,0.0,0.0,38.2,1.9,0.9,1024,1024,1024,1024,0,0,0,0,57,4.831,72.86,35.761156,P-GPS,,10.9
329600,2026-01-07 15:38:45,0.0,5,7.305,0.0,0.0,0.0,38.2,2.0,0.8,1024,1024,1024,1024,0,0,0,0,57,4.831,72.86,35.761156,P-GPS,,10.9
329700,2026-01-07 15:38:45,0.0,5,7.305,0.0,0.0,0.0,38.2,2.2,0.8,1024,1024,1024,1024,0,0,0,0,57,4.831,72.86,35.761156,P-GPS,,10.9
329800,2026-01-07 15:38:45,0.0,5,7.305,0.0,0.0,0.0,38.1,2.3,0.8,1024,1024,1024,1024,0,0,0,0,57,4.831,72.86,35.761156,P-GPS,,10.9
329900,2026-01-07 15:38:45,0.0,5,7.305,0.0,0.0,0.0,38.1,2.3,1.0,1024,1024,1024,1024,0,0,0,0,57,4.831,72.86,35.761156,P-GPS,,10.9
330000,2026-01-07 15:38:45,0.0,5,7.305,0.0,0.0,0.0,38.1,2.1,1.2,1024,1024,1024,1024,0,0,0,0,57,4.831,72.86,35.761156,P-GPS,,10.9
330100,2026-01-07 15:38:45,0.0,5,7.305,0.0,0.0,0.0,38.1,2.0,1.5,1024,1024,1024,1024,0,0,0,0,57,4.831,72.86,35.761156,P-GPS,,10.9
330200,2026-01-07 15:38:45,0.0,5,7.305,0.0,0.0,0.0,38.1,1.9,1.6,1024,1024,1024,1024,0,0,0,0,57,4.831,72.86,35.761156,P-GPS,,10.9
330300,2026-01-07 15:38:45,0.0,5,7.305,0.0,0.0,0.0,38.1,2.0,1.6,1024,1024,1024,1024,0,0,0,0,57,4.831,72.86,35.761156,P-GPS,,10.9
330400,2026-01-07 15:38:45,0.0,5,7.305,0.0,0.0,0.0,38.1,2.1,1.4,1024,1024,1024,1024,0,0,0,0,57,4.831,72.86,35.761156,P-GPS,,10.9
330500,2026-01-07 15:38:45,0.0,5,7.302,0.0,0.0,0.0,38.1,2.3,1.1,1024,1024,1024,1024,0,0,0,0,57,4.858,72.86,35.761156,P-GPS,,10.9
330600,2026-01-07 15:38:46,0.0,5,7.302,0.0,0.0,0.0,38.2,2.4,0.9,1024,1024,1024,1024,0,0,0,0,57,4.858,72.86,35.761156,P-GPS,,10.9
330700,2026-01-07 15:38:46,0.0,5,7.302,0.0,0.0,0.0,38.2,2.2,0.7,1024,1024,1024,1024,0,0,0,0,57,4.858,72.86,35.761156,P-GPS,,10.9
330800,2026-01-07 15:38:46,0.0,5,7.302,0.0,0.0,0.0,38.1,2.1,0.6,1024,1024,1024,1024,0,0,0,0,57,4.858,72.86,35.761156,P-GPS,,10.9
330900,2026-01-07 15:38:46,0.0,5,7.302,0.0,0.0,0.0,38.1,2.1,0.6,1024,1024,1024,1024,0,0,0,0,57,4.858,72.86,35.761156,P-GPS,,10.9
331000,2026-01-07 15:38:46,0.0,5,7.302,0.0,0.0,0.0,38.1,2.0,0.8,1024,1024,1024,1024,0,0,0,0,57,4.858,72.86,35.761156,P-GPS,,10.9
331100,2026-01-07 15:38:46,0.0,5,7.302,0.0,0.0,0.0,38.2,1.9,0.7,1024,1024,1024,1024,0,0,0,0,57,4.858,72.86,35.761156,P-GPS,,10.9
331200,2026-01-07 15:38:46,0.0,5,7.302,0.0,0.0,0.0,38.2,1.9,0.7,1024,1024,1024,1024,0,0,0,0,57,4.858,72.86,35.761156,P-GPS,,10.9
331300,2026-01-07 15:38:46,0.0,5,7.302,0.0,0.0,0.0,38.2,1.8,0.7,1024,1024,1024,1024,0,0,0,0,57,4.858,72.86,35.761156,P-GPS,,10.9
331400,2026-01-07 15:38:46,0.0,5,7.302,0.0,0.0,0.0,38.2,1.9,0.7,1024,1024,1024,1024,0,0,0,0,57,4.858,72.86,35.761156,P-GPS,,10.9
331500,2026-01-07 15:38:47,0.0,5,7.302,0.0,0.0,0.0,38.1,1.9,0.6,1024,1024,1024,1024,0,0,0,0,57,4.858,72.86,35.761156,P-GPS,,10.9
331600,2026-01-07 15:38:47,0.0,5,7.297,0.0,0.0,0.0,38.1,1.9,0.5,1024,1024,1024,1024,0,0,0,0,57,4.884,72.86,35.761156,P-GPS,,10.9
331700,2026-01-07 15:38:47,0.0,5,7.297,0.0,0.0,0.0,38.0,1.8,0.6,1024,1024,1024,1024,0,0,0,0,57,4.884,72.86,35.761156,P-GPS,,10.9
331800,2026-01-07 15:38:47,0.0,5,7.297,0.0,0.0,0.0,38.0,1.9,0.8,1024,1024,1024,1024,0,0,0,0,57,4.884,72.86,35.761156,P-GPS,,10.9
331900,2026-01-07 15:38:47,0.0,5,7.297,0.0,0.0,0.0,38.0,1.8,1.0,1024,1024,1024,1024,0,0,0,0,57,4.884,72.86,35.761156,P-GPS,,10.9
332000,2026-01-07 15:38:47,0.0,5,7.297,0.0,0.0,0.0,38.1,1.9,0.9,1024,1024,1024,1024,0,0,0,0,57,4.884,72.86,35.761156,P-GPS,,10.9
332100,2026-01-07 15:38:47,0.0,5,7.297,0.0,0.0,0.0,38.1,1.9,0.9,1024,1024,1024,1024,0,0,0,0,57,4.884,72.86,35.761156,P-GPS,,10.9
332200,2026-01-07 15:38:47,0.0,5,7.297,0.0,0.0,0.0,38.1,2.0,0.7,1024,1024,1024,1024,0,0,0,0,57,4.884,72.86,35.761156,P-GPS,,10.9
332300,2026-01-07 15:38:47,0.0,5,7.297,0.0,0.0,0.0,38.1,2.1,0.5,1024,1024,1024,1024,0,0,0,0,57,4.884,72.86,35.761156,P-GPS,,10.9
332400,2026-01-07 15:38:47,0.0,5,7.297,0.0,0.0,0.0,38.1,2.0,0.7,1024,1024,1024,1024,0,0,0,0,57,4.884,72.86,35.761156,P-GPS,,10.9
332500,2026-01-07 15:38:47,0.0,5,7.297,0.0,0.0,0.0,38.1,2.0,1.4,1024,1024,1024,1024,0,0,0,0,57,4.884,72.86,35.761156,P-GPS,,10.9
332600,2026-01-07 15:38:48,0.0,5,7.297,0.0,0.0,0.0,38.0,2.2,1.4,1024,1024,1024,1024,0,0,0,0,57,4.884,72.86,35.761156,P-GPS,,10.9
332700,2026-01-07 15:38:48,0.0,5,7.3,0.0,0.0,0.0,37.9,2.6,1.0,1024,1024,1024,1024,0,0,0,0,57,4.864,72.86,35.761156,P-GPS,,10.9
332800,2026-01-07 15:38:48,0.0,5,7.3,0.0,0.0,0.0,37.9,2.6,1.2,1024,1024,1024,1024,0,0,0,0,57,4.864,72.86,35.761156,P-GPS,,10.9
332900,2026-01-07 15:38:48,0.0,5,7.3,0.0,0.0,0.0,37.9,2.5,1.7,1024,1024,1024,1024,0,0,0,0,57,4.864,72.86,35.761156,P-GPS,,10.9
333000,2026-01-07 15:38:48,0.0,5,7.3,0.0,0.0,0.0,38.0,2.3,2.1,1024,1024,1024,1024,0,0,0,0,57,4.864,72.86,35.761156,P-GPS,,10.9
333100,2026-01-07 15:38:48,0.0,5,7.3,0.0,0.0,0.0,38.0,2.5,2.0,1024,1024,1024,1024,0,0,0,0,57,4.864,72.86,36.08924,P-GPS,,11.0
333200,2026-01-07 15:38:48,0.0,5,7.3,0.0,0.0,0.0,38.1,2.7,2.0,1024,1024,1024,1024,0,0,0,0,57,4.864,72.86,36.08924,P-GPS,,11.0
333300,2026-01-07 15:38:48,0.0,5,7.3,0.0,0.0,0.0,38.0,3.0,2.1,1024,1024,1024,1024,0,0,0,0,57,4.864,72.86,36.08924,P-GPS,,11.0
333400,2026-01-07 15:38:48,0.0,5,7.3,0.0,0.0,0.0,38.1,3.3,1.9,1024,1024,1024,1024,0,0,0,0,57,4.864,72.86,36.08924,P-GPS,,11.0
333500,2026-01-07 15:38:48,0.0,5,7.3,0.0,0.0,0.0,38.1,3.4,1.9,1024,1024,1024,1024,0,0,0,0,57,4.864,72.86,36.08924,P-GPS,,11.0
333600,2026-01-07 15:38:49,0.0,5,7.3,0.0,0.0,0.0,38.1,3.3,1.8,1024,1024,1024,1024,0,0,0,0,57,4.864,72.86,36.08924,P-GPS,,11.0
333700,2026-01-07 15:38:49,0.0,5,7.3,0.0,0.0,0.0,38.1,3.1,1.7,1024,1024,1024,1024,0,0,0,0,57,4.864,72.86,36.08924,P-GPS,,11.0
333800,2026-01-07 15:38:49,0.0,5,7.3,0.0,0.0,0.0,38.1,2.9,1.6,1024,1024,1024,1024,0,0,0,0,57,4.864,72.86,36.08924,P-GPS,,11.0
333900,2026-01-07 15:38:49,0.0,5,7.3,0.0,0.0,0.0,38.1,2.9,1.6,1024,1024,1024,1024,0,0,0,0,57,4.864,72.86,36.08924,P-GPS,,11.0
334000,2026-01-07 15:38:49,0.0,5,7.3,0.0,0.0,0.0,38.1,2.8,1.8,1024,1024,1024,1024,0,0,0,0,57,4.864,72.86,36.08924,P-GPS,,11.0
334100,2026-01-07 15:38:49,0.0,5,7.3,0.0,0.0,0.0,38.1,2.6,2.0,1024,1024,1024,1024,0,0,0,0,57,4.864,72.86,36.08924,P-GPS,,11.0
334200,2026-01-07 15:38:49,0.0,5,7.3,0.0,0.0,0.0,38.1,2.6,2.0,1024,1024,1024,1024,0,0,0,0,57,4.864,72.86,35.761156,P-GPS,,10.9
334300,2026-01-07 15:38:49,0.0,5,7.3,0.0,0.0,0.0,38.1,2.6,1.8,1024,1024,1024,1024,0,0,0,0,57,4.864,72.86,35.761156,P-GPS,,10.9
334400,2026-01-07 15:38:49,0.0,5,7.3,0.0,0.0,0.0,38.1,2.6,1.9,1024,1024,1024,1024,0,0,0,0,57,4.864,72.86,35.761156,P-GPS,,10.9
334500,2026-01-07 15:38:49,0.0,5,7.3,0.0,0.0,0.0,38.1,2.6,1.9,1024,1024,1024,1024,0,0,0,0,57,4.864,72.86,35.761156,P-GPS,,10.9
334600,2026-01-07 15:38:50,0.0,5,7.3,0.0,0.0,0.0,38.1,2.7,2.1,1024,1024,1024,1024,0,0,0,0,57,4.864,72.86,35.761156,P-GPS,,10.9
334700,2026-01-07 15:38:50,0.0,5,7.3,0.0,0.0,0.0,38.1,2.7,2.3,1024,1024,1024,1024,0,0,0,0,57,4.864,72.86,35.761156,P-GPS,,10.9
334800,2026-01-07 15:38:50,0.0,5,7.3,0.0,0.0,0.0,38.1,2.8,2.3,1024,1024,1024,1024,0,0,0,0,57,4.864,72.86,35.761156,P-GPS,,10.9
334900,2026-01-07 15:38:50,0.0,5,7.294,0.0,0.0,0.0,38.0,2.7,2.2,1024,1024,1024,1024,0,0,0,0,57,4.863,72.86,35.761156,P-GPS,,10.9
335000,2026-01-07 15:38:50,0.0,5,7.294,0.0,0.0,0.0,38.0,2.7,2.2,1024,1024,1024,1024,0,0,0,0,57,4.863,72.86,35.761156,P-GPS,,10.9
335100,2026-01-07 15:38:50,0.0,5,7.294,0.0,0.0,0.0,38.0,2.7,2.2,1024,1024,1024,1024,0,0,0,0,57,4.863,72.86,35.761156,P-GPS,,10.9
335200,2026-01-07 15:38:50,0.0,5,7.294,0.0,0.0,0.0,38.0,2.8,2.2,1024,1024,1024,1024,0,0,0,0,57,4.863,72.86,35.761156,P-GPS,,10.9
335300,2026-01-07 15:38:50,0.0,5,7.294,0.0,0.0,0.0,38.1,2.8,2.0,1024,1024,1024,1024,0,0,0,0,57,4.863,72.86,35.761156,P-GPS,,10.9
335400,2026-01-07 15:38:50,0.0,5,7.294,0.0,0.0,0.0,38.1,3.0,2.0,1024,1024,1024,1024,0,0,0,0,57,4.863,72.86,36.08924,P-GPS,,11.0
335500,2026-01-07 15:38:50,0.0,5,7.294,0.0,0.0,0.0,38.1,3.0,1.9,1024,1024,1024,1024,0,0,0,0,57,4.863,72.86,36.08924,P-GPS,,11.0
335600,2026-01-07 15:38:51,0.0,5,7.294,0.0,0.0,0.0,38.2,2.9,1.9,1024,1024,1024,1024,0,0,0,0,57,4.863,72.86,36.08924,P-GPS,,11.0
335700,2026-01-07 15:38:51,0.0,5,7.294,0.0,0.0,0.0,38.2,2.8,1.9,1024,1024,1024,1024,0,0,0,0,57,4.863,72.86,36.08924,P-GPS,,11.0
335800,2026-01-07 15:38:51,0.0,5,7.294,0.0,0.0,0.0,38.1,2.8,1.8,1024,1024,1024,1024,0,0,0,0,57,4.863,72.86,36.08924,P-GPS,,11.0
335900,2026-01-07 15:38:51,0.0,5,7.294,0.0,0.0,0.0,38.1,2.7,1.8,1024,1024,1024,1024,0,0,0,0,57,4.863,72.86,36.08924,P-GPS,,11.0
336000,2026-01-07 15:38:51,0.0,5,7.294,0.0,0.0,0.0,38.0,2.8,1.8,1024,1024,1024,1024,0,0,0,0,57,4.876,73.04,36.08924,P-GPS,,11.0
336100,2026-01-07 15:38:51,0.0,5,7.294,0.0,0.0,0.0,38.0,2.8,1.9,1024,1024,1024,1024,0,0,0,0,57,4.876,73.04,36.08924,P-GPS,,11.0
336200,2026-01-07 15:38:51,0.0,5,7.294,0.0,0.0,0.0,38.1,2.6,1.9,1024,1024,1024,1024,0,0,0,0,57,4.876,73.04,36.08924,P-GPS,,11.0
336300,2026-01-07 15:38:51,0.0,5,7.294,0.0,0.0,0.0,38.1,2.6,1.9,1024,1024,1024,1024,0,0,0,0,57,4.876,73.04,36.08924,P-GPS,,11.0
336400,2026-01-07 15:38:51,0.0,5,7.294,0.0,0.0,0.0,38.1,2.4,1.9,1024,1024,1024,1024,0,0,0,0,57,4.876,73.04,36.08924,P-GPS,,11.0
336500,2026-01-07 15:38:52,0.0,5,7.294,0.0,0.0,0.0,38.1,2.3,2.0,1024,1024,1024,1024,0,0,0,0,57,4.876,73.04,36.08924,P-GPS,,11.0
336600,2026-01-07 15:38:52,0.0,5,7.294,0.0,0.0,0.0,38.0,2.4,1.9,1024,1024,1024,1024,0,0,0,0,57,4.876,73.04,36.08924,P-GPS,,11.0
336700,2026-01-07 15:38:52,0.0,5,7.294,0.0,0.0,0.0,38.0,2.5,1.8,1024,1024,1024,1024,0,0,0,0,57,4.876,73.04,36.08924,P-GPS,,11.0
336800,2026-01-07 15:38:52,0.0,5,7.294,0.0,0.0,0.0,38.0,2.7,1.5,1024,1024,1024,1024,0,0,0,0,57,4.876,73.04,36.08924,P-GPS,,11.0
336900,2026-01-07 15:38:52,0.0,5,7.294,0.0,0.0,0.0,38.1,2.8,1.4,1024,1024,1024,1024,0,0,0,0,57,4.876,73.04,36.08924,P-GPS,,11.0
337000,2026-01-07 15:38:52,0.0,5,7.294,0.0,0.0,0.0,38.1,2.8,1.4,1024,1024,1024,1024,0,0,0,0,57,4.876,73.04,36.08924,P-GPS,,11.0
337100,2026-01-07 15:38:52,0.0,5,7.295,0.0,0.0,0.0,38.1,2.6,1.3,1024,1024,1024,1024,0,0,0,0,57,4.796,73.04,36.08924,P-GPS,,11.0
337200,2026-01-07 15:38:52,0.0,5,7.295,0.0,0.0,0.0,38.1,2.6,1.4,1024,1024,1024,1024,0,0,0,0,57,4.796,73.04,36.08924,P-GPS,,11.0
337300,2026-01-07 15:38:52,0.0,5,7.295,0.0,0.0,0.0,38.1,2.9,1.6,1024,1024,1024,1024,0,0,0,0,57,4.796,73.04,36.08924,P-GPS,,11.0
337400,2026-01-07 15:38:52,0.0,5,7.295,0.0,0.0,0.0,38.1,2.8,1.6,1024,1024,1024,1024,0,0,0,0,57,4.796,73.04,36.08924,P-GPS,,11.0
337500,2026-01-07 15:38:52,0.0,5,7.295,0.0,0.0,0.0,38.1,3.4,1.8,1024,1024,1024,1024,0,0,0,0,57,4.796,73.04,36.08924,P-GPS,,11.0
337600,2026-01-07 15:38:53,0.0,5,7.295,0.0,0.0,0.0,38.0,3.8,1.8,1024,1024,1024,1024,0,0,0,0,57,4.796,73.04,36.08924,P-GPS,,11.0
337700,2026-01-07 15:38:53,0.0,5,7.295,0.0,0.0,0.0,38.0,3.7,1.9,1024,1024,1024,1024,0,0,0,0,57,4.796,73.04,36.08924,P-GPS,,11.0
337800,2026-01-07 15:38:53,0.0,5,7.295,0.0,0.0,0.0,38.1,3.6,2.1,1024,1024,1024,1024,0,0,0,0,57,4.796,73.04,36.08924,P-GPS,,11.0
337900,2026-01-07 15:38:53,0.0,5,7.295,0.0,0.0,0.0,38.2,3.1,2.2,1024,1024,1024,1024,0,0,0,0,57,4.796,73.04,36.08924,P-GPS,,11.0
338000,2026-01-07 15:38:53,0.0,5,7.295,0.0,0.0,0.0,38.2,3.0,2.2,1024,1024,1024,1024,0,0,0,0,57,4.796,73.04,36.08924,P-GPS,,11.0
338100,2026-01-07 15:38:53,0.0,5,7.295,0.0,0.0,0.0,38.2,3.2,2.2,1024,1024,1024,1024,0,0,0,0,57,4.796,73.04,36.08924,P-GPS,,11.0
338200,2026-01-07 15:38:53,0.0,5,7.285,0.0,0.0,0.0,38.2,3.3,2.2,1024,1024,1024,1024,0,0,0,0,56,4.814,73.04,36.08924,P-GPS,,11.0
338300,2026-01-07 15:38:53,0.0,5,7.285,0.0,0.0,0.0,38.2,3.3,2.4,1024,1024,1024,1024,0,0,0,0,56,4.814,73.04,36.417324,P-GPS,,11.1
338400,2026-01-07 15:38:53,0.0,5,7.285,0.0,0.0,0.0,38.2,3.2,2.4,1024,1024,1024,1024,0,0,0,0,56,4.814,73.04,36.417324,P-GPS,,11.1
338500,2026-01-07 15:38:54,0.0,5,7.285,0.0,0.0,0.0,38.2,3.1,2.6,1024,1024,1024,1024,0,0,0,0,56,4.814,73.04,36.417324,P-GPS,,11.1
338600,2026-01-07 15:38:54,0.0,5,7.285,0.0,0.0,0.0,38.1,2.9,2.5,1024,1024,1024,1024,0,0,0,0,56,4.814,73.04,36.417324,P-GPS,,11.1
338700,2026-01-07 15:38:54,0.0,5,7.285,0.0,0.0,0.0,38.0,2.8,2.9,1024,1024,1024,1024,0,0,0,0,56,4.814,73.04,36.417324,P-GPS,,11.1
338800,2026-01-07 15:38:54,0.0,5,7.285,0.0,0.0,0.0,37.9,3.0,3.1,1024,1024,1024,1024,0,0,0,0,56,4.814,73.04,36.417324,P-GPS,,11.1
338900,2026-01-07 15:38:54,0.0,5,7.285,0.0,0.0,0.0,38.0,3.6,3.1,1024,1024,1024,1024,0,0,0,0,56,4.814,73.04,36.417324,P-GPS,,11.1
339000,2026-01-07 15:38:54,0.0,5,7.285,0.0,0.0,0.0,38.1,3.8,3.1,1024,1024,1024,1024,0,0,0,0,56,4.814,73.04,36.417324,P-GPS,,11.1
339100,2026-01-07 15:38:54,0.0,5,7.285,0.0,0.0,0.0,38.0,4.1,3.2,1024,1024,1024,1024,0,0,0,0,56,4.814,73.04,36.417324,P-GPS,,11.1
339200,2026-01-07 15:38:54,0.0,5,7.285,0.0,0.0,0.0,38.1,4.0,3.5,1024,1024,1024,1024,0,0,0,0,56,4.814,73.04,36.417324,P-GPS,,11.1
339300,2026-01-07 15:38:54,0.0,5,7.289,0.0,0.0,0.0,38.1,4.3,3.4,1024,1024,1024,1024,0,0,0,0,56,4.898,73.04,36.417324,P-GPS,,11.1
339400,2026-01-07 15:38:54,0.0,5,7.289,0.0,0.0,0.0,38.1,4.3,3.3,1024,1024,1024,1024,0,0,0,0,56,4.898,73.04,36.417324,P-GPS,,11.1
339500,2026-01-07 15:38:54,0.0,5,7.289,0.0,0.0,0.0,38.0,4.3,3.0,1024,1024,1024,1024,0,0,0,0,56,4.898,73.04,36.417324,P-GPS,,11.1
339600,2026-01-07 15:38:55,0.0,5,7.289,0.0,0.0,0.0,38.0,4.2,3.0,1024,1024,1024,1024,0,0,0,0,56,4.898,73.04,36.745408,P-GPS,,11.2
339700,2026-01-07 15:38:55,0.0,5,7.289,0.0,0.0,0.0,38.0,4.1,3.0,1024,1024,1024,1024,0,0,0,0,56,4.898,73.04,36.745408,P-GPS,,11.2
339800,2026-01-07 15:38:55,0.0,5,7.289,0.0,0.0,0.0,38.1,4.2,2.8,1024,1024,1024,1024,0,0,0,0,56,4.898,73.04,36.745408,P-GPS,,11.2
339900,2026-01-07 15:38:55,0.0,5,7.289,0.0,0.0,0.0,38.2,4.2,2.6,1024,1024,1024,1024,0,0,0,0,56,4.898,73.04,36.745408,P-GPS,,11.2
340000,2026-01-07 15:38:55,0.0,5,7.289,0.0,0.0,0.0,38.2,4.0,2.6,1024,1024,1024,1024,0,0,0,0,56,4.898,73.04,36.745408,P-GPS,,11.2
340100,2026-01-07 15:38:55,0.0,5,7.289,0.0,0.0,0.0,38.1,3.8,2.6,1024,1024,1024,1024,0,0,0,0,56,4.898,73.04,36.417324,P-GPS,,11.1
340200,2026-01-07 15:38:55,0.0,5,7.289,0.0,0.0,0.0,38.1,3.6,2.6,1024,1024,1024,1024,0,0,0,0,56,4.898,73.04,36.417324,P-GPS,,11.1
340300,2026-01-07 15:38:55,0.0,5,7.289,0.0,0.0,0.0,38.2,3.5,2.3,1024,1024,1024,1024,0,0,0,0,56,4.898,73.04,36.417324,P-GPS,,11.1
340400,2026-01-07 15:38:55,0.0,5,7.285,0.0,0.0,0.0,38.2,3.6,2.2,1024,1024,1024,1024,0,0,0,0,56,4.927,73.04,36.417324,P-GPS,,11.1
340500,2026-01-07 15:38:55,0.0,5,7.285,0.0,0.0,0.0,38.3,3.4,2.2,1024,1024,1024,1024,0,0,0,0,56,4.927,73.04,36.417324,P-GPS,,11.1
340600,2026-01-07 15:38:56,0.0,5,7.285,0.0,0.0,0.0,38.3,3.4,2.1,1024,1024,1024,1024,0,0,0,0,56,4.927,73.04,36.417324,P-GPS,,11.1
340700,2026-01-07 15:38:56,0.0,5,7.285,0.0,0.0,0.0,38.3,3.6,2.1,1024,1024,1024,1024,0,0,0,0,56,4.927,73.04,36.417324,P-GPS,,11.1
340800,2026-01-07 15:38:56,0.0,5,7.285,0.0,0.0,0.0,38.3,4.2,2.2,1024,1024,1024,1024,0,0,0,0,56,4.927,73.04,36.417324,P-GPS,,11.1
340900,2026-01-07 15:38:56,0.0,5,7.285,0.0,0.0,0.0,38.3,4.5,2.2,1024,1024,1024,1024,0,0,0,0,56,4.927,73.04,36.417324,P-GPS,,11.1
341000,2026-01-07 15:38:56,0.0,5,7.285,0.0,0.0,0.0,38.2,4.4,2.2,1024,1024,1024,1024,0,0,0,0,56,4.927,73.04,36.745408,P-GPS,,11.2
341100,2026-01-07 15:38:56,0.0,5,7.285,0.0,0.0,0.0,38.2,4.4,2.7,1024,1024,1024,1024,0,0,0,0,56,4.927,73.04,36.745408,P-GPS,,11.2
341200,2026-01-07 15:38:56,0.0,5,7.285,0.0,0.0,0.0,38.2,4.5,2.8,1024,1024,1494,1024,0,0,71,0,56,4.927,73.04,36.745408,P-GPS,,11.2
341300,2026-01-07 15:38:56,0.0,5,7.285,0.0,0.0,0.0,38.2,4.2,2.8,1024,1024,1684,1024,0,0,100,0,56,4.927,73.04,36.745408,P-GPS,,11.2
341400,2026-01-07 15:38:56,0.0,5,7.285,0.0,0.0,0.0,38.1,4.2,2.6,1024,1024,1684,1024,0,0,100,0,56,4.927,73.04,36.745408,P-GPS,,11.2
341500,2026-01-07 15:38:56,0.0,5,7.287,0.0,0.0,-0.447388,38.3,3.9,2.6,1024,1024,1684,1024,0,0,100,0,56,5.199,73.04,36.745408,P-GPS,,11.2
341600,2026-01-07 15:38:57,0.0,5,7.287,0.0,0.0,-1.11847,38.3,4.3,2.3,1024,1024,1684,1024,0,0,100,0,56,5.199,73.04,37.073492,P-GPS,,11.3
341700,2026-01-07 15:38:57,0.0,5,7.287,0.0,0.0,-1.789552,38.2,4.6,2.3,1024,1024,1684,1024,0,0,100,0,56,5.199,73.04,37.073492,P-GPS,,11.3
341800,2026-01-07 15:38:57,0.0,5,7.287,0.0,0.0,-2.684328,38.1,5.0,2.3,1024,1024,1684,1024,0,0,100,0,56,5.199,73.04,37.401576,P-GPS,,11.4
341900,2026-01-07 15:38:57,0.0,5,7.287,0.0,0.0,-3.35541,38.4,4.4,3.0,1024,1024,1684,1024,0,0,100,0,56,5.199,73.04,38.057744,P-GPS,,11.6
342000,2026-01-07 15:38:57,0.0,5,7.287,0.0,0.0,-3.802798,38.3,4.6,2.7,1024,1024,1684,1024,0,0,100,0,56,5.199,73.04,38.385828,P-GPS,,11.7
342100,2026-01-07 15:38:57,0.0,5,7.287,0.0,0.0,-4.026492,38.2,3.8,2.3,1024,1024,1684,1024,0,0,100,0,56,5.199,73.04,39.041996,P-GPS,,11.9
442500,2026-01-07 15:40:37,0.0,5,7.219,0.0,0.0,3.802798,38.4,4.7,5.5,1024,1024,364,1024,0,0,-100,0,50,4.34,74.66,38.713912,P-GPS,,11.8
442600,2026-01-07 15:40:38,0.0,5,7.219,0.0,0.0,3.802798,38.4,4.5,4.6,1024,1024,364,1024,0,0,-100,0,50,4.34,74.66,38.057744,P-GPS,,11.6
442700,2026-01-07 15:40:38,0.0,5,7.219,0.0,0.0,3.802798,38.4,4.2,4.6,1024,1024,364,1024,0,0,-100,0,50,4.34,74.66,37.401576,P-GPS,,11.4
442800,2026-01-07 15:40:38,0.0,5,7.245,0.0,0.0,3.802798,38.4,4.3,4.5,1024,1024,364,1024,0,0,-100,0,50,4.246,74.66,36.745408,P-GPS,,11.2
442900,2026-01-07 15:40:38,0.0,5,7.245,0.0,0.0,4.026492,38.3,4.8,4.7,1024,1024,364,1024,0,0,-100,0,50,4.246,74.66,36.08924,P-GPS,,11.0
443000,2026-01-07 15:40:38,0.0,5,7.245,0.0,0.0,4.026492,38.3,4.9,4.4,1024,1024,364,1024,0,0,-100,0,50,4.246,74.66,35.433072,P-GPS,,10.8
443100,2026-01-07 15:40:38,0.0,5,7.245,0.0,0.0,4.026492,38.3,4.9,4.2,1024,1024,364,1024,0,0,-100,0,50,4.246,74.66,34.776904,P-GPS,,10.6
443200,2026-01-07 15:40:38,0.0,5,7.245,0.0,0.0,4.026492,38.3,5.9,3.9,1024,1024,364,1024,0,0,-100,0,50,4.246,74.66,34.120736,P-GPS,,10.4
443300,2026-01-07 15:40:38,0.223694,5,7.245,-0.223694,0.0,4.026492,38.3,5.0,3.5,1024,1024,364,1024,0,0,-100,0,50,4.246,74.66,33.792652,P-GPS,,10.3
443400,2026-01-07 15:40:38,0.223694,5,7.245,-0.223694,0.0,4.026492,38.1,3.9,3.6,1024,1024,364,1024,0,0,-100,0,50,4.246,74.66,33.136484,P-GPS,,10.1
443500,2026-01-07 15:40:38,0.0,5,7.245,0.0,0.0,4.026492,38.1,4.0,3.8,1024,1024,364,1024,0,0,-100,0,50,4.246,74.66,32.480316,P-GPS,,9.9
443600,2026-01-07 15:40:39,0.0,5,7.245,0.0,0.0,4.026492,38.0,2.8,4.3,1024,1024,364,1024,0,0,-100,0,50,4.246,74.66,32.152232,P-GPS,,9.8
443700,2026-01-07 15:40:39,0.0,5,7.245,0.0,0.0,4.026492,38.1,3.2,4.2,1024,1024,364,1024,0,0,-100,0,50,4.246,74.66,31.496064,P-GPS,,9.6
443800,2026-01-07 15:40:39,0.0,5,7.245,0.0,0.0,3.802798,38.1,3.4,4.6,1024,1024,364,1024,0,0,-100,0,50,4.246,74.66,30.839896,P-GPS,,9.4
443900,2026-01-07 15:40:39,0.0,5,7.245,0.0,0.0,3.802798,38.2,3.9,4.9,1024,1024,364,1024,0,0,-100,0,50,4.246,74.66,30.511812,P-GPS,,9.3
444000,2026-01-07 15:40:39,0.0,5,7.245,0.0,0.0,4.026492,38.2,4.0,4.9,1024,1024,364,1024,0,0,-100,0,50,4.246,74.66,29.855644,P-GPS,,9.1
444100,2026-01-07 15:40:39,0.0,5,7.245,0.0,0.0,3.802798,38.1,3.8,5.0,1024,1024,364,1024,0,0,-100,0,50,4.246,74.66,29.52756,P-GPS,,9.0
444200,2026-01-07 15:40:39,0.0,5,7.245,0.0,0.0,3.802798,38.1,4.0,4.8,1024,1024,364,1024,0,0,-100,0,50,4.246,74.66,28.871392,P-GPS,,8.8
444300,2026-01-07 15:40:39,0.0,5,7.245,0.0,0.0,3.802798,38.1,4.0,4.7,1024,1024,364,1024,0,0,-100,0,50,4.246,74.66,28.543308,P-GPS,,8.7
444400,2026-01-07 15:40:39,0.0,5,7.245,0.0,0.0,3.802798,38.4,3.2,4.5,1024,1024,364,1024,0,0,-100,0,49,4.246,74.66,27.88714,P-GPS,,8.5
444500,2026-01-07 15:40:40,0.0,5,7.245,0.0,0.0,3.802798,38.5,4.8,4.0,1024,1024,364,1024,0,0,-100,0,49,4.246,74.66,27.230972,P-GPS,,8.3
444600,2026-01-07 15:40:40,0.0,5,7.245,0.0,0.0,3.802798,38.5,5.1,4.0,1024,1024,364,1024,0,0,-100,0,49,4.246,74.66,26.574804,P-GPS,,8.1
