index,time(millisecond),timestamp,speed(mph),gpslevel,voltage(v),xSpeed(mph),ySpeed(mph),zSpeed(mph),compass_heading(degrees),pitch(degrees),roll(degrees),rc_elevator,rc_aileron,rc_throttle,rc_rudder,rc_elevator(percent),rc_aileron(percent),rc_throttle(percent),rc_rudder(percent),battery_percent,current(A),battery_temperature(f),ascent(feet),flycState,message,height_above_takeoff(meters)
79,472700,2026-01-07 15:41:46,0.0,5,7.13,0.0,0.0,-4.47388,7.7,7.6,1.2,1024,1024,1024,1024,0,0,0,0,47,6.372,75.2,34.120736,P-GPS,,10.4
80,472800,2026-01-07 15:41:46,0.0,5,7.13,0.0,0.0,-4.47388,7.8,8.2,1.4,1024,1024,1024,1024,0,0,0,0,47,6.372,75.2,34.776904,P-GPS,,10.6
81,472900,2026-01-07 15:41:46,0.0,5,7.13,0.0,0.0,-4.250186,7.8,7.7,1.2,1024,1024,1024,1024,0,0,0,0,47,6.372,75.2,35.104988,P-GPS,,10.7
82,473000,2026-01-07 15:41:46,0.0,5,7.13,0.0,0.0,-3.579104,7.7,7.4,0.9,1024,1024,1024,1024,0,0,0,0,47,6.372,75.2,35.761156,P-GPS,,10.9
83,473100,2026-01-07 15:41:47,0.223694,5,7.13,-0.223694,0.0,-2.908022,7.6,6.8,1.1,1024,1024,1024,1024,0,0,0,0,47,6.372,75.2,36.08924,P-GPS,,11.0
84,473200,2026-01-07 15:41:47,0.223694,5,7.13,-0.223694,0.0,-2.23694,7.6,6.3,1.1,1024,1024,1024,1024,0,0,0,0,47,6.372,75.2,36.417324,P-GPS,,11.1
85,473300,2026-01-07 15:41:47,0.0,5,7.13,0.0,0.0,-1.565858,7.6,6.3,1.2,1024,1024,1024,1024,0,0,0,0,47,6.372,75.2,36.417324,P-GPS,,11.1
86,473400,2026-01-07 15:41:47,0.0,5,7.13,0.0,0.0,-0.671082,7.7,6.3,1.3,1024,1024,1024,1024,0,0,0,0,47,6.372,75.2,36.417324,P-GPS,,11.1
87,473500,2026-01-07 15:41:47,0.0,5,7.13,0.0,0.0,-0.223694,7.7,6.4,1.6,1024,1024,1024,1024,0,0,0,0,47,6.372,75.2,36.417324,P-GPS,,11.1
88,473600,2026-01-07 15:41:47,0.0,5,7.13,0.0,0.0,0.0,7.8,5.9,1.7,1024,1024,1024,1024,0,0,0,0,47,6.372,75.2,36.417324,P-GPS,,11.1
89,473700,2026-01-07 15:41:47,0.0,5,7.13,0.0,0.0,0.0,7.8,6.1,1.2,1024,1024,1024,1024,0,0,0,0,47,6.372,75.2,36.417324,P-GPS,,11.1
90,473800,2026-01-07 15:41:47,0.0,5,7.176,0.0,0.0,0.0,7.8,6.7,1.2,1024,1024,1024,1024,0,0,0,0,47,4.545,75.2,36.417324,P-GPS,,11.1
91,473900,2026-01-07 15:41:47,0.0,5,7.176,0.0,0.0,0.0,7.8,6.7,1.2,1024,1024,1024,1024,0,0,0,0,47,4.545,75.2,36.417324,P-GPS,,11.1
92,474000,2026-01-07 15:41:47,0.0,5,7.176,0.0,0.0,0.0,7.7,7.1,1.2,1024,1024,1024,1024,0,0,0,0,47,4.545,75.2,36.417324,P-GPS,,11.1
93,474100,2026-01-07 15:41:48,0.0,5,7.176,0.0,0.0,0.0,7.7,7.1,0.9,1024,1024,1024,1024,0,0,0,0,47,4.545,75.2,36.417324,P-GPS,,11.1
94,474200,2026-01-07 15:41:48,0.0,5,7.176,0.0,0.0,0.0,7.6,6.1,0.9,1024,1024,1024,1024,0,0,0,0,47,4.545,75.2,36.08924,P-GPS,,11.0
95,474300,2026-01-07 15:41:48,0.0,5,7.176,0.0,0.0,0.0,7.6,5.9,0.8,1024,1024,1024,1024,0,0,0,0,47,4.545,75.2,36.08924,P-GPS,,11.0
96,474400,2026-01-07 15:41:48,0.0,5,7.176,0.0,0.0,0.0,7.7,5.4,0.9,1024,1024,1024,1024,0,0,0,0,47,4.545,75.2,36.08924,P-GPS,,11.0
97,474500,2026-01-07 15:41:48,0.0,5,7.176,0.0,0.0,0.0,7.7,5.2,1.2,1024,1024,1024,1024,0,0,0,0,47,4.545,75.2,36.08924,P-GPS,,11.0
98,474600,2026-01-07 15:41:48,0.0,5,7.176,0.0,0.0,0.0,7.7,5.1,1.8,1024,1024,1024,1024,0,0,0,0,47,4.545,75.2,36.08924,P-GPS,,11.0
99,474700,2026-01-07 15:41:48,0.0,5,7.176,0.0,0.0,0.0,7.7,5.3,2.3,1024,1024,1024,1024,0,0,0,0,47,4.545,75.2,35.761156,P-GPS,,10.9
100,474800,2026-01-07 15:41:48,0.0,5,7.176,0.0,0.0,0.0,7.7,5.2,2.5,1024,1024,1024,1024,0,0,0,0,47,4.545,75.2,35.761156,P-GPS,,10.9
101,474900,2026-01-07 15:41:48,0.0,5,7.165,0.0,0.0,0.0,7.7,5.4,2.7,1024,1024,1024,1024,0,0,0,0,47,5.404,75.2,35.761156,P-GPS,,10.9
102,475000,2026-01-07 15:41:49,0.0,5,7.165,0.0,0.0,0.0,7.7,5.6,2.8,1024,1024,1024,1024,0,0,0,0,47,5.404,75.2,35.761156,P-GPS,,10.9
103,475100,2026-01-07 15:41:49,0.0,5,7.165,0.0,0.0,0.0,7.7,5.1,2.4,1024,1024,1024,1024,0,0,0,0,47,5.404,75.2,35.433072,P-GPS,,10.8
104,475200,2026-01-07 15:41:49,0.0,5,7.165,0.0,0.0,0.0,7.8,4.9,2.2,1024,1024,1024,1024,0,0,0,0,47,5.404,75.2,35.433072,P-GPS,,10.8
105,475300,2026-01-07 15:41:49,0.0,5,7.165,0.0,0.0,0.0,7.8,4.5,1.9,1024,1024,1024,1024,0,0,0,0,47,5.404,75.2,35.433072,P-GPS,,10.8
106,475400,2026-01-07 15:41:49,0.0,5,7.165,0.0,0.0,0.0,7.8,4.6,2.0,1024,1024,1024,1024,0,0,0,0,47,5.404,75.2,35.433072,P-GPS,,10.8
107,475500,2026-01-07 15:41:49,0.0,5,7.165,0.0,0.0,0.0,7.7,4.4,2.0,1024,1024,1024,1024,0,0,0,0,47,5.404,75.2,35.433072,P-GPS,,10.8
108,475600,2026-01-07 15:41:49,0.0,5,7.165,0.0,0.0,0.0,7.7,4.5,2.0,1024,1024,1024,1024,0,0,0,0,47,5.404,75.2,35.433072,P-GPS,,10.8
109,475700,2026-01-07 15:41:49,0.0,5,7.165,0.0,0.0,0.0,7.7,4.6,1.8,1024,1024,1024,1024,0,0,0,0,47,5.404,75.2,35.433072,P-GPS,,10.8
110,475800,2026-01-07 15:41:49,0.0,5,7.165,0.0,0.0,0.0,7.7,4.9,2.3,1024,1024,1024,1024,0,0,0,0,47,5.404,75.2,35.433072,P-GPS,,10.8
111,475900,2026-01-07 15:41:49,0.0,5,7.165,0.0,0.0,0.0,7.7,5.4,2.5,1024,1024,1024,1024,0,0,0,0,47,5.404,75.2,35.433072,P-GPS,,10.8
112,476000,2026-01-07 15:41:49,0.0,5,7.18,0.0,0.0,0.0,7.8,5.6,2.3,1024,1024,1024,1024,0,0,0,0,47,4.905,75.2,35.433072,P-GPS,,10.8
113,476100,2026-01-07 15:41:50,0.0,5,7.18,0.0,0.0,0.0,7.7,5.8,2.3,1024,1024,1024,1024,0,0,0,0,47,4.905,75.2,35.433072,P-GPS,SD card speed low. Normal use may be affected. Replace SD card (Code: 10028). Gimbal stuck. Make sure gimbal cover is removed and manually check whether gimbal can rotate freely (Code: 40002),10.8
114,476200,2026-01-07 15:41:50,0.0,5,7.18,0.0,0.0,0.0,7.7,6.3,2.6,1024,1024,1024,1024,0,0,0,0,47,4.905,75.2,35.433072,P-GPS,,10.8
115,476300,2026-01-07 15:41:50,0.0,5,7.18,0.0,0.0,0.0,7.8,6.4,3.0,1024,1024,1024,1024,0,0,0,0,47,4.905,75.2,35.433072,P-GPS,,10.8
116,476400,2026-01-07 15:41:50,0.0,5,7.18,0.0,0.0,0.0,7.8,6.6,2.6,1024,1024,1024,1024,0,0,0,0,47,4.905,75.2,35.433072,P-GPS,,10.8
117,476500,2026-01-07 15:41:50,0.0,5,7.18,0.0,0.0,0.0,7.8,6.4,2.3,1024,1024,1024,1024,0,0,0,0,47,4.905,75.2,35.433072,P-GPS,,10.8
118,476600,2026-01-07 15:41:50,0.0,5,7.18,0.0,0.0,0.0,7.8,6.8,2.6,1024,1024,1024,1024,0,0,0,0,47,4.905,75.2,35.433072,P-GPS,,10.8
119,476700,2026-01-07 15:41:50,0.0,5,7.18,0.0,0.0,0.0,8.0,7.5,2.3,1024,1024,1024,1024,0,0,0,0,47,4.905,75.2,35.433072,P-GPS,,10.8
120,476800,2026-01-07 15:41:50,0.0,5,7.18,0.0,0.0,0.0,7.9,7.7,2.1,1024,1024,1024,1024,0,0,0,0,47,4.905,75.2,35.433072,P-GPS,,10.8
121,476900,2026-01-07 15:41:50,0.0,5,7.18,0.0,0.0,0.0,7.8,7.3,2.0,1024,1024,1024,1024,0,0,0,0,47,4.905,75.2,35.433072,P-GPS,,10.8
122,477000,2026-01-07 15:41:51,0.0,5,7.18,0.0,0.0,0.0,7.7,6.9,1.8,1024,1024,1024,1024,0,0,0,0,47,4.905,75.2,35.433072,P-GPS,,10.8
123,477100,2026-01-07 15:41:51,0.0,5,7.153,0.0,0.0,0.0,7.7,6.0,1.7,1024,1024,1024,1024,0,0,0,0,47,4.911,75.2,35.433072,P-GPS,,10.8
124,477200,2026-01-07 15:41:51,0.0,5,7.153,0.0,0.0,0.0,7.7,5.8,1.9,1024,1024,1024,1024,0,0,0,0,47,4.911,75.2,35.433072,P-GPS,,10.8
125,477300,2026-01-07 15:41:51,0.0,5,7.153,0.0,0.0,0.0,7.8,6.1,1.9,1024,1024,1024,1024,0,0,0,0,47,4.911,75.2,35.433072,P-GPS,,10.8
126,477400,2026-01-07 15:41:51,0.0,5,7.153,0.0,0.0,0.0,7.8,6.2,2.0,1024,1024,1024,1024,0,0,0,0,47,4.911,75.2,35.433072,P-GPS,,10.8
127,477500,2026-01-07 15:41:51,0.0,5,7.153,0.0,0.0,0.0,7.8,6.0,2.0,1024,1024,1024,1024,0,0,0,0,47,4.911,75.2,35.433072,P-GPS,,10.8
128,477600,2026-01-07 15:41:51,0.0,5,7.153,0.0,0.0,0.0,7.8,6.1,1.9,1024,1024,1024,1024,0,0,0,0,47,4.911,75.2,35.433072,P-GPS,,10.8
129,477700,2026-01-07 15:41:51,0.223694,5,7.153,0.0,0.223694,0.0,7.8,6.5,1.3,1024,1024,1024,1024,0,0,0,0,47,4.911,75.2,35.433072,P-GPS,,10.8
130,477800,2026-01-07 15:41:51,0.223694,5,7.153,0.0,0.223694,0.0,7.8,6.7,0.8,1024,1024,1024,1024,0,0,0,0,47,4.911,75.2,35.433072,P-GPS,,10.8
131,477900,2026-01-07 15:41:51,0.223694,5,7.153,0.0,0.223694,-0.223694,7.7,6.8,0.5,1024,1024,1024,1024,0,0,0,0,47,4.911,75.2,35.433072,P-GPS,,10.8
132,478000,2026-01-07 15:41:51,0.223694,5,7.153,0.0,0.223694,0.0,7.8,6.9,0.3,1024,1024,1024,1024,0,0,0,0,47,4.911,75.2,35.433072,P-GPS,,10.8
133,478100,2026-01-07 15:41:52,0.0,5,7.153,0.0,0.0,0.0,7.7,7.2,0.2,1024,1024,1024,1024,0,0,0,0,47,4.911,75.2,35.433072,P-GPS,,10.8
134,478200,2026-01-07 15:41:52,0.0,5,7.175,0.0,0.0,0.0,7.8,7.5,0.2,1024,1024,1024,1024,0,0,0,0,47,4.815,75.2,35.433072,P-GPS,,10.8
135,478300,2026-01-07 15:41:52,0.0,5,7.175,0.0,0.0,0.0,7.8,7.5,0.9,1024,1024,1024,1024,0,0,0,0,47,4.815,75.2,35.433072,P-GPS,,10.8
136,478400,2026-01-07 15:41:52,0.0,5,7.175,0.0,0.0,0.0,7.8,7.0,0.9,1024,1024,1024,1024,0,0,0,0,47,4.815,75.2,35.433072,P-GPS,,10.8
137,478500,2026-01-07 15:41:52,0.0,5,7.175,0.0,0.0,0.0,7.7,6.3,2.0,1024,1024,1024,1024,0,0,0,0,47,4.815,75.2,35.433072,P-GPS,,10.8
138,478600,2026-01-07 15:41:52,0.0,5,7.175,0.0,0.0,0.0,7.7,6.9,2.5,1024,1024,1024,1024,0,0,0,0,47,4.815,75.2,35.433072,P-GPS,,10.8
139,478700,2026-01-07 15:41:52,0.0,5,7.175,0.0,0.0,0.0,7.7,6.8,1.6,1024,1024,1024,1024,0,0,0,0,47,4.815,75.2,35.104988,P-GPS,,10.7
140,478800,2026-01-07 15:41:52,0.0,5,7.175,0.0,0.0,0.0,7.7,6.6,1.1,1024,1024,1024,1024,0,0,0,0,47,4.815,75.2,35.104988,P-GPS,,10.7
141,478900,2026-01-07 15:41:52,0.0,5,7.175,0.0,0.0,0.0,7.7,6.6,1.3,1024,1024,1024,1024,0,0,0,0,47,4.815,75.2,35.104988,P-GPS,,10.7
142,479000,2026-01-07 15:41:52,0.0,5,7.175,0.0,0.0,0.0,7.8,6.6,1.6,1024,1024,1024,1024,0,0,0,0,47,4.815,75.2,35.104988,P-GPS,,10.7
143,479100,2026-01-07 15:41:53,0.0,5,7.175,0.0,0.0,0.0,7.8,6.7,1.3,1024,1024,1024,1024,0,0,0,0,47,4.815,75.2,35.104988,P-GPS,,10.7
144,479200,2026-01-07 15:41:53,0.0,5,7.175,0.0,0.0,0.0,7.7,7.0,1.0,1024,1024,1024,1024,0,0,0,0,47,4.815,75.2,35.104988,P-GPS,,10.7
145,479300,2026-01-07 15:41:53,0.0,5,7.175,0.0,0.0,0.0,7.8,6.9,1.2,1024,1024,1024,1024,0,0,0,0,47,4.815,75.2,35.104988,P-GPS,,10.7
146,479400,2026-01-07 15:41:53,0.0,5,7.175,0.0,0.0,0.0,7.9,6.8,0.8,1024,1024,1024,1024,0,0,0,0,47,4.815,75.2,35.104988,P-GPS,,10.7
147,479500,2026-01-07 15:41:53,0.0,5,7.175,0.0,0.0,0.0,7.9,6.8,0.9,1024,1024,1024,1024,0,0,0,0,47,4.815,75.2,35.104988,P-GPS,,10.7
148,479600,2026-01-07 15:41:53,0.0,5,7.175,0.0,0.0,0.0,8.0,6.5,0.4,1024,1024,1024,1024,0,0,0,0,47,4.815,75.2,35.104988,P-GPS,,10.7
149,479700,2026-01-07 15:41:53,0.223694,5,7.175,0.0,0.223694,0.0,8.1,6.0,-0.2,1024,1024,1024,1024,0,0,0,0,47,4.815,75.2,35.104988,P-GPS,,10.7
150,479800,2026-01-07 15:41:53,0.223694,5,7.175,0.0,0.223694,0.0,8.1,5.6,-0.7,1024,1024,1024,1024,0,0,0,0,47,4.815,75.2,35.104988,P-GPS,,10.7
151,479900,2026-01-07 15:41:53,0.223694,5,7.175,0.0,0.223694,0.0,8.1,5.2,-1.4,1024,1024,1024,1024,0,0,0,0,47,4.815,75.2,35.104988,P-GPS,,10.7
152,480000,2026-01-07 15:41:54,0.223694,5,7.175,0.0,0.223694,0.0,8.1,5.2,-1.3,1024,1024,1024,1024,0,0,0,0,47,4.815,75.2,35.104988,P-GPS,,10.7
153,480100,2026-01-07 15:41:54,0.0,5,7.175,0.0,0.0,0.0,8.0,5.5,-1.7,1024,1024,1024,1024,0,0,0,0,47,4.815,75.2,35.104988,P-GPS,,10.7
154,480200,2026-01-07 15:41:54,0.0,5,7.175,0.0,0.0,0.0,7.9,5.7,-2.0,1024,1024,1024,1024,0,0,0,0,47,4.815,75.2,34.776904,P-GPS,,10.6
155,480300,2026-01-07 15:41:54,0.0,5,7.175,0.0,0.0,0.0,8.0,5.8,-1.8,1024,1024,1024,1024,0,0,0,0,47,4.815,75.2,34.776904,P-GPS,,10.6
156,480400,2026-01-07 15:41:54,0.0,5,7.177,0.0,0.0,0.0,7.9,6.1,-1.5,1024,1024,1024,1024,0,0,0,0,47,4.695,75.2,34.776904,P-GPS,,10.6
157,480500,2026-01-07 15:41:54,0.0,5,7.177,0.0,0.0,0.0,7.8,6.4,-0.4,1024,1024,1024,1024,0,0,0,0,47,4.695,75.2,34.776904,P-GPS,,10.6
158,480600,2026-01-07 15:41:54,0.0,5,7.177,0.0,0.0,0.0,7.8,5.9,0.1,1024,1024,1024,1024,0,0,0,0,47,4.695,75.2,34.776904,P-GPS,,10.6
159,480700,2026-01-07 15:41:54,0.0,5,7.177,0.0,0.0,0.0,7.8,5.5,0.6,1024,1024,1024,1024,0,0,0,0,47,4.695,75.2,34.776904,P-GPS,,10.6
160,480800,2026-01-07 15:41:54,0.0,5,7.177,0.0,0.0,0.0,7.9,5.6,1.0,1024,1024,1024,1024,0,0,0,0,47,4.695,75.2,35.104988,P-GPS,,10.7
161,480900,2026-01-07 15:41:54,0.0,5,7.177,0.0,0.0,0.0,7.8,5.5,1.7,1024,1024,1024,1024,0,0,0,0,47,4.695,75.2,35.104988,P-GPS,,10.7
162,481000,2026-01-07 15:41:54,0.0,5,7.177,0.0,0.0,0.0,7.9,5.9,2.0,1024,1024,1024,1024,0,0,0,0,47,4.695,75.2,35.104988,P-GPS,,10.7
163,481100,2026-01-07 15:41:55,0.0,5,7.177,0.0,0.0,0.0,7.8,6.2,1.0,1024,1024,1024,1024,0,0,0,0,47,4.695,75.2,35.104988,P-GPS,,10.7
164,481200,2026-01-07 15:41:55,0.0,5,7.177,0.0,0.0,0.0,7.7,6.4,0.9,1024,1024,1024,1024,0,0,0,0,47,4.695,75.2,35.433072,P-GPS,,10.8
165,481300,2026-01-07 15:41:55,0.0,5,7.177,0.0,0.0,0.0,7.7,5.9,1.1,1024,1024,1024,1024,0,0,0,0,47,4.695,75.2,35.433072,P-GPS,,10.8
166,481400,2026-01-07 15:41:55,0.0,5,7.177,0.0,0.0,0.0,7.5,5.6,1.1,1024,1024,1024,1024,0,0,0,0,47,4.695,75.2,35.433072,P-GPS,,10.8
167,481500,2026-01-07 15:41:55,0.0,5,7.177,0.0,0.0,0.0,7.5,4.6,1.3,1024,1024,1024,1024,0,0,0,0,47,4.695,75.2,35.433072,P-GPS,,10.8
168,481600,2026-01-07 15:41:55,0.223694,5,7.148,0.0,-0.223694,0.0,7.5,4.0,1.6,1024,1024,1024,1024,0,0,0,0,47,5.025,75.2,35.433072,P-GPS,,10.8
169,481700,2026-01-07 15:41:55,0.223694,5,7.148,0.0,-0.223694,0.0,7.5,3.9,2.5,1024,1024,1024,1024,0,0,0,0,47,5.025,75.2,35.433072,P-GPS,,10.8
170,481800,2026-01-07 15:41:55,0.223694,5,7.148,0.0,-0.223694,0.0,7.6,4.0,2.9,1024,1024,1024,1024,0,0,0,0,47,5.025,75.2,35.761156,P-GPS,,10.9
171,481900,2026-01-07 15:41:55,0.223694,5,7.148,0.0,-0.223694,0.0,7.6,3.9,3.3,1024,1024,1024,1024,0,0,0,0,47,5.025,75.2,35.761156,P-GPS,,10.9
172,482000,2026-01-07 15:41:56,0.0,5,7.148,0.0,0.0,0.0,7.5,3.6,3.7,1024,1024,1024,1024,0,0,0,0,47,5.025,75.2,35.761156,P-GPS,,10.9
173,482100,2026-01-07 15:41:56,0.0,5,7.148,0.0,0.0,0.0,7.5,3.8,3.8,1024,1024,1024,1024,0,0,0,0,47,5.025,75.2,35.761156,P-GPS,,10.9
174,482200,2026-01-07 15:41:56,0.0,5,7.148,0.0,0.0,0.0,7.5,4.0,3.3,1024,1024,1024,1024,0,0,0,0,47,5.025,75.2,35.761156,P-GPS,,10.9
175,482300,2026-01-07 15:41:56,0.0,5,7.148,0.0,0.0,0.0,7.5,4.0,2.8,1024,1024,1024,1024,0,0,0,0,47,5.025,75.2,35.761156,P-GPS,,10.9
176,482400,2026-01-07 15:41:56,0.0,5,7.148,0.0,0.0,0.0,7.5,4.0,2.1,1024,1024,1024,1024,0,0,0,0,47,5.025,75.2,36.08924,P-GPS,,11.0
177,482500,2026-01-07 15:41:56,0.0,5,7.148,0.0,0.0,0.0,7.5,3.4,1.9,1024,1024,1024,1024,0,0,0,0,47,5.025,75.2,36.08924,P-GPS,,11.0
178,482600,2026-01-07 15:41:56,0.0,5,7.148,0.0,0.0,0.0,7.6,3.6,1.6,1024,1024,1024,1024,0,0,0,0,47,5.025,75.2,36.08924,P-GPS,,11.0
179,482700,2026-01-07 15:41:56,0.0,5,7.163,0.0,0.0,0.0,7.5,3.7,1.4,1024,1024,1024,1024,0,0,0,0,47,4.776,75.2,36.08924,P-GPS,,11.0
180,482800,2026-01-07 15:41:56,0.0,5,7.163,0.0,0.0,0.0,7.5,3.9,2.0,1024,1024,1024,1024,0,0,0,0,47,4.776,75.2,36.08924,P-GPS,,11.0
181,482900,2026-01-07 15:41:56,0.0,5,7.163,0.0,0.0,0.0,7.5,3.9,2.2,1024,1024,1024,1024,0,0,0,0,47,4.776,75.2,36.08924,P-GPS,,11.0
182,483000,2026-01-07 15:41:56,0.0,5,7.163,0.0,0.0,0.0,7.3,3.5,2.5,1024,1024,1024,1024,0,0,0,0,47,4.776,75.2,36.08924,P-GPS,,11.0
183,483100,2026-01-07 15:41:57,0.0,5,7.163,0.0,0.0,0.0,7.3,3.9,2.1,1024,1024,1024,1024,0,0,0,0,47,4.776,75.2,36.08924,P-GPS,,11.0
184,483200,2026-01-07 15:41:57,0.223694,5,7.163,0.223694,0.0,0.0,7.5,5.3,2.7,1024,1024,1024,1024,0,0,0,0,47,4.776,75.2,36.417324,P-GPS,,11.1
185,483300,2026-01-07 15:41:57,0.223694,5,7.163,0.223694,0.0,0.0,7.6,6.9,3.1,1024,1024,1024,1024,0,0,0,0,47,4.776,75.2,36.417324,P-GPS,,11.1
186,483400,2026-01-07 15:41:57,0.223694,5,7.163,0.223694,0.0,0.0,7.7,7.7,3.4,1024,1024,1024,1024,0,0,0,0,47,4.776,75.2,36.417324,P-GPS,,11.1
187,483500,2026-01-07 15:41:57,0.223694,5,7.163,0.223694,0.0,0.0,7.8,7.7,3.4,1024,1024,1024,1024,0,0,0,0,47,4.776,75.2,36.417324,P-GPS,,11.1
188,483600,2026-01-07 15:41:57,0.0,5,7.163,0.0,0.0,0.0,7.9,7.6,3.4,1024,1024,1024,1024,0,0,0,0,47,4.776,75.2,36.417324,P-GPS,,11.1
189,483700,2026-01-07 15:41:57,0.0,5,7.163,0.0,0.0,0.0,7.9,7.5,3.1,1024,1024,1024,1024,0,0,0,0,47,4.776,75.2,36.417324,P-GPS,,11.1
190,483800,2026-01-07 15:41:57,0.0,5,7.158,0.0,0.0,0.0,7.9,7.5,2.3,1024,1024,1024,1024,0,0,0,0,47,4.744,75.2,36.417324,P-GPS,,11.1
191,483900,2026-01-07 15:41:57,0.0,5,7.158,0.0,0.0,0.0,7.9,7.1,1.7,1024,1024,1024,1024,0,0,0,0,47,4.744,75.2,36.417324,P-GPS,,11.1
192,484000,2026-01-07 15:41:57,0.0,5,7.158,0.0,0.0,0.0,7.9,7.1,1.5,1024,1024,1024,1024,0,0,0,0,47,4.744,75.2,36.417324,P-GPS,,11.1
193,484100,2026-01-07 15:41:58,0.0,5,7.158,0.0,0.0,0.0,7.9,6.8,0.8,1024,1024,1024,1024,0,0,0,0,47,4.744,75.2,36.417324,P-GPS,,11.1
194,484200,2026-01-07 15:41:58,0.0,5,7.158,0.0,0.0,0.0,7.7,6.9,0.6,1024,1024,1024,1024,0,0,0,0,47,4.744,75.2,36.417324,P-GPS,,11.1
195,484300,2026-01-07 15:41:58,0.0,5,7.158,0.0,0.0,0.0,7.9,6.6,0.5,1024,1024,1024,1024,0,0,0,0,47,4.744,75.2,36.417324,P-GPS,,11.1
196,484400,2026-01-07 15:41:58,0.0,5,7.158,0.0,0.0,0.0,7.9,7.1,0.6,1024,1024,1024,1024,0,0,0,0,47,4.744,75.2,36.417324,P-GPS,,11.1
197,484500,2026-01-07 15:41:58,0.0,5,7.158,0.0,0.0,0.0,8.0,7.0,0.9,1024,1024,1024,1024,0,0,0,0,47,4.744,75.2,36.417324,P-GPS,,11.1
198,484600,2026-01-07 15:41:58,0.0,5,7.158,0.0,0.0,0.0,8.0,6.8,0.5,1024,1024,1024,1024,0,0,0,0,47,4.744,75.2,36.417324,P-GPS,,11.1
199,484700,2026-01-07 15:41:58,0.0,5,7.158,0.0,0.0,0.0,7.9,6.1,0.3,1024,1024,1024,1024,0,0,0,0,47,4.744,75.2,36.417324,P-GPS,,11.1
200,484800,2026-01-07 15:41:58,0.0,5,7.158,0.0,0.0,0.0,7.9,6.1,0.4,1024,1024,1024,1024,0,0,0,0,47,4.744,75.2,36.417324,P-GPS,,11.1
201,484900,2026-01-07 15:41:58,0.0,5,7.156,0.0,0.0,0.0,7.8,6.2,0.5,1024,1024,1024,1024,0,0,0,0,46,4.942,75.2,36.08924,P-GPS,,11.0
202,485000,2026-01-07 15:41:58,0.0,5,7.156,0.0,0.0,0.0,7.9,6.0,0.6,1024,1024,1024,1024,0,0,0,0,46,4.942,75.2,36.08924,P-GPS,,11.0
203,485100,2026-01-07 15:41:59,0.0,5,7.156,0.0,0.0,0.0,7.8,5.8,0.1,1024,1024,1024,1024,0,0,0,0,46,4.942,75.2,36.08924,P-GPS,,11.0
204,485200,2026-01-07 15:41:59,0.0,5,7.156,0.0,0.0,0.0,7.8,6.0,0.0,1024,1024,1024,1024,0,0,0,0,46,4.942,75.2,36.08924,P-GPS,,11.0
205,485300,2026-01-07 15:41:59,0.0,5,7.156,0.0,0.0,0.0,7.8,6.2,0.0,1024,1024,1024,1024,0,0,0,0,46,4.942,75.2,36.08924,P-GPS,,11.0
206,485400,2026-01-07 15:41:59,0.0,5,7.156,0.0,0.0,0.0,7.9,6.1,-0.3,1024,1024,1024,1024,0,0,0,0,46,4.942,75.2,36.08924,P-GPS,,11.0
207,485500,2026-01-07 15:41:59,0.0,5,7.156,0.0,0.0,0.0,7.8,6.3,-0.4,1024,1024,1024,1024,0,0,0,0,46,4.942,75.2,36.08924,P-GPS,,11.0
208,485600,2026-01-07 15:41:59,0.0,5,7.156,0.0,0.0,0.0,7.8,6.2,-0.5,1024,1024,1024,1024,0,0,0,0,46,4.942,75.2,36.08924,P-GPS,,11.0
209,485700,2026-01-07 15:41:59,0.0,5,7.156,0.0,0.0,0.0,7.8,5.9,-0.7,1024,1024,1024,1024,0,0,0,0,46,4.942,75.2,36.417324,P-GPS,,11.1
210,485800,2026-01-07 15:41:59,0.0,5,7.156,0.0,0.0,0.0,7.9,5.9,-0.4,1024,1024,1024,1024,0,0,0,0,46,4.942,75.2,36.417324,P-GPS,,11.1
211,485900,2026-01-07 15:41:59,0.0,5,7.156,0.0,0.0,0.0,7.9,6.1,-0.6,1024,1024,1024,1024,0,0,0,0,46,4.942,75.2,36.417324,P-GPS,,11.1
212,486000,2026-01-07 15:42:00,0.0,5,7.155,0.0,0.0,0.0,7.8,6.3,-0.9,1024,1024,1024,1024,0,0,0,0,46,4.91,75.2,36.417324,P-GPS,,11.1
213,486100,2026-01-07 15:42:00,0.0,5,7.155,0.0,0.0,0.0,7.8,6.4,-0.6,1024,1024,1024,1024,0,0,0,0,46,4.91,75.2,36.417324,P-GPS,,11.1
214,486200,2026-01-07 15:42:00,0.0,5,7.155,0.0,0.0,0.0,7.8,6.2,-0.4,1024,1024,1024,1024,0,0,0,0,46,4.91,75.2,36.417324,P-GPS,,11.1
215,486300,2026-01-07 15:42:00,0.0,5,7.155,0.0,0.0,0.0,7.8,6.2,-0.6,1024,1024,1024,1024,0,0,0,0,46,4.91,75.2,36.417324,P-GPS,,11.1
216,486400,2026-01-07 15:42:00,0.0,5,7.155,0.0,0.0,0.0,7.8,6.3,-0.7,1024,1024,1024,1024,0,0,0,0,46,4.91,75.2,36.417324,P-GPS,,11.1
217,486500,2026-01-07 15:42:00,0.0,5,7.155,0.0,0.0,0.0,7.8,6.3,-0.6,1024,1024,1024,1024,0,0,0,0,46,4.91,75.2,36.417324,P-GPS,,11.1
218,486600,2026-01-07 15:42:00,0.0,5,7.155,0.0,0.0,0.0,7.8,6.4,-0.9,1024,1024,1024,1024,0,0,0,0,46,4.91,75.2,36.417324,P-GPS,,11.1
219,486700,2026-01-07 15:42:00,0.0,5,7.155,0.0,0.0,0.0,7.7,6.5,-0.8,1024,1024,1024,1024,0,0,0,0,46,4.91,75.2,36.417324,P-GPS,,11.1
220,486800,2026-01-07 15:42:00,0.0,5,7.155,0.0,0.0,0.0,7.6,6.6,-0.8,1024,1024,1024,1024,0,0,0,0,46,4.91,75.2,36.417324,P-GPS,,11.1
221,486900,2026-01-07 15:42:00,0.0,5,7.155,0.0,0.0,0.0,7.7,6.5,-0.5,1024,1024,1024,1024,0,0,0,0,46,4.91,75.2,36.417324,P-GPS,,11.1
222,487000,2026-01-07 15:42:00,0.0,5,7.155,0.0,0.0,0.0,7.8,6.3,-0.5,1024,1024,1024,1024,0,0,0,0,46,4.91,75.2,36.417324,P-GPS,,11.1
223,487100,2026-01-07 15:42:01,0.0,5,7.144,0.0,0.0,0.0,7.8,6.9,-0.7,1024,1024,1024,1024,0,0,0,0,46,4.984,75.2,36.417324,P-GPS,,11.1
224,487200,2026-01-07 15:42:01,0.0,5,7.144,0.0,0.0,0.0,7.8,7.3,-0.6,1024,1024,1024,1024,0,0,0,0,46,4.984,75.2,36.417324,P-GPS,,11.1
225,487300,2026-01-07 15:42:01,0.0,5,7.144,0.0,0.0,0.0,7.8,7.3,-0.4,1024,1024,1024,1024,0,0,0,0,46,4.984,75.2,36.417324,P-GPS,,11.1
226,487400,2026-01-07 15:42:01,0.0,5,7.144,0.0,0.0,0.0,7.7,7.3,-0.2,1024,1024,1024,1024,0,0,0,0,46,4.984,75.2,36.417324,P-GPS,,11.1
227,487500,2026-01-07 15:42:01,0.0,5,7.144,0.0,0.0,0.0,7.7,6.8,-0.4,1024,1024,1024,1024,0,0,0,0,46,4.984,75.2,36.417324,P-GPS,,11.1
228,487600,2026-01-07 15:42:01,0.0,5,7.144,0.0,0.0,0.0,7.7,6.4,-0.6,1024,1024,1024,1024,0,0,0,0,46,4.984,75.2,36.417324,P-GPS,,11.1
229,487700,2026-01-07 15:42:01,0.0,5,7.144,0.0,0.0,0.0,7.7,6.0,-0.5,1024,1024,1024,1024,0,0,0,0,46,4.984,75.2,36.417324,P-GPS,,11.1
230,487800,2026-01-07 15:42:01,0.0,5,7.144,0.0,0.0,0.0,7.8,6.4,-0.4,1024,1024,1024,1024,0,0,0,0,46,4.984,75.2,36.417324,P-GPS,,11.1
231,487900,2026-01-07 15:42:01,0.0,5,7.144,0.0,0.0,0.0,7.7,6.6,-0.2,1024,1024,1024,1024,0,0,0,0,46,4.984,75.2,36.417324,P-GPS,,11.1
232,488000,2026-01-07 15:42:01,0.0,5,7.144,0.0,0.0,0.0,7.7,6.6,0.0,1024,1024,1024,1024,0,0,0,0,46,4.984,75.2,36.417324,P-GPS,,11.1
233,488100,2026-01-07 15:42:02,0.0,5,7.144,0.0,0.0,0.0,7.7,6.7,0.5,1024,1024,1024,1024,0,0,0,0,46,4.984,75.2,36.417324,P-GPS,,11.1
234,488200,2026-01-07 15:42:02,0.0,5,7.145,0.0,0.0,0.0,7.7,6.9,0.8,1024,1024,1024,1024,0,0,0,0,46,4.972,75.2,36.745408,P-GPS,,11.2
235,488300,2026-01-07 15:42:02,0.0,5,7.145,0.0,0.0,0.0,7.7,7.1,1.2,1024,1024,1024,1024,0,0,0,0,46,4.972,75.2,36.745408,P-GPS,,11.2
236,488400,2026-01-07 15:42:02,0.0,5,7.145,0.0,0.0,0.0,7.7,6.7,1.2,1024,1024,1024,1024,0,0,0,0,46,4.972,75.2,36.745408,P-GPS,,11.2
237,488500,2026-01-07 15:42:02,0.0,5,7.145,0.0,0.0,0.0,7.7,6.4,1.4,1024,1024,1024,1024,0,0,0,0,46,4.972,75.2,36.745408,P-GPS,,11.2
238,488600,2026-01-07 15:42:02,0.0,5,7.145,0.0,0.0,0.0,7.7,6.2,1.3,1024,1024,1024,1024,0,0,0,0,46,4.972,75.2,36.745408,P-GPS,,11.2
239,488700,2026-01-07 15:42:02,0.0,5,7.145,0.0,0.0,0.0,7.6,6.3,0.9,1024,1024,1024,1024,0,0,0,0,46,4.972,75.2,36.745408,P-GPS,,11.2
240,488800,2026-01-07 15:42:02,0.0,5,7.145,0.0,0.0,0.0,7.6,5.8,0.8,1024,1024,1024,1024,0,0,0,0,46,4.972,75.2,36.745408,P-GPS,,11.2
241,488900,2026-01-07 15:42:02,0.0,5,7.145,0.0,0.0,0.0,7.6,5.8,0.8,1024,1024,1024,1024,0,0,0,0,46,4.972,75.2,36.745408,P-GPS,,11.2
242,489000,2026-01-07 15:42:03,0.0,5,7.145,0.0,0.0,0.0,7.7,5.9,1.2,1024,1024,1024,1024,0,0,0,0,46,4.972,75.2,36.745408,P-GPS,,11.2
243,489100,2026-01-07 15:42:03,0.0,5,7.145,0.0,0.0,0.0,7.7,5.9,1.5,1024,1024,1024,1024,0,0,0,0,46,4.972,75.2,36.745408,P-GPS,,11.2
244,489200,2026-01-07 15:42:03,0.0,5,7.145,0.0,0.0,0.0,7.7,5.7,1.6,1024,1024,1024,1024,0,0,0,0,46,4.972,75.2,36.745408,P-GPS,,11.2
245,489300,2026-01-07 15:42:03,0.0,5,7.146,0.0,0.0,0.0,7.7,5.3,1.4,1024,1024,1024,1024,0,0,0,0,46,4.958,75.2,36.417324,P-GPS,,11.1
246,489400,2026-01-07 15:42:03,0.0,5,7.146,0.0,0.0,0.0,7.7,4.8,1.8,1024,1024,1024,1024,0,0,0,0,46,4.958,75.2,36.417324,P-GPS,,11.1
247,489500,2026-01-07 15:42:03,0.0,5,7.146,0.0,0.0,0.0,7.8,5.0,1.3,1024,1024,1024,1024,0,0,0,0,46,4.958,75.2,36.417324,P-GPS,,11.1
248,489600,2026-01-07 15:42:03,0.0,5,7.146,0.0,0.0,0.0,7.7,4.8,1.0,1024,1024,1024,1024,0,0,0,0,46,4.958,75.2,36.417324,P-GPS,,11.1
249,489700,2026-01-07 15:42:03,0.0,5,7.146,0.0,0.0,0.0,7.6,4.8,0.7,1024,1024,1024,1024,0,0,0,0,46,4.958,75.2,36.417324,P-GPS,,11.1
250,489800,2026-01-07 15:42:03,0.0,5,7.146,0.0,0.0,0.0,7.6,5.2,1.0,1024,1024,1024,1024,0,0,0,0,46,4.958,75.2,36.417324,P-GPS,,11.1
251,489900,2026-01-07 15:42:03,0.0,5,7.146,0.0,0.0,0.0,7.5,5.5,1.4,1024,1024,1024,1024,0,0,0,0,46,4.958,75.2,36.417324,P-GPS,,11.1
252,490000,2026-01-07 15:42:03,0.0,5,7.146,0.0,0.0,0.0,7.6,6.0,2.2,1024,1024,1024,1024,0,0,0,0,46,4.958,75.2,36.417324,P-GPS,,11.1
253,490100,2026-01-07 15:42:04,0.0,5,7.146,0.0,0.0,0.0,7.8,5.9,2.7,1024,1024,1024,1024,0,0,0,0,46,4.958,75.2,36.417324,P-GPS,,11.1
254,490200,2026-01-07 15:42:04,0.0,5,7.146,0.0,0.0,0.0,7.9,7.0,2.2,1024,1024,1024,1024,0,0,0,0,46,4.958,75.2,36.417324,P-GPS,,11.1
255,490300,2026-01-07 15:42:04,0.0,5,7.146,0.0,0.0,0.0,7.9,6.5,2.2,1024,1024,1024,1024,0,0,0,0,46,4.958,75.2,36.417324,P-GPS,,11.1
256,490400,2026-01-07 15:42:04,0.0,5,7.146,0.0,0.0,0.0,7.7,5.8,1.4,1024,1024,1024,1024,0,0,0,0,46,4.958,75.2,36.417324,P-GPS,,11.1
257,490500,2026-01-07 15:42:04,0.0,5,7.146,0.0,0.0,0.0,7.6,5.7,1.3,1024,1024,1024,1024,0,0,0,0,46,4.958,75.2,36.417324,P-GPS,,11.1
258,490600,2026-01-07 15:42:04,0.0,5,7.146,0.0,0.0,0.0,7.6,5.5,1.3,1024,1024,1024,1024,0,0,0,0,46,4.958,75.2,36.417324,P-GPS,,11.1
259,490700,2026-01-07 15:42:04,0.0,5,7.146,0.0,0.0,0.0,7.7,5.8,1.5,1024,1024,1024,1024,0,0,0,0,46,4.958,75.2,36.417324,P-GPS,,11.1
260,490800,2026-01-07 15:42:04,0.0,5,7.146,0.0,0.0,0.0,7.7,5.9,1.6,1024,1024,1024,1024,0,0,0,0,46,4.958,75.2,36.417324,P-GPS,,11.1
261,490900,2026-01-07 15:42:04,0.0,5,7.146,0.0,0.0,0.0,7.7,6.0,1.7,1024,1024,1024,1024,0,0,0,0,46,4.958,75.2,36.417324,P-GPS,,11.1
262,491000,2026-01-07 15:42:05,0.0,5,7.146,0.0,0.0,0.0,7.7,6.0,2.0,1024,1024,1024,1024,0,0,0,0,46,4.958,75.2,36.417324,P-GPS,,11.1
263,491100,2026-01-07 15:42:05,0.0,5,7.146,0.0,0.0,0.0,7.7,5.6,2.3,1024,1024,1024,1024,0,0,0,0,46,4.958,75.2,36.417324,P-GPS,,11.1
264,491200,2026-01-07 15:42:05,0.0,5,7.146,0.0,0.0,0.0,7.6,5.5,2.3,1024,1024,1024,1024,0,0,0,0,46,4.958,75.2,36.417324,P-GPS,,11.1
265,491300,2026-01-07 15:42:05,0.0,5,7.146,0.0,0.0,0.0,7.6,5.5,1.8,1024,1024,1024,1024,0,0,0,0,46,4.958,75.2,36.745408,P-GPS,,11.2
266,491400,2026-01-07 15:42:05,0.0,5,7.146,0.0,0.0,0.0,7.6,5.2,2.0,1024,1024,1024,1024,0,0,0,0,46,4.958,75.2,36.745408,P-GPS,,11.2
267,491500,2026-01-07 15:42:05,0.0,5,7.134,0.0,0.0,0.0,7.7,5.5,2.2,1024,1024,1024,1024,0,0,0,0,46,5.046,75.2,36.417324,P-GPS,,11.1
268,491600,2026-01-07 15:42:05,0.0,5,7.134,0.0,0.0,0.0,7.7,5.4,1.8,1024,1024,1024,1024,0,0,0,0,46,5.046,75.2,36.417324,P-GPS,,11.1
269,491700,2026-01-07 15:42:05,0.0,5,7.134,0.0,0.0,0.0,7.8,5.7,1.6,1024,1024,1024,1024,0,0,0,0,46,5.046,75.2,36.417324,P-GPS,,11.1
270,491800,2026-01-07 15:42:05,0.0,5,7.134,0.0,0.0,0.0,7.8,5.7,0.9,1024,1024,1024,1024,0,0,0,0,46,5.046,75.2,36.417324,P-GPS,,11.1
271,491900,2026-01-07 15:42:05,0.0,5,7.134,0.0,0.0,0.0,7.7,5.1,0.1,1024,1024,1024,1024,0,0,0,0,46,5.046,75.2,36.417324,P-GPS,,11.1
272,492000,2026-01-07 15:42:05,0.0,5,7.134,0.0,0.0,0.0,7.6,5.3,0.6,1024,1024,1024,1024,0,0,0,0,46,5.046,75.2,36.417324,P-GPS,,11.1
273,492100,2026-01-07 15:42:06,0.0,5,7.134,0.0,0.0,0.0,7.7,5.4,1.0,1024,1024,1024,1024,0,0,0,0,46,5.046,75.2,36.417324,P-GPS,,11.1
274,492200,2026-01-07 15:42:06,0.0,5,7.134,0.0,0.0,0.0,7.6,5.0,1.7,1024,1024,1024,1024,0,0,0,0,46,5.046,75.2,36.417324,P-GPS,,11.1
275,492300,2026-01-07 15:42:06,0.0,5,7.134,0.0,0.0,0.0,7.6,4.6,1.8,1024,1024,1024,1024,0,0,0,0,46,5.046,75.2,36.417324,P-GPS,,11.1
276,492400,2026-01-07 15:42:06,0.0,5,7.134,0.0,0.0,0.0,7.5,4.2,2.0,1024,1024,1024,1024,0,0,0,0,46,5.046,75.2,36.745408,P-GPS,,11.2
277,492500,2026-01-07 15:42:06,0.0,5,7.134,0.0,0.0,0.0,7.5,4.5,2.1,1024,1024,1024,1024,0,0,0,0,46,5.046,75.2,36.745408,P-GPS,,11.2
278,492600,2026-01-07 15:42:06,0.0,5,7.11,0.0,0.0,0.0,7.5,4.8,1.9,1024,1024,1024,1024,0,0,0,0,46,5.227,75.2,36.745408,P-GPS,,11.2
279,492700,2026-01-07 15:42:06,0.0,5,7.11,0.0,0.0,0.0,7.6,5.2,1.5,1024,1024,1024,1024,0,0,0,0,46,5.227,75.2,36.745408,P-GPS,,11.2
280,492800,2026-01-07 15:42:06,0.0,5,7.11,0.0,0.0,0.0,7.7,5.4,1.3,1024,1024,1024,1024,0,0,0,0,46,5.227,75.2,36.745408,P-GPS,,11.2
281,492900,2026-01-07 15:42:06,0.0,5,7.11,0.0,0.0,0.0,7.8,5.1,1.2,1024,1024,1024,1024,0,0,0,0,46,5.227,75.2,36.745408,P-GPS,,11.2
282,493000,2026-01-07 15:42:07,0.0,5,7.11,0.0,0.0,0.0,7.8,5.0,1.2,1024,1024,1024,1024,0,0,0,0,46,5.227,75.2,36.745408,P-GPS,,11.2
283,493100,2026-01-07 15:42:07,0.0,5,7.11,0.0,0.0,0.0,7.8,4.7,1.0,1024,1024,1024,1024,0,0,0,0,46,5.227,75.2,36.745408,P-GPS,,11.2
284,493200,2026-01-07 15:42:07,0.0,5,7.11,0.0,0.0,0.0,7.9,4.2,0.8,1024,1024,1024,1024,0,0,0,0,46,5.227,75.2,36.745408,P-GPS,,11.2
285,493300,2026-01-07 15:42:07,0.0,5,7.11,0.0,0.0,0.0,7.8,4.7,0.8,1024,1024,1024,1024,0,0,0,0,46,5.227,75.2,36.745408,P-GPS,,11.2
286,493400,2026-01-07 15:42:07,0.0,5,7.11,0.0,0.0,0.0,7.8,4.4,0.9,1024,1024,1024,1024,0,0,0,0,46,5.227,75.2,36.745408,P-GPS,,11.2
287,493500,2026-01-07 15:42:07,0.0,5,7.11,0.0,0.0,0.0,7.8,4.7,0.7,1024,1024,1024,1024,0,0,0,0,46,5.227,75.2,36.745408,P-GPS,,11.2
288,493600,2026-01-07 15:42:07,0.0,5,7.11,0.0,0.0,0.0,7.9,4.9,0.8,1024,1024,1024,1024,0,0,0,0,46,5.227,75.2,36.745408,P-GPS,,11.2
289,493700,2026-01-07 15:42:07,0.0,5,7.112,0.0,0.0,0.0,7.9,5.1,0.7,1024,1024,1024,1024,0,0,0,0,46,5.246,75.38,36.745408,P-GPS,,11.2
290,493800,2026-01-07 15:42:07,0.0,5,7.112,0.0,0.0,0.0,7.9,5.2,0.7,1024,1024,1024,1024,0,0,0,0,46,5.246,75.38,36.745408,P-GPS,,11.2
291,493900,2026-01-07 15:42:07,0.0,5,7.112,0.0,0.0,0.0,7.9,5.6,0.6,1024,1024,1024,1024,0,0,0,0,46,5.246,75.38,36.745408,P-GPS,,11.2
292,494000,2026-01-07 15:42:07,0.0,5,7.112,0.0,0.0,0.0,7.9,6.0,0.2,1024,1024,1024,1024,0,0,0,0,46,5.246,75.38,36.745408,P-GPS,,11.2
293,494100,2026-01-07 15:42:08,0.0,5,7.112,0.0,0.0,0.0,7.9,4.9,0.4,1024,1024,1024,1024,0,0,0,0,46,5.246,75.38,36.745408,P-GPS,,11.2
294,494200,2026-01-07 15:42:08,0.0,5,7.112,0.0,0.0,0.0,7.9,4.7,-0.1,1024,1024,1024,1024,0,0,0,0,46,5.246,75.38,36.745408,P-GPS,,11.2
295,494300,2026-01-07 15:42:08,0.0,5,7.112,0.0,0.0,0.0,7.8,4.6,0.0,1024,1024,1024,1024,0,0,0,0,46,5.246,75.38,36.745408,P-GPS,,11.2
296,494400,2026-01-07 15:42:08,0.0,5,7.112,0.0,0.0,0.0,7.9,5.2,0.1,1024,1024,1024,1024,0,0,0,0,46,5.246,75.38,36.745408,P-GPS,,11.2
297,494500,2026-01-07 15:42:08,0.0,5,7.112,0.0,0.0,0.0,7.9,5.4,-0.1,1024,1024,1024,1024,0,0,0,0,46,5.246,75.38,36.745408,P-GPS,,11.2
298,494600,2026-01-07 15:42:08,0.0,5,7.112,0.0,0.0,0.0,8.0,5.3,0.0,1024,1024,1024,1024,0,0,0,0,46,5.246,75.38,36.745408,P-GPS,,11.2
299,494700,2026-01-07 15:42:08,0.0,5,7.112,0.0,0.0,0.0,8.1,6.3,-0.2,1024,1024,1024,1024,0,0,0,0,46,5.246,75.38,36.745408,P-GPS,,11.2
300,494800,2026-01-07 15:42:08,0.0,5,7.141,0.0,0.0,0.0,7.8,7.2,-1.6,1024,1024,1024,1024,0,0,0,0,46,4.763,75.2,36.745408,P-GPS,,11.2
301,494900,2026-01-07 15:42:08,0.0,5,7.141,0.0,0.0,0.0,7.7,7.1,-0.6,1024,1024,1024,1024,0,0,0,0,46,4.763,75.2,36.745408,P-GPS,,11.2
302,495000,2026-01-07 15:42:08,0.0,5,7.141,0.0,0.0,0.0,7.7,6.4,0.3,1024,1024,1024,1024,0,0,0,0,46,4.763,75.2,36.745408,P-GPS,,11.2
303,495100,2026-01-07 15:42:09,0.0,5,7.141,0.0,0.0,0.0,7.9,5.9,1.2,1024,1024,1024,1024,0,0,0,0,46,4.763,75.2,36.745408,P-GPS,,11.2
304,495200,2026-01-07 15:42:09,0.0,5,7.141,0.0,0.0,0.0,8.0,5.6,0.6,1024,1024,1024,1024,0,0,0,0,46,4.763,75.2,36.745408,P-GPS,,11.2
305,495300,2026-01-07 15:42:09,0.0,5,7.141,0.0,0.0,0.0,8.0,6.4,0.1,1024,1024,1024,1024,0,0,0,0,46,4.763,75.2,36.417324,P-GPS,,11.1
306,495400,2026-01-07 15:42:09,0.0,5,7.141,0.0,0.0,0.0,8.0,6.4,0.0,1024,1024,1024,1024,0,0,0,0,46,4.763,75.2,36.417324,P-GPS,,11.1
307,495500,2026-01-07 15:42:09,0.0,5,7.141,0.0,0.0,0.0,8.0,5.9,-0.3,1024,1024,1024,1024,0,0,0,0,46,4.763,75.2,36.417324,P-GPS,,11.1
308,495600,2026-01-07 15:42:09,0.0,5,7.141,0.0,0.0,0.0,7.9,5.2,-0.5,1024,1024,1024,1024,0,0,0,0,46,4.763,75.2,36.417324,P-GPS,,11.1
309,495700,2026-01-07 15:42:09,0.0,5,7.141,0.0,0.0,0.0,8.0,5.0,-0.4,1024,1024,1024,1024,0,0,0,0,46,4.763,75.2,36.417324,P-GPS,,11.1
310,495800,2026-01-07 15:42:09,0.0,5,7.141,0.0,0.0,0.0,8.0,5.2,-0.6,1024,1024,1024,1024,0,0,0,0,46,4.763,75.2,36.417324,P-GPS,,11.1
311,495900,2026-01-07 15:42:09,0.0,5,7.146,0.0,0.0,0.0,7.9,5.7,-1.3,1024,1024,1024,1024,0,0,0,0,46,4.534,75.2,36.417324,P-GPS,,11.1
312,496000,2026-01-07 15:42:10,0.0,5,7.146,0.0,0.0,0.0,7.7,5.6,-1.9,1024,1024,1024,1024,0,0,0,0,46,4.534,75.2,36.417324,P-GPS,,11.1
313,496100,2026-01-07 15:42:10,0.0,5,7.146,0.0,0.0,0.0,7.6,5.4,-1.5,1024,1024,1024,1024,0,0,0,0,46,4.534,75.2,36.417324,P-GPS,,11.1
314,496200,2026-01-07 15:42:10,0.0,5,7.146,0.0,0.0,0.0,7.5,5.2,-0.3,1024,1024,1024,1024,0,0,0,0,46,4.534,75.2,36.417324,P-GPS,,11.1
315,496300,2026-01-07 15:42:10,0.0,5,7.146,0.0,0.0,0.0,7.7,5.1,0.4,1024,1024,1024,1024,0,0,0,0,46,4.534,75.2,36.745408,P-GPS,,11.2
316,496400,2026-01-07 15:42:10,0.0,5,7.146,0.0,0.0,0.0,7.9,5.2,0.6,1024,1024,1024,1024,0,0,0,0,46,4.534,75.2,36.745408,P-GPS,,11.2
317,496500,2026-01-07 15:42:10,0.0,5,7.146,0.0,0.0,0.0,7.9,5.5,0.4,1024,1024,1024,1024,0,0,0,0,46,4.534,75.2,36.745408,P-GPS,,11.2
318,496600,2026-01-07 15:42:10,0.0,5,7.146,0.0,0.0,0.0,7.8,5.2,-0.2,1024,1024,1024,1024,0,0,0,0,46,4.534,75.2,36.745408,P-GPS,,11.2
319,496700,2026-01-07 15:42:10,0.0,5,7.146,0.0,0.0,0.0,7.8,5.1,-0.4,1024,1024,1024,1024,0,0,0,0,46,4.534,75.2,36.745408,P-GPS,,11.2
320,496800,2026-01-07 15:42:10,0.0,5,7.146,0.0,0.0,0.0,7.9,5.1,-0.2,1024,1024,1024,1024,0,0,0,0,46,4.534,75.2,36.745408,P-GPS,,11.2
321,496900,2026-01-07 15:42:10,0.0,5,7.146,0.0,0.0,0.0,7.7,4.5,-0.4,1024,1024,1024,1024,0,0,0,0,46,4.534,75.2,36.745408,P-GPS,,11.2
322,497000,2026-01-07 15:42:10,0.0,5,7.142,0.0,0.0,0.0,7.7,4.3,-0.6,1024,1024,1024,1024,0,0,0,0,46,4.599,75.38,36.745408,P-GPS,,11.2
323,497100,2026-01-07 15:42:11,0.0,5,7.142,0.0,0.0,0.0,7.5,4.3,-0.8,1024,1024,1024,1024,0,0,0,0,46,4.599,75.38,36.745408,P-GPS,,11.2
324,497200,2026-01-07 15:42:11,0.0,5,7.142,0.0,0.0,0.0,7.5,4.3,-0.3,1024,1024,1024,1024,0,0,0,0,46,4.599,75.38,36.745408,P-GPS,,11.2
325,497300,2026-01-07 15:42:11,0.0,5,7.142,0.0,0.0,0.0,7.5,4.4,0.5,1024,1024,1024,1024,0,0,0,0,46,4.599,75.38,37.073492,P-GPS,,11.3
326,497400,2026-01-07 15:42:11,0.0,5,7.142,0.0,0.0,0.0,7.8,4.7,0.8,1024,1024,1024,1024,0,0,0,0,46,4.599,75.38,37.073492,P-GPS,,11.3
327,497500,2026-01-07 15:42:11,0.0,5,7.142,0.0,0.0,0.0,7.9,4.6,0.4,1024,1024,1024,1024,0,0,0,0,46,4.599,75.38,37.073492,P-GPS,,11.3
328,497600,2026-01-07 15:42:11,0.0,5,7.142,0.0,0.0,0.0,7.9,4.8,0.1,1024,1024,1024,1024,0,0,0,0,46,4.599,75.38,37.073492,P-GPS,,11.3
329,497700,2026-01-07 15:42:11,0.0,5,7.142,0.0,0.0,0.0,7.8,4.8,-0.4,1024,1024,1024,1024,0,0,0,0,46,4.599,75.38,37.073492,P-GPS,,11.3
330,497800,2026-01-07 15:42:11,0.0,5,7.142,0.0,0.0,0.0,7.8,4.3,-0.6,1024,1024,1024,1024,0,0,0,0,46,4.599,75.38,37.073492,P-GPS,,11.3
331,497900,2026-01-07 15:42:11,0.0,5,7.142,0.0,0.0,0.0,7.6,3.8,-0.9,1024,1024,1024,1024,0,0,0,0,46,4.599,75.38,37.073492,P-GPS,,11.3
332,498000,2026-01-07 15:42:12,0.0,5,7.142,0.0,0.0,0.0,7.4,4.5,-1.0,1024,1024,1024,1024,0,0,0,0,46,4.599,75.38,37.073492,P-GPS,,11.3
333,498100,2026-01-07 15:42:12,0.0,5,7.139,0.0,0.0,0.0,7.2,5.5,-0.5,1024,1024,1024,1024,0,0,0,0,46,4.58,75.2,37.073492,P-GPS,,11.3
334,498200,2026-01-07 15:42:12,0.223694,5,7.139,0.0,-0.223694,0.0,7.3,6.2,0.4,1024,1024,1024,1024,0,0,0,0,46,4.58,75.2,37.073492,P-GPS,,11.3
335,498300,2026-01-07 15:42:12,0.223694,5,7.139,0.0,-0.223694,0.0,7.5,7.0,1.9,1024,1024,1024,1024,0,0,0,0,46,4.58,75.2,37.073492,P-GPS,,11.3
336,498400,2026-01-07 15:42:12,0.223694,5,7.139,0.0,-0.223694,0.0,7.6,7.0,2.5,1024,1024,1024,1024,0,0,0,0,46,4.58,75.2,37.073492,P-GPS,,11.3
337,498500,2026-01-07 15:42:12,0.223694,5,7.139,0.0,-0.223694,0.0,7.5,6.9,3.3,1024,1024,1024,1024,0,0,0,0,46,4.58,75.2,37.073492,P-GPS,,11.3
338,498600,2026-01-07 15:42:12,0.223694,5,7.139,0.0,-0.223694,0.0,7.5,6.3,3.9,1024,1024,1024,1024,0,0,0,0,46,4.58,75.2,37.401576,P-GPS,,11.4
339,498700,2026-01-07 15:42:12,0.223694,5,7.139,0.0,-0.223694,0.0,7.6,6.2,3.8,1024,1024,1024,1024,0,0,0,0,46,4.58,75.2,37.401576,P-GPS,,11.4
340,498800,2026-01-07 15:42:12,0.223694,5,7.139,0.0,-0.223694,0.0,7.6,6.0,4.2,1024,1024,1024,1024,0,0,0,0,46,4.58,75.2,37.401576,P-GPS,,11.4
341,498900,2026-01-07 15:42:12,0.223694,5,7.139,0.0,-0.223694,0.0,7.6,5.7,4.3,1024,1024,1024,1024,0,0,0,0,46,4.58,75.2,37.401576,P-GPS,,11.4
342,499000,2026-01-07 15:42:12,0.0,5,7.139,0.0,0.0,0.0,7.7,6.4,3.8,1024,1024,1024,1024,0,0,0,0,46,4.58,75.2,37.401576,P-GPS,,11.4
343,499100,2026-01-07 15:42:13,0.0,5,7.139,0.0,0.0,0.0,7.6,6.1,3.8,1024,1024,1024,1024,0,0,0,0,46,4.58,75.2,37.401576,P-GPS,,11.4
344,499200,2026-01-07 15:42:13,0.0,5,7.139,0.0,0.0,0.0,7.5,5.8,3.8,1024,1024,1024,1024,0,0,0,0,46,4.58,75.2,37.401576,P-GPS,,11.4
345,499300,2026-01-07 15:42:13,0.0,5,7.12,0.0,0.0,0.0,7.4,5.3,3.8,1024,1024,1024,1024,0,0,0,0,46,5.011,75.2,37.401576,P-GPS,,11.4
346,499400,2026-01-07 15:42:13,0.0,5,7.12,0.0,0.0,0.0,7.4,4.9,3.5,1024,1024,1024,1024,0,0,0,0,46,5.011,75.2,37.72966,P-GPS,,11.5
347,499500,2026-01-07 15:42:13,0.0,5,7.12,0.0,0.0,0.0,7.6,5.4,3.4,1024,1024,1024,1024,0,0,0,0,46,5.011,75.2,37.72966,P-GPS,,11.5
348,499600,2026-01-07 15:42:13,0.0,5,7.12,0.0,0.0,0.0,7.6,5.8,3.3,1024,1024,1024,1024,0,0,0,0,46,5.011,75.2,37.72966,P-GPS,,11.5
349,499700,2026-01-07 15:42:13,0.0,5,7.12,0.0,0.0,0.0,7.5,5.0,2.9,1024,1024,1024,1024,0,0,0,0,46,5.011,75.2,37.72966,P-GPS,,11.5
350,499800,2026-01-07 15:42:13,0.0,5,7.12,0.0,0.0,0.0,7.5,5.1,3.0,1024,1024,1024,1024,0,0,0,0,46,5.011,75.2,37.72966,P-GPS,,11.5
351,499900,2026-01-07 15:42:13,0.0,5,7.12,0.0,0.0,0.0,7.6,5.1,2.9,1024,1024,1024,1024,0,0,0,0,46,5.011,75.2,37.72966,P-GPS,,11.5
352,500000,2026-01-07 15:42:13,0.0,5,7.12,0.0,0.0,0.0,7.7,5.2,2.6,1024,1024,1024,1024,0,0,0,0,46,5.011,75.2,37.72966,P-GPS,,11.5
353,500100,2026-01-07 15:42:14,0.0,5,7.12,0.0,0.0,0.0,7.7,5.5,2.9,1024,1024,1024,1024,0,0,0,0,46,5.011,75.2,37.72966,P-GPS,,11.5
354,500200,2026-01-07 15:42:14,0.0,5,7.12,0.0,0.0,0.0,7.7,5.9,3.2,1024,1024,1024,1024,0,0,0,0,46,5.011,75.2,37.72966,P-GPS,,11.5
355,500300,2026-01-07 15:42:14,0.0,5,7.12,0.0,0.0,0.0,7.8,6.4,3.0,1024,1024,1024,1024,0,0,0,0,46,5.011,75.2,37.72966,P-GPS,,11.5
356,500400,2026-01-07 15:42:14,0.0,5,7.12,0.0,0.0,0.0,7.7,6.3,2.5,1024,1024,1024,1024,0,0,0,0,46,5.011,75.2,37.72966,P-GPS,,11.5
357,500500,2026-01-07 15:42:14,0.0,5,7.12,0.0,0.0,0.0,7.7,6.7,2.3,1024,1024,1024,1024,0,0,0,0,46,5.011,75.2,37.72966,P-GPS,,11.5
358,500600,2026-01-07 15:42:14,0.0,5,7.12,0.0,0.0,0.0,7.6,5.7,2.0,1024,1024,1024,1024,0,0,0,0,46,5.011,75.2,37.72966,P-GPS,,11.5
359,500700,2026-01-07 15:42:14,0.0,5,7.12,0.0,0.0,0.0,7.7,5.3,2.4,1024,1024,1024,1024,0,0,0,0,46,5.011,75.2,37.72966,P-GPS,,11.5
360,500800,2026-01-07 15:42:14,0.0,5,7.12,0.0,0.0,0.0,7.8,5.3,1.9,1024,1024,1024,1024,0,0,0,0,46,5.011,75.2,37.72966,P-GPS,,11.5
361,500900,2026-01-07 15:42:14,0.0,5,7.12,0.0,0.0,0.0,7.9,5.0,1.6,1024,1024,1024,1024,0,0,0,0,46,5.011,75.2,37.72966,P-GPS,,11.5
362,501000,2026-01-07 15:42:14,0.223694,5,7.12,-0.223694,0.0,0.0,8.0,4.2,1.9,1024,1024,1024,1024,0,0,0,0,45,5.011,75.2,37.72966,P-GPS,,11.5
363,501100,2026-01-07 15:42:15,0.223694,5,7.12,-0.223694,0.0,0.0,7.9,3.4,2.1,1024,1024,1024,1024,0,0,0,0,45,5.011,75.2,37.72966,P-GPS,,11.5
364,501200,2026-01-07 15:42:15,0.223694,5,7.12,-0.223694,0.0,0.0,7.8,3.0,1.9,1024,1024,1024,1024,0,0,0,0,45,5.011,75.2,37.401576,P-GPS,,11.4
365,501300,2026-01-07 15:42:15,0.223694,5,7.12,-0.223694,0.0,0.0,7.7,2.7,1.6,1024,1024,1024,1024,0,0,0,0,45,5.011,75.2,37.401576,P-GPS,,11.4
366,501400,2026-01-07 15:42:15,0.223694,5,7.134,-0.223694,0.0,0.0,7.7,2.4,1.2,1024,1024,1024,1024,0,0,0,0,45,5.079,75.2,37.401576,P-GPS,,11.4
367,501500,2026-01-07 15:42:15,0.223694,5,7.134,-0.223694,0.0,0.0,7.6,2.3,1.1,1024,1024,1024,1024,0,0,0,0,45,5.079,75.2,37.401576,P-GPS,,11.4
368,501600,2026-01-07 15:42:15,0.0,5,7.134,0.0,0.0,0.0,7.6,2.0,1.2,1024,1024,1024,1024,0,0,0,0,45,5.079,75.2,37.401576,P-GPS,,11.4
369,501700,2026-01-07 15:42:15,0.0,5,7.134,0.0,0.0,0.0,7.6,1.9,0.6,1024,1024,1024,1024,0,0,0,0,45,5.079,75.2,37.401576,P-GPS,,11.4
370,501800,2026-01-07 15:42:15,0.0,5,7.134,0.0,0.0,0.0,7.6,2.5,0.7,1024,1024,1024,1024,0,0,0,0,45,5.079,75.2,37.401576,P-GPS,,11.4
371,501900,2026-01-07 15:42:15,0.0,5,7.134,0.0,0.0,0.0,7.6,2.9,0.0,1024,1024,1024,1024,0,0,0,0,45,5.079,75.2,37.401576,P-GPS,,11.4
