time(millisecond),timestamp,speed(mph),gpslevel,voltage(v),xSpeed(mph),ySpeed(mph),zSpeed(mph),compass_heading(degrees),pitch(degrees),roll(degrees),rc_elevator,rc_aileron,rc_throttle,rc_rudder,rc_elevator(percent),rc_aileron(percent),rc_throttle(percent),rc_rudder(percent),battery_percent,current(A),battery_temperature(f),ascent(feet),flycState,message,height_above_takeoff(meters)
471400,2026-01-07 15:41:45,0.0,5,7.141,0.0,0.0,-4.47388,7.7,8.2,1.7,1024,1024,1684,1024,0,0,100,0,47,6.098,75.2,26.574804,P-GPS,,8.1
471500,2026-01-07 15:41:45,0.0,5,7.141,0.0,0.0,-4.47388,7.7,8.8,1.5,1024,1024,1684,1024,0,0,100,0,47,6.098,75.2,26.902888,P-GPS,,8.2
471600,2026-01-07 15:41:45,0.0,5,7.126,0.0,0.0,-4.250186,7.7,9.2,1.1,1024,1024,1684,1024,0,0,100,0,47,6.272,75.2,27.559056,P-GPS,,8.4
471700,2026-01-07 15:41:45,0.0,5,7.126,0.0,0.0,-4.250186,7.9,9.3,1.6,1024,1024,1684,1024,0,0,100,0,47,6.272,75.2,28.215224,P-GPS,,8.6
471800,2026-01-07 15:41:45,0.0,5,7.126,0.0,0.0,-4.250186,7.9,8.9,2.1,1024,1024,1684,1024,0,0,100,0,47,6.272,75.2,28.871392,P-GPS,,8.8
471900,2026-01-07 15:41:45,0.0,5,7.126,0.0,0.0,-4.250186,7.9,8.3,2.5,1024,1024,1684,1024,0,0,100,0,47,6.272,75.2,29.52756,P-GPS,,9.0
472000,2026-01-07 15:41:45,0.0,5,7.126,0.0,0.0,-4.47388,7.9,8.7,1.8,1024,1024,1684,1024,0,0,100,0,47,6.272,75.2,30.183728,P-GPS,,9.2
472100,2026-01-07 15:41:46,0.0,5,7.126,0.0,0.0,-4.47388,7.8,9.4,1.2,1024,1024,1684,1024,0,0,100,0,47,6.272,75.2,30.839896,P-GPS,,9.4
472200,2026-01-07 15:41:46,0.0,5,7.126,0.0,0.0,-4.250186,7.6,8.3,0.8,1024,1024,1684,1024,0,0,100,0,47,6.272,75.2,31.16798,P-GPS,,9.5
472300,2026-01-07 15:41:46,0.0,5,7.126,0.0,0.0,-4.47388,7.5,6.6,0.9,1024,1024,1684,1024,0,0,100,0,47,6.272,75.2,31.824148,P-GPS,,9.7
472400,2026-01-07 15:41:46,0.0,5,7.126,0.0,0.0,-4.47388,7.5,6.6,1.2,1024,1024,1684,1024,0,0,100,0,47,6.272,75.2,32.480316,P-GPS,,9.9
472500,2026-01-07 15:41:46,0.223694,5,7.126,-0.223694,0.0,-4.47388,7.5,6.0,1.2,1024,1024,1684,1024,0,0,100,0,47,6.272,75.2,33.136484,P-GPS,,10.1
472600,2026-01-07 15:41:46,0.0,5,7.126,0.0,0.0,-4.47388,7.7,6.9,1.1,1024,1024,1684,1024,0,0,100,0,47,6.272,75.2,33.464568,P-GPS,,10.2
472700,2026-01-07 15:41:46,0.0,5,7.13,0.0,0.0,-4.47388,7.7,7.6,1.2,1024,1024,1024,1024,0,0,0,0,47,6.372,75.2,34.120736,P-GPS,,10.4
472800,2026-01-07 15:41:46,0.0,5,7.13,0.0,0.0,-4.47388,7.8,8.2,1.4,1024,1024,1024,1024,0,0,0,0,47,6.372,75.2,34.776904,P-GPS,,10.6
472900,2026-01-07 15:41:46,0.0,5,7.13,0.0,0.0,-4.250186,7.8,7.7,1.2,1024,1024,1024,1024,0,0,0,0,47,6.372,75.2,35.104988,P-GPS,,10.7
473000,2026-01-07 15:41:46,0.0,5,7.13,0.0,0.0,-3.579104,7.7,7.4,0.9,1024,1024,1024,1024,0,0,0,0,47,6.372,75.2,35.761156,P-GPS,,10.9
473100,2026-01-07 15:41:47,0.223694,5,7.13,-0.223694,0.0,-2.908022,7.6,6.8,1.1,1024,1024,1024,1024,0,0,0,0,47,6.372,75.2,36.08924,P-GPS,,11.0
473200,2026-01-07 15:41:47,0.223694,5,7.13,-0.223694,0.0,-2.23694,7.6,6.3,1.1,1024,1024,1024,1024,0,0,0,0,47,6.372,75.2,36.417324,P-GPS,,11.1
473300,2026-01-07 15:41:47,0.0,5,7.13,0.0,0.0,-1.565858,7.6,6.3,1.2,1024,1024,1024,1024,0,0,0,0,47,6.372,75.2,36.417324,P-GPS,,11.1
473400,2026-01-07 15:41:47,0.0,5,7.13,0.0,0.0,-0.671082,7.7,6.3,1.3,1024,1024,1024,1024,0,0,0,0,47,6.372,75.2,36.417324,P-GPS,,11.1
473500,2026-01-07 15:41:47,0.0,5,7.13,0.0,0.0,-0.223694,7.7,6.4,1.6,1024,1024,1024,1024,0,0,0,0,47,6.372,75.2,36.417324,P-GPS,,11.1
473600,2026-01-07 15:41:47,0.0,5,7.13,0.0,0.0,0.0,7.8,5.9,1.7,1024,1024,1024,1024,0,0,0,0,47,6.372,75.2,36.417324,P-GPS,,11.1
473700,2026-01-07 15:41:47,0.0,5,7.13,0.0,0.0,0.0,7.8,6.1,1.2,1024,1024,1024,1024,0,0,0,0,47,6.372,75.2,36.417324,P-GPS,,11.1
473800,2026-01-07 15:41:47,0.0,5,7.176,0.0,0.0,0.0,7.8,6.7,1.2,1024,1024,1024,1024,0,0,0,0,47,4.545,75.2,36.417324,P-GPS,,11.1
473900,2026-01-07 15:41:47,0.0,5,7.176,0.0,0.0,0.0,7.8,6.7,1.2,1024,1024,1024,1024,0,0,0,0,47,4.545,75.2,36.417324,P-GPS,,11.1
474000,2026-01-07 15:41:47,0.0,5,7.176,0.0,0.0,0.0,7.7,7.1,1.2,1024,1024,1024,1024,0,0,0,0,47,4.545,75.2,36.417324,P-GPS,,11.1
474100,2026-01-07 15:41:48,0.0,5,7.176,0.0,0.0,0.0,7.7,7.1,0.9,1024,1024,1024,1024,0,0,0,0,47,4.545,75.2,36.417324,P-GPS,,11.1
474200,2026-01-07 15:41:48,0.0,5,7.176,0.0,0.0,0.0,7.6,6.1,0.9,1024,1024,1024,1024,0,0,0,0,47,4.545,75.2,36.08924,P-GPS,,11.0
474300,2026-01-07 15:41:48,0.0,5,7.176,0.0,0.0,0.0,7.6,5.9,0.8,1024,1024,1024,1024,0,0,0,0,47,4.545,75.2,36.08924,P-GPS,,11.0
474400,2026-01-07 15:41:48,0.0,5,7.176,0.0,0.0,0.0,7.7,5.4,0.9,1024,1024,1024,1024,0,0,0,0,47,4.545,75.2,36.08924,P-GPS,,11.0
474500,2026-01-07 15:41:48,0.0,5,7.176,0.0,0.0,0.0,7.7,5.2,1.2,1024,1024,1024,1024,0,0,0,0,47,4.545,75.2,36.08924,P-GPS,,11.0
474600,2026-01-07 15:41:48,0.0,5,7.176,0.0,0.0,0.0,7.7,5.1,1.8,1024,1024,1024,1024,0,0,0,0,47,4.545,75.2,36.08924,P-GPS,,11.0
474700,2026-01-07 15:41:48,0.0,5,7.176,0.0,0.0,0.0,7.7,5.3,2.3,1024,1024,1024,1024,0,0,0,0,47,4.545,75.2,35.761156,P-GPS,,10.9
474800,2026-01-07 15:41:48,0.0,5,7.176,0.0,0.0,0.0,7.7,5.2,2.5,1024,1024,1024,1024,0,0,0,0,47,4.545,75.2,35.761156,P-GPS,,10.9
474900,2026-01-07 15:41:48,0.0,5,7.165,0.0,0.0,0.0,7.7,5.4,2.7,1024,1024,1024,1024,0,0,0,0,47,5.404,75.2,35.761156,P-GPS,,10.9
475000,2026-01-07 15:41:49,0.0,5,7.165,0.0,0.0,0.0,7.7,5.6,2.8,1024,1024,1024,1024,0,0,0,0,47,5.404,75.2,35.761156,P-GPS,,10.9
475100,2026-01-07 15:41:49,0.0,5,7.165,0.0,0.0,0.0,7.7,5.1,2.4,1024,1024,1024,1024,0,0,0,0,47,5.404,75.2,35.433072,P-GPS,,10.8
475200,2026-01-07 15:41:49,0.0,5,7.165,0.0,0.0,0.0,7.8,4.9,2.2,1024,1024,1024,1024,0,0,0,0,47,5.404,75.2,35.433072,P-GPS,,10.8
475300,2026-01-07 15:41:49,0.0,5,7.165,0.0,0.0,0.0,7.8,4.5,1.9,1024,1024,1024,1024,0,0,0,0,47,5.404,75.2,35.433072,P-GPS,,10.8
475400,2026-01-07 15:41:49,0.0,5,7.165,0.0,0.0,0.0,7.8,4.6,2.0,1024,1024,1024,1024,0,0,0,0,47,5.404,75.2,35.433072,P-GPS,,10.8
475500,2026-01-07 15:41:49,0.0,5,7.165,0.0,0.0,0.0,7.7,4.4,2.0,1024,1024,1024,1024,0,0,0,0,47,5.404,75.2,35.433072,P-GPS,,10.8
475600,2026-01-07 15:41:49,0.0,5,7.165,0.0,0.0,0.0,7.7,4.5,2.0,1024,1024,1024,1024,0,0,0,0,47,5.404,75.2,35.433072,P-GPS,,10.8
475700,2026-01-07 15:41:49,0.0,5,7.165,0.0,0.0,0.0,7.7,4.6,1.8,1024,1024,1024,1024,0,0,0,0,47,5.404,75.2,35.433072,P-GPS,,10.8
475800,2026-01-07 15:41:49,0.0,5,7.165,0.0,0.0,0.0,7.7,4.9,2.3,1024,1024,1024,1024,0,0,0,0,47,5.404,75.2,35.433072,P-GPS,,10.8
475900,2026-01-07 15:41:49,0.0,5,7.165,0.0,0.0,0.0,7.7,5.4,2.5,1024,1024,1024,1024,0,0,0,0,47,5.404,75.2,35.433072,P-GPS,,10.8
476000,2026-01-07 15:41:49,0.0,5,7.18,0.0,0.0,0.0,7.8,5.6,2.3,1024,1024,1024,1024,0,0,0,0,47,4.905,75.2,35.433072,P-GPS,,10.8
476100,2026-01-07 15:41:50,0.0,5,7.18,0.0,0.0,0.0,7.7,5.8,2.3,1024,1024,1024,1024,0,0,0,0,47,4.905,75.2,35.433072,P-GPS,SD card speed low. Normal use may be affected. Replace SD card (Code: 10028). Gimbal stuck. Make sure gimbal cover is removed and manually check whether gimbal can rotate freely (Code: 40002),10.8
476200,2026-01-07 15:41:50,0.0,5,7.18,0.0,0.0,0.0,7.7,6.3,2.6,1024,1024,1024,1024,0,0,0,0,47,4.905,75.2,35.433072,P-GPS,,10.8
476300,2026-01-07 15:41:50,0.0,5,7.18,0.0,0.0,0.0,7.8,6.4,3.0,1024,1024,1024,1024,0,0,0,0,47,4.905,75.2,35.433072,P-GPS,,10.8
476400,2026-01-07 15:41:50,0.0,5,7.18,0.0,0.0,0.0,7.8,6.6,2.6,1024,1024,1024,1024,0,0,0,0,47,4.905,75.2,35.433072,P-GPS,,10.8
476500,2026-01-07 15:41:50,0.0,5,7.18,0.0,0.0,0.0,7.8,6.4,2.3,1024,1024,1024,1024,0,0,0,0,47,4.905,75.2,35.433072,P-GPS,,10.8
476600,2026-01-07 15:41:50,0.0,5,7.18,0.0,0.0,0.0,7.8,6.8,2.6,1024,1024,1024,1024,0,0,0,0,47,4.905,75.2,35.433072,P-GPS,,10.8
476700,2026-01-07 15:41:50,0.0,5,7.18,0.0,0.0,0.0,8.0,7.5,2.3,1024,1024,1024,1024,0,0,0,0,47,4.905,75.2,35.433072,P-GPS,,10.8
476800,2026-01-07 15:41:50,0.0,5,7.18,0.0,0.0,0.0,7.9,7.7,2.1,1024,1024,1024,1024,0,0,0,0,47,4.905,75.2,35.433072,P-GPS,,10.8
476900,2026-01-07 15:41:50,0.0,5,7.18,0.0,0.0,0.0,7.8,7.3,2.0,1024,1024,1024,1024,0,0,0,0,47,4.905,75.2,35.433072,P-GPS,,10.8
477000,2026-01-07 15:41:51,0.0,5,7.18,0.0,0.0,0.0,7.7,6.9,1.8,1024,1024,1024,1024,0,0,0,0,47,4.905,75.2,35.433072,P-GPS,,10.8
477100,2026-01-07 15:41:51,0.0,5,7.153,0.0,0.0,0.0,7.7,6.0,1.7,1024,1024,1024,1024,0,0,0,0,47,4.911,75.2,35.433072,P-GPS,,10.8
477200,2026-01-07 15:41:51,0.0,5,7.153,0.0,0.0,0.0,7.7,5.8,1.9,1024,1024,1024,1024,0,0,0,0,47,4.911,75.2,35.433072,P-GPS,,10.8
477300,2026-01-07 15:41:51,0.0,5,7.153,0.0,0.0,0.0,7.8,6.1,1.9,1024,1024,1024,1024,0,0,0,0,47,4.911,75.2,35.433072,P-GPS,,10.8
477400,2026-01-07 15:41:51,0.0,5,7.153,0.0,0.0,0.0,7.8,6.2,2.0,1024,1024,1024,1024,0,0,0,0,47,4.911,75.2,35.433072,P-GPS,,10.8
477500,2026-01-07 15:41:51,0.0,5,7.153,0.0,0.0,0.0,7.8,6.0,2.0,1024,1024,1024,1024,0,0,0,0,47,4.911,75.2,35.433072,P-GPS,,10.8
477600,2026-01-07 15:41:51,0.0,5,7.153,0.0,0.0,0.0,7.8,6.1,1.9,1024,1024,1024,1024,0,0,0,0,47,4.911,75.2,35.433072,P-GPS,,10.8
477700,2026-01-07 15:41:51,0.223694,5,7.153,0.0,0.223694,0.0,7.8,6.5,1.3,1024,1024,1024,1024,0,0,0,0,47,4.911,75.2,35.433072,P-GPS,,10.8
477800,2026-01-07 15:41:51,0.223694,5,7.153,0.0,0.223694,0.0,7.8,6.7,0.8,1024,1024,1024,1024,0,0,0,0,47,4.911,75.2,35.433072,P-GPS,,10.8
477900,2026-01-07 15:41:51,0.223694,5,7.153,0.0,0.223694,-0.223694,7.7,6.8,0.5,1024,1024,1024,1024,0,0,0,0,47,4.911,75.2,35.433072,P-GPS,,10.8
478000,2026-01-07 15:41:51,0.223694,5,7.153,0.0,0.223694,0.0,7.8,6.9,0.3,1024,1024,1024,1024,0,0,0,0,47,4.911,75.2,35.433072,P-GPS,,10.8
478100,2026-01-07 15:41:52,0.0,5,7.153,0.0,0.0,0.0,7.7,7.2,0.2,1024,1024,1024,1024,0,0,0,0,47,4.911,75.2,35.433072,P-GPS,,10.8
478200,2026-01-07 15:41:52,0.0,5,7.175,0.0,0.0,0.0,7.8,7.5,0.2,1024,1024,1024,1024,0,0,0,0,47,4.815,75.2,35.433072,P-GPS,,10.8
478300,2026-01-07 15:41:52,0.0,5,7.175,0.0,0.0,0.0,7.8,7.5,0.9,1024,1024,1024,1024,0,0,0,0,47,4.815,75.2,35.433072,P-GPS,,10.8
478400,2026-01-07 15:41:52,0.0,5,7.175,0.0,0.0,0.0,7.8,7.0,0.9,1024,1024,1024,1024,0,0,0,0,47,4.815,75.2,35.433072,P-GPS,,10.8
478500,2026-01-07 15:41:52,0.0,5,7.175,0.0,0.0,0.0,7.7,6.3,2.0,1024,1024,1024,1024,0,0,0,0,47,4.815,75.2,35.433072,P-GPS,,10.8
478600,2026-01-07 15:41:52,0.0,5,7.175,0.0,0.0,0.0,7.7,6.9,2.5,1024,1024,1024,1024,0,0,0,0,47,4.815,75.2,35.433072,P-GPS,,10.8
478700,2026-01-07 15:41:52,0.0,5,7.175,0.0,0.0,0.0,7.7,6.8,1.6,1024,1024,1024,1024,0,0,0,0,47,4.815,75.2,35.104988,P-GPS,,10.7
478800,2026-01-07 15:41:52,0.0,5,7.175,0.0,0.0,0.0,7.7,6.6,1.1,1024,1024,1024,1024,0,0,0,0,47,4.815,75.2,35.104988,P-GPS,,10.7
478900,2026-01-07 15:41:52,0.0,5,7.175,0.0,0.0,0.0,7.7,6.6,1.3,1024,1024,1024,1024,0,0,0,0,47,4.815,75.2,35.104988,P-GPS,,10.7
479000,2026-01-07 15:41:52,0.0,5,7.175,0.0,0.0,0.0,7.8,6.6,1.6,1024,1024,1024,1024,0,0,0,0,47,4.815,75.2,35.104988,P-GPS,,10.7
479100,2026-01-07 15:41:53,0.0,5,7.175,0.0,0.0,0.0,7.8,6.7,1.3,1024,1024,1024,1024,0,0,0,0,47,4.815,75.2,35.104988,P-GPS,,10.7
479200,2026-01-07 15:41:53,0.0,5,7.175,0.0,0.0,0.0,7.7,7.0,1.0,1024,1024,1024,1024,0,0,0,0,47,4.815,75.2,35.104988,P-GPS,,10.7
479300,2026-01-07 15:41:53,0.0,5,7.175,0.0,0.0,0.0,7.8,6.9,1.2,1024,1024,1024,1024,0,0,0,0,47,4.815,75.2,35.104988,P-GPS,,10.7
479400,2026-01-07 15:41:53,0.0,5,7.175,0.0,0.0,0.0,7.9,6.8,0.8,1024,1024,1024,1024,0,0,0,0,47,4.815,75.2,35.104988,P-GPS,,10.7
479500,2026-01-07 15:41:53,0.0,5,7.175,0.0,0.0,0.0,7.9,6.8,0.9,1024,1024,1024,1024,0,0,0,0,47,4.815,75.2,35.104988,P-GPS,,10.7
479600,2026-01-07 15:41:53,0.0,5,7.175,0.0,0.0,0.0,8.0,6.5,0.4,1024,1024,1024,1024,0,0,0,0,47,4.815,75.2,35.104988,P-GPS,,10.7
479700,2026-01-07 15:41:53,0.223694,5,7.175,0.0,0.223694,0.0,8.1,6.0,-0.2,1024,1024,1024,1024,0,0,0,0,47,4.815,75.2,35.104988,P-GPS,,10.7
479800,2026-01-07 15:41:53,0.223694,5,7.175,0.0,0.223694,0.0,8.1,5.6,-0.7,1024,1024,1024,1024,0,0,0,0,47,4.815,75.2,35.104988,P-GPS,,10.7
479900,2026-01-07 15:41:53,0.223694,5,7.175,0.0,0.223694,0.0,8.1,5.2,-1.4,1024,1024,1024,1024,0,0,0,0,47,4.815,75.2,35.104988,P-GPS,,10.7
480000,2026-01-07 15:41:54,0.223694,5,7.175,0.0,0.223694,0.0,8.1,5.2,-1.3,1024,1024,1024,1024,0,0,0,0,47,4.815,75.2,35.104988,P-GPS,,10.7
480100,2026-01-07 15:41:54,0.0,5,7.175,0.0,0.0,0.0,8.0,5.5,-1.7,1024,1024,1024,1024,0,0,0,0,47,4.815,75.2,35.104988,P-GPS,,10.7
480200,2026-01-07 15:41:54,0.0,5,7.175,0.0,0.0,0.0,7.9,5.7,-2.0,1024,1024,1024,1024,0,0,0,0,47,4.815,75.2,34.776904,P-GPS,,10.6
480300,2026-01-07 15:41:54,0.0,5,7.175,0.0,0.0,0.0,8.0,5.8,-1.8,1024,1024,1024,1024,0,0,0,0,47,4.815,75.2,34.776904,P-GPS,,10.6
480400,2026-01-07 15:41:54,0.0,5,7.177,0.0,0.0,0.0,7.9,6.1,-1.5,1024,1024,1024,1024,0,0,0,0,47,4.695,75.2,34.776904,P-GPS,,10.6
480500,2026-01-07 15:41:54,0.0,5,7.177,0.0,0.0,0.0,7.8,6.4,-0.4,1024,1024,1024,1024,0,0,0,0,47,4.695,75.2,34.776904,P-GPS,,10.6
480600,2026-01-07 15:41:54,0.0,5,7.177,0.0,0.0,0.0,7.8,5.9,0.1,1024,1024,1024,1024,0,0,0,0,47,4.695,75.2,34.776904,P-GPS,,10.6
480700,2026-01-07 15:41:54,0.0,5,7.177,0.0,0.0,0.0,7.8,5.5,0.6,1024,1024,1024,1024,0,0,0,0,47,4.695,75.2,34.776904,P-GPS,,10.6
480800,2026-01-07 15:41:54,0.0,5,7.177,0.0,0.0,0.0,7.9,5.6,1.0,1024,1024,1024,1024,0,0,0,0,47,4.695,75.2,35.104988,P-GPS,,10.7
480900,2026-01-07 15:41:54,0.0,5,7.177,0.0,0.0,0.0,7.8,5.5,1.7,1024,1024,1024,1024,0,0,0,0,47,4.695,75.2,35.104988,P-GPS,,10.7
481000,2026-01-07 15:41:54,0.0,5,7.177,0.0,0.0,0.0,7.9,5.9,2.0,1024,1024,1024,1024,0,0,0,0,47,4.695,75.2,35.104988,P-GPS,,10.7
481100,2026-01-07 15:41:55,0.0,5,7.177,0.0,0.0,0.0,7.8,6.2,1.0,1024,1024,1024,1024,0,0,0,0,47,4.695,75.2,35.104988,P-GPS,,10.7
481200,2026-01-07 15:41:55,0.0,5,7.177,0.0,0.0,0.0,7.7,6.4,0.9,1024,1024,1024,1024,0,0,0,0,47,4.695,75.2,35.433072,P-GPS,,10.8
481300,2026-01-07 15:41:55,0.0,5,7.177,0.0,0.0,0.0,7.7,5.9,1.1,1024,1024,1024,1024,0,0,0,0,47,4.695,75.2,35.433072,P-GPS,,10.8
481400,2026-01-07 15:41:55,0.0,5,7.177,0.0,0.0,0.0,7.5,5.6,1.1,1024,1024,1024,1024,0,0,0,0,47,4.695,75.2,35.433072,P-GPS,,10.8
481500,2026-01-07 15:41:55,0.0,5,7.177,0.0,0.0,0.0,7.5,4.6,1.3,1024,1024,1024,1024,0,0,0,0,47,4.695,75.2,35.433072,P-GPS,,10.8
481600,2026-01-07 15:41:55,0.223694,5,7.148,0.0,-0.223694,0.0,7.5,4.0,1.6,1024,1024,1024,1024,0,0,0,0,47,5.025,75.2,35.433072,P-GPS,,10.8
481700,2026-01-07 15:41:55,0.223694,5,7.148,0.0,-0.223694,0.0,7.5,3.9,2.5,1024,1024,1024,1024,0,0,0,0,47,5.025,75.2,35.433072,P-GPS,,10.8
481800,2026-01-07 15:41:55,0.223694,5,7.148,0.0,-0.223694,0.0,7.6,4.0,2.9,1024,1024,1024,1024,0,0,0,0,47,5.025,75.2,35.761156,P-GPS,,10.9
481900,2026-01-07 15:41:55,0.223694,5,7.148,0.0,-0.223694,0.0,7.6,3.9,3.3,1024,1024,1024,1024,0,0,0,0,47,5.025,75.2,35.761156,P-GPS,,10.9
482000,2026-01-07 15:41:56,0.0,5,7.148,0.0,0.0,0.0,7.5,3.6,3.7,1024,1024,1024,1024,0,0,0,0,47,5.025,75.2,35.761156,P-GPS,,10.9
482100,2026-01-07 15:41:56,0.0,5,7.148,0.0,0.0,0.0,7.5,3.8,3.8,1024,1024,1024,1024,0,0,0,0,47,5.025,75.2,35.761156,P-GPS,,10.9
482200,2026-01-07 15:41:56,0.0,5,7.148,0.0,0.0,0.0,7.5,4.0,3.3,1024,1024,1024,1024,0,0,0,0,47,5.025,75.2,35.761156,P-GPS,,10.9
482300,2026-01-07 15:41:56,0.0,5,7.148,0.0,0.0,0.0,7.5,4.0,2.8,1024,1024,1024,1024,0,0,0,0,47,5.025,75.2,35.761156,P-GPS,,10.9
482400,2026-01-07 15:41:56,0.0,5,7.148,0.0,0.0,0.0,7.5,4.0,2.1,1024,1024,1024,1024,0,0,0,0,47,5.025,75.2,36.08924,P-GPS,,11.0
482500,2026-01-07 15:41:56,0.0,5,7.148,0.0,0.0,0.0,7.5,3.4,1.9,1024,1024,1024,1024,0,0,0,0,47,5.025,75.2,36.08924,P-GPS,,11.0
482600,2026-01-07 15:41:56,0.0,5,7.148,0.0,0.0,0.0,7.6,3.6,1.6,1024,1024,1024,1024,0,0,0,0,47,5.025,75.2,36.08924,P-GPS,,11.0
482700,2026-01-07 15:41:56,0.0,5,7.163,0.0,0.0,0.0,7.5,3.7,1.4,1024,1024,1024,1024,0,0,0,0,47,4.776,75.2,36.08924,P-GPS,,11.0
482800,2026-01-07 15:41:56,0.0,5,7.163,0.0,0.0,0.0,7.5,3.9,2.0,1024,1024,1024,1024,0,0,0,0,47,4.776,75.2,36.08924,P-GPS,,11.0
482900,2026-01-07 15:41:56,0.0,5,7.163,0.0,0.0,0.0,7.5,3.9,2.2,1024,1024,1024,1024,0,0,0,0,47,4.776,75.2,36.08924,P-GPS,,11.0
483000,2026-01-07 15:41:56,0.0,5,7.163,0.0,0.0,0.0,7.3,3.5,2.5,1024,1024,1024,1024,0,0,0,0,47,4.776,75.2,36.08924,P-GPS,,11.0
483100,2026-01-07 15:41:57,0.0,5,7.163,0.0,0.0,0.0,7.3,3.9,2.1,1024,1024,1024,1024,0,0,0,0,47,4.776,75.2,36.08924,P-GPS,,11.0
483200,2026-01-07 15:41:57,0.223694,5,7.163,0.223694,0.0,0.0,7.5,5.3,2.7,1024,1024,1024,1024,0,0,0,0,47,4.776,75.2,36.417324,P-GPS,,11.1
483300,2026-01-07 15:41:57,0.223694,5,7.163,0.223694,0.0,0.0,7.6,6.9,3.1,1024,1024,1024,1024,0,0,0,0,47,4.776,75.2,36.417324,P-GPS,,11.1
483400,2026-01-07 15:41:57,0.223694,5,7.163,0.223694,0.0,0.0,7.7,7.7,3.4,1024,1024,1024,1024,0,0,0,0,47,4.776,75.2,36.417324,P-GPS,,11.1
483500,2026-01-07 15:41:57,0.223694,5,7.163,0.223694,0.0,0.0,7.8,7.7,3.4,1024,1024,1024,1024,0,0,0,0,47,4.776,75.2,36.417324,P-GPS,,11.1
483600,2026-01-07 15:41:57,0.0,5,7.163,0.0,0.0,0.0,7.9,7.6,3.4,1024,1024,1024,1024,0,0,0,0,47,4.776,75.2,36.417324,P-GPS,,11.1
483700,2026-01-07 15:41:57,0.0,5,7.163,0.0,0.0,0.0,7.9,7.5,3.1,1024,1024,1024,1024,0,0,0,0,47,4.776,75.2,36.417324,P-GPS,,11.1
483800,2026-01-07 15:41:57,0.0,5,7.158,0.0,0.0,0.0,7.9,7.5,2.3,1024,1024,1024,1024,0,0,0,0,47,4.744,75.2,36.417324,P-GPS,,11.1
483900,2026-01-07 15:41:57,0.0,5,7.158,0.0,0.0,0.0,7.9,7.1,1.7,1024,1024,1024,1024,0,0,0,0,47,4.744,75.2,36.417324,P-GPS,,11.1
484000,2026-01-07 15:41:57,0.0,5,7.158,0.0,0.0,0.0,7.9,7.1,1.5,1024,1024,1024,1024,0,0,0,0,47,4.744,75.2,36.417324,P-GPS,,11.1
484100,2026-01-07 15:41:58,0.0,5,7.158,0.0,0.0,0.0,7.9,6.8,0.8,1024,1024,1024,1024,0,0,0,0,47,4.744,75.2,36.417324,P-GPS,,11.1
484200,2026-01-07 15:41:58,0.0,5,7.158,0.0,0.0,0.0,7.7,6.9,0.6,1024,1024,1024,1024,0,0,0,0,47,4.744,75.2,36.417324,P-GPS,,11.1
484300,2026-01-07 15:41:58,0.0,5,7.158,0.0,0.0,0.0,7.9,6.6,0.5,1024,1024,1024,1024,0,0,0,0,47,4.744,75.2,36.417324,P-GPS,,11.1
484400,2026-01-07 15:41:58,0.0,5,7.158,0.0,0.0,0.0,7.9,7.1,0.6,1024,1024,1024,1024,0,0,0,0,47,4.744,75.2,36.417324,P-GPS,,11.1
484500,2026-01-07 15:41:58,0.0,5,7.158,0.0,0.0,0.0,8.0,7.0,0.9,1024,1024,1024,1024,0,0,0,0,47,4.744,75.2,36.417324,P-GPS,,11.1
484600,2026-01-07 15:41:58,0.0,5,7.158,0.0,0.0,0.0,8.0,6.8,0.5,1024,1024,1024,1024,0,0,0,0,47,4.744,75.2,36.417324,P-GPS,,11.1
484700,2026-01-07 15:41:58,0.0,5,7.158,0.0,0.0,0.0,7.9,6.1,0.3,1024,1024,1024,1024,0,0,0,0,47,4.744,75.2,36.417324,P-GPS,,11.1
484800,2026-01-07 15:41:58,0.0,5,7.158,0.0,0.0,0.0,7.9,6.1,0.4,1024,1024,1024,1024,0,0,0,0,47,4.744,75.2,36.417324,P-GPS,,11.1
484900,2026-01-07 15:41:58,0.0,5,7.156,0.0,0.0,0.0,7.8,6.2,0.5,1024,1024,1024,1024,0,0,0,0,46,4.942,75.2,36.08924,P-GPS,,11.0
485000,2026-01-07 15:41:58,0.0,5,7.156,0.0,0.0,0.0,7.9,6.0,0.6,1024,1024,1024,1024,0,0,0,0,46,4.942,75.2,36.08924,P-GPS,,11.0
485100,2026-01-07 15:41:59,0.0,5,7.156,0.0,0.0,0.0,7.8,5.8,0.1,1024,1024,1024,1024,0,0,0,0,46,4.942,75.2,36.08924,P-GPS,,11.0
485200,2026-01-07 15:41:59,0.0,5,7.156,0.0,0.0,0.0,7.8,6.0,0.0,1024,1024,1024,1024,0,0,0,0,46,4.942,75.2,36.08924,P-GPS,,11.0
485300,2026-01-07 15:41:59,0.0,5,7.156,0.0,0.0,0.0,7.8,6.2,0.0,1024,1024,1024,1024,0,0,0,0,46,4.942,75.2,36.08924,P-GPS,,11.0
485400,2026-01-07 15:41:59,0.0,5,7.156,0.0,0.0,0.0,7.9,6.1,-0.3,1024,1024,1024,1024,0,0,0,0,46,4.942,75.2,36.08924,P-GPS,,11.0
485500,2026-01-07 15:41:59,0.0,5,7.156,0.0,0.0,0.0,7.8,6.3,-0.4,1024,1024,1024,1024,0,0,0,0,46,4.942,75.2,36.08924,P-GPS,,11.0
485600,2026-01-07 15:41:59,0.0,5,7.156,0.0,0.0,0.0,7.8,6.2,-0.5,1024,1024,1024,1024,0,0,0,0,46,4.942,75.2,36.08924,P-GPS,,11.0
485700,2026-01-07 15:41:59,0.0,5,7.156,0.0,0.0,0.0,7.8,5.9,-0.7,1024,1024,1024,1024,0,0,0,0,46,4.942,75.2,36.417324,P-GPS,,11.1
485800,2026-01-07 15:41:59,0.0,5,7.156,0.0,0.0,0.0,7.9,5.9,-0.4,1024,1024,1024,1024,0,0,0,0,46,4.942,75.2,36.417324,P-GPS,,11.1
485900,2026-01-07 15:41:59,0.0,5,7.156,0.0,0.0,0.0,7.9,6.1,-0.6,1024,1024,1024,1024,0,0,0,0,46,4.942,75.2,36.417324,P-GPS,,11.1
486000,2026-01-07 15:42:00,0.0,5,7.155,0.0,0.0,0.0,7.8,6.3,-0.9,1024,1024,1024,1024,0,0,0,0,46,4.91,75.2,36.417324,P-GPS,,11.1
486100,2026-01-07 15:42:00,0.0,5,7.155,0.0,0.0,0.0,7.8,6.4,-0.6,1024,1024,1024,1024,0,0,0,0,46,4.91,75.2,36.417324,P-GPS,,11.1
486200,2026-01-07 15:42:00,0.0,5,7.155,0.0,0.0,0.0,7.8,6.2,-0.4,1024,1024,1024,1024,0,0,0,0,46,4.91,75.2,36.417324,P-GPS,,11.1
486300,2026-01-07 15:42:00,0.0,5,7.155,0.0,0.0,0.0,7.8,6.2,-0.6,1024,1024,1024,1024,0,0,0,0,46,4.91,75.2,36.417324,P-GPS,,11.1
486400,2026-01-07 15:42:00,0.0,5,7.155,0.0,0.0,0.0,7.8,6.3,-0.7,1024,1024,1024,1024,0,0,0,0,46,4.91,75.2,36.417324,P-GPS,,11.1
486500,2026-01-07 15:42:00,0.0,5,7.155,0.0,0.0,0.0,7.8,6.3,-0.6,1024,1024,1024,1024,0,0,0,0,46,4.91,75.2,36.417324,P-GPS,,11.1
486600,2026-01-07 15:42:00,0.0,5,7.155,0.0,0.0,0.0,7.8,6.4,-0.9,1024,1024,1024,1024,0,0,0,0,46,4.91,75.2,36.417324,P-GPS,,11.1
486700,2026-01-07 15:42:00,0.0,5,7.155,0.0,0.0,0.0,7.7,6.5,-0.8,1024,1024,1024,1024,0,0,0,0,46,4.91,75.2,36.417324,P-GPS,,11.1
486800,2026-01-07 15:42:00,0.0,5,7.155,0.0,0.0,0.0,7.6,6.6,-0.8,1024,1024,1024,1024,0,0,0,0,46,4.91,75.2,36.417324,P-GPS,,11.1
486900,2026-01-07 15:42:00,0.0,5,7.155,0.0,0.0,0.0,7.7,6.5,-0.5,1024,1024,1024,1024,0,0,0,0,46,4.91,75.2,36.417324,P-GPS,,11.1
487000,2026-01-07 15:42:00,0.0,5,7.155,0.0,0.0,0.0,7.8,6.3,-0.5,1024,1024,1024,1024,0,0,0,0,46,4.91,75.2,36.417324,P-GPS,,11.1
487100,2026-01-07 15:42:01,0.0,5,7.144,0.0,0.0,0.0,7.8,6.9,-0.7,1024,1024,1024,1024,0,0,0,0,46,4.984,75.2,36.417324,P-GPS,,11.1
487200,2026-01-07 15:42:01,0.0,5,7.144,0.0,0.0,0.0,7.8,7.3,-0.6,1024,1024,1024,1024,0,0,0,0,46,4.984,75.2,36.417324,P-GPS,,11.1
487300,2026-01-07 15:42:01,0.0,5,7.144,0.0,0.0,0.0,7.8,7.3,-0.4,1024,1024,1024,1024,0,0,0,0,46,4.984,75.2,36.417324,P-GPS,,11.1
487400,2026-01-07 15:42:01,0.0,5,7.144,0.0,0.0,0.0,7.7,7.3,-0.2,1024,1024,1024,1024,0,0,0,0,46,4.984,75.2,36.417324,P-GPS,,11.1
487500,2026-01-07 15:42:01,0.0,5,7.144,0.0,0.0,0.0,7.7,6.8,-0.4,1024,1024,1024,1024,0,0,0,0,46,4.984,75.2,36.417324,P-GPS,,11.1
487600,2026-01-07 15:42:01,0.0,5,7.144,0.0,0.0,0.0,7.7,6.4,-0.6,1024,1024,1024,1024,0,0,0,0,46,4.984,75.2,36.417324,P-GPS,,11.1
487700,2026-01-07 15:42:01,0.0,5,7.144,0.0,0.0,0.0,7.7,6.0,-0.5,1024,1024,1024,1024,0,0,0,0,46,4.984,75.2,36.417324,P-GPS,,11.1
487800,2026-01-07 15:42:01,0.0,5,7.144,0.0,0.0,0.0,7.8,6.4,-0.4,1024,1024,1024,1024,0,0,0,0,46,4.984,75.2,36.417324,P-GPS,,11.1
487900,2026-01-07 15:42:01,0.0,5,7.144,0.0,0.0,0.0,7.7,6.6,-0.2,1024,1024,1024,1024,0,0,0,0,46,4.984,75.2,36.417324,P-GPS,,11.1
488000,2026-01-07 15:42:01,0.0,5,7.144,0.0,0.0,0.0,7.7,6.6,0.0,1024,1024,1024,1024,0,0,0,0,46,4.984,75.2,36.417324,P-GPS,,11.1
488100,2026-01-07 15:42:02,0.0,5,7.144,0.0,0.0,0.0,7.7,6.7,0.5,1024,1024,1024,1024,0,0,0,0,46,4.984,75.2,36.417324,P-GPS,,11.1
488200,2026-01-07 15:42:02,0.0,5,7.145,0.0,0.0,0.0,7.7,6.9,0.8,1024,1024,1024,1024,0,0,0,0,46,4.972,75.2,36.745408,P-GPS,,11.2
488300,2026-01-07 15:42:02,0.0,5,7.145,0.0,0.0,0.0,7.7,7.1,1.2,1024,1024,1024,1024,0,0,0,0,46,4.972,75.2,36.745408,P-GPS,,11.2
488400,2026-01-07 15:42:02,0.0,5,7.145,0.0,0.0,0.0,7.7,6.7,1.2,1024,1024,1024,1024,0,0,0,0,46,4.972,75.2,36.745408,P-GPS,,11.2
488500,2026-01-07 15:42:02,0.0,5,7.145,0.0,0.0,0.0,7.7,6.4,1.4,1024,1024,1024,1024,0,0,0,0,46,4.972,75.2,36.745408,P-GPS,,11.2
488600,2026-01-07 15:42:02,0.0,5,7.145,0.0,0.0,0.0,7.7,6.2,1.3,1024,1024,1024,1024,0,0,0,0,46,4.972,75.2,36.745408,P-GPS,,11.2
488700,2026-01-07 15:42:02,0.0,5,7.145,0.0,0.0,0.0,7.6,6.3,0.9,1024,1024,1024,1024,0,0,0,0,46,4.972,75.2,36.745408,P-GPS,,11.2
488800,2026-01-07 15:42:02,0.0,5,7.145,0.0,0.0,0.0,7.6,5.8,0.8,1024,1024,1024,1024,0,0,0,0,46,4.972,75.2,36.745408,P-GPS,,11.2
488900,2026-01-07 15:42:02,0.0,5,7.145,0.0,0.0,0.0,7.6,5.8,0.8,1024,1024,1024,1024,0,0,0,0,46,4.972,75.2,36.745408,P-GPS,,11.2
489000,2026-01-07 15:42:03,0.0,5,7.145,0.0,0.0,0.0,7.7,5.9,1.2,1024,1024,1024,1024,0,0,0,0,46,4.972,75.2,36.745408,P-GPS,,11.2
489100,2026-01-07 15:42:03,0.0,5,7.145,0.0,0.0,0.0,7.7,5.9,1.5,1024,1024,1024,1024,0,0,0,0,46,4.972,75.2,36.745408,P-GPS,,11.2
489200,2026-01-07 15:42:03,0.0,5,7.145,0.0,0.0,0.0,7.7,5.7,1.6,1024,1024,1024,1024,0,0,0,0,46,4.972,75.2,36.745408,P-GPS,,11.2
489300,2026-01-07 15:42:03,0.0,5,7.146,0.0,0.0,0.0,7.7,5.3,1.4,1024,1024,1024,1024,0,0,0,0,46,4.958,75.2,36.417324,P-GPS,,11.1
489400,2026-01-07 15:42:03,0.0,5,7.146,0.0,0.0,0.0,7.7,4.8,1.8,1024,1024,1024,1024,0,0,0,0,46,4.958,75.2,36.417324,P-GPS,,11.1
489500,2026-01-07 15:42:03,0.0,5,7.146,0.0,0.0,0.0,7.8,5.0,1.3,1024,1024,1024,1024,0,0,0,0,46,4.958,75.2,36.417324,P-GPS,,11.1
489600,2026-01-07 15:42:03,0.0,5,7.146,0.0,0.0,0.0,7.7,4.8,1.0,1024,1024,1024,1024,0,0,0,0,46,4.958,75.2,36.417324,P-GPS,,11.1
489700,2026-01-07 15:42:03,0.0,5,7.146,0.0,0.0,0.0,7.6,4.8,0.7,1024,1024,1024,1024,0,0,0,0,46,4.958,75.2,36.417324,P-GPS,,11.1
489800,2026-01-07 15:42:03,0.0,5,7.146,0.0,0.0,0.0,7.6,5.2,1.0,1024,1024,1024,1024,0,0,0,0,46,4.958,75.2,36.417324,P-GPS,,11.1
489900,2026-01-07 15:42:03,0.0,5,7.146,0.0,0.0,0.0,7.5,5.5,1.4,1024,1024,1024,1024,0,0,0,0,46,4.958,75.2,36.417324,P-GPS,,11.1
490000,2026-01-07 15:42:03,0.0,5,7.146,0.0,0.0,0.0,7.6,6.0,2.2,1024,1024,1024,1024,0,0,0,0,46,4.958,75.2,36.417324,P-GPS,,11.1
490100,2026-01-07 15:42:04,0.0,5,7.146,0.0,0.0,0.0,7.8,5.9,2.7,1024,1024,1024,1024,0,0,0,0,46,4.958,75.2,36.417324,P-GPS,,11.1
490200,2026-01-07 15:42:04,0.0,5,7.146,0.0,0.0,0.0,7.9,7.0,2.2,1024,1024,1024,1024,0,0,0,0,46,4.958,75.2,36.417324,P-GPS,,11.1
490300,2026-01-07 15:42:04,0.0,5,7.146,0.0,0.0,0.0,7.9,6.5,2.2,1024,1024,1024,1024,0,0,0,0,46,4.958,75.2,36.417324,P-GPS,,11.1
490400,2026-01-07 15:42:04,0.0,5,7.146,0.0,0.0,0.0,7.7,5.8,1.4,1024,1024,1024,1024,0,0,0,0,46,4.958,75.2,36.417324,P-GPS,,11.1
490500,2026-01-07 15:42:04,0.0,5,7.146,0.0,0.0,0.0,7.6,5.7,1.3,1024,1024,1024,1024,0,0,0,0,46,4.958,75.2,36.417324,P-GPS,,11.1
490600,2026-01-07 15:42:04,0.0,5,7.146,0.0,0.0,0.0,7.6,5.5,1.3,1024,1024,1024,1024,0,0,0,0,46,4.958,75.2,36.417324,P-GPS,,11.1
490700,2026-01-07 15:42:04,0.0,5,7.146,0.0,0.0,0.0,7.7,5.8,1.5,1024,1024,1024,1024,0,0,0,0,46,4.958,75.2,36.417324,P-GPS,,11.1
490800,2026-01-07 15:42:04,0.0,5,7.146,0.0,0.0,0.0,7.7,5.9,1.6,1024,1024,1024,1024,0,0,0,0,46,4.958,75.2,36.417324,P-GPS,,11.1
490900,2026-01-07 15:42:04,0.0,5,7.146,0.0,0.0,0.0,7.7,6.0,1.7,1024,1024,1024,1024,0,0,0,0,46,4.958,75.2,36.417324,P-GPS,,11.1
491000,2026-01-07 15:42:05,0.0,5,7.146,0.0,0.0,0.0,7.7,6.0,2.0,1024,1024,1024,1024,0,0,0,0,46,4.958,75.2,36.417324,P-GPS,,11.1
491100,2026-01-07 15:42:05,0.0,5,7.146,0.0,0.0,0.0,7.7,5.6,2.3,1024,1024,1024,1024,0,0,0,0,46,4.958,75.2,36.417324,P-GPS,,11.1
491200,2026-01-07 15:42:05,0.0,5,7.146,0.0,0.0,0.0,7.6,5.5,2.3,1024,1024,1024,1024,0,0,0,0,46,4.958,75.2,36.417324,P-GPS,,11.1
491300,2026-01-07 15:42:05,0.0,5,7.146,0.0,0.0,0.0,7.6,5.5,1.8,1024,1024,1024,1024,0,0,0,0,46,4.958,75.2,36.745408,P-GPS,,11.2
491400,2026-01-07 15:42:05,0.0,5,7.146,0.0,0.0,0.0,7.6,5.2,2.0,1024,1024,1024,1024,0,0,0,0,46,4.958,75.2,36.745408,P-GPS,,11.2
491500,2026-01-07 15:42:05,0.0,5,7.134,0.0,0.0,0.0,7.7,5.5,2.2,1024,1024,1024,1024,0,0,0,0,46,5.046,75.2,36.417324,P-GPS,,11.1
491600,2026-01-07 15:42:05,0.0,5,7.134,0.0,0.0,0.0,7.7,5.4,1.8,1024,1024,1024,1024,0,0,0,0,46,5.046,75.2,36.417324,P-GPS,,11.1
491700,2026-01-07 15:42:05,0.0,5,7.134,0.0,0.0,0.0,7.8,5.7,1.6,1024,1024,1024,1024,0,0,0,0,46,5.046,75.2,36.417324,P-GPS,,11.1
491800,2026-01-07 15:42:05,0.0,5,7.134,0.0,0.0,0.0,7.8,5.7,0.9,1024,1024,1024,1024,0,0,0,0,46,5.046,75.2,36.417324,P-GPS,,11.1
491900,2026-01-07 15:42:05,0.0,5,7.134,0.0,0.0,0.0,7.7,5.1,0.1,1024,1024,1024,1024,0,0,0,0,46,5.046,75.2,36.417324,P-GPS,,11.1
492000,2026-01-07 15:42:05,0.0,5,7.134,0.0,0.0,0.0,7.6,5.3,0.6,1024,1024,1024,1024,0,0,0,0,46,5.046,75.2,36.417324,P-GPS,,11.1
492100,2026-01-07 15:42:06,0.0,5,7.134,0.0,0.0,0.0,7.7,5.4,1.0,1024,1024,1024,1024,0,0,0,0,46,5.046,75.2,36.417324,P-GPS,,11.1
492200,2026-01-07 15:42:06,0.0,5,7.134,0.0,0.0,0.0,7.6,5.0,1.7,1024,1024,1024,1024,0,0,0,0,46,5.046,75.2,36.417324,P-GPS,,11.1
492300,2026-01-07 15:42:06,0.0,5,7.134,0.0,0.0,0.0,7.6,4.6,1.8,1024,1024,1024,1024,0,0,0,0,46,5.046,75.2,36.417324,P-GPS,,11.1
492400,2026-01-07 15:42:06,0.0,5,7.134,0.0,0.0,0.0,7.5,4.2,2.0,1024,1024,1024,1024,0,0,0,0,46,5.046,75.2,36.745408,P-GPS,,11.2
492500,2026-01-07 15:42:06,0.0,5,7.134,0.0,0.0,0.0,7.5,4.5,2.1,1024,1024,1024,1024,0,0,0,0,46,5.046,75.2,36.745408,P-GPS,,11.2
492600,2026-01-07 15:42:06,0.0,5,7.11,0.0,0.0,0.0,7.5,4.8,1.9,1024,1024,1024,1024,0,0,0,0,46,5.227,75.2,36.745408,P-GPS,,11.2
492700,2026-01-07 15:42:06,0.0,5,7.11,0.0,0.0,0.0,7.6,5.2,1.5,1024,1024,1024,1024,0,0,0,0,46,5.227,75.2,36.745408,P-GPS,,11.2
492800,2026-01-07 15:42:06,0.0,5,7.11,0.0,0.0,0.0,7.7,5.4,1.3,1024,1024,1024,1024,0,0,0,0,46,5.227,75.2,36.745408,P-GPS,,11.2
492900,2026-01-07 15:42:06,0.0,5,7.11,0.0,0.0,0.0,7.8,5.1,1.2,1024,1024,1024,1024,0,0,0,0,46,5.227,75.2,36.745408,P-GPS,,11.2
493000,2026-01-07 15:42:07,0.0,5,7.11,0.0,0.0,0.0,7.8,5.0,1.2,1024,1024,1024,1024,0,0,0,0,46,5.227,75.2,36.745408,P-GPS,,11.2
493100,2026-01-07 15:42:07,0.0,5,7.11,0.0,0.0,0.0,7.8,4.7,1.0,1024,1024,1024,1024,0,0,0,0,46,5.227,75.2,36.745408,P-GPS,,11.2
493200,2026-01-07 15:42:07,0.0,5,7.11,0.0,0.0,0.0,7.9,4.2,0.8,1024,1024,1024,1024,0,0,0,0,46,5.227,75.2,36.745408,P-GPS,,11.2
493300,2026-01-07 15:42:07,0.0,5,7.11,0.0,0.0,0.0,7.8,4.7,0.8,1024,1024,1024,1024,0,0,0,0,46,5.227,75.2,36.745408,P-GPS,,11.2
493400,2026-01-07 15:42:07,0.0,5,7.11,0.0,0.0,0.0,7.8,4.4,0.9,1024,1024,1024,1024,0,0,0,0,46,5.227,75.2,36.745408,P-GPS,,11.2
493500,2026-01-07 15:42:07,0.0,5,7.11,0.0,0.0,0.0,7.8,4.7,0.7,1024,1024,1024,1024,0,0,0,0,46,5.227,75.2,36.745408,P-GPS,,11.2
493600,2026-01-07 15:42:07,0.0,5,7.11,0.0,0.0,0.0,7.9,4.9,0.8,1024,1024,1024,1024,0,0,0,0,46,5.227,75.2,36.745408,P-GPS,,11.2
493700,2026-01-07 15:42:07,0.0,5,7.112,0.0,0.0,0.0,7.9,5.1,0.7,1024,1024,1024,1024,0,0,0,0,46,5.246,75.38,36.745408,P-GPS,,11.2
493800,2026-01-07 15:42:07,0.0,5,7.112,0.0,0.0,0.0,7.9,5.2,0.7,1024,1024,1024,1024,0,0,0,0,46,5.246,75.38,36.745408,P-GPS,,11.2
493900,2026-01-07 15:42:07,0.0,5,7.112,0.0,0.0,0.0,7.9,5.6,0.6,1024,1024,1024,1024,0,0,0,0,46,5.246,75.38,36.745408,P-GPS,,11.2
494000,2026-01-07 15:42:07,0.0,5,7.112,0.0,0.0,0.0,7.9,6.0,0.2,1024,1024,1024,1024,0,0,0,0,46,5.246,75.38,36.745408,P-GPS,,11.2
494100,2026-01-07 15:42:08,0.0,5,7.112,0.0,0.0,0.0,7.9,4.9,0.4,1024,1024,1024,1024,0,0,0,0,46,5.246,75.38,36.745408,P-GPS,,11.2
494200,2026-01-07 15:42:08,0.0,5,7.112,0.0,0.0,0.0,7.9,4.7,-0.1,1024,1024,1024,1024,0,0,0,0,46,5.246,75.38,36.745408,P-GPS,,11.2
494300,2026-01-07 15:42:08,0.0,5,7.112,0.0,0.0,0.0,7.8,4.6,0.0,1024,1024,1024,1024,0,0,0,0,46,5.246,75.38,36.745408,P-GPS,,11.2
494400,2026-01-07 15:42:08,0.0,5,7.112,0.0,0.0,0.0,7.9,5.2,0.1,1024,1024,1024,1024,0,0,0,0,46,5.246,75.38,36.745408,P-GPS,,11.2
494500,2026-01-07 15:42:08,0.0,5,7.112,0.0,0.0,0.0,7.9,5.4,-0.1,1024,1024,1024,1024,0,0,0,0,46,5.246,75.38,36.745408,P-GPS,,11.2
494600,2026-01-07 15:42:08,0.0,5,7.112,0.0,0.0,0.0,8.0,5.3,0.0,1024,1024,1024,1024,0,0,0,0,46,5.246,75.38,36.745408,P-GPS,,11.2
494700,2026-01-07 15:42:08,0.0,5,7.112,0.0,0.0,0.0,8.1,6.3,-0.2,1024,1024,1024,1024,0,0,0,0,46,5.246,75.38,36.745408,P-GPS,,11.2
494800,2026-01-07 15:42:08,0.0,5,7.141,0.0,0.0,0.0,7.8,7.2,-1.6,1024,1024,1024,1024,0,0,0,0,46,4.763,75.2,36.745408,P-GPS,,11.2
494900,2026-01-07 15:42:08,0.0,5,7.141,0.0,0.0,0.0,7.7,7.1,-0.6,1024,1024,1024,1024,0,0,0,0,46,4.763,75.2,36.745408,P-GPS,,11.2
495000,2026-01-07 15:42:08,0.0,5,7.141,0.0,0.0,0.0,7.7,6.4,0.3,1024,1024,1024,1024,0,0,0,0,46,4.763,75.2,36.745408,P-GPS,,11.2
495100,2026-01-07 15:42:09,0.0,5,7.141,0.0,0.0,0.0,7.9,5.9,1.2,1024,1024,1024,1024,0,0,0,0,46,4.763,75.2,36.745408,P-GPS,,11.2
495200,2026-01-07 15:42:09,0.0,5,7.141,0.0,0.0,0.0,8.0,5.6,0.6,1024,1024,1024,1024,0,0,0,0,46,4.763,75.2,36.745408,P-GPS,,11.2
495300,2026-01-07 15:42:09,0.0,5,7.141,0.0,0.0,0.0,8.0,6.4,0.1,1024,1024,1024,1024,0,0,0,0,46,4.763,75.2,36.417324,P-GPS,,11.1
495400,2026-01-07 15:42:09,0.0,5,7.141,0.0,0.0,0.0,8.0,6.4,0.0,1024,1024,1024,1024,0,0,0,0,46,4.763,75.2,36.417324,P-GPS,,11.1
495500,2026-01-07 15:42:09,0.0,5,7.141,0.0,0.0,0.0,8.0,5.9,-0.3,1024,1024,1024,1024,0,0,0,0,46,4.763,75.2,36.417324,P-GPS,,11.1
495600,2026-01-07 15:42:09,0.0,5,7.141,0.0,0.0,0.0,7.9,5.2,-0.5,1024,1024,1024,1024,0,0,0,0,46,4.763,75.2,36.417324,P-GPS,,11.1
495700,2026-01-07 15:42:09,0.0,5,7.141,0.0,0.0,0.0,8.0,5.0,-0.4,1024,1024,1024,1024,0,0,0,0,46,4.763,75.2,36.417324,P-GPS,,11.1
495800,2026-01-07 15:42:09,0.0,5,7.141,0.0,0.0,0.0,8.0,5.2,-0.6,1024,1024,1024,1024,0,0,0,0,46,4.763,75.2,36.417324,P-GPS,,11.1
495900,2026-01-07 15:42:09,0.0,5,7.146,0.0,0.0,0.0,7.9,5.7,-1.3,1024,1024,1024,1024,0,0,0,0,46,4.534,75.2,36.417324,P-GPS,,11.1
496000,2026-01-07 15:42:10,0.0,5,7.146,0.0,0.0,0.0,7.7,5.6,-1.9,1024,1024,1024,1024,0,0,0,0,46,4.534,75.2,36.417324,P-GPS,,11.1
496100,2026-01-07 15:42:10,0.0,5,7.146,0.0,0.0,0.0,7.6,5.4,-1.5,1024,1024,1024,1024,0,0,0,0,46,4.534,75.2,36.417324,P-GPS,,11.1
496200,2026-01-07 15:42:10,0.0,5,7.146,0.0,0.0,0.0,7.5,5.2,-0.3,1024,1024,1024,1024,0,0,0,0,46,4.534,75.2,36.417324,P-GPS,,11.1
496300,2026-01-07 15:42:10,0.0,5,7.146,0.0,0.0,0.0,7.7,5.1,0.4,1024,1024,1024,1024,0,0,0,0,46,4.534,75.2,36.745408,P-GPS,,11.2
496400,2026-01-07 15:42:10,0.0,5,7.146,0.0,0.0,0.0,7.9,5.2,0.6,1024,1024,1024,1024,0,0,0,0,46,4.534,75.2,36.745408,P-GPS,,11.2
496500,2026-01-07 15:42:10,0.0,5,7.146,0.0,0.0,0.0,7.9,5.5,0.4,1024,1024,1024,1024,0,0,0,0,46,4.534,75.2,36.745408,P-GPS,,11.2
496600,2026-01-07 15:42:10,0.0,5,7.146,0.0,0.0,0.0,7.8,5.2,-0.2,1024,1024,1024,1024,0,0,0,0,46,4.534,75.2,36.745408,P-GPS,,11.2
496700,2026-01-07 15:42:10,0.0,5,7.146,0.0,0.0,0.0,7.8,5.1,-0.4,1024,1024,1024,1024,0,0,0,0,46,4.534,75.2,36.745408,P-GPS,,11.2
496800,2026-01-07 15:42:10,0.0,5,7.146,0.0,0.0,0.0,7.9,5.1,-0.2,1024,1024,1024,1024,0,0,0,0,46,4.534,75.2,36.745408,P-GPS,,11.2
496900,2026-01-07 15:42:10,0.0,5,7.146,0.0,0.0,0.0,7.7,4.5,-0.4,1024,1024,1024,1024,0,0,0,0,46,4.534,75.2,36.745408,P-GPS,,11.2
497000,2026-01-07 15:42:10,0.0,5,7.142,0.0,0.0,0.0,7.7,4.3,-0.6,1024,1024,1024,1024,0,0,0,0,46,4.599,75.38,36.745408,P-GPS,,11.2
497100,2026-01-07 15:42:11,0.0,5,7.142,0.0,0.0,0.0,7.5,4.3,-0.8,1024,1024,1024,1024,0,0,0,0,46,4.599,75.38,36.745408,P-GPS,,11.2
497200,2026-01-07 15:42:11,0.0,5,7.142,0.0,0.0,0.0,7.5,4.3,-0.3,1024,1024,1024,1024,0,0,0,0,46,4.599,75.38,36.745408,P-GPS,,11.2
497300,2026-01-07 15:42:11,0.0,5,7.142,0.0,0.0,0.0,7.5,4.4,0.5,1024,1024,1024,1024,0,0,0,0,46,4.599,75.38,37.073492,P-GPS,,11.3
497400,2026-01-07 15:42:11,0.0,5,7.142,0.0,0.0,0.0,7.8,4.7,0.8,1024,1024,1024,1024,0,0,0,0,46,4.599,75.38,37.073492,P-GPS,,11.3
497500,2026-01-07 15:42:11,0.0,5,7.142,0.0,0.0,0.0,7.9,4.6,0.4,1024,1024,1024,1024,0,0,0,0,46,4.599,75.38,37.073492,P-GPS,,11.3
497600,2026-01-07 15:42:11,0.0,5,7.142,0.0,0.0,0.0,7.9,4.8,0.1,1024,1024,1024,1024,0,0,0,0,46,4.599,75.38,37.073492,P-GPS,,11.3
497700,2026-01-07 15:42:11,0.0,5,7.142,0.0,0.0,0.0,7.8,4.8,-0.4,1024,1024,1024,1024,0,0,0,0,46,4.599,75.38,37.073492,P-GPS,,11.3
497800,2026-01-07 15:42:11,0.0,5,7.142,0.0,0.0,0.0,7.8,4.3,-0.6,1024,1024,1024,1024,0,0,0,0,46,4.599,75.38,37.073492,P-GPS,,11.3
497900,2026-01-07 15:42:11,0.0,5,7.142,0.0,0.0,0.0,7.6,3.8,-0.9,1024,1024,1024,1024,0,0,0,0,46,4.599,75.38,37.073492,P-GPS,,11.3
498000,2026-01-07 15:42:12,0.0,5,7.142,0.0,0.0,0.0,7.4,4.5,-1.0,1024,1024,1024,1024,0,0,0,0,46,4.599,75.38,37.073492,P-GPS,,11.3
498100,2026-01-07 15:42:12,0.0,5,7.139,0.0,0.0,0.0,7.2,5.5,-0.5,1024,1024,1024,1024,0,0,0,0,46,4.58,75.2,37.073492,P-GPS,,11.3
498200,2026-01-07 15:42:12,0.223694,5,7.139,0.0,-0.223694,0.0,7.3,6.2,0.4,1024,1024,1024,1024,0,0,0,0,46,4.58,75.2,37.073492,P-GPS,,11.3
498300,2026-01-07 15:42:12,0.223694,5,7.139,0.0,-0.223694,0.0,7.5,7.0,1.9,1024,1024,1024,1024,0,0,0,0,46,4.58,75.2,37.073492,P-GPS,,11.3
498400,2026-01-07 15:42:12,0.223694,5,7.139,0.0,-0.223694,0.0,7.6,7.0,2.5,1024,1024,1024,1024,0,0,0,0,46,4.58,75.2,37.073492,P-GPS,,11.3
498500,2026-01-07 15:42:12,0.223694,5,7.139,0.0,-0.223694,0.0,7.5,6.9,3.3,1024,1024,1024,1024,0,0,0,0,46,4.58,75.2,37.073492,P-GPS,,11.3
498600,2026-01-07 15:42:12,0.223694,5,7.139,0.0,-0.223694,0.0,7.5,6.3,3.9,1024,1024,1024,1024,0,0,0,0,46,4.58,75.2,37.401576,P-GPS,,11.4
498700,2026-01-07 15:42:12,0.223694,5,7.139,0.0,-0.223694,0.0,7.6,6.2,3.8,1024,1024,1024,1024,0,0,0,0,46,4.58,75.2,37.401576,P-GPS,,11.4
498800,2026-01-07 15:42:12,0.223694,5,7.139,0.0,-0.223694,0.0,7.6,6.0,4.2,1024,1024,1024,1024,0,0,0,0,46,4.58,75.2,37.401576,P-GPS,,11.4
498900,2026-01-07 15:42:12,0.223694,5,7.139,0.0,-0.223694,0.0,7.6,5.7,4.3,1024,1024,1024,1024,0,0,0,0,46,4.58,75.2,37.401576,P-GPS,,11.4
499000,2026-01-07 15:42:12,0.0,5,7.139,0.0,0.0,0.0,7.7,6.4,3.8,1024,1024,1024,1024,0,0,0,0,46,4.58,75.2,37.401576,P-GPS,,11.4
499100,2026-01-07 15:42:13,0.0,5,7.139,0.0,0.0,0.0,7.6,6.1,3.8,1024,1024,1024,1024,0,0,0,0,46,4.58,75.2,37.401576,P-GPS,,11.4
499200,2026-01-07 15:42:13,0.0,5,7.139,0.0,0.0,0.0,7.5,5.8,3.8,1024,1024,1024,1024,0,0,0,0,46,4.58,75.2,37.401576,P-GPS,,11.4
499300,2026-01-07 15:42:13,0.0,5,7.12,0.0,0.0,0.0,7.4,5.3,3.8,1024,1024,1024,1024,0,0,0,0,46,5.011,75.2,37.401576,P-GPS,,11.4
499400,2026-01-07 15:42:13,0.0,5,7.12,0.0,0.0,0.0,7.4,4.9,3.5,1024,1024,1024,1024,0,0,0,0,46,5.011,75.2,37.72966,P-GPS,,11.5
499500,2026-01-07 15:42:13,0.0,5,7.12,0.0,0.0,0.0,7.6,5.4,3.4,1024,1024,1024,1024,0,0,0,0,46,5.011,75.2,37.72966,P-GPS,,11.5
499600,2026-01-07 15:42:13,0.0,5,7.12,0.0,0.0,0.0,7.6,5.8,3.3,1024,1024,1024,1024,0,0,0,0,46,5.011,75.2,37.72966,P-GPS,,11.5
499700,2026-01-07 15:42:13,0.0,5,7.12,0.0,0.0,0.0,7.5,5.0,2.9,1024,1024,1024,1024,0,0,0,0,46,5.011,75.2,37.72966,P-GPS,,11.5
499800,2026-01-07 15:42:13,0.0,5,7.12,0.0,0.0,0.0,7.5,5.1,3.0,1024,1024,1024,1024,0,0,0,0,46,5.011,75.2,37.72966,P-GPS,,11.5
499900,2026-01-07 15:42:13,0.0,5,7.12,0.0,0.0,0.0,7.6,5.1,2.9,1024,1024,1024,1024,0,0,0,0,46,5.011,75.2,37.72966,P-GPS,,11.5
500000,2026-01-07 15:42:13,0.0,5,7.12,0.0,0.0,0.0,7.7,5.2,2.6,1024,1024,1024,1024,0,0,0,0,46,5.011,75.2,37.72966,P-GPS,,11.5
500100,2026-01-07 15:42:14,0.0,5,7.12,0.0,0.0,0.0,7.7,5.5,2.9,1024,1024,1024,1024,0,0,0,0,46,5.011,75.2,37.72966,P-GPS,,11.5
500200,2026-01-07 15:42:14,0.0,5,7.12,0.0,0.0,0.0,7.7,5.9,3.2,1024,1024,1024,1024,0,0,0,0,46,5.011,75.2,37.72966,P-GPS,,11.5
500300,2026-01-07 15:42:14,0.0,5,7.12,0.0,0.0,0.0,7.8,6.4,3.0,1024,1024,1024,1024,0,0,0,0,46,5.011,75.2,37.72966,P-GPS,,11.5
500400,2026-01-07 15:42:14,0.0,5,7.12,0.0,0.0,0.0,7.7,6.3,2.5,1024,1024,1024,1024,0,0,0,0,46,5.011,75.2,37.72966,P-GPS,,11.5
500500,2026-01-07 15:42:14,0.0,5,7.12,0.0,0.0,0.0,7.7,6.7,2.3,1024,1024,1024,1024,0,0,0,0,46,5.011,75.2,37.72966,P-GPS,,11.5
500600,2026-01-07 15:42:14,0.0,5,7.12,0.0,0.0,0.0,7.6,5.7,2.0,1024,1024,1024,1024,0,0,0,0,46,5.011,75.2,37.72966,P-GPS,,11.5
500700,2026-01-07 15:42:14,0.0,5,7.12,0.0,0.0,0.0,7.7,5.3,2.4,1024,1024,1024,1024,0,0,0,0,46,5.011,75.2,37.72966,P-GPS,,11.5
500800,2026-01-07 15:42:14,0.0,5,7.12,0.0,0.0,0.0,7.8,5.3,1.9,1024,1024,1024,1024,0,0,0,0,46,5.011,75.2,37.72966,P-GPS,,11.5
500900,2026-01-07 15:42:14,0.0,5,7.12,0.0,0.0,0.0,7.9,5.0,1.6,1024,1024,1024,1024,0,0,0,0,46,5.011,75.2,37.72966,P-GPS,,11.5
501000,2026-01-07 15:42:14,0.223694,5,7.12,-0.223694,0.0,0.0,8.0,4.2,1.9,1024,1024,1024,1024,0,0,0,0,45,5.011,75.2,37.72966,P-GPS,,11.5
501100,2026-01-07 15:42:15,0.223694,5,7.12,-0.223694,0.0,0.0,7.9,3.4,2.1,1024,1024,1024,1024,0,0,0,0,45,5.011,75.2,37.72966,P-GPS,,11.5
501200,2026-01-07 15:42:15,0.223694,5,7.12,-0.223694,0.0,0.0,7.8,3.0,1.9,1024,1024,1024,1024,0,0,0,0,45,5.011,75.2,37.401576,P-GPS,,11.4
501300,2026-01-07 15:42:15,0.223694,5,7.12,-0.223694,0.0,0.0,7.7,2.7,1.6,1024,1024,1024,1024,0,0,0,0,45,5.011,75.2,37.401576,P-GPS,,11.4
501400,2026-01-07 15:42:15,0.223694,5,7.134,-0.223694,0.0,0.0,7.7,2.4,1.2,1024,1024,1024,1024,0,0,0,0,45,5.079,75.2,37.401576,P-GPS,,11.4
501500,2026-01-07 15:42:15,0.223694,5,7.134,-0.223694,0.0,0.0,7.6,2.3,1.1,1024,1024,1024,1024,0,0,0,0,45,5.079,75.2,37.401576,P-GPS,,11.4
501600,2026-01-07 15:42:15,0.0,5,7.134,0.0,0.0,0.0,7.6,2.0,1.2,1024,1024,1024,1024,0,0,0,0,45,5.079,75.2,37.401576,P-GPS,,11.4
501700,2026-01-07 15:42:15,0.0,5,7.134,0.0,0.0,0.0,7.6,1.9,0.6,1024,1024,1024,1024,0,0,0,0,45,5.079,75.2,37.401576,P-GPS,,11.4
501800,2026-01-07 15:42:15,0.0,5,7.134,0.0,0.0,0.0,7.6,2.5,0.7,1024,1024,1024,1024,0,0,0,0,45,5.079,75.2,37.401576,P-GPS,,11.4
501900,2026-01-07 15:42:15,0.0,5,7.134,0.0,0.0,0.0,7.6,2.9,0.0,1024,1024,1024,1024,0,0,0,0,45,5.079,75.2,37.401576,P-GPS,,11.4
502000,2026-01-07 15:42:15,0.0,5,7.134,0.0,0.0,0.0,7.7,3.7,0.3,1024,1024,1043,1024,0,0,3,0,45,5.079,75.2,37.401576,P-GPS,,11.4
502100,2026-01-07 15:42:16,0.0,5,7.134,0.0,0.0,0.0,7.5,4.5,0.4,1024,1024,1684,1024,0,0,100,0,45,5.079,75.2,37.401576,P-GPS,,11.4
502200,2026-01-07 15:42:16,0.0,5,7.134,0.0,0.0,0.0,7.6,5.2,1.6,1024,1024,1684,1024,0,0,100,0,45,5.079,75.2,37.401576,P-GPS,,11.4
502300,2026-01-07 15:42:16,0.0,5,7.134,0.0,0.0,0.0,7.8,5.6,2.6,1024,1024,1684,1024,0,0,100,0,45,5.079,75.2,37.401576,P-GPS,,11.4
502400,2026-01-07 15:42:16,0.0,5,7.134,0.0,0.0,0.0,7.9,6.2,2.5,1024,1024,1684,1024,0,0,100,0,45,5.079,75.2,37.401576,P-GPS,,11.4
502500,2026-01-07 15:42:16,0.0,5,7.134,0.0,0.0,-0.671082,8.0,5.4,1.8,1024,1024,1684,1024,0,0,100,0,45,5.079,75.2,37.72966,P-GPS,,11.5
502600,2026-01-07 15:42:16,0.0,5,7.123,0.0,0.0,-1.342164,8.1,5.2,0.8,1024,1024,1684,1024,0,0,100,0,45,5.284,75.2,37.72966,P-GPS,,11.5
502700,2026-01-07 15:42:16,0.0,5,7.123,0.0,0.0,-2.013246,8.1,5.4,0.3,1024,1024,1684,1024,0,0,100,0,45,5.284,75.2,38.057744,P-GPS,,11.6
502800,2026-01-07 15:42:16,0.0,5,7.123,0.0,0.0,-2.684328,8.0,5.0,0.0,1024,1024,1684,1024,0,0,100,0,45,5.284,75.2,38.385828,P-GPS,,11.7
502900,2026-01-07 15:42:16,0.223694,5,7.123,-0.223694,0.0,-3.131716,8.0,4.7,0.5,1024,1024,1684,1024,0,0,100,0,45,5.284,75.2,39.041996,P-GPS,,11.9
601200,2026-01-07 15:43:55,0.0,5,7.041,0.0,0.0,4.026492,3.6,4.8,4.0,1024,1024,364,1024,0,0,-100,0,39,4.424,76.46,39.041996,P-GPS,,11.9
601300,2026-01-07 15:43:55,0.0,5,7.041,0.0,0.0,4.026492,3.7,4.9,3.5,1024,1024,364,1024,0,0,-100,0,39,4.424,76.46,38.713912,P-GPS,,11.8
601400,2026-01-07 15:43:55,0.223694,5,7.041,0.0,0.223694,3.802798,3.6,5.0,3.1,1024,1024,364,1024,0,0,-100,0,39,4.424,76.46,38.057744,P-GPS,,11.6
601500,2026-01-07 15:43:55,0.223694,5,7.041,0.0,0.223694,3.802798,3.7,5.1,2.9,1024,1024,364,1024,0,0,-100,0,39,4.424,76.46,37.401576,P-GPS,,11.4
601600,2026-01-07 15:43:55,0.223694,5,7.041,0.0,0.223694,3.802798,3.7,5.2,2.9,1024,1024,364,1024,0,0,-100,0,39,4.424,76.46,37.073492,P-GPS,,11.3
601700,2026-01-07 15:43:55,0.223694,5,7.041,0.0,0.223694,3.802798,3.6,5.1,2.4,1024,1024,364,1024,0,0,-100,0,39,4.424,76.46,36.417324,P-GPS,,11.1
601800,2026-01-07 15:43:55,0.223694,5,7.037,0.0,0.223694,3.802798,3.6,5.4,2.2,1024,1024,364,1024,0,0,-100,0,39,4.521,76.46,35.761156,P-GPS,,10.9
601900,2026-01-07 15:43:55,0.223694,5,7.037,0.0,0.223694,3.802798,3.6,6.2,2.0,1024,1024,364,1024,0,0,-100,0,39,4.521,76.46,35.104988,P-GPS,,10.7
602000,2026-01-07 15:43:55,0.0,5,7.037,0.0,0.0,3.802798,3.7,6.6,2.0,1024,1024,364,1024,0,0,-100,0,39,4.521,76.46,34.776904,P-GPS,,10.6
602100,2026-01-07 15:43:56,0.0,5,7.037,0.0,0.0,4.026492,3.5,6.0,1.9,1024,1024,364,1024,0,0,-100,0,39,4.521,76.46,34.120736,P-GPS,,10.4
602200,2026-01-07 15:43:56,0.0,5,7.037,0.0,0.0,4.026492,3.5,6.0,1.9,1024,1024,364,1024,0,0,-100,0,39,4.521,76.46,33.464568,P-GPS,,10.2
602300,2026-01-07 15:43:56,0.0,5,7.037,0.0,0.0,4.026492,3.4,6.1,2.1,1024,1024,364,1024,0,0,-100,0,39,4.521,76.46,33.136484,P-GPS,,10.1
602400,2026-01-07 15:43:56,0.0,5,7.037,0.0,0.0,4.026492,3.4,5.7,1.9,1024,1024,364,1024,0,0,-100,0,39,4.521,76.46,32.480316,P-GPS,,9.9
602500,2026-01-07 15:43:56,0.0,5,7.037,0.0,0.0,4.026492,3.2,4.6,1.7,1024,1024,364,1024,0,0,-100,0,39,4.521,76.46,31.824148,P-GPS,,9.7
602600,2026-01-07 15:43:56,0.223694,5,7.037,0.0,0.223694,4.026492,3.4,3.9,1.9,1024,1024,364,1024,0,0,-100,0,39,4.521,76.46,31.496064,P-GPS,,9.6
602700,2026-01-07 15:43:56,0.223694,5,7.037,0.0,0.223694,3.802798,4.1,3.6,0.8,1024,1024,364,1024,0,0,-100,0,39,4.521,76.46,30.839896,P-GPS,,9.4
602800,2026-01-07 15:43:56,0.0,5,7.037,0.0,0.0,3.802798,3.8,3.6,0.3,1024,1024,364,1024,0,0,-100,0,39,4.521,76.46,30.511812,P-GPS,,9.3
602900,2026-01-07 15:43:56,0.0,5,7.025,0.0,0.0,3.802798,3.4,4.0,0.9,1024,1024,364,1024,0,0,-100,0,39,4.625,76.46,29.855644,P-GPS,,9.1
603000,2026-01-07 15:43:56,0.0,5,7.025,0.0,0.0,3.802798,3.2,4.0,0.2,1024,1024,364,1024,0,0,-100,0,39,4.625,76.46,29.52756,P-GPS,,9.0
603100,2026-01-07 15:43:57,0.0,5,7.025,0.0,0.0,3.802798,3.2,3.3,-0.1,1024,1024,364,1024,0,0,-100,0,39,4.625,76.46,28.871392,P-GPS,,8.8
603200,2026-01-07 15:43:57,0.0,5,7.025,0.0,0.0,3.802798,3.5,4.0,1.8,1024,1024,364,1024,0,0,-100,0,39,4.625,76.46,28.215224,P-GPS,,8.6
603300,2026-01-07 15:43:57,0.0,5,7.025,0.0,0.0,3.802798,3.8,4.4,2.7,1024,1024,364,1024,0,0,-100,0,39,4.625,76.46,27.559056,P-GPS,,8.4
603400,2026-01-07 15:43:57,0.0,5,7.025,0.0,0.0,3.802798,3.8,4.6,2.1,1024,1024,364,1024,0,0,-100,0,39,4.625,76.46,27.230972,P-GPS,,8.3
603500,2026-01-07 15:43:57,0.0,5,7.025,0.0,0.0,3.802798,3.8,4.3,2.1,1024,1024,364,1024,0,0,-100,0,39,4.625,76.46,26.574804,P-GPS,,8.1
