time(millisecond),timestamp,speed(mph),gpslevel,voltage(v),xSpeed(mph),ySpeed(mph),zSpeed(mph),compass_heading(degrees),pitch(degrees),roll(degrees),rc_elevator,rc_aileron,rc_throttle,rc_rudder,rc_elevator(percent),rc_aileron(percent),rc_throttle(percent),rc_rudder(percent),battery_percent,current(A),battery_temperature(f),ascent(feet),flycState,message,height_above_takeoff(meters)
590800,2026-01-07 12:42:35,0.0,5,7.229,0.0,0.0,-4.47388,26.6,7.2,0.8,1024,1024,1684,1024,0,0,100,0,57,7.536,73.76,26.574804,P-GPS,,8.1
590900,2026-01-07 12:42:35,0.0,5,7.229,0.0,0.0,-4.47388,26.7,8.0,0.8,1024,1024,1684,1024,0,0,100,0,57,7.536,73.76,27.230972,P-GPS,,8.3
591000,2026-01-07 12:42:35,0.0,5,7.229,0.0,0.0,-4.47388,26.7,7.9,0.7,1024,1024,1684,1024,0,0,100,0,57,7.536,73.76,27.88714,P-GPS,,8.5
591100,2026-01-07 12:42:35,0.0,5,7.229,0.0,0.0,-4.47388,26.8,8.6,0.3,1024,1024,1684,1024,0,0,100,0,57,7.536,73.76,28.543308,P-GPS,,8.7
591200,2026-01-07 12:42:36,0.0,5,7.229,0.0,0.0,-4.47388,26.8,7.9,0.0,1024,1024,1684,1024,0,0,100,0,57,7.536,73.76,29.199476,P-GPS,,8.9
591300,2026-01-07 12:42:36,0.0,5,7.229,0.0,0.0,-4.47388,26.6,7.4,-0.3,1024,1024,1684,1024,0,0,100,0,57,7.536,73.76,29.855644,P-GPS,,9.1
591400,2026-01-07 12:42:36,0.0,5,7.234,0.0,0.0,-4.47388,26.6,7.3,-0.4,1024,1024,1684,1024,0,0,100,0,57,7.133,73.76,30.511812,P-GPS,,9.3
591500,2026-01-07 12:42:36,0.0,5,7.234,0.0,0.0,-4.47388,26.7,7.3,-0.5,1024,1024,1684,1024,0,0,100,0,57,7.133,73.76,31.16798,P-GPS,,9.5
591600,2026-01-07 12:42:36,0.0,5,7.234,0.0,0.0,-4.47388,26.6,7.0,-0.6,1024,1024,1684,1024,0,0,100,0,57,7.133,73.76,31.824148,P-GPS,,9.7
591700,2026-01-07 12:42:36,0.0,5,7.234,0.0,0.0,-4.47388,26.6,6.9,-0.4,1024,1024,1024,1024,0,0,0,0,57,7.133,73.76,32.480316,P-GPS,,9.9
591800,2026-01-07 12:42:36,0.0,5,7.234,0.0,0.0,-4.47388,26.7,7.6,0.0,1024,1024,1024,1024,0,0,0,0,57,7.133,73.76,33.136484,P-GPS,,10.1
591900,2026-01-07 12:42:36,0.0,5,7.234,0.0,0.0,-4.47388,26.7,8.4,0.3,1024,1024,1024,1024,0,0,0,0,57,7.133,73.76,33.464568,P-GPS,,10.2
592000,2026-01-07 12:42:36,0.0,5,7.234,0.0,0.0,-4.026492,26.8,8.8,0.5,1024,1024,1024,1024,0,0,0,0,57,7.133,73.76,34.120736,P-GPS,,10.4
592100,2026-01-07 12:42:36,0.0,5,7.234,0.0,0.0,-3.35541,26.8,9.2,0.8,1024,1024,1024,1024,0,0,0,0,57,7.133,73.76,34.776904,P-GPS,,10.6
592200,2026-01-07 12:42:37,0.0,5,7.234,0.0,0.0,-2.684328,26.8,9.2,0.6,1024,1024,1024,1024,0,0,0,0,57,7.133,73.76,35.104988,P-GPS,,10.7
592300,2026-01-07 12:42:37,0.0,5,7.234,0.0,0.0,-2.013246,26.7,9.0,0.3,1024,1024,1024,1024,0,0,0,0,57,7.133,73.76,35.433072,P-GPS,,10.8
592400,2026-01-07 12:42:37,0.0,5,7.234,0.0,0.0,-1.11847,26.6,9.0,-0.2,1024,1024,1024,1024,0,0,0,0,57,7.133,73.76,35.433072,P-GPS,,10.8
592500,2026-01-07 12:42:37,0.0,5,7.234,0.0,0.0,-0.671082,26.6,8.8,-0.3,1024,1024,1024,1024,0,0,0,0,57,7.133,73.76,35.433072,P-GPS,,10.8
592600,2026-01-07 12:42:37,0.0,5,7.234,0.0,0.0,-0.223694,26.7,8.7,-0.1,1024,1024,1024,1024,0,0,0,0,57,7.133,73.76,35.433072,P-GPS,,10.8
592700,2026-01-07 12:42:37,0.0,5,7.234,0.0,0.0,0.0,26.7,8.9,0.2,1024,1024,1024,1024,0,0,0,0,57,7.133,73.76,35.433072,P-GPS,,10.8
592800,2026-01-07 12:42:37,0.0,5,7.234,0.0,0.0,0.0,26.8,8.9,0.6,1024,1024,1024,1024,0,0,0,0,57,7.133,73.76,35.433072,P-GPS,,10.8
592900,2026-01-07 12:42:37,0.0,5,7.234,0.0,0.0,0.0,26.8,8.7,0.5,1024,1024,1024,1024,0,0,0,0,57,7.133,73.76,35.433072,P-GPS,,10.8
593000,2026-01-07 12:42:37,0.0,5,7.234,0.0,0.0,0.0,26.7,8.7,0.8,1024,1024,1024,1024,0,0,0,0,57,7.133,73.76,35.433072,P-GPS,,10.8
593100,2026-01-07 12:42:37,0.0,5,7.234,0.0,0.0,0.0,26.7,8.0,0.7,1024,1024,1024,1024,0,0,0,0,57,7.133,73.76,35.433072,P-GPS,,10.8
593200,2026-01-07 12:42:38,0.223694,5,7.234,-0.223694,0.0,0.0,26.7,7.1,0.8,1024,1024,1024,1024,0,0,0,0,57,7.133,73.76,35.433072,P-GPS,,10.8
593300,2026-01-07 12:42:38,0.223694,5,7.234,-0.223694,0.0,0.0,26.7,7.1,0.6,1024,1024,1024,1024,0,0,0,0,57,7.133,73.76,35.433072,P-GPS,,10.8
593400,2026-01-07 12:42:38,0.223694,5,7.234,-0.223694,0.0,0.0,26.7,7.0,0.3,1024,1024,1024,1024,0,0,0,0,57,7.133,73.76,35.104988,P-GPS,,10.7
593500,2026-01-07 12:42:38,0.223694,5,7.234,-0.223694,0.0,0.0,26.7,7.0,-0.1,1024,1024,1024,1024,0,0,0,0,57,7.133,73.76,35.104988,P-GPS,,10.7
593600,2026-01-07 12:42:38,0.0,5,7.363,0.0,0.0,0.0,26.7,6.9,-0.1,1024,1024,1024,1024,0,0,0,0,57,5.177,73.76,35.104988,P-GPS,,10.7
593700,2026-01-07 12:42:38,0.0,5,7.363,0.0,0.0,0.0,26.8,6.4,0.2,1024,1024,1024,1024,0,0,0,0,57,5.177,73.76,35.104988,P-GPS,,10.7
593800,2026-01-07 12:42:38,0.0,5,7.363,0.0,0.0,0.0,26.7,6.1,0.2,1024,1024,1024,1024,0,0,0,0,57,5.177,73.76,35.104988,P-GPS,,10.7
593900,2026-01-07 12:42:38,0.0,5,7.363,0.0,0.0,0.0,26.6,5.1,0.9,1024,1024,1024,1024,0,0,0,0,57,5.177,73.76,35.104988,P-GPS,,10.7
594000,2026-01-07 12:42:38,0.0,5,7.363,0.0,0.0,0.0,26.5,5.1,1.0,1024,1024,1024,1024,0,0,0,0,57,5.177,73.76,35.104988,P-GPS,,10.7
594100,2026-01-07 12:42:38,0.0,5,7.363,0.0,0.0,0.0,26.5,4.9,1.2,1024,1024,1024,1024,0,0,0,0,57,5.177,73.76,34.776904,P-GPS,,10.6
594200,2026-01-07 12:42:39,0.223694,5,7.363,0.0,-0.223694,0.0,26.5,5.2,1.2,1024,1024,1024,1024,0,0,0,0,57,5.177,73.76,34.776904,P-GPS,,10.6
594300,2026-01-07 12:42:39,0.223694,5,7.363,0.0,-0.223694,0.0,26.5,5.0,1.4,1024,1024,1024,1024,0,0,0,0,57,5.177,73.76,34.776904,P-GPS,,10.6
594400,2026-01-07 12:42:39,0.223694,5,7.363,0.0,-0.223694,0.0,26.5,5.0,2.1,1024,1024,1024,1024,0,0,0,0,57,5.177,73.76,34.776904,P-GPS,,10.6
594500,2026-01-07 12:42:39,0.223694,5,7.363,0.0,-0.223694,0.0,26.7,5.0,2.7,1024,1024,1024,1024,0,0,0,0,57,5.177,73.76,34.776904,P-GPS,,10.6
594600,2026-01-07 12:42:39,0.223694,5,7.363,0.0,-0.223694,0.0,26.7,5.0,2.8,1024,1024,1024,1024,0,0,0,0,57,5.177,73.76,34.776904,P-GPS,,10.6
594700,2026-01-07 12:42:39,0.223694,5,7.363,0.0,-0.223694,0.0,26.8,5.1,2.9,1024,1024,1024,1024,0,0,0,0,57,5.177,73.76,34.776904,P-GPS,,10.6
594800,2026-01-07 12:42:39,0.0,5,7.307,0.0,0.0,0.0,26.7,5.2,2.9,1024,1024,1024,1024,0,0,0,0,57,4.935,73.76,34.776904,P-GPS,,10.6
594900,2026-01-07 12:42:39,0.0,5,7.307,0.0,0.0,0.0,26.7,5.2,2.9,1024,1024,1024,1024,0,0,0,0,57,4.935,73.76,34.776904,P-GPS,,10.6
595000,2026-01-07 12:42:39,0.0,5,7.307,0.0,0.0,0.0,26.7,5.2,3.2,1024,1024,1024,1024,0,0,0,0,57,4.935,73.76,34.776904,P-GPS,,10.6
595100,2026-01-07 12:42:39,0.0,5,7.307,0.0,0.0,0.0,26.7,5.0,3.0,1024,1024,1024,1024,0,0,0,0,57,4.935,73.76,34.776904,P-GPS,,10.6
595200,2026-01-07 12:42:40,0.0,5,7.307,0.0,0.0,0.0,26.7,5.3,3.3,1024,1024,1024,1024,0,0,0,0,57,4.935,73.76,34.776904,P-GPS,,10.6
595300,2026-01-07 12:42:40,0.0,5,7.307,0.0,0.0,0.0,26.8,5.2,3.2,1024,1024,1024,1024,0,0,0,0,57,4.935,73.76,34.776904,P-GPS,,10.6
595400,2026-01-07 12:42:40,0.0,5,7.307,0.0,0.0,0.0,26.9,5.7,3.0,1024,1024,1024,1024,0,0,0,0,57,4.935,73.76,34.776904,P-GPS,,10.6
595500,2026-01-07 12:42:40,0.0,5,7.307,0.0,0.0,0.0,26.9,5.9,2.8,1024,1024,1024,1024,0,0,0,0,57,4.935,73.76,34.776904,P-GPS,,10.6
595600,2026-01-07 12:42:40,0.0,5,7.307,0.0,0.0,0.0,26.8,5.9,2.8,1024,1024,1024,1024,0,0,0,0,57,4.935,73.76,34.776904,P-GPS,,10.6
595700,2026-01-07 12:42:40,0.0,5,7.307,0.0,0.0,0.0,26.8,5.9,2.3,1024,1024,1024,1024,0,0,0,0,57,4.935,73.76,34.776904,P-GPS,,10.6
595800,2026-01-07 12:42:40,0.0,5,7.307,0.0,0.0,0.0,26.8,5.9,1.6,1024,1024,1024,1024,0,0,0,0,57,4.935,73.76,34.776904,P-GPS,SD card speed low. Normal use may be affected. Replace SD card (Code: 10028). Gimbal stuck. Make sure gimbal cover is removed and manually check whether gimbal can rotate freely (Code: 40002),10.6
595900,2026-01-07 12:42:40,0.0,5,7.31,0.0,0.0,0.0,26.8,6.0,1.4,1024,1024,1024,1024,0,0,0,0,57,4.947,73.76,34.44882,P-GPS,,10.5
596000,2026-01-07 12:42:40,0.0,5,7.31,0.0,0.0,0.0,26.8,6.1,0.8,1024,1024,1024,1024,0,0,0,0,57,4.947,73.76,34.44882,P-GPS,,10.5
596100,2026-01-07 12:42:40,0.0,5,7.31,0.0,0.0,0.0,26.7,5.6,0.6,1024,1024,1024,1024,0,0,0,0,57,4.947,73.76,34.44882,P-GPS,,10.5
596200,2026-01-07 12:42:41,0.0,5,7.31,0.0,0.0,0.0,26.7,5.6,0.8,1024,1024,1024,1024,0,0,0,0,57,4.947,73.76,34.44882,P-GPS,,10.5
596300,2026-01-07 12:42:41,0.0,5,7.31,0.0,0.0,0.0,26.8,5.5,0.3,1024,1024,1024,1024,0,0,0,0,57,4.947,73.76,34.44882,P-GPS,,10.5
596400,2026-01-07 12:42:41,0.0,5,7.31,0.0,0.0,0.0,26.8,5.6,0.7,1024,1024,1024,1024,0,0,0,0,57,4.947,73.76,34.44882,P-GPS,,10.5
596500,2026-01-07 12:42:41,0.0,5,7.31,0.0,0.0,0.0,26.8,5.7,1.2,1024,1024,1024,1024,0,0,0,0,57,4.947,73.76,34.44882,P-GPS,,10.5
596600,2026-01-07 12:42:41,0.0,5,7.31,0.0,0.0,0.0,26.8,5.2,1.6,1024,1024,1024,1024,0,0,0,0,57,4.947,73.76,34.44882,P-GPS,,10.5
596700,2026-01-07 12:42:41,0.0,5,7.31,0.0,0.0,0.0,26.8,5.9,1.2,1024,1024,1024,1024,0,0,0,0,57,4.947,73.76,34.44882,P-GPS,,10.5
596800,2026-01-07 12:42:41,0.0,5,7.31,0.0,0.0,0.0,26.8,6.4,1.4,1024,1024,1024,1024,0,0,0,0,57,4.947,73.76,34.44882,P-GPS,,10.5
596900,2026-01-07 12:42:41,0.0,5,7.31,0.0,0.0,0.0,27.0,6.2,1.7,1024,1024,1024,1024,0,0,0,0,57,4.947,73.76,34.120736,P-GPS,,10.4
597000,2026-01-07 12:42:41,0.0,5,7.31,0.0,0.0,0.0,27.0,5.9,1.4,1024,1024,1024,1024,0,0,0,0,57,4.947,73.76,34.120736,P-GPS,,10.4
597100,2026-01-07 12:42:41,0.0,5,7.311,0.0,0.0,0.0,27.0,5.7,0.5,1024,1024,1024,1024,0,0,0,0,57,4.704,73.76,34.120736,P-GPS,,10.4
597200,2026-01-07 12:42:42,0.0,5,7.311,0.0,0.0,0.0,27.0,5.8,0.0,1024,1024,1024,1024,0,0,0,0,57,4.704,73.76,34.120736,P-GPS,,10.4
597300,2026-01-07 12:42:42,0.0,5,7.311,0.0,0.0,0.0,27.0,5.9,-0.3,1024,1024,1024,1024,0,0,0,0,57,4.704,73.76,34.120736,P-GPS,,10.4
597400,2026-01-07 12:42:42,0.0,5,7.311,0.0,0.0,0.0,27.0,6.1,-0.3,1024,1024,1024,1024,0,0,0,0,57,4.704,73.76,34.120736,P-GPS,,10.4
597500,2026-01-07 12:42:42,0.0,5,7.311,0.0,0.0,0.0,26.9,6.4,-1.3,1024,1024,1024,1024,0,0,0,0,57,4.704,73.76,34.120736,P-GPS,,10.4
597600,2026-01-07 12:42:42,0.0,5,7.311,0.0,0.0,0.0,26.8,6.4,-1.4,1024,1024,1024,1024,0,0,0,0,57,4.704,73.76,34.120736,P-GPS,,10.4
597700,2026-01-07 12:42:42,0.0,5,7.311,0.0,0.0,0.0,26.7,6.7,-0.9,1024,1024,1024,1024,0,0,0,0,57,4.704,73.76,34.120736,P-GPS,,10.4
597800,2026-01-07 12:42:42,0.0,5,7.311,0.0,0.0,0.0,26.8,6.7,0.2,1024,1024,1024,1024,0,0,0,0,57,4.704,73.76,34.120736,P-GPS,,10.4
597900,2026-01-07 12:42:42,0.0,5,7.311,0.0,0.0,0.0,26.9,6.8,0.7,1024,1024,1024,1024,0,0,0,0,57,4.704,73.76,34.120736,P-GPS,,10.4
598000,2026-01-07 12:42:42,0.0,5,7.311,0.0,0.0,0.0,27.0,6.4,0.2,1024,1024,1024,1024,0,0,0,0,57,4.704,73.76,34.120736,P-GPS,,10.4
598100,2026-01-07 12:42:42,0.0,5,7.311,0.0,0.0,0.0,26.9,5.9,-0.2,1024,1024,1024,1024,0,0,0,0,57,4.704,73.76,34.120736,P-GPS,,10.4
598200,2026-01-07 12:42:43,0.0,5,7.307,0.0,0.0,0.0,26.8,6.0,0.0,1024,1024,1024,1024,0,0,0,0,56,4.896,73.76,34.120736,P-GPS,,10.4
598300,2026-01-07 12:42:43,0.0,5,7.307,0.0,0.0,0.0,27.0,6.5,-0.1,1024,1024,1024,1024,0,0,0,0,56,4.896,73.76,34.120736,P-GPS,,10.4
598400,2026-01-07 12:42:43,0.0,5,7.307,0.0,0.0,0.0,26.9,6.4,-0.3,1024,1024,1024,1024,0,0,0,0,56,4.896,73.76,34.120736,P-GPS,,10.4
598500,2026-01-07 12:42:43,0.0,5,7.307,0.0,0.0,0.0,26.8,5.6,-0.6,1024,1024,1024,1024,0,0,0,0,56,4.896,73.76,34.120736,P-GPS,,10.4
598600,2026-01-07 12:42:43,0.0,5,7.307,0.0,0.0,0.0,26.7,5.9,-0.4,1024,1024,1024,1024,0,0,0,0,56,4.896,73.76,34.120736,P-GPS,,10.4
598700,2026-01-07 12:42:43,0.0,5,7.307,0.0,0.0,0.0,26.7,6.0,0.1,1024,1024,1024,1024,0,0,0,0,56,4.896,73.76,34.120736,P-GPS,,10.4
598800,2026-01-07 12:42:43,0.0,5,7.307,0.0,0.0,0.0,26.8,6.9,1.4,1024,1024,1024,1024,0,0,0,0,56,4.896,73.76,34.120736,P-GPS,,10.4
598900,2026-01-07 12:42:43,0.0,5,7.307,0.0,0.0,0.0,26.9,6.9,0.8,1024,1024,1024,1024,0,0,0,0,56,4.896,73.76,34.120736,P-GPS,,10.4
599000,2026-01-07 12:42:43,0.0,5,7.307,0.0,0.0,0.0,26.9,7.0,1.3,1024,1024,1024,1024,0,0,0,0,56,4.896,73.76,34.120736,P-GPS,,10.4
599100,2026-01-07 12:42:43,0.0,5,7.307,0.0,0.0,0.0,26.8,7.1,0.8,1024,1024,1024,1024,0,0,0,0,56,4.896,73.76,34.120736,P-GPS,,10.4
599200,2026-01-07 12:42:44,0.0,5,7.307,0.0,0.0,0.0,26.8,6.9,0.4,1024,1024,1024,1024,0,0,0,0,56,4.896,73.76,34.120736,P-GPS,,10.4
599300,2026-01-07 12:42:44,0.0,5,7.312,0.0,0.0,0.0,26.8,6.2,0.4,1024,1024,1024,1024,0,0,0,0,56,4.795,73.76,34.120736,P-GPS,,10.4
599400,2026-01-07 12:42:44,0.0,5,7.312,0.0,0.0,0.0,27.0,5.7,-0.6,1024,1024,1024,1024,0,0,0,0,56,4.795,73.76,34.120736,P-GPS,,10.4
599500,2026-01-07 12:42:44,0.0,5,7.312,0.0,0.0,0.0,27.1,6.0,-2.0,1024,1024,1024,1024,0,0,0,0,56,4.795,73.76,34.120736,P-GPS,,10.4
599600,2026-01-07 12:42:44,0.0,5,7.312,0.0,0.0,0.0,27.2,5.3,-2.4,1024,1024,1024,1024,0,0,0,0,56,4.795,73.76,34.120736,P-GPS,,10.4
599700,2026-01-07 12:42:44,0.223694,5,7.312,0.0,0.223694,0.0,27.2,5.9,-2.7,1024,1024,1024,1024,0,0,0,0,56,4.795,73.76,34.120736,P-GPS,,10.4
599800,2026-01-07 12:42:44,0.223694,5,7.312,0.0,0.223694,0.0,27.1,6.7,-3.4,1024,1024,1024,1024,0,0,0,0,56,4.795,73.76,34.120736,P-GPS,,10.4
599900,2026-01-07 12:42:44,0.223694,5,7.312,0.0,0.223694,0.0,27.0,7.4,-3.9,1024,1024,1024,1024,0,0,0,0,56,4.795,73.76,34.120736,P-GPS,,10.4
600000,2026-01-07 12:42:44,0.0,5,7.312,0.0,0.0,0.0,26.9,7.5,-3.9,1024,1024,1024,1024,0,0,0,0,56,4.795,73.76,34.120736,P-GPS,,10.4
600100,2026-01-07 12:42:44,0.0,5,7.312,0.0,0.0,0.0,26.9,7.2,-3.9,1024,1024,1024,1024,0,0,0,0,56,4.795,73.76,34.120736,P-GPS,,10.4
600200,2026-01-07 12:42:44,0.0,5,7.312,0.0,0.0,0.0,26.8,7.1,-3.8,1024,1024,1024,1024,0,0,0,0,56,4.795,73.76,34.120736,P-GPS,,10.4
600300,2026-01-07 12:42:45,0.0,5,7.312,0.0,0.0,0.0,26.8,6.8,-3.7,1024,1024,1024,1024,0,0,0,0,56,4.795,73.76,34.120736,P-GPS,,10.4
600400,2026-01-07 12:42:45,0.0,5,7.318,0.0,0.0,0.0,26.8,6.6,-3.9,1024,1024,1024,1024,0,0,0,0,56,4.533,73.76,34.120736,P-GPS,,10.4
600500,2026-01-07 12:42:45,0.0,5,7.318,0.0,0.0,0.0,26.8,6.5,-3.1,1024,1024,1024,1024,0,0,0,0,56,4.533,73.76,34.120736,P-GPS,,10.4
600600,2026-01-07 12:42:45,0.0,5,7.318,0.0,0.0,0.0,26.9,6.6,-3.0,1024,1024,1024,1024,0,0,0,0,56,4.533,73.76,34.120736,P-GPS,,10.4
600700,2026-01-07 12:42:45,0.0,5,7.318,0.0,0.0,0.0,26.8,6.7,-2.6,1024,1024,1024,1024,0,0,0,0,56,4.533,73.76,34.120736,P-GPS,,10.4
600800,2026-01-07 12:42:45,0.0,5,7.318,0.0,0.0,0.0,26.9,7.1,-2.2,1024,1024,1024,1024,0,0,0,0,56,4.533,73.76,34.120736,P-GPS,,10.4
600900,2026-01-07 12:42:45,0.0,5,7.318,0.0,0.0,0.0,27.0,6.8,-1.4,1024,1024,1024,1024,0,0,0,0,56,4.533,73.76,34.120736,P-GPS,,10.4
601000,2026-01-07 12:42:45,0.0,5,7.318,0.0,0.0,0.0,27.1,7.2,-2.0,1024,1024,1024,1024,0,0,0,0,56,4.533,73.76,34.120736,P-GPS,,10.4
601100,2026-01-07 12:42:45,0.0,5,7.318,0.0,0.0,0.0,27.1,7.6,-2.1,1024,1024,1024,1024,0,0,0,0,56,4.533,73.76,34.120736,P-GPS,,10.4
601200,2026-01-07 12:42:46,0.0,5,7.318,0.0,0.0,0.0,27.0,7.7,-2.5,1024,1024,1024,1024,0,0,0,0,56,4.533,73.76,33.792652,P-GPS,,10.3
601300,2026-01-07 12:42:46,0.0,5,7.318,0.0,0.0,0.0,26.9,7.2,-2.6,1024,1024,1024,1024,0,0,0,0,56,4.533,73.76,33.792652,P-GPS,,10.3
601400,2026-01-07 12:42:46,0.0,5,7.318,0.0,0.0,0.0,26.7,7.2,-2.9,1024,1024,1024,1024,0,0,0,0,56,4.533,73.76,33.792652,P-GPS,,10.3
601500,2026-01-07 12:42:46,0.0,5,7.317,0.0,0.0,0.0,26.7,7.2,-2.3,1024,1024,1024,1024,0,0,0,0,56,4.454,73.76,33.792652,P-GPS,,10.3
601600,2026-01-07 12:42:46,0.0,5,7.317,0.0,0.0,0.0,26.7,7.7,-2.2,1024,1024,1024,1024,0,0,0,0,56,4.454,73.76,33.464568,P-GPS,,10.2
601700,2026-01-07 12:42:46,0.0,5,7.317,0.0,0.0,0.0,26.8,7.5,-1.4,1024,1024,1024,1024,0,0,0,0,56,4.454,73.76,33.464568,P-GPS,,10.2
601800,2026-01-07 12:42:46,0.0,5,7.317,0.0,0.0,0.0,26.8,7.9,-1.4,1024,1024,1024,1024,0,0,0,0,56,4.454,73.76,33.464568,P-GPS,,10.2
601900,2026-01-07 12:42:46,0.0,5,7.317,0.0,0.0,0.0,26.8,7.9,-1.4,1024,1024,1024,1024,0,0,0,0,56,4.454,73.76,33.464568,P-GPS,,10.2
602000,2026-01-07 12:42:46,0.0,5,7.317,0.0,0.0,0.0,26.7,7.8,-1.5,1024,1024,1024,1024,0,0,0,0,56,4.454,73.76,33.464568,P-GPS,,10.2
602100,2026-01-07 12:42:46,0.0,5,7.317,0.0,0.0,0.0,26.6,7.8,-1.5,1024,1024,1024,1024,0,0,0,0,56,4.454,73.76,33.464568,P-GPS,,10.2
602200,2026-01-07 12:42:47,0.0,5,7.317,0.0,0.0,0.0,26.6,7.5,-1.3,1024,1024,1024,1024,0,0,0,0,56,4.454,73.76,33.464568,P-GPS,,10.2
602300,2026-01-07 12:42:47,0.0,5,7.317,0.0,0.0,0.0,26.6,7.0,-1.5,1024,1024,1024,1024,0,0,0,0,56,4.454,73.76,33.464568,P-GPS,,10.2
602400,2026-01-07 12:42:47,0.0,5,7.317,0.0,0.0,0.0,26.6,7.2,-0.7,1024,1024,1024,1024,0,0,0,0,56,4.454,73.76,33.464568,P-GPS,,10.2
602500,2026-01-07 12:42:47,0.0,5,7.317,0.0,0.0,0.0,26.6,6.9,-0.8,1024,1024,1024,1024,0,0,0,0,56,4.454,73.76,33.464568,P-GPS,,10.2
602600,2026-01-07 12:42:47,0.0,5,7.317,0.0,0.0,0.0,26.6,6.7,-0.5,1024,1024,1024,1024,0,0,0,0,56,4.454,73.76,33.136484,P-GPS,,10.1
602700,2026-01-07 12:42:47,0.0,5,7.317,0.0,0.0,0.0,26.6,7.3,-0.3,1024,1024,1024,1024,0,0,0,0,56,4.454,73.76,33.136484,P-GPS,,10.1
602800,2026-01-07 12:42:47,0.0,5,7.317,0.0,0.0,0.0,26.7,7.3,-0.1,1024,1024,1024,1024,0,0,0,0,56,4.454,73.76,33.136484,P-GPS,,10.1
602900,2026-01-07 12:42:47,0.0,5,7.317,0.0,0.0,0.0,26.8,7.4,0.0,1024,1024,1024,1024,0,0,0,0,56,4.454,73.76,33.136484,P-GPS,,10.1
603000,2026-01-07 12:42:47,0.0,5,7.317,0.0,0.0,0.0,26.9,7.3,-0.1,1024,1024,1024,1024,0,0,0,0,56,4.454,73.76,33.136484,P-GPS,,10.1
603100,2026-01-07 12:42:47,0.0,5,7.317,0.0,0.0,0.0,26.6,7.1,-1.4,1024,1024,1024,1024,0,0,0,0,56,4.454,73.76,33.464568,P-GPS,,10.2
603200,2026-01-07 12:42:48,0.0,5,7.317,0.0,0.0,0.0,26.5,7.0,-1.8,1024,1024,1024,1024,0,0,0,0,56,4.454,73.76,33.464568,P-GPS,,10.2
603300,2026-01-07 12:42:48,0.0,5,7.317,0.0,0.0,0.0,26.6,6.6,-1.9,1024,1024,1024,1024,0,0,0,0,56,4.454,73.76,33.464568,P-GPS,,10.2
603400,2026-01-07 12:42:48,0.0,5,7.317,0.0,0.0,0.0,26.6,7.0,-2.4,1024,1024,1024,1024,0,0,0,0,56,4.454,73.76,33.464568,P-GPS,,10.2
603500,2026-01-07 12:42:48,0.0,5,7.317,0.0,0.0,0.0,26.5,7.0,-2.2,1024,1024,1024,1024,0,0,0,0,56,4.454,73.76,33.464568,P-GPS,,10.2
603600,2026-01-07 12:42:48,0.0,5,7.317,0.0,0.0,0.0,26.5,6.7,-1.9,1024,1024,1024,1024,0,0,0,0,56,4.454,73.76,33.464568,P-GPS,,10.2
603700,2026-01-07 12:42:48,0.0,5,7.3,0.0,0.0,0.0,26.6,6.7,-2.2,1024,1024,1024,1024,0,0,0,0,56,4.889,73.76,33.464568,P-GPS,,10.2
603800,2026-01-07 12:42:48,0.0,5,7.3,0.0,0.0,0.0,26.6,6.5,-2.0,1024,1024,1024,1024,0,0,0,0,56,4.889,73.76,33.464568,P-GPS,,10.2
603900,2026-01-07 12:42:48,0.0,5,7.3,0.0,0.0,0.0,26.6,6.5,-2.0,1024,1024,1024,1024,0,0,0,0,56,4.889,73.76,33.464568,P-GPS,,10.2
604000,2026-01-07 12:42:48,0.0,5,7.3,0.0,0.0,0.0,26.7,6.8,-1.9,1024,1024,1024,1024,0,0,0,0,56,4.889,73.76,33.792652,P-GPS,,10.3
604100,2026-01-07 12:42:48,0.0,5,7.3,0.0,0.0,0.0,26.6,7.1,-1.9,1024,1024,1024,1024,0,0,0,0,56,4.889,73.76,33.792652,P-GPS,,10.3
604200,2026-01-07 12:42:49,0.0,5,7.3,0.0,0.0,0.0,26.7,7.2,-1.7,1024,1024,1024,1024,0,0,0,0,56,4.889,73.76,33.792652,P-GPS,,10.3
604300,2026-01-07 12:42:49,0.0,5,7.3,0.0,0.0,0.0,26.7,7.5,-1.7,1024,1024,1024,1024,0,0,0,0,56,4.889,73.76,33.792652,P-GPS,,10.3
604400,2026-01-07 12:42:49,0.0,5,7.3,0.0,0.0,0.0,26.7,7.6,-1.8,1024,1024,1024,1024,0,0,0,0,56,4.889,73.76,33.792652,P-GPS,,10.3
604500,2026-01-07 12:42:49,0.0,5,7.3,0.0,0.0,0.0,26.7,7.7,-1.8,1024,1024,1024,1024,0,0,0,0,56,4.889,73.76,33.792652,P-GPS,,10.3
604600,2026-01-07 12:42:49,0.0,5,7.3,0.0,0.0,0.0,26.6,7.7,-1.8,1024,1024,1024,1024,0,0,0,0,56,4.889,73.76,33.792652,P-GPS,,10.3
604700,2026-01-07 12:42:49,0.0,5,7.3,0.0,0.0,0.0,26.6,7.7,-1.6,1024,1024,1024,1024,0,0,0,0,56,4.889,73.76,33.792652,P-GPS,,10.3
604800,2026-01-07 12:42:49,0.0,5,7.3,0.0,0.0,0.0,26.7,7.5,-1.1,1024,1024,1024,1024,0,0,0,0,56,4.889,73.76,33.792652,P-GPS,,10.3
604900,2026-01-07 12:42:49,0.0,5,7.289,0.0,0.0,0.0,26.7,7.3,-1.2,1024,1024,1024,1024,0,0,0,0,56,4.924,73.76,33.792652,P-GPS,,10.3
605000,2026-01-07 12:42:49,0.0,5,7.289,0.0,0.0,0.0,26.6,7.6,-1.6,1024,1024,1024,1024,0,0,0,0,56,4.924,73.76,33.792652,P-GPS,,10.3
605100,2026-01-07 12:42:50,0.0,5,7.289,0.0,0.0,0.0,26.6,7.8,-1.9,1024,1024,1024,1024,0,0,0,0,56,4.924,73.76,33.792652,P-GPS,,10.3
605200,2026-01-07 12:42:50,0.0,5,7.289,0.0,0.0,0.0,26.6,7.5,-1.8,1024,1024,1024,1024,0,0,0,0,56,4.924,73.76,33.792652,P-GPS,,10.3
605300,2026-01-07 12:42:50,0.0,5,7.289,0.0,0.0,0.0,26.6,7.2,-1.7,1024,1024,1024,1024,0,0,0,0,56,4.924,73.76,33.792652,P-GPS,,10.3
605400,2026-01-07 12:42:50,0.0,5,7.289,0.0,0.0,0.0,26.6,7.0,-1.6,1024,1024,1024,1024,0,0,0,0,56,4.924,73.76,33.792652,P-GPS,,10.3
605500,2026-01-07 12:42:50,0.0,5,7.289,0.0,0.0,0.0,26.5,6.6,-1.6,1024,1024,1024,1024,0,0,0,0,56,4.924,73.76,33.792652,P-GPS,,10.3
605600,2026-01-07 12:42:50,0.0,5,7.289,0.0,0.0,0.0,26.6,6.5,-1.4,1024,1024,1024,1024,0,0,0,0,56,4.924,73.76,33.792652,P-GPS,,10.3
605700,2026-01-07 12:42:50,0.0,5,7.289,0.0,0.0,0.0,26.6,6.5,-1.5,1024,1024,1024,1024,0,0,0,0,56,4.924,73.76,33.792652,P-GPS,,10.3
605800,2026-01-07 12:42:50,0.0,5,7.289,0.0,0.0,0.0,26.6,6.7,-1.5,1024,1024,1024,1024,0,0,0,0,56,4.924,73.76,33.792652,P-GPS,,10.3
605900,2026-01-07 12:42:50,0.0,5,7.289,0.0,0.0,0.0,26.6,6.4,-1.5,1024,1024,1024,1024,0,0,0,0,56,4.924,73.76,33.792652,P-GPS,,10.3
606000,2026-01-07 12:42:50,0.0,5,7.282,0.0,0.0,0.0,26.6,6.4,-1.5,1024,1024,1024,1024,0,0,0,0,56,4.973,73.76,33.792652,P-GPS,,10.3
606100,2026-01-07 12:42:50,0.0,5,7.282,0.0,0.0,0.0,26.6,6.2,-1.1,1024,1024,1024,1024,0,0,0,0,56,4.973,73.76,33.792652,P-GPS,,10.3
606200,2026-01-07 12:42:51,0.0,5,7.282,0.0,0.0,0.0,26.6,5.8,-0.9,1024,1024,1024,1024,0,0,0,0,56,4.973,73.76,33.792652,P-GPS,,10.3
606300,2026-01-07 12:42:51,0.0,5,7.282,0.0,0.0,0.0,26.6,6.1,-0.8,1024,1024,1024,1024,0,0,0,0,56,4.973,73.76,33.792652,P-GPS,,10.3
606400,2026-01-07 12:42:51,0.0,5,7.282,0.0,0.0,0.0,26.6,6.2,-0.6,1024,1024,1024,1024,0,0,0,0,56,4.973,73.76,33.792652,P-GPS,,10.3
606500,2026-01-07 12:42:51,0.0,5,7.282,0.0,0.0,0.0,26.6,6.1,-0.7,1024,1024,1024,1024,0,0,0,0,56,4.973,73.76,33.792652,P-GPS,,10.3
606600,2026-01-07 12:42:51,0.0,5,7.282,0.0,0.0,0.0,26.6,5.9,-1.0,1024,1024,1024,1024,0,0,0,0,56,4.973,73.76,33.792652,P-GPS,,10.3
606700,2026-01-07 12:42:51,0.0,5,7.282,0.0,0.0,0.0,26.6,5.9,-0.9,1024,1024,1024,1024,0,0,0,0,56,4.973,73.76,33.792652,P-GPS,,10.3
606800,2026-01-07 12:42:51,0.0,5,7.282,0.0,0.0,0.0,26.6,5.9,-0.8,1024,1024,1024,1024,0,0,0,0,56,4.973,73.76,33.792652,P-GPS,,10.3
606900,2026-01-07 12:42:51,0.0,5,7.282,0.0,0.0,0.0,26.6,6.0,-0.7,1024,1024,1024,1024,0,0,0,0,56,4.973,73.76,33.792652,P-GPS,,10.3
607000,2026-01-07 12:42:51,0.0,5,7.282,0.0,0.0,0.0,26.7,6.1,-0.5,1024,1024,1024,1024,0,0,0,0,56,4.973,73.76,33.792652,P-GPS,,10.3
607100,2026-01-07 12:42:52,0.0,5,7.269,0.0,0.0,0.0,26.7,6.0,-0.6,1024,1024,1024,1024,0,0,0,0,56,5.249,73.76,34.120736,P-GPS,,10.4
607200,2026-01-07 12:42:52,0.0,5,7.269,0.0,0.0,0.0,26.7,6.0,-0.6,1024,1024,1024,1024,0,0,0,0,56,5.249,73.76,34.120736,P-GPS,,10.4
607300,2026-01-07 12:42:52,0.0,5,7.269,0.0,0.0,0.0,26.7,6.1,-0.5,1024,1024,1024,1024,0,0,0,0,56,5.249,73.76,34.120736,P-GPS,,10.4
607400,2026-01-07 12:42:52,0.0,5,7.269,0.0,0.0,0.0,26.6,6.2,-0.7,1024,1024,1024,1024,0,0,0,0,56,5.249,73.76,34.120736,P-GPS,,10.4
607500,2026-01-07 12:42:52,0.0,5,7.269,0.0,0.0,0.0,26.7,6.2,-0.6,1024,1024,1024,1024,0,0,0,0,56,5.249,73.76,34.120736,P-GPS,,10.4
607600,2026-01-07 12:42:52,0.0,5,7.269,0.0,0.0,0.0,26.7,5.9,-0.6,1024,1024,1024,1024,0,0,0,0,56,5.249,73.76,34.120736,P-GPS,,10.4
607700,2026-01-07 12:42:52,0.0,5,7.269,0.0,0.0,0.0,26.6,6.0,-0.7,1024,1024,1024,1024,0,0,0,0,56,5.249,73.76,34.120736,P-GPS,,10.4
607800,2026-01-07 12:42:52,0.0,5,7.269,0.0,0.0,0.0,26.7,6.1,-0.7,1024,1024,1024,1024,0,0,0,0,56,5.249,73.76,34.120736,P-GPS,,10.4
607900,2026-01-07 12:42:52,0.0,5,7.269,0.0,0.0,0.0,26.7,6.3,-0.7,1024,1024,1024,1024,0,0,0,0,56,5.249,73.76,34.120736,P-GPS,,10.4
608000,2026-01-07 12:42:52,0.0,5,7.269,0.0,0.0,0.0,26.7,6.4,-0.8,1024,1024,1024,1024,0,0,0,0,56,5.249,73.76,34.120736,P-GPS,,10.4
608100,2026-01-07 12:42:52,0.0,5,7.269,0.0,0.0,0.0,26.7,6.4,-1.0,1024,1024,1024,1024,0,0,0,0,56,5.249,73.76,34.120736,P-GPS,,10.4
608200,2026-01-07 12:42:53,0.0,5,7.275,0.0,0.0,0.0,26.7,6.5,-1.2,1024,1024,1024,1024,0,0,0,0,56,5.103,73.76,34.120736,P-GPS,,10.4
608300,2026-01-07 12:42:53,0.0,5,7.275,0.0,0.0,0.0,26.7,6.7,-1.3,1024,1024,1024,1024,0,0,0,0,56,5.103,73.76,34.120736,P-GPS,,10.4
608400,2026-01-07 12:42:53,0.0,5,7.275,0.0,0.0,0.0,26.7,6.9,-1.2,1024,1024,1024,1024,0,0,0,0,56,5.103,73.76,34.120736,P-GPS,,10.4
608500,2026-01-07 12:42:53,0.0,5,7.275,0.0,0.0,0.0,26.7,7.0,-1.2,1024,1024,1024,1024,0,0,0,0,56,5.103,73.76,34.44882,P-GPS,,10.5
608600,2026-01-07 12:42:53,0.0,5,7.275,0.0,0.0,0.0,26.7,7.0,-1.2,1024,1024,1024,1024,0,0,0,0,56,5.103,73.76,34.44882,P-GPS,,10.5
608700,2026-01-07 12:42:53,0.0,5,7.275,0.0,0.0,0.0,26.7,7.0,-1.2,1024,1024,1024,1024,0,0,0,0,56,5.103,73.76,34.44882,P-GPS,,10.5
608800,2026-01-07 12:42:53,0.0,5,7.275,0.0,0.0,0.0,26.7,7.0,-1.2,1024,1024,1024,1024,0,0,0,0,56,5.103,73.76,34.44882,P-GPS,,10.5
608900,2026-01-07 12:42:53,0.0,5,7.275,0.0,0.0,0.0,26.7,6.9,-1.1,1024,1024,1024,1024,0,0,0,0,56,5.103,73.76,34.44882,P-GPS,,10.5
609000,2026-01-07 12:42:53,0.0,5,7.275,0.0,0.0,0.0,26.7,6.9,-0.9,1024,1024,1024,1024,0,0,0,0,56,5.103,73.76,34.44882,P-GPS,,10.5
609100,2026-01-07 12:42:54,0.0,5,7.275,0.0,0.0,0.0,26.7,6.8,-1.0,1024,1024,1024,1024,0,0,0,0,56,5.103,73.76,34.44882,P-GPS,,10.5
609200,2026-01-07 12:42:54,0.0,5,7.275,0.0,0.0,0.0,26.7,6.8,-0.8,1024,1024,1024,1024,0,0,0,0,56,5.103,73.76,34.44882,P-GPS,,10.5
609300,2026-01-07 12:42:54,0.0,5,7.265,0.0,0.0,0.0,26.7,6.8,-0.8,1024,1024,1024,1024,0,0,0,0,56,5.179,73.76,34.44882,P-GPS,,10.5
609400,2026-01-07 12:42:54,0.0,5,7.265,0.0,0.0,0.0,26.7,6.7,-0.7,1024,1024,1024,1024,0,0,0,0,56,5.179,73.76,34.44882,P-GPS,,10.5
609500,2026-01-07 12:42:54,0.0,5,7.265,0.0,0.0,0.0,26.7,6.7,-0.5,1024,1024,1024,1024,0,0,0,0,56,5.179,73.76,34.44882,P-GPS,,10.5
609600,2026-01-07 12:42:54,0.0,5,7.265,0.0,0.0,0.0,26.7,6.6,-0.4,1024,1024,1024,1024,0,0,0,0,56,5.179,73.76,34.44882,P-GPS,,10.5
609700,2026-01-07 12:42:54,0.0,5,7.265,0.0,0.0,0.0,26.7,6.5,-0.3,1024,1024,1024,1024,0,0,0,0,56,5.179,73.76,34.44882,P-GPS,,10.5
609800,2026-01-07 12:42:54,0.0,5,7.265,0.0,0.0,0.0,26.7,6.3,-0.5,1024,1024,1024,1024,0,0,0,0,56,5.179,73.76,34.44882,P-GPS,,10.5
609900,2026-01-07 12:42:54,0.0,5,7.265,0.0,0.0,0.0,26.6,6.2,-0.5,1024,1024,1024,1024,0,0,0,0,56,5.179,73.76,34.44882,P-GPS,,10.5
610000,2026-01-07 12:42:54,0.0,5,7.265,0.0,0.0,0.0,26.6,6.4,-0.4,1024,1024,1024,1024,0,0,0,0,56,5.179,73.76,34.44882,P-GPS,,10.5
610100,2026-01-07 12:42:54,0.0,5,7.265,0.0,0.0,0.0,26.6,6.3,-0.2,1024,1024,1024,1024,0,0,0,0,56,5.179,73.76,34.44882,P-GPS,,10.5
610200,2026-01-07 12:42:55,0.0,5,7.265,0.0,0.0,0.0,26.6,6.5,-0.3,1024,1024,1024,1024,0,0,0,0,56,5.179,73.76,34.44882,P-GPS,,10.5
610300,2026-01-07 12:42:55,0.0,5,7.265,0.0,0.0,0.0,26.6,6.5,-0.4,1024,1024,1024,1024,0,0,0,0,56,5.179,73.76,34.44882,P-GPS,,10.5
610400,2026-01-07 12:42:55,0.0,5,7.265,0.0,0.0,0.0,26.7,6.5,-0.6,1024,1024,1024,1024,0,0,0,0,56,5.179,73.76,34.44882,P-GPS,,10.5
610500,2026-01-07 12:42:55,0.0,5,7.267,0.0,0.0,0.0,26.7,6.5,-0.7,1024,1024,1024,1024,0,0,0,0,56,5.085,73.76,34.44882,P-GPS,,10.5
610600,2026-01-07 12:42:55,0.0,5,7.267,0.0,0.0,0.0,26.7,6.3,-0.6,1024,1024,1024,1024,0,0,0,0,56,5.085,73.76,34.44882,P-GPS,,10.5
610700,2026-01-07 12:42:55,0.0,5,7.267,0.0,0.0,0.0,26.7,6.0,-0.5,1024,1024,1024,1024,0,0,0,0,56,5.085,73.76,34.44882,P-GPS,,10.5
610800,2026-01-07 12:42:55,0.0,5,7.267,0.0,0.0,0.0,26.7,5.9,-0.5,1024,1024,1024,1024,0,0,0,0,56,5.085,73.76,34.44882,P-GPS,,10.5
610900,2026-01-07 12:42:55,0.0,5,7.267,0.0,0.0,0.0,26.7,5.6,-0.6,1024,1024,1024,1024,0,0,0,0,56,5.085,73.76,34.44882,P-GPS,,10.5
611000,2026-01-07 12:42:55,0.0,5,7.267,0.0,0.0,0.0,26.7,5.5,-0.7,1024,1024,1024,1024,0,0,0,0,56,5.085,73.76,34.44882,P-GPS,,10.5
611100,2026-01-07 12:42:56,0.0,5,7.267,0.0,0.0,0.0,26.7,5.5,-0.7,1024,1024,1024,1024,0,0,0,0,56,5.085,73.76,34.44882,P-GPS,,10.5
611200,2026-01-07 12:42:56,0.0,5,7.267,0.0,0.0,0.0,26.7,5.8,-0.8,1024,1024,1024,1024,0,0,0,0,56,5.085,73.76,34.44882,P-GPS,,10.5
611300,2026-01-07 12:42:56,0.0,5,7.267,0.0,0.0,0.0,26.7,5.8,-0.7,1024,1024,1024,1024,0,0,0,0,56,5.085,73.76,34.44882,P-GPS,,10.5
611400,2026-01-07 12:42:56,0.0,5,7.267,0.0,0.0,0.0,26.7,5.7,-0.8,1024,1024,1024,1024,0,0,0,0,56,5.085,73.76,34.44882,P-GPS,,10.5
611500,2026-01-07 12:42:56,0.0,5,7.267,0.0,0.0,0.0,26.7,5.5,-1.0,1024,1024,1024,1024,0,0,0,0,56,5.085,73.76,34.44882,P-GPS,,10.5
611600,2026-01-07 12:42:56,0.0,5,7.267,0.0,0.0,0.0,26.8,5.5,-1.0,1024,1024,1024,1024,0,0,0,0,56,5.085,73.76,34.44882,P-GPS,,10.5
611700,2026-01-07 12:42:56,0.0,5,7.267,0.0,0.0,0.0,26.7,5.6,-1.2,1024,1024,1024,1024,0,0,0,0,56,5.085,73.76,34.44882,P-GPS,,10.5
611800,2026-01-07 12:42:56,0.0,5,7.267,0.0,0.0,0.0,26.7,5.3,-1.3,1024,1024,1024,1024,0,0,0,0,56,5.085,73.76,34.44882,P-GPS,,10.5
611900,2026-01-07 12:42:56,0.0,5,7.267,0.0,0.0,0.0,26.7,5.4,-1.2,1024,1024,1024,1024,0,0,0,0,56,5.085,73.76,34.44882,P-GPS,,10.5
612000,2026-01-07 12:42:56,0.0,5,7.267,0.0,0.0,0.0,26.7,5.6,-1.5,1024,1024,1024,1024,0,0,0,0,56,5.085,73.76,34.44882,P-GPS,,10.5
612100,2026-01-07 12:42:56,0.0,5,7.267,0.0,0.0,0.0,26.7,5.8,-1.4,1024,1024,1024,1024,0,0,0,0,56,5.085,73.76,34.44882,P-GPS,,10.5
612200,2026-01-07 12:42:57,0.0,5,7.267,0.0,0.0,0.0,26.8,5.7,-1.6,1024,1024,1024,1024,0,0,0,0,56,5.085,73.76,34.44882,P-GPS,,10.5
612300,2026-01-07 12:42:57,0.0,5,7.267,0.0,0.0,0.0,26.8,5.6,-1.7,1024,1024,1024,1024,0,0,0,0,56,5.085,73.76,34.44882,P-GPS,,10.5
612400,2026-01-07 12:42:57,0.0,5,7.267,0.0,0.0,0.0,26.7,5.7,-1.6,1024,1024,1024,1024,0,0,0,0,56,5.085,73.76,34.44882,P-GPS,,10.5
612500,2026-01-07 12:42:57,0.0,5,7.267,0.0,0.0,0.0,26.8,5.8,-1.7,1024,1024,1024,1024,0,0,0,0,56,5.085,73.76,34.44882,P-GPS,,10.5
612600,2026-01-07 12:42:57,0.0,5,7.267,0.0,0.0,0.0,26.7,5.6,-1.8,1024,1024,1024,1024,0,0,0,0,56,5.085,73.76,34.44882,P-GPS,,10.5
612700,2026-01-07 12:42:57,0.0,5,7.269,0.0,0.0,0.0,26.7,5.4,-1.8,1024,1024,1024,1024,0,0,0,0,56,4.975,73.76,34.44882,P-GPS,,10.5
612800,2026-01-07 12:42:57,0.0,5,7.269,0.0,0.0,0.0,26.7,5.3,-1.7,1024,1024,1024,1024,0,0,0,0,56,4.975,73.76,34.44882,P-GPS,,10.5
612900,2026-01-07 12:42:57,0.0,5,7.269,0.0,0.0,0.0,26.7,5.3,-1.8,1024,1024,1024,1024,0,0,0,0,56,4.975,73.76,34.44882,P-GPS,,10.5
613000,2026-01-07 12:42:57,0.0,5,7.269,0.0,0.0,0.0,26.7,4.9,-1.7,1024,1024,1024,1024,0,0,0,0,56,4.975,73.76,34.44882,P-GPS,,10.5
613100,2026-01-07 12:42:57,0.0,5,7.269,0.0,0.0,0.0,26.7,4.8,-1.5,1024,1024,1024,1024,0,0,0,0,56,4.975,73.76,34.44882,P-GPS,,10.5
613200,2026-01-07 12:42:58,0.0,5,7.269,0.0,0.0,0.0,26.7,4.7,-1.5,1024,1024,1024,1024,0,0,0,0,56,4.975,73.76,34.44882,P-GPS,,10.5
613300,2026-01-07 12:42:58,0.0,5,7.269,0.0,0.0,0.0,26.8,5.1,-1.5,1024,1024,1024,1024,0,0,0,0,56,4.975,73.76,34.776904,P-GPS,,10.6
613400,2026-01-07 12:42:58,0.0,5,7.269,0.0,0.0,0.0,26.7,5.2,-1.7,1024,1024,1024,1024,0,0,0,0,56,4.975,73.76,34.776904,P-GPS,,10.6
613500,2026-01-07 12:42:58,0.0,5,7.269,0.0,0.0,0.0,26.7,5.4,-1.6,1024,1024,1024,1024,0,0,0,0,56,4.975,73.76,34.776904,P-GPS,,10.6
613600,2026-01-07 12:42:58,0.0,5,7.269,0.0,0.0,0.0,26.7,5.5,-1.5,1024,1024,1024,1024,0,0,0,0,56,4.975,73.76,34.776904,P-GPS,,10.6
613700,2026-01-07 12:42:58,0.0,5,7.269,0.0,0.0,0.0,26.7,5.5,-1.5,1024,1024,1024,1024,0,0,0,0,55,4.975,73.76,34.776904,P-GPS,,10.6
613800,2026-01-07 12:42:58,0.0,5,7.272,0.0,0.0,0.0,26.7,5.5,-1.4,1024,1024,1024,1024,0,0,0,0,55,4.812,73.94,34.776904,P-GPS,,10.6
613900,2026-01-07 12:42:58,0.0,5,7.272,0.0,0.0,0.0,26.7,5.6,-1.6,1024,1024,1024,1024,0,0,0,0,55,4.812,73.94,34.776904,P-GPS,,10.6
614000,2026-01-07 12:42:58,0.0,5,7.272,0.0,0.0,0.0,26.7,5.5,-1.6,1024,1024,1024,1024,0,0,0,0,55,4.812,73.94,34.776904,P-GPS,,10.6
614100,2026-01-07 12:42:58,0.0,5,7.272,0.0,0.0,0.0,26.7,5.3,-1.6,1024,1024,1024,1024,0,0,0,0,55,4.812,73.94,34.776904,P-GPS,,10.6
614200,2026-01-07 12:42:59,0.0,5,7.272,0.0,0.0,0.0,26.7,5.2,-1.7,1024,1024,1024,1024,0,0,0,0,55,4.812,73.94,34.776904,P-GPS,,10.6
614300,2026-01-07 12:42:59,0.0,5,7.272,0.0,0.0,0.0,26.7,5.4,-1.7,1024,1024,1024,1024,0,0,0,0,55,4.812,73.94,34.776904,P-GPS,,10.6
614400,2026-01-07 12:42:59,0.0,5,7.272,0.0,0.0,0.0,26.7,5.5,-1.6,1024,1024,1024,1024,0,0,0,0,55,4.812,73.94,34.776904,P-GPS,,10.6
614500,2026-01-07 12:42:59,0.0,5,7.272,0.0,0.0,0.0,26.7,5.5,-1.7,1024,1024,1024,1024,0,0,0,0,55,4.812,73.94,34.776904,P-GPS,,10.6
614600,2026-01-07 12:42:59,0.0,5,7.272,0.0,0.0,0.0,26.7,5.6,-1.5,1024,1024,1024,1024,0,0,0,0,55,4.812,73.94,34.776904,P-GPS,,10.6
614700,2026-01-07 12:42:59,0.0,5,7.272,0.0,0.0,0.0,26.7,5.6,-1.3,1024,1024,1024,1024,0,0,0,0,55,4.812,73.94,34.776904,P-GPS,,10.6
614800,2026-01-07 12:42:59,0.0,5,7.272,0.0,0.0,0.0,26.7,5.4,-1.4,1024,1024,1024,1024,0,0,0,0,55,4.812,73.94,34.776904,P-GPS,,10.6
614900,2026-01-07 12:42:59,0.0,5,7.272,0.0,0.0,0.0,26.8,5.2,-1.5,1024,1024,1024,1024,0,0,0,0,55,4.812,73.94,34.776904,P-GPS,,10.6
615000,2026-01-07 12:42:59,0.0,5,7.269,0.0,0.0,0.0,26.8,5.4,-1.7,1024,1024,1024,1024,0,0,0,0,55,4.867,73.94,34.776904,P-GPS,,10.6
615100,2026-01-07 12:42:59,0.0,5,7.269,0.0,0.0,0.0,26.7,5.6,-1.6,1024,1024,1024,1024,0,0,0,0,55,4.867,73.94,34.776904,P-GPS,,10.6
615200,2026-01-07 12:43:00,0.0,5,7.269,0.0,0.0,0.0,26.7,5.6,-1.4,1024,1024,1024,1024,0,0,0,0,55,4.867,73.94,34.776904,P-GPS,,10.6
615300,2026-01-07 12:43:00,0.0,5,7.269,0.0,0.0,0.0,26.7,5.6,-1.2,1024,1024,1024,1024,0,0,0,0,55,4.867,73.94,34.776904,P-GPS,,10.6
615400,2026-01-07 12:43:00,0.0,5,7.269,0.0,0.0,0.0,26.7,5.7,-1.2,1024,1024,1024,1024,0,0,0,0,55,4.867,73.94,34.776904,P-GPS,,10.6
615500,2026-01-07 12:43:00,0.0,5,7.269,0.0,0.0,0.0,26.7,5.7,-1.1,1024,1024,1024,1024,0,0,0,0,55,4.867,73.94,35.104988,P-GPS,,10.7
615600,2026-01-07 12:43:00,0.0,5,7.269,0.0,0.0,0.0,26.7,6.1,-1.0,1024,1024,1024,1024,0,0,0,0,55,4.867,73.94,35.104988,P-GPS,,10.7
615700,2026-01-07 12:43:00,0.0,5,7.269,0.0,0.0,0.0,26.7,6.0,-1.0,1024,1024,1024,1024,0,0,0,0,55,4.867,73.94,35.104988,P-GPS,,10.7
615800,2026-01-07 12:43:00,0.0,5,7.269,0.0,0.0,0.0,26.7,5.7,-1.4,1024,1024,1024,1024,0,0,0,0,55,4.867,73.94,35.104988,P-GPS,,10.7
615900,2026-01-07 12:43:00,0.0,5,7.269,0.0,0.0,0.0,26.7,5.7,-1.4,1024,1024,1024,1024,0,0,0,0,55,4.867,73.94,35.104988,P-GPS,,10.7
616000,2026-01-07 12:43:00,0.0,5,7.269,0.0,0.0,0.0,26.6,5.9,-1.2,1024,1024,1024,1024,0,0,0,0,55,4.867,73.94,35.104988,P-GPS,,10.7
616100,2026-01-07 12:43:00,0.0,5,7.257,0.0,0.0,0.0,26.6,5.8,-1.2,1024,1024,1024,1024,0,0,0,0,55,5.074,73.94,35.104988,P-GPS,,10.7
616200,2026-01-07 12:43:01,0.0,5,7.257,0.0,0.0,0.0,26.7,5.6,-1.2,1024,1024,1024,1024,0,0,0,0,55,5.074,73.94,35.104988,P-GPS,,10.7
616300,2026-01-07 12:43:01,0.0,5,7.257,0.0,0.0,0.0,26.7,5.6,-1.1,1024,1024,1024,1024,0,0,0,0,55,5.074,73.94,35.104988,P-GPS,,10.7
616400,2026-01-07 12:43:01,0.0,5,7.257,0.0,0.0,0.0,26.7,5.8,-0.9,1024,1024,1024,1024,0,0,0,0,55,5.074,73.94,35.104988,P-GPS,,10.7
616500,2026-01-07 12:43:01,0.0,5,7.257,0.0,0.0,0.0,26.7,5.4,-1.4,1024,1024,1024,1024,0,0,0,0,55,5.074,73.94,35.104988,P-GPS,,10.7
616600,2026-01-07 12:43:01,0.0,5,7.257,0.0,0.0,0.0,26.7,5.6,-1.4,1024,1024,1024,1024,0,0,0,0,55,5.074,73.94,35.433072,P-GPS,,10.8
616700,2026-01-07 12:43:01,0.0,5,7.257,0.0,0.0,0.0,26.7,5.6,-1.6,1024,1024,1024,1024,0,0,0,0,55,5.074,73.94,35.433072,P-GPS,,10.8
616800,2026-01-07 12:43:01,0.0,5,7.257,0.0,0.0,0.0,26.6,5.6,-1.5,1024,1024,1024,1024,0,0,0,0,55,5.074,73.94,35.433072,P-GPS,,10.8
616900,2026-01-07 12:43:01,0.0,5,7.257,0.0,0.0,0.0,26.6,5.4,-1.3,1024,1024,1024,1024,0,0,0,0,55,5.074,73.94,35.433072,P-GPS,,10.8
617000,2026-01-07 12:43:01,0.0,5,7.257,0.0,0.0,0.0,26.7,5.4,-1.2,1024,1024,1024,1024,0,0,0,0,55,5.074,73.94,35.433072,P-GPS,,10.8
617100,2026-01-07 12:43:01,0.0,5,7.257,0.0,0.0,0.0,26.7,5.3,-1.1,1024,1024,1024,1024,0,0,0,0,55,5.074,73.94,35.433072,P-GPS,,10.8
617200,2026-01-07 12:43:02,0.0,5,7.252,0.0,0.0,0.0,26.7,5.2,-1.1,1024,1024,1024,1024,0,0,0,0,55,5.025,73.94,35.433072,P-GPS,,10.8
617300,2026-01-07 12:43:02,0.0,5,7.252,0.0,0.0,0.0,26.7,5.4,-1.5,1024,1024,1024,1024,0,0,0,0,55,5.025,73.94,35.433072,P-GPS,,10.8
617400,2026-01-07 12:43:02,0.0,5,7.252,0.0,0.0,0.0,26.6,5.5,-1.1,1024,1024,1024,1024,0,0,0,0,55,5.025,73.94,35.433072,P-GPS,,10.8
617500,2026-01-07 12:43:02,0.0,5,7.252,0.0,0.0,0.0,26.6,5.0,-0.6,1024,1024,1024,1024,0,0,0,0,55,5.025,73.94,35.433072,P-GPS,,10.8
617600,2026-01-07 12:43:02,0.0,5,7.252,0.0,0.0,0.0,26.7,4.4,-0.5,1024,1024,1024,1024,0,0,0,0,55,5.025,73.94,35.433072,P-GPS,,10.8
617700,2026-01-07 12:43:02,0.0,5,7.252,0.0,0.0,0.0,26.7,4.3,-0.4,1024,1024,1024,1024,0,0,0,0,55,5.025,73.94,35.433072,P-GPS,,10.8
617800,2026-01-07 12:43:02,0.0,5,7.252,0.0,0.0,0.0,26.7,4.3,-0.6,1024,1024,1024,1024,0,0,0,0,55,5.025,73.94,35.433072,P-GPS,,10.8
617900,2026-01-07 12:43:02,0.0,5,7.252,0.0,0.0,0.0,26.7,4.4,-1.0,1024,1024,1024,1024,0,0,0,0,55,5.025,73.94,35.433072,P-GPS,,10.8
618000,2026-01-07 12:43:02,0.0,5,7.252,0.0,0.0,0.0,26.7,4.6,-1.4,1024,1024,1024,1024,0,0,0,0,55,5.025,73.94,35.433072,P-GPS,,10.8
618100,2026-01-07 12:43:02,0.0,5,7.252,0.0,0.0,0.0,26.7,4.7,-1.7,1024,1024,1024,1024,0,0,0,0,55,5.025,73.94,35.433072,P-GPS,,10.8
618200,2026-01-07 12:43:03,0.0,5,7.252,0.0,0.0,0.0,26.8,5.1,-1.7,1024,1024,1024,1024,0,0,0,0,55,5.025,73.94,35.433072,P-GPS,,10.8
618300,2026-01-07 12:43:03,0.0,5,7.265,0.0,0.0,0.0,26.8,5.1,-1.5,1024,1024,1024,1024,0,0,0,0,55,4.885,73.94,35.433072,P-GPS,,10.8
618400,2026-01-07 12:43:03,0.0,5,7.265,0.0,0.0,0.0,26.7,5.1,-1.3,1024,1024,1024,1024,0,0,0,0,55,4.885,73.94,35.433072,P-GPS,,10.8
618500,2026-01-07 12:43:03,0.0,5,7.265,0.0,0.0,0.0,26.7,5.3,-1.2,1024,1024,1024,1024,0,0,0,0,55,4.885,73.94,35.433072,P-GPS,,10.8
618600,2026-01-07 12:43:03,0.0,5,7.265,0.0,0.0,0.0,26.7,5.1,-1.4,1024,1024,1024,1024,0,0,0,0,55,4.885,73.94,35.433072,P-GPS,,10.8
618700,2026-01-07 12:43:03,0.0,5,7.265,0.0,0.0,0.0,26.6,4.9,-1.3,1024,1024,1024,1024,0,0,0,0,55,4.885,73.94,35.433072,P-GPS,,10.8
618800,2026-01-07 12:43:03,0.0,5,7.265,0.0,0.0,0.0,26.7,5.2,-1.0,1024,1024,1024,1024,0,0,0,0,55,4.885,73.94,35.433072,P-GPS,,10.8
618900,2026-01-07 12:43:03,0.0,5,7.265,0.0,0.0,0.0,26.8,5.2,-1.0,1024,1024,1024,1024,0,0,0,0,55,4.885,73.94,35.433072,P-GPS,,10.8
619000,2026-01-07 12:43:03,0.0,5,7.265,0.0,0.0,0.0,26.7,5.0,-1.3,1024,1024,1024,1024,0,0,0,0,55,4.885,73.94,35.433072,P-GPS,,10.8
619100,2026-01-07 12:43:03,0.0,5,7.265,0.0,0.0,0.0,26.7,4.9,-1.2,1024,1024,1024,1024,0,0,0,0,55,4.885,73.94,35.433072,P-GPS,,10.8
619200,2026-01-07 12:43:04,0.0,5,7.265,0.0,0.0,0.0,26.7,4.8,-1.2,1024,1024,1024,1024,0,0,0,0,55,4.885,73.94,35.433072,P-GPS,,10.8
619300,2026-01-07 12:43:04,0.0,5,7.265,0.0,0.0,0.0,26.7,4.9,-1.0,1024,1024,1024,1024,0,0,0,0,55,4.885,73.94,35.433072,P-GPS,,10.8
619400,2026-01-07 12:43:04,0.0,5,7.257,0.0,0.0,0.0,26.5,4.7,-1.1,1024,1024,1024,1024,0,0,0,0,55,4.989,73.94,35.433072,P-GPS,,10.8
619500,2026-01-07 12:43:04,0.0,5,7.257,0.0,0.0,0.0,26.5,4.2,-0.6,1024,1024,1024,1024,0,0,0,0,55,4.989,73.94,35.761156,P-GPS,,10.9
619600,2026-01-07 12:43:04,0.0,5,7.257,0.0,0.0,0.0,26.6,4.5,-0.2,1024,1024,1024,1024,0,0,0,0,55,4.989,73.94,35.761156,P-GPS,,10.9
619700,2026-01-07 12:43:04,0.0,5,7.257,0.0,0.0,0.0,26.7,4.7,-0.2,1024,1024,1024,1024,0,0,0,0,55,4.989,73.94,35.761156,P-GPS,,10.9
619800,2026-01-07 12:43:04,0.0,5,7.257,0.0,0.0,0.0,26.7,4.8,-0.3,1024,1024,1024,1024,0,0,0,0,55,4.989,73.94,35.761156,P-GPS,,10.9
619900,2026-01-07 12:43:04,0.0,5,7.257,0.0,0.0,0.0,26.7,5.0,-0.3,1024,1024,1024,1024,0,0,0,0,55,4.989,73.94,35.761156,P-GPS,,10.9
620000,2026-01-07 12:43:04,0.0,5,7.257,0.0,0.0,0.0,26.7,5.1,-0.2,1024,1024,1024,1024,0,0,0,0,55,4.989,73.94,35.761156,P-GPS,,10.9
620100,2026-01-07 12:43:04,0.0,5,7.257,0.0,0.0,0.0,26.7,5.2,-0.1,1024,1024,1024,1024,0,0,0,0,55,4.989,73.94,35.761156,P-GPS,,10.9
620200,2026-01-07 12:43:05,0.0,5,7.257,0.0,0.0,0.0,26.7,5.3,-0.1,1024,1024,1024,1024,0,0,0,0,55,4.989,73.94,35.761156,P-GPS,,10.9
620300,2026-01-07 12:43:05,0.0,5,7.257,0.0,0.0,0.0,26.7,5.4,-0.3,1024,1024,1024,1024,0,0,0,0,55,4.989,73.94,35.761156,P-GPS,,10.9
620400,2026-01-07 12:43:05,0.0,5,7.257,0.0,0.0,0.0,26.7,5.2,-0.7,1024,1024,1024,1024,0,0,0,0,55,4.989,73.94,35.761156,P-GPS,,10.9
620500,2026-01-07 12:43:05,0.0,5,7.257,0.0,0.0,0.0,26.7,5.2,-0.7,1024,1024,1024,1024,0,0,0,0,55,4.989,73.94,35.761156,P-GPS,,10.9
620600,2026-01-07 12:43:05,0.0,5,7.257,0.0,0.0,0.0,26.7,5.4,-0.7,1024,1024,1024,1024,0,0,0,0,55,4.989,73.94,35.761156,P-GPS,,10.9
620700,2026-01-07 12:43:05,0.0,5,7.257,0.0,0.0,0.0,26.7,5.3,-0.8,1024,1024,1024,1024,0,0,0,0,55,4.989,73.94,35.761156,P-GPS,,10.9
620800,2026-01-07 12:43:05,0.0,5,7.257,0.0,0.0,0.0,26.7,5.7,-0.8,1024,1024,1024,1024,0,0,0,0,55,4.989,73.94,35.761156,P-GPS,,10.9
620900,2026-01-07 12:43:05,0.0,5,7.257,0.0,0.0,0.0,26.7,5.9,-0.7,1024,1024,1024,1024,0,0,0,0,55,4.989,73.94,35.761156,P-GPS,,10.9
621000,2026-01-07 12:43:05,0.0,5,7.257,0.0,0.0,0.0,26.7,5.8,-0.4,1024,1024,1129,1024,0,0,16,0,55,4.989,73.94,36.08924,P-GPS,,11.0
621100,2026-01-07 12:43:06,0.0,5,7.257,0.0,0.0,0.0,26.6,5.3,-0.6,1024,1024,1573,1024,0,0,83,0,55,4.989,73.94,36.08924,P-GPS,,11.0
621200,2026-01-07 12:43:06,0.0,5,7.257,0.0,0.0,0.0,26.7,5.4,-0.6,1024,1024,1677,1024,0,0,99,0,55,4.989,73.94,36.08924,P-GPS,,11.0
621300,2026-01-07 12:43:06,0.0,5,7.257,0.0,0.0,0.0,26.7,5.5,-0.9,1024,1024,1677,1024,0,0,99,0,55,4.989,73.94,36.08924,P-GPS,,11.0
621400,2026-01-07 12:43:06,0.0,5,7.257,0.0,0.0,-0.447388,26.8,5.5,-1.2,1024,1024,1684,1024,0,0,100,0,55,4.989,73.94,36.08924,P-GPS,,11.0
621500,2026-01-07 12:43:06,0.0,5,7.257,0.0,0.0,-1.11847,26.9,5.4,-1.5,1024,1024,1684,1024,0,0,100,0,55,4.989,73.94,36.417324,P-GPS,,11.1
621600,2026-01-07 12:43:06,0.0,5,7.246,0.0,0.0,-1.789552,26.9,5.5,-1.0,1024,1024,1684,1024,0,0,100,0,55,5.081,73.94,36.417324,P-GPS,,11.1
621700,2026-01-07 12:43:06,0.0,5,7.246,0.0,0.0,-2.684328,26.9,4.8,-0.5,1024,1024,1684,1024,0,0,100,0,55,5.081,73.94,37.073492,P-GPS,,11.3
621800,2026-01-07 12:43:06,0.0,5,7.246,0.0,0.0,-3.35541,26.9,4.5,-0.6,1024,1024,1684,1024,0,0,100,0,55,5.081,73.94,37.401576,P-GPS,,11.4
621900,2026-01-07 12:43:06,0.0,5,7.246,0.0,0.0,-4.026492,26.7,5.6,-0.5,1024,1024,1684,1024,0,0,100,0,55,5.081,73.94,38.057744,P-GPS,,11.6
622000,2026-01-07 12:43:06,0.0,5,7.246,0.0,0.0,-4.250186,26.6,6.2,-0.2,1024,1024,1684,1024,0,0,100,0,55,5.081,73.94,38.713912,P-GPS,,11.8
721000,2026-01-07 12:44:45,0.0,5,7.171,0.0,0.0,4.026492,27.0,4.4,4.5,1024,1024,364,1024,0,0,-100,0,48,4.249,75.2,39.041996,P-GPS,,11.9
721100,2026-01-07 12:44:45,0.0,5,7.171,0.0,0.0,4.026492,27.0,4.7,4.7,1024,1024,364,1024,0,0,-100,0,48,4.249,75.2,38.713912,P-GPS,,11.8
721200,2026-01-07 12:44:46,0.0,5,7.171,0.0,0.0,4.026492,27.1,4.8,4.4,1024,1024,364,1024,0,0,-100,0,48,4.249,75.2,38.057744,P-GPS,,11.6
721300,2026-01-07 12:44:46,0.0,5,7.164,0.0,0.0,3.802798,27.1,4.5,4.1,1024,1024,364,1024,0,0,-100,0,48,4.354,75.2,37.401576,P-GPS,,11.4
721400,2026-01-07 12:44:46,0.0,5,7.164,0.0,0.0,4.026492,27.1,4.4,4.4,1024,1024,364,1024,0,0,-100,0,48,4.354,75.2,36.745408,P-GPS,,11.2
721500,2026-01-07 12:44:46,0.0,5,7.164,0.0,0.0,3.802798,27.2,4.5,4.6,1024,1024,364,1024,0,0,-100,0,48,4.354,75.2,36.417324,P-GPS,,11.1
721600,2026-01-07 12:44:46,0.0,5,7.164,0.0,0.0,3.802798,27.2,4.2,4.6,1024,1024,364,1024,0,0,-100,0,48,4.354,75.2,35.761156,P-GPS,,10.9
721700,2026-01-07 12:44:46,0.0,5,7.164,0.0,0.0,3.802798,27.2,3.7,4.9,1024,1024,364,1024,0,0,-100,0,48,4.354,75.2,35.104988,P-GPS,,10.7
721800,2026-01-07 12:44:46,0.0,5,7.164,0.0,0.0,4.026492,27.4,4.0,4.8,1024,1024,364,1024,0,0,-100,0,48,4.354,75.2,34.776904,P-GPS,,10.6
721900,2026-01-07 12:44:46,0.0,5,7.164,0.0,0.0,4.026492,27.2,4.2,4.4,1024,1024,364,1024,0,0,-100,0,48,4.354,75.2,34.120736,P-GPS,,10.4
722000,2026-01-07 12:44:46,0.0,5,7.164,0.0,0.0,4.026492,27.2,3.8,4.7,1024,1024,364,1024,0,0,-100,0,48,4.354,75.2,33.464568,P-GPS,,10.2
722100,2026-01-07 12:44:46,0.0,5,7.164,0.0,0.0,4.026492,27.1,3.4,4.8,1024,1024,364,1024,0,0,-100,0,48,4.354,75.2,33.136484,P-GPS,,10.1
722200,2026-01-07 12:44:47,0.0,5,7.164,0.0,0.0,3.802798,27.1,3.6,4.2,1024,1024,364,1024,0,0,-100,0,48,4.354,75.2,32.480316,P-GPS,,9.9
722300,2026-01-07 12:44:47,0.0,5,7.164,0.0,0.0,3.802798,27.1,3.7,4.5,1024,1024,364,1024,0,0,-100,0,48,4.354,75.2,32.152232,P-GPS,,9.8
722400,2026-01-07 12:44:47,0.0,5,7.156,0.0,0.0,3.802798,27.1,4.3,4.3,1024,1024,364,1024,0,0,-100,0,48,4.47,75.2,31.496064,P-GPS,,9.6
722500,2026-01-07 12:44:47,0.0,5,7.156,0.0,0.0,3.802798,27.2,4.3,4.0,1024,1024,364,1024,0,0,-100,0,48,4.47,75.2,31.16798,P-GPS,,9.5
722600,2026-01-07 12:44:47,0.0,5,7.156,0.0,0.0,3.802798,27.1,4.4,4.1,1024,1024,364,1024,0,0,-100,0,48,4.47,75.2,30.511812,P-GPS,,9.3
722700,2026-01-07 12:44:47,0.0,5,7.156,0.0,0.0,3.802798,27.0,4.5,3.8,1024,1024,364,1024,0,0,-100,0,48,4.47,75.2,29.855644,P-GPS,,9.1
722800,2026-01-07 12:44:47,0.0,5,7.156,0.0,0.0,3.802798,27.1,4.9,3.4,1024,1024,364,1024,0,0,-100,0,48,4.47,75.2,29.199476,P-GPS,,8.9
722900,2026-01-07 12:44:47,0.0,5,7.156,0.0,0.0,3.802798,27.1,4.8,3.2,1024,1024,364,1024,0,0,-100,0,48,4.47,75.2,28.871392,P-GPS,,8.8
723000,2026-01-07 12:44:47,0.0,5,7.156,0.0,0.0,3.802798,27.0,4.6,3.4,1024,1024,364,1024,0,0,-100,0,48,4.47,75.2,28.215224,P-GPS,,8.6
723100,2026-01-07 12:44:47,0.0,5,7.156,0.0,0.0,3.802798,27.0,4.4,3.8,1024,1024,364,1024,0,0,-100,0,48,4.47,75.2,27.559056,P-GPS,,8.4
723200,2026-01-07 12:44:48,0.0,5,7.156,0.0,0.0,3.802798,27.1,4.6,3.9,1024,1024,364,1024,0,0,-100,0,48,4.47,75.2,26.902888,P-GPS,,8.2
723300,2026-01-07 12:44:48,0.0,5,7.156,0.0,0.0,3.802798,27.0,3.9,3.9,1024,1024,364,1024,0,0,-100,0,48,4.47,75.2,26.574804,P-GPS,,8.1
