time(millisecond),timestamp,speed(mph),gpslevel,voltage(v),xSpeed(mph),ySpeed(mph),zSpeed(mph),compass_heading(degrees),pitch(degrees),roll(degrees),rc_elevator,rc_aileron,rc_throttle,rc_rudder,rc_elevator(percent),rc_aileron(percent),rc_throttle(percent),rc_rudder(percent),battery_percent,current(A),battery_temperature(f),ascent(feet),flycState,message,height_above_takeoff(meters)
669800,2026-01-07 12:43:54,0.0,5,7.106,0.0,0.0,-4.47388,26.9,7.1,2.1,1024,1024,1684,1024,0,0,100,0,51,6.413,74.66,158.136488,P-GPS,,48.2
669900,2026-01-07 12:43:54,0.0,5,7.106,0.0,0.0,-4.250186,26.9,7.0,2.1,1024,1024,1684,1024,0,0,100,0,51,6.413,74.66,159.12074,P-GPS,,48.5
670000,2026-01-07 12:43:54,0.0,5,7.106,0.0,0.0,-4.250186,26.9,6.3,1.9,1024,1024,1684,1024,0,0,100,0,51,6.413,74.66,159.776908,P-GPS,,48.7
670100,2026-01-07 12:43:55,0.0,5,7.106,0.0,0.0,-4.47388,26.8,6.2,1.5,1024,1024,1684,1024,0,0,100,0,51,6.413,74.66,160.433076,P-GPS,,48.9
670200,2026-01-07 12:43:55,0.0,5,7.106,0.0,0.0,-4.47388,26.8,6.2,1.5,1024,1024,1684,1024,0,0,100,0,51,6.413,74.66,161.089244,P-GPS,,49.1
670300,2026-01-07 12:43:55,0.0,5,7.106,0.0,0.0,-4.47388,26.8,6.5,1.3,1024,1024,1684,1024,0,0,100,0,51,6.413,74.66,161.745412,P-GPS,,49.3
670400,2026-01-07 12:43:55,0.0,5,7.106,0.0,0.0,-4.250186,26.8,6.8,1.2,1024,1024,1684,1024,0,0,100,0,51,6.413,74.66,162.40158,P-GPS,,49.5
670500,2026-01-07 12:43:55,0.0,5,7.106,0.0,0.0,-4.250186,26.8,6.9,1.6,1024,1024,1024,1024,0,0,0,0,51,6.413,74.66,163.057748,P-GPS,,49.7
670600,2026-01-07 12:43:55,0.0,5,7.106,0.0,0.0,-4.250186,26.8,6.7,1.7,1024,1024,1024,1024,0,0,0,0,51,6.413,74.66,163.713916,P-GPS,,49.9
670700,2026-01-07 12:43:55,0.0,5,7.106,0.0,0.0,-4.250186,26.8,6.8,1.6,1024,1024,1024,1024,0,0,0,0,51,6.413,74.66,164.370084,P-GPS,,50.1
670800,2026-01-07 12:43:55,0.0,5,7.106,0.0,0.0,-3.802798,26.9,7.3,1.7,1024,1024,1024,1024,0,0,0,0,51,6.413,74.66,165.026252,P-GPS,,50.3
670900,2026-01-07 12:43:55,0.0,5,7.107,0.0,0.0,-3.131716,27.0,7.4,2.0,1024,1024,1024,1024,0,0,0,0,51,5.829,74.66,165.354336,P-GPS,,50.4
671000,2026-01-07 12:43:55,0.0,5,7.107,0.0,0.0,-2.460634,27.0,7.0,2.3,1024,1024,1024,1024,0,0,0,0,51,5.829,74.66,165.68242,P-GPS,,50.5
671100,2026-01-07 12:43:55,0.0,5,7.107,0.0,0.0,-1.789552,27.0,7.3,2.4,1024,1024,1024,1024,0,0,0,0,51,5.829,74.66,166.010504,P-GPS,,50.6
671200,2026-01-07 12:43:56,0.0,5,7.107,0.0,0.0,-1.11847,27.0,7.1,2.4,1024,1024,1024,1024,0,0,0,0,51,5.829,74.66,166.338588,P-GPS,,50.7
671300,2026-01-07 12:43:56,0.0,5,7.107,0.0,0.0,-0.447388,26.9,7.1,2.1,1024,1024,1024,1024,0,0,0,0,51,5.829,74.66,166.338588,P-GPS,,50.7
671400,2026-01-07 12:43:56,0.0,5,7.107,0.0,0.0,-0.223694,26.9,6.5,1.9,1024,1024,1024,1024,0,0,0,0,51,5.829,74.66,166.338588,P-GPS,,50.7
671500,2026-01-07 12:43:56,0.0,5,7.107,0.0,0.0,0.0,26.9,6.4,2.0,1024,1024,1024,1024,0,0,0,0,51,5.829,74.66,166.666672,P-GPS,,50.8
671600,2026-01-07 12:43:56,0.0,5,7.107,0.0,0.0,0.0,26.9,6.4,1.8,1024,1024,1024,1024,0,0,0,0,51,5.829,74.66,166.666672,P-GPS,,50.8
671700,2026-01-07 12:43:56,0.0,5,7.107,0.0,0.0,0.0,26.9,6.7,2.0,1024,1024,1024,1024,0,0,0,0,51,5.829,74.66,166.666672,P-GPS,,50.8
671800,2026-01-07 12:43:56,0.0,5,7.107,0.0,0.0,0.0,26.9,6.7,2.1,1024,1024,1024,1024,0,0,0,0,51,5.829,74.66,166.666672,P-GPS,,50.8
671900,2026-01-07 12:43:56,0.0,5,7.107,0.0,0.0,0.0,26.9,6.8,2.5,1024,1024,1024,1024,0,0,0,0,51,5.829,74.66,166.666672,P-GPS,,50.8
672000,2026-01-07 12:43:56,0.0,5,7.168,0.0,0.0,0.0,26.9,6.8,2.8,1024,1024,1024,1024,0,0,0,0,51,4.391,74.66,166.666672,P-GPS,,50.8
672100,2026-01-07 12:43:57,0.0,5,7.168,0.0,0.0,0.0,26.9,6.7,2.6,1024,1024,1024,1024,0,0,0,0,51,4.391,74.66,166.666672,P-GPS,,50.8
672200,2026-01-07 12:43:57,0.0,5,7.168,0.0,0.0,0.0,26.9,6.7,2.6,1024,1024,1024,1024,0,0,0,0,51,4.391,74.66,166.666672,P-GPS,,50.8
672300,2026-01-07 12:43:57,0.0,5,7.168,0.0,0.0,0.0,26.9,6.8,2.1,1024,1024,1024,1024,0,0,0,0,51,4.391,74.66,166.666672,P-GPS,,50.8
672400,2026-01-07 12:43:57,0.0,5,7.168,0.0,0.0,0.0,26.9,6.6,1.9,1024,1024,1024,1024,0,0,0,0,51,4.391,74.66,166.338588,P-GPS,,50.7
672500,2026-01-07 12:43:57,0.0,5,7.168,0.0,0.0,0.0,26.9,6.8,1.7,1024,1024,1024,1024,0,0,0,0,51,4.391,74.66,166.338588,P-GPS,,50.7
672600,2026-01-07 12:43:57,0.0,5,7.168,0.0,0.0,0.0,26.8,6.8,1.5,1024,1024,1024,1024,0,0,0,0,51,4.391,74.66,166.338588,P-GPS,,50.7
672700,2026-01-07 12:43:57,0.0,5,7.168,0.0,0.0,0.0,26.8,6.8,1.6,1024,1024,1024,1024,0,0,0,0,51,4.391,74.66,166.338588,P-GPS,,50.7
672800,2026-01-07 12:43:57,0.0,5,7.168,0.0,0.0,0.0,26.8,6.8,1.9,1024,1024,1024,1024,0,0,0,0,51,4.391,74.66,166.338588,P-GPS,,50.7
672900,2026-01-07 12:43:57,0.0,5,7.168,0.0,0.0,0.0,26.9,7.0,2.2,1024,1024,1024,1024,0,0,0,0,51,4.391,74.66,166.338588,P-GPS,,50.7
673000,2026-01-07 12:43:57,0.0,5,7.168,0.0,0.0,0.0,26.9,7.4,2.1,1024,1024,1024,1024,0,0,0,0,51,4.391,74.66,166.338588,P-GPS,,50.7
673100,2026-01-07 12:43:57,0.0,5,7.168,0.0,0.0,0.0,27.0,8.3,2.2,1024,1024,1024,1024,0,0,0,0,51,4.391,74.66,166.338588,P-GPS,,50.7
673200,2026-01-07 12:43:58,0.0,5,7.156,0.0,0.0,0.0,26.9,8.3,2.2,1024,1024,1024,1024,0,0,0,0,51,5.194,74.66,166.338588,P-GPS,,50.7
673300,2026-01-07 12:43:58,0.0,5,7.156,0.0,0.0,0.0,26.9,8.2,2.1,1024,1024,1024,1024,0,0,0,0,51,5.194,74.66,166.338588,P-GPS,,50.7
673400,2026-01-07 12:43:58,0.0,5,7.156,0.0,0.0,0.0,26.9,8.0,1.9,1024,1024,1024,1024,0,0,0,0,51,5.194,74.66,166.338588,P-GPS,,50.7
673500,2026-01-07 12:43:58,0.0,5,7.156,0.0,0.0,0.0,26.9,7.4,1.3,1024,1024,1024,1024,0,0,0,0,51,5.194,74.66,166.338588,P-GPS,,50.7
673600,2026-01-07 12:43:58,0.0,5,7.156,0.0,0.0,0.0,26.9,7.4,1.3,1024,1024,1024,1024,0,0,0,0,51,5.194,74.66,166.338588,P-GPS,,50.7
673700,2026-01-07 12:43:58,0.0,5,7.156,0.0,0.0,0.0,26.9,7.6,1.6,1024,1024,1024,1024,0,0,0,0,51,5.194,74.66,166.338588,P-GPS,,50.7
673800,2026-01-07 12:43:58,0.0,5,7.156,0.0,0.0,0.0,26.9,7.4,1.6,1024,1024,1024,1024,0,0,0,0,51,5.194,74.66,166.338588,P-GPS,,50.7
673900,2026-01-07 12:43:58,0.0,5,7.156,0.0,0.0,0.0,27.0,7.7,1.2,1024,1024,1024,1024,0,0,0,0,51,5.194,74.66,166.338588,P-GPS,,50.7
674000,2026-01-07 12:43:58,0.0,5,7.156,0.0,0.0,0.0,26.9,7.8,0.8,1024,1024,1024,1024,0,0,0,0,51,5.194,74.66,166.338588,P-GPS,,50.7
674100,2026-01-07 12:43:58,0.0,5,7.156,0.0,0.0,0.0,26.8,7.9,1.2,1024,1024,1024,1024,0,0,0,0,51,5.194,74.66,166.338588,P-GPS,,50.7
674200,2026-01-07 12:43:59,0.0,5,7.156,0.0,0.0,0.0,26.8,7.3,1.8,1024,1024,1024,1024,0,0,0,0,51,5.194,74.66,166.010504,P-GPS,,50.6
674300,2026-01-07 12:43:59,0.0,5,7.152,0.0,0.0,0.0,26.9,6.9,1.7,1024,1024,1024,1024,0,0,0,0,51,5.309,74.66,166.010504,P-GPS,,50.6
674400,2026-01-07 12:43:59,0.0,5,7.152,0.0,0.0,0.0,26.9,6.6,1.4,1024,1024,1024,1024,0,0,0,0,51,5.309,74.66,166.010504,P-GPS,,50.6
674500,2026-01-07 12:43:59,0.0,5,7.152,0.0,0.0,0.0,26.9,6.6,1.6,1024,1024,1024,1024,0,0,0,0,51,5.309,74.66,166.010504,P-GPS,,50.6
674600,2026-01-07 12:43:59,0.0,5,7.152,0.0,0.0,0.0,26.8,6.5,1.7,1024,1024,1024,1024,0,0,0,0,51,5.309,74.66,166.010504,P-GPS,,50.6
674700,2026-01-07 12:43:59,0.0,5,7.152,0.0,0.0,0.0,26.8,6.4,1.8,1024,1024,1024,1024,0,0,0,0,51,5.309,74.66,166.010504,P-GPS,,50.6
674800,2026-01-07 12:43:59,0.0,5,7.152,0.0,0.0,0.0,26.8,6.2,1.8,1024,1024,1024,1024,0,0,0,0,51,5.309,74.66,166.010504,P-GPS,,50.6
674900,2026-01-07 12:43:59,0.0,5,7.152,0.0,0.0,0.0,26.8,5.9,2.1,1024,1024,1024,1024,0,0,0,0,51,5.309,74.66,166.010504,P-GPS,,50.6
675000,2026-01-07 12:43:59,0.0,5,7.152,0.0,0.0,0.0,26.9,6.2,2.4,1024,1024,1024,1024,0,0,0,0,51,5.309,74.66,166.010504,P-GPS,,50.6
675100,2026-01-07 12:43:59,0.0,5,7.152,0.0,0.0,0.0,26.9,6.4,2.5,1024,1024,1024,1024,0,0,0,0,51,5.309,74.66,166.010504,P-GPS,,50.6
675200,2026-01-07 12:44:00,0.0,5,7.152,0.0,0.0,0.0,26.9,6.7,2.5,1024,1024,1024,1024,0,0,0,0,51,5.309,74.66,166.010504,P-GPS,,50.6
675300,2026-01-07 12:44:00,0.0,5,7.152,0.0,0.0,0.0,26.9,6.8,2.5,1024,1024,1024,1024,0,0,0,0,51,5.309,74.66,166.010504,P-GPS,,50.6
675400,2026-01-07 12:44:00,0.0,5,7.156,0.0,0.0,0.0,26.8,6.8,2.5,1024,1024,1024,1024,0,0,0,0,51,5.163,74.66,166.010504,P-GPS,,50.6
675500,2026-01-07 12:44:00,0.0,5,7.156,0.0,0.0,0.0,26.8,7.0,2.6,1024,1024,1024,1024,0,0,0,0,51,5.163,74.66,166.010504,P-GPS,,50.6
675600,2026-01-07 12:44:00,0.0,5,7.156,0.0,0.0,0.0,26.8,7.1,2.7,1024,1024,1024,1024,0,0,0,0,51,5.163,74.66,166.010504,P-GPS,,50.6
675700,2026-01-07 12:44:00,0.0,5,7.156,0.0,0.0,0.0,26.8,7.0,2.9,1024,1024,1024,1024,0,0,0,0,51,5.163,74.66,166.010504,P-GPS,,50.6
675800,2026-01-07 12:44:00,0.0,5,7.156,0.0,0.0,0.0,26.9,6.9,3.0,1024,1024,1024,1024,0,0,0,0,51,5.163,74.66,166.010504,P-GPS,,50.6
675900,2026-01-07 12:44:00,0.0,5,7.156,0.0,0.0,0.0,26.9,7.1,2.7,1024,1024,1024,1024,0,0,0,0,51,5.163,74.66,166.010504,P-GPS,,50.6
676000,2026-01-07 12:44:00,0.0,5,7.156,0.0,0.0,0.0,26.8,6.6,2.8,1024,1024,1024,1024,0,0,0,0,51,5.163,74.66,166.010504,P-GPS,,50.6
676100,2026-01-07 12:44:00,0.0,5,7.156,0.0,0.0,0.0,26.8,6.5,2.4,1024,1024,1024,1024,0,0,0,0,51,5.163,74.66,166.010504,P-GPS,,50.6
676200,2026-01-07 12:44:01,0.0,5,7.156,0.0,0.0,0.0,26.8,6.5,2.0,1024,1024,1024,1024,0,0,0,0,51,5.163,74.66,166.010504,P-GPS,,50.6
676300,2026-01-07 12:44:01,0.0,5,7.156,0.0,0.0,0.0,26.8,6.4,1.7,1024,1024,1024,1024,0,0,0,0,51,5.163,74.66,165.68242,P-GPS,,50.5
676400,2026-01-07 12:44:01,0.0,5,7.156,0.0,0.0,0.0,26.8,6.2,2.1,1024,1024,1024,1024,0,0,0,0,51,5.163,74.66,165.68242,P-GPS,,50.5
676500,2026-01-07 12:44:01,0.0,5,7.145,0.0,0.0,0.0,26.9,6.6,2.3,1024,1024,1024,1024,0,0,0,0,51,5.367,74.84,165.68242,P-GPS,,50.5
676600,2026-01-07 12:44:01,0.0,5,7.145,0.0,0.0,0.0,26.9,6.8,2.2,1024,1024,1024,1024,0,0,0,0,51,5.367,74.84,165.68242,P-GPS,,50.5
676700,2026-01-07 12:44:01,0.0,5,7.145,0.0,0.0,0.0,26.9,6.9,2.2,1024,1024,1024,1024,0,0,0,0,51,5.367,74.84,165.68242,P-GPS,,50.5
676800,2026-01-07 12:44:01,0.0,5,7.145,0.0,0.0,0.0,26.9,7.3,2.5,1024,1024,1024,1024,0,0,0,0,51,5.367,74.84,165.68242,P-GPS,,50.5
676900,2026-01-07 12:44:01,0.0,5,7.145,0.0,0.0,0.0,26.9,6.8,2.9,1024,1024,1024,1024,0,0,0,0,51,5.367,74.84,165.68242,P-GPS,,50.5
677000,2026-01-07 12:44:01,0.0,5,7.145,0.0,0.0,0.0,26.9,7.0,2.9,1024,1024,1024,1024,0,0,0,0,51,5.367,74.84,165.68242,P-GPS,,50.5
677100,2026-01-07 12:44:02,0.0,5,7.145,0.0,0.0,0.0,26.9,7.0,2.5,1024,1024,1024,1024,0,0,0,0,51,5.367,74.84,165.68242,P-GPS,,50.5
677200,2026-01-07 12:44:02,0.0,5,7.145,0.0,0.0,0.0,27.0,6.9,2.4,1024,1024,1024,1024,0,0,0,0,51,5.367,74.84,165.68242,P-GPS,,50.5
677300,2026-01-07 12:44:02,0.0,5,7.145,0.0,0.0,0.0,27.0,7.0,2.0,1024,1024,1024,1024,0,0,0,0,51,5.367,74.84,165.68242,P-GPS,,50.5
677400,2026-01-07 12:44:02,0.0,5,7.145,0.0,0.0,0.0,27.0,7.1,1.7,1024,1024,1024,1024,0,0,0,0,51,5.367,74.84,165.68242,P-GPS,,50.5
677500,2026-01-07 12:44:02,0.0,5,7.145,0.0,0.0,0.0,26.9,7.2,1.5,1024,1024,1024,1024,0,0,0,0,51,5.367,74.84,165.68242,P-GPS,,50.5
677600,2026-01-07 12:44:02,0.0,5,7.145,0.0,0.0,0.0,26.9,7.1,1.4,1024,1024,1024,1024,0,0,0,0,51,5.367,74.84,165.68242,P-GPS,,50.5
677700,2026-01-07 12:44:02,0.0,5,7.145,0.0,0.0,0.0,27.0,7.1,1.6,1024,1024,1024,1024,0,0,0,0,51,5.367,74.84,165.68242,P-GPS,,50.5
677800,2026-01-07 12:44:02,0.0,5,7.145,0.0,0.0,0.0,27.0,7.3,1.6,1024,1024,1024,1024,0,0,0,0,51,5.367,74.84,165.68242,P-GPS,,50.5
677900,2026-01-07 12:44:02,0.0,5,7.145,0.0,0.0,0.0,27.0,7.4,1.8,1024,1024,1024,1024,0,0,0,0,51,5.367,74.84,165.68242,P-GPS,,50.5
678000,2026-01-07 12:44:02,0.0,5,7.145,0.0,0.0,0.0,27.0,7.5,1.7,1024,1024,1024,1024,0,0,0,0,51,5.367,74.84,165.68242,P-GPS,,50.5
678100,2026-01-07 12:44:02,0.0,5,7.145,0.0,0.0,0.0,26.9,7.5,1.8,1024,1024,1024,1024,0,0,0,0,51,5.367,74.84,165.68242,P-GPS,,50.5
678200,2026-01-07 12:44:03,0.0,5,7.145,0.0,0.0,0.0,27.0,7.2,2.1,1024,1024,1024,1024,0,0,0,0,51,5.367,74.84,165.68242,P-GPS,,50.5
678300,2026-01-07 12:44:03,0.0,5,7.145,0.0,0.0,0.0,27.0,7.1,2.0,1024,1024,1024,1024,0,0,0,0,51,5.367,74.84,165.68242,P-GPS,,50.5
678400,2026-01-07 12:44:03,0.0,5,7.145,0.0,0.0,0.0,27.0,7.0,1.7,1024,1024,1024,1024,0,0,0,0,51,5.367,74.84,165.68242,P-GPS,,50.5
678500,2026-01-07 12:44:03,0.0,5,7.145,0.0,0.0,0.0,27.0,6.3,1.9,1024,1024,1024,1024,0,0,0,0,51,5.367,74.84,165.68242,P-GPS,,50.5
678600,2026-01-07 12:44:03,0.0,5,7.145,0.0,0.0,0.0,26.9,6.0,1.1,1024,1024,1024,1024,0,0,0,0,51,5.367,74.84,165.68242,P-GPS,,50.5
678700,2026-01-07 12:44:03,0.0,5,7.153,0.0,0.0,0.0,27.0,5.7,0.9,1024,1024,1024,1024,0,0,0,0,51,5.105,74.84,165.68242,P-GPS,,50.5
678800,2026-01-07 12:44:03,0.0,5,7.153,0.0,0.0,0.0,27.0,6.0,0.9,1024,1024,1024,1024,0,0,0,0,51,5.105,74.84,165.68242,P-GPS,,50.5
678900,2026-01-07 12:44:03,0.0,5,7.153,0.0,0.0,0.0,27.0,6.0,0.9,1024,1024,1024,1024,0,0,0,0,51,5.105,74.84,165.68242,P-GPS,,50.5
679000,2026-01-07 12:44:03,0.0,5,7.153,0.0,0.0,0.0,26.9,5.8,0.8,1024,1024,1024,1024,0,0,0,0,51,5.105,74.84,165.68242,P-GPS,,50.5
679100,2026-01-07 12:44:04,0.0,5,7.153,0.0,0.0,0.0,26.9,6.0,0.8,1024,1024,1024,1024,0,0,0,0,51,5.105,74.84,165.68242,P-GPS,,50.5
679200,2026-01-07 12:44:04,0.0,5,7.153,0.0,0.0,0.0,26.9,5.9,1.0,1024,1024,1024,1024,0,0,0,0,51,5.105,74.84,165.68242,P-GPS,,50.5
679300,2026-01-07 12:44:04,0.0,5,7.153,0.0,0.0,0.0,26.8,5.6,0.9,1024,1024,1024,1024,0,0,0,0,51,5.105,74.84,165.68242,P-GPS,,50.5
679400,2026-01-07 12:44:04,0.0,5,7.153,0.0,0.0,0.0,26.8,5.6,0.9,1024,1024,1024,1024,0,0,0,0,51,5.105,74.84,165.68242,P-GPS,,50.5
679500,2026-01-07 12:44:04,0.0,5,7.153,0.0,0.0,0.0,26.9,5.5,1.3,1024,1024,1024,1024,0,0,0,0,51,5.105,74.84,165.68242,P-GPS,,50.5
679600,2026-01-07 12:44:04,0.0,5,7.153,0.0,0.0,0.0,26.9,5.5,1.7,1024,1024,1024,1024,0,0,0,0,51,5.105,74.84,165.68242,P-GPS,,50.5
679700,2026-01-07 12:44:04,0.0,5,7.153,0.0,0.0,0.0,26.8,5.3,1.8,1024,1024,1024,1024,0,0,0,0,51,5.105,74.84,165.68242,P-GPS,,50.5
679800,2026-01-07 12:44:04,0.0,5,7.153,0.0,0.0,0.0,26.9,5.6,2.0,1024,1024,1024,1024,0,0,0,0,51,5.105,74.84,165.68242,P-GPS,,50.5
679900,2026-01-07 12:44:04,0.0,5,7.162,0.0,0.0,0.0,26.9,6.3,1.7,1024,1024,1024,1024,0,0,0,0,51,4.939,74.84,165.68242,P-GPS,,50.5
680000,2026-01-07 12:44:04,0.0,5,7.162,0.0,0.0,0.0,26.9,6.7,1.6,1024,1024,1024,1024,0,0,0,0,51,4.939,74.84,165.68242,P-GPS,,50.5
680100,2026-01-07 12:44:04,0.0,5,7.162,0.0,0.0,0.0,26.8,6.7,2.0,1024,1024,1024,1024,0,0,0,0,51,4.939,74.84,165.68242,P-GPS,,50.5
680200,2026-01-07 12:44:05,0.0,5,7.162,0.0,0.0,0.0,26.9,6.5,2.0,1024,1024,1024,1024,0,0,0,0,51,4.939,74.84,166.010504,P-GPS,,50.6
680300,2026-01-07 12:44:05,0.0,5,7.162,0.0,0.0,0.0,26.9,6.8,2.3,1024,1024,1024,1024,0,0,0,0,51,4.939,74.84,166.010504,P-GPS,,50.6
680400,2026-01-07 12:44:05,0.0,5,7.162,0.0,0.0,0.0,26.9,7.0,2.1,1024,1024,1024,1024,0,0,0,0,51,4.939,74.84,166.010504,P-GPS,,50.6
680500,2026-01-07 12:44:05,0.0,5,7.162,0.0,0.0,0.0,26.8,6.8,2.0,1024,1024,1024,1024,0,0,0,0,51,4.939,74.84,166.010504,P-GPS,,50.6
680600,2026-01-07 12:44:05,0.0,5,7.162,0.0,0.0,0.0,26.8,6.2,1.6,1024,1024,1024,1024,0,0,0,0,51,4.939,74.84,166.010504,P-GPS,,50.6
680700,2026-01-07 12:44:05,0.0,5,7.162,0.0,0.0,0.0,26.8,6.0,1.5,1024,1024,1024,1024,0,0,0,0,51,4.939,74.84,166.010504,P-GPS,,50.6
680800,2026-01-07 12:44:05,0.0,5,7.162,0.0,0.0,0.0,26.9,5.8,1.6,1024,1024,1024,1024,0,0,0,0,51,4.939,74.84,166.010504,P-GPS,,50.6
680900,2026-01-07 12:44:05,0.0,5,7.162,0.0,0.0,0.0,26.9,5.9,1.7,1024,1024,1024,1024,0,0,0,0,51,4.939,74.84,166.010504,P-GPS,,50.6
681000,2026-01-07 12:44:05,0.0,5,7.147,0.0,0.0,0.0,26.9,5.8,1.8,1024,1024,1024,1024,0,0,0,0,51,5.254,74.84,166.010504,P-GPS,,50.6
681100,2026-01-07 12:44:06,0.0,5,7.147,0.0,0.0,0.0,26.8,5.8,1.5,1024,1024,1024,1024,0,0,0,0,51,5.254,74.84,166.010504,P-GPS,,50.6
681200,2026-01-07 12:44:06,0.0,5,7.147,0.0,0.0,0.0,26.9,5.6,1.1,1024,1024,1024,1024,0,0,0,0,51,5.254,74.84,166.010504,P-GPS,,50.6
681300,2026-01-07 12:44:06,0.0,5,7.147,0.0,0.0,0.0,26.9,6.3,0.9,1024,1024,1024,1024,0,0,0,0,51,5.254,74.84,166.010504,P-GPS,,50.6
681400,2026-01-07 12:44:06,0.0,5,7.147,0.0,0.0,0.0,26.9,6.7,0.5,1024,1024,1024,1024,0,0,0,0,51,5.254,74.84,166.010504,P-GPS,,50.6
681500,2026-01-07 12:44:06,0.0,5,7.147,0.0,0.0,0.0,26.9,6.9,0.1,1024,1024,1024,1024,0,0,0,0,51,5.254,74.84,166.010504,P-GPS,,50.6
681600,2026-01-07 12:44:06,0.0,5,7.147,0.0,0.0,0.0,26.9,7.1,0.1,1024,1024,1024,1024,0,0,0,0,51,5.254,74.84,166.010504,P-GPS,,50.6
681700,2026-01-07 12:44:06,0.0,5,7.147,0.0,0.0,0.0,26.9,7.2,0.4,1024,1024,1024,1024,0,0,0,0,51,5.254,74.84,166.010504,P-GPS,,50.6
681800,2026-01-07 12:44:06,0.0,5,7.147,0.0,0.0,0.0,26.9,7.4,0.8,1024,1024,1024,1024,0,0,0,0,51,5.254,74.84,166.010504,P-GPS,,50.6
681900,2026-01-07 12:44:06,0.0,5,7.147,0.0,0.0,0.0,26.9,7.6,0.7,1024,1024,1024,1024,0,0,0,0,51,5.254,74.84,166.010504,P-GPS,,50.6
682000,2026-01-07 12:44:06,0.0,5,7.147,0.0,0.0,0.0,26.9,7.4,0.8,1024,1024,1024,1024,0,0,0,0,51,5.254,74.84,166.010504,P-GPS,,50.6
682100,2026-01-07 12:44:06,0.0,5,7.146,0.0,0.0,0.0,26.8,7.2,1.2,1024,1024,1024,1024,0,0,0,0,50,5.089,74.84,166.010504,P-GPS,,50.6
682200,2026-01-07 12:44:07,0.0,5,7.146,0.0,0.0,0.0,26.9,6.9,1.0,1024,1024,1024,1024,0,0,0,0,50,5.089,74.84,166.010504,P-GPS,,50.6
682300,2026-01-07 12:44:07,0.0,5,7.146,0.0,0.0,0.0,26.9,6.6,1.0,1024,1024,1024,1024,0,0,0,0,50,5.089,74.84,166.010504,P-GPS,,50.6
682400,2026-01-07 12:44:07,0.0,5,7.146,0.0,0.0,0.0,26.8,6.5,0.8,1024,1024,1024,1024,0,0,0,0,50,5.089,74.84,166.010504,P-GPS,,50.6
682500,2026-01-07 12:44:07,0.0,5,7.146,0.0,0.0,0.0,26.8,6.4,0.8,1024,1024,1024,1024,0,0,0,0,50,5.089,74.84,166.010504,P-GPS,,50.6
682600,2026-01-07 12:44:07,0.0,5,7.146,0.0,0.0,0.0,26.9,6.6,0.8,1024,1024,1024,1024,0,0,0,0,50,5.089,74.84,166.010504,P-GPS,,50.6
682700,2026-01-07 12:44:07,0.0,5,7.146,0.0,0.0,0.0,26.9,6.8,0.8,1024,1024,1024,1024,0,0,0,0,50,5.089,74.84,166.010504,P-GPS,,50.6
682800,2026-01-07 12:44:07,0.0,5,7.146,0.0,0.0,0.0,26.8,6.9,0.7,1024,1024,1024,1024,0,0,0,0,50,5.089,74.84,166.010504,P-GPS,,50.6
682900,2026-01-07 12:44:07,0.0,5,7.146,0.0,0.0,0.0,26.8,6.9,0.6,1024,1024,1024,1024,0,0,0,0,50,5.089,74.84,166.010504,P-GPS,,50.6
683000,2026-01-07 12:44:07,0.0,5,7.146,0.0,0.0,0.0,26.8,6.8,0.7,1024,1024,1024,1024,0,0,0,0,50,5.089,74.84,166.010504,P-GPS,,50.6
683100,2026-01-07 12:44:07,0.0,5,7.146,0.0,0.0,0.0,26.8,6.9,1.0,1024,1024,1024,1024,0,0,0,0,50,5.089,74.84,166.010504,P-GPS,,50.6
683200,2026-01-07 12:44:08,0.0,5,7.144,0.0,0.0,0.0,26.8,6.6,1.0,1024,1024,1024,1024,0,0,0,0,50,5.168,74.84,166.010504,P-GPS,,50.6
683300,2026-01-07 12:44:08,0.0,5,7.144,0.0,0.0,0.0,26.8,6.2,0.7,1024,1024,1024,1024,0,0,0,0,50,5.168,74.84,166.010504,P-GPS,,50.6
683400,2026-01-07 12:44:08,0.0,5,7.144,0.0,0.0,0.0,26.8,6.4,0.9,1024,1024,1024,1024,0,0,0,0,50,5.168,74.84,166.010504,P-GPS,,50.6
683500,2026-01-07 12:44:08,0.0,5,7.144,0.0,0.0,0.0,26.8,6.3,0.7,1024,1024,1024,1024,0,0,0,0,50,5.168,74.84,166.010504,P-GPS,,50.6
683600,2026-01-07 12:44:08,0.0,5,7.144,0.0,0.0,0.0,26.8,6.2,0.9,1024,1024,1024,1024,0,0,0,0,50,5.168,74.84,166.010504,P-GPS,,50.6
683700,2026-01-07 12:44:08,0.0,5,7.144,0.0,0.0,0.0,26.9,6.3,0.8,1024,1024,1024,1024,0,0,0,0,50,5.168,74.84,166.010504,P-GPS,,50.6
683800,2026-01-07 12:44:08,0.0,5,7.144,0.0,0.0,0.0,26.9,6.7,1.1,1024,1024,1024,1024,0,0,0,0,50,5.168,74.84,166.010504,P-GPS,,50.6
683900,2026-01-07 12:44:08,0.0,5,7.144,0.0,0.0,0.0,26.8,7.1,1.1,1024,1024,1024,1024,0,0,0,0,50,5.168,74.84,166.010504,P-GPS,,50.6
684000,2026-01-07 12:44:08,0.0,5,7.144,0.0,0.0,0.0,26.9,7.5,0.7,1024,1024,1024,1024,0,0,0,0,50,5.168,74.84,166.010504,P-GPS,,50.6
684100,2026-01-07 12:44:08,0.0,5,7.144,0.0,0.0,0.0,26.9,7.4,0.7,1024,1024,1024,1024,0,0,0,0,50,5.168,74.84,166.010504,P-GPS,,50.6
684200,2026-01-07 12:44:08,0.0,5,7.144,0.0,0.0,0.0,26.9,6.9,1.0,1024,1024,1024,1024,0,0,0,0,50,5.168,74.84,166.010504,P-GPS,,50.6
684300,2026-01-07 12:44:09,0.0,5,7.16,0.0,0.0,0.0,26.8,6.4,1.1,1024,1024,1024,1024,0,0,0,0,50,4.982,74.84,166.010504,P-GPS,,50.6
684400,2026-01-07 12:44:09,0.0,5,7.16,0.0,0.0,0.0,26.8,6.6,0.7,1024,1024,1024,1024,0,0,0,0,50,4.982,74.84,166.010504,P-GPS,,50.6
684500,2026-01-07 12:44:09,0.0,5,7.16,0.0,0.0,0.0,26.7,6.9,1.2,1024,1024,1024,1024,0,0,0,0,50,4.982,74.84,165.68242,P-GPS,,50.5
684600,2026-01-07 12:44:09,0.0,5,7.16,0.0,0.0,0.0,26.8,7.1,1.2,1024,1024,1024,1024,0,0,0,0,50,4.982,74.84,165.68242,P-GPS,,50.5
684700,2026-01-07 12:44:09,0.0,5,7.16,0.0,0.0,0.0,26.9,7.2,1.1,1024,1024,1024,1024,0,0,0,0,50,4.982,74.84,165.68242,P-GPS,,50.5
684800,2026-01-07 12:44:09,0.0,5,7.16,0.0,0.0,0.0,26.9,7.4,1.3,1024,1024,1024,1024,0,0,0,0,50,4.982,74.84,165.68242,P-GPS,,50.5
684900,2026-01-07 12:44:09,0.0,5,7.16,0.0,0.0,0.0,26.8,7.1,1.2,1024,1024,1024,1024,0,0,0,0,50,4.982,74.84,165.68242,P-GPS,,50.5
685000,2026-01-07 12:44:09,0.0,5,7.16,0.0,0.0,0.0,26.7,6.6,0.9,1024,1024,1024,1024,0,0,0,0,50,4.982,74.84,165.68242,P-GPS,,50.5
685100,2026-01-07 12:44:09,0.0,5,7.16,0.0,0.0,0.0,26.8,6.0,0.4,1024,1024,1024,1024,0,0,0,0,50,4.982,74.84,165.68242,P-GPS,,50.5
685200,2026-01-07 12:44:10,0.0,5,7.16,0.0,0.0,0.0,26.8,5.8,0.4,1024,1024,1024,1024,0,0,0,0,50,4.982,74.84,165.68242,P-GPS,,50.5
685300,2026-01-07 12:44:10,0.0,5,7.16,0.0,0.0,0.0,26.8,5.9,0.6,1024,1024,1024,1024,0,0,0,0,50,4.982,74.84,165.68242,P-GPS,,50.5
685400,2026-01-07 12:44:10,0.0,5,7.16,0.0,0.0,0.0,26.8,6.0,1.0,1024,1024,1024,1024,0,0,0,0,50,4.982,74.84,165.68242,P-GPS,,50.5
685500,2026-01-07 12:44:10,0.0,5,7.149,0.0,0.0,0.0,26.8,6.1,1.1,1024,1024,1024,1024,0,0,0,0,50,5.101,74.84,165.68242,P-GPS,,50.5
685600,2026-01-07 12:44:10,0.0,5,7.149,0.0,0.0,0.0,26.8,5.8,1.1,1024,1024,1024,1024,0,0,0,0,50,5.101,74.84,165.68242,P-GPS,,50.5
685700,2026-01-07 12:44:10,0.0,5,7.149,0.0,0.0,0.0,26.8,5.9,0.9,1024,1024,1024,1024,0,0,0,0,50,5.101,74.84,165.68242,P-GPS,,50.5
685800,2026-01-07 12:44:10,0.0,5,7.149,0.0,0.0,0.0,26.7,6.1,1.3,1024,1024,1024,1024,0,0,0,0,50,5.101,74.84,165.68242,P-GPS,,50.5
685900,2026-01-07 12:44:10,0.0,5,7.149,0.0,0.0,0.0,26.7,6.4,1.5,1024,1024,1024,1024,0,0,0,0,50,5.101,74.84,165.68242,P-GPS,,50.5
686000,2026-01-07 12:44:10,0.0,5,7.149,0.0,0.0,0.0,26.8,6.7,2.0,1024,1024,1024,1024,0,0,0,0,50,5.101,74.84,165.68242,P-GPS,,50.5
686100,2026-01-07 12:44:10,0.0,5,7.149,0.0,0.0,0.0,26.9,6.7,1.8,1024,1024,1024,1024,0,0,0,0,50,5.101,74.84,165.68242,P-GPS,,50.5
686200,2026-01-07 12:44:10,0.0,5,7.149,0.0,0.0,0.0,26.8,6.7,1.2,1024,1024,1024,1024,0,0,0,0,50,5.101,74.84,165.68242,P-GPS,,50.5
686300,2026-01-07 12:44:11,0.0,5,7.149,0.0,0.0,0.0,26.7,6.8,0.9,1024,1024,1024,1024,0,0,0,0,50,5.101,74.84,165.68242,P-GPS,,50.5
686400,2026-01-07 12:44:11,0.0,5,7.149,0.0,0.0,0.0,26.7,7.0,0.8,1024,1024,1024,1024,0,0,0,0,50,5.101,74.84,165.68242,P-GPS,,50.5
686500,2026-01-07 12:44:11,0.0,5,7.149,0.0,0.0,0.0,26.7,7.3,0.8,1024,1024,1024,1024,0,0,0,0,50,5.101,74.84,165.68242,P-GPS,,50.5
686600,2026-01-07 12:44:11,0.0,5,7.161,0.0,0.0,0.0,26.6,7.8,0.9,1024,1024,1024,1024,0,0,0,0,50,4.81,74.84,165.68242,P-GPS,,50.5
686700,2026-01-07 12:44:11,0.0,5,7.161,0.0,0.0,0.0,26.7,8.1,1.3,1024,1024,1024,1024,0,0,0,0,50,4.81,74.84,165.354336,P-GPS,,50.4
686800,2026-01-07 12:44:11,0.0,5,7.161,0.0,0.0,0.0,26.7,8.1,1.6,1024,1024,1024,1024,0,0,0,0,50,4.81,74.84,165.354336,P-GPS,,50.4
686900,2026-01-07 12:44:11,0.0,5,7.161,0.0,0.0,0.0,26.7,8.0,1.8,1024,1024,1024,1024,0,0,0,0,50,4.81,74.84,165.354336,P-GPS,,50.4
687000,2026-01-07 12:44:11,0.0,5,7.161,0.0,0.0,0.0,26.7,7.7,1.8,1024,1024,1024,1024,0,0,0,0,50,4.81,74.84,165.354336,P-GPS,,50.4
687100,2026-01-07 12:44:11,0.0,5,7.161,0.0,0.0,0.0,26.8,7.7,1.9,1024,1024,1024,1024,0,0,0,0,50,4.81,74.84,165.354336,P-GPS,,50.4
687200,2026-01-07 12:44:12,0.0,5,7.161,0.0,0.0,0.0,26.9,8.1,2.2,1024,1024,1024,1024,0,0,0,0,50,4.81,74.84,165.354336,P-GPS,,50.4
687300,2026-01-07 12:44:12,0.0,5,7.161,0.0,0.0,0.0,27.0,8.0,2.2,1024,1024,1024,1024,0,0,0,0,50,4.81,74.84,165.68242,P-GPS,,50.5
687400,2026-01-07 12:44:12,0.0,5,7.161,0.0,0.0,0.0,27.0,7.7,1.5,1024,1024,1024,1024,0,0,0,0,50,4.81,74.84,165.68242,P-GPS,,50.5
687500,2026-01-07 12:44:12,0.0,5,7.161,0.0,0.0,0.0,26.9,7.3,0.9,1024,1024,1024,1024,0,0,0,0,50,4.81,74.84,165.68242,P-GPS,,50.5
687600,2026-01-07 12:44:12,0.0,5,7.161,0.0,0.0,0.0,26.9,7.1,0.6,1024,1024,1024,1024,0,0,0,0,50,4.81,74.84,165.68242,P-GPS,,50.5
687700,2026-01-07 12:44:12,0.0,5,7.161,0.0,0.0,0.0,26.9,6.5,0.1,1024,1024,1024,1024,0,0,0,0,50,4.81,74.84,165.68242,P-GPS,,50.5
687800,2026-01-07 12:44:12,0.0,5,7.161,0.0,0.0,0.0,26.8,6.4,0.0,1024,1024,1024,1024,0,0,0,0,50,4.81,74.84,165.68242,P-GPS,,50.5
687900,2026-01-07 12:44:12,0.0,5,7.161,0.0,0.0,0.0,26.8,6.6,0.0,1024,1024,1024,1024,0,0,0,0,50,4.81,74.84,165.68242,P-GPS,,50.5
688000,2026-01-07 12:44:12,0.0,5,7.161,0.0,0.0,0.0,26.9,6.8,0.0,1024,1024,1024,1024,0,0,0,0,50,4.81,74.84,165.68242,P-GPS,,50.5
688100,2026-01-07 12:44:12,0.0,5,7.161,0.0,0.0,0.0,26.9,6.9,0.1,1024,1024,1024,1024,0,0,0,0,50,4.81,74.84,165.354336,P-GPS,,50.4
688200,2026-01-07 12:44:13,0.0,5,7.161,0.0,0.0,0.0,26.8,6.6,0.0,1024,1024,1024,1024,0,0,0,0,50,4.81,74.84,165.354336,P-GPS,,50.4
688300,2026-01-07 12:44:13,0.0,5,7.161,0.0,0.0,0.0,26.9,6.7,0.0,1024,1024,1024,1024,0,0,0,0,50,4.81,74.84,165.354336,P-GPS,,50.4
688400,2026-01-07 12:44:13,0.0,5,7.161,0.0,0.0,0.0,26.9,6.5,-0.2,1024,1024,1024,1024,0,0,0,0,50,4.81,74.84,165.354336,P-GPS,,50.4
688500,2026-01-07 12:44:13,0.0,5,7.161,0.0,0.0,0.0,26.8,6.7,0.0,1024,1024,1024,1024,0,0,0,0,50,4.81,74.84,165.354336,P-GPS,,50.4
688600,2026-01-07 12:44:13,0.0,5,7.161,0.0,0.0,0.0,26.8,6.4,0.0,1024,1024,1024,1024,0,0,0,0,50,4.81,74.84,165.354336,P-GPS,,50.4
688700,2026-01-07 12:44:13,0.0,5,7.161,0.0,0.0,0.0,26.9,6.5,0.1,1024,1024,1024,1024,0,0,0,0,50,4.81,74.84,165.354336,P-GPS,,50.4
688800,2026-01-07 12:44:13,0.0,5,7.161,0.0,0.0,0.0,26.9,6.3,0.0,1024,1024,1024,1024,0,0,0,0,50,4.81,74.84,165.354336,P-GPS,,50.4
688900,2026-01-07 12:44:13,0.0,5,7.145,0.0,0.0,0.0,26.9,6.2,-0.1,1024,1024,1024,1024,0,0,0,0,50,5.026,74.84,165.354336,P-GPS,,50.4
689000,2026-01-07 12:44:13,0.0,5,7.145,0.0,0.0,0.0,26.9,6.3,-0.4,1024,1024,1024,1024,0,0,0,0,50,5.026,74.84,165.354336,P-GPS,,50.4
689100,2026-01-07 12:44:13,0.0,5,7.145,0.0,0.0,0.0,26.8,6.1,-0.4,1024,1024,1024,1024,0,0,0,0,50,5.026,74.84,165.354336,P-GPS,,50.4
689200,2026-01-07 12:44:14,0.0,5,7.145,0.0,0.0,0.0,26.8,6.2,-0.1,1024,1024,1024,1024,0,0,0,0,50,5.026,74.84,165.354336,P-GPS,,50.4
689300,2026-01-07 12:44:14,0.0,5,7.145,0.0,0.0,0.0,26.8,6.4,0.1,1024,1024,1024,1024,0,0,0,0,50,5.026,74.84,165.354336,P-GPS,,50.4
689400,2026-01-07 12:44:14,0.0,5,7.145,0.0,0.0,0.0,26.8,6.4,0.4,1024,1024,1024,1024,0,0,0,0,50,5.026,74.84,165.354336,P-GPS,,50.4
689500,2026-01-07 12:44:14,0.0,5,7.145,0.0,0.0,0.0,26.9,6.0,0.7,1024,1024,1024,1024,0,0,0,0,50,5.026,74.84,165.354336,P-GPS,,50.4
689600,2026-01-07 12:44:14,0.0,5,7.145,0.0,0.0,0.0,26.9,6.2,0.9,1024,1024,1024,1024,0,0,0,0,50,5.026,74.84,165.354336,P-GPS,,50.4
689700,2026-01-07 12:44:14,0.0,5,7.145,0.0,0.0,0.0,26.8,5.9,1.1,1024,1024,1024,1024,0,0,0,0,50,5.026,74.84,165.354336,P-GPS,,50.4
689800,2026-01-07 12:44:14,0.0,5,7.145,0.0,0.0,0.0,26.8,6.1,0.9,1024,1024,1024,1024,0,0,0,0,50,5.026,74.84,165.354336,P-GPS,,50.4
689900,2026-01-07 12:44:14,0.0,5,7.145,0.0,0.0,0.0,26.7,6.0,1.1,1024,1024,1024,1024,0,0,0,0,50,5.026,74.84,165.354336,P-GPS,,50.4
690000,2026-01-07 12:44:14,0.0,5,7.151,0.0,0.0,0.0,26.7,5.8,1.2,1024,1024,1024,1024,0,0,0,0,50,4.944,74.84,165.354336,P-GPS,,50.4
690100,2026-01-07 12:44:15,0.0,5,7.151,0.0,0.0,0.0,26.7,6.1,1.5,1024,1024,1024,1024,0,0,0,0,50,4.944,74.84,165.354336,P-GPS,,50.4
690200,2026-01-07 12:44:15,0.0,5,7.151,0.0,0.0,0.0,26.7,6.2,1.5,1024,1024,1024,1024,0,0,0,0,50,4.944,74.84,165.354336,P-GPS,,50.4
690300,2026-01-07 12:44:15,0.0,5,7.151,0.0,0.0,0.0,26.7,5.8,2.0,1024,1024,1024,1024,0,0,0,0,50,4.944,74.84,165.354336,P-GPS,,50.4
690400,2026-01-07 12:44:15,0.0,5,7.151,0.0,0.0,0.0,26.7,5.6,1.8,1024,1024,1024,1024,0,0,0,0,50,4.944,74.84,165.354336,P-GPS,,50.4
690500,2026-01-07 12:44:15,0.0,5,7.151,0.0,0.0,0.0,26.8,5.7,1.6,1024,1024,1024,1024,0,0,0,0,50,4.944,74.84,165.354336,P-GPS,,50.4
690600,2026-01-07 12:44:15,0.0,5,7.151,0.0,0.0,0.0,26.7,5.6,1.4,1024,1024,1024,1024,0,0,0,0,50,4.944,74.84,165.354336,P-GPS,,50.4
690700,2026-01-07 12:44:15,0.0,5,7.151,0.0,0.0,0.0,26.7,6.1,1.2,1024,1024,1024,1024,0,0,0,0,50,4.944,74.84,165.354336,P-GPS,,50.4
690800,2026-01-07 12:44:15,0.0,5,7.151,0.0,0.0,0.0,26.8,6.3,1.1,1024,1024,1024,1024,0,0,0,0,50,4.944,74.84,165.354336,P-GPS,,50.4
690900,2026-01-07 12:44:15,0.0,5,7.151,0.0,0.0,0.0,26.8,6.5,0.8,1024,1024,1024,1024,0,0,0,0,50,4.944,74.84,165.354336,P-GPS,,50.4
691000,2026-01-07 12:44:15,0.0,5,7.151,0.0,0.0,0.0,26.7,6.1,0.6,1024,1024,1024,1024,0,0,0,0,50,4.944,74.84,165.354336,P-GPS,,50.4
691100,2026-01-07 12:44:15,0.0,5,7.154,0.0,0.0,0.0,26.7,6.1,0.9,1024,1024,1024,1024,0,0,0,0,50,4.989,74.84,165.354336,P-GPS,,50.4
691200,2026-01-07 12:44:16,0.0,5,7.154,0.0,0.0,0.0,26.8,6.1,1.5,1024,1024,1024,1024,0,0,0,0,50,4.989,74.84,165.354336,P-GPS,,50.4
691300,2026-01-07 12:44:16,0.0,5,7.154,0.0,0.0,0.0,26.8,5.9,1.5,1024,1024,1024,1024,0,0,0,0,50,4.989,74.84,165.354336,P-GPS,,50.4
691400,2026-01-07 12:44:16,0.0,5,7.154,0.0,0.0,0.0,26.8,5.8,1.9,1024,1024,1024,1024,0,0,0,0,50,4.989,74.84,165.354336,P-GPS,,50.4
691500,2026-01-07 12:44:16,0.0,5,7.154,0.0,0.0,0.0,26.8,5.8,2.2,1024,1024,1024,1024,0,0,0,0,50,4.989,74.84,165.354336,P-GPS,,50.4
691600,2026-01-07 12:44:16,0.0,5,7.154,0.0,0.0,0.0,26.8,6.0,2.4,1024,1024,1024,1024,0,0,0,0,50,4.989,74.84,165.354336,P-GPS,,50.4
691700,2026-01-07 12:44:16,0.0,5,7.154,0.0,0.0,0.0,26.9,5.8,2.4,1024,1024,1024,1024,0,0,0,0,50,4.989,74.84,165.354336,P-GPS,,50.4
691800,2026-01-07 12:44:16,0.0,5,7.154,0.0,0.0,0.0,26.8,5.8,2.6,1024,1024,1024,1024,0,0,0,0,50,4.989,74.84,165.354336,P-GPS,,50.4
691900,2026-01-07 12:44:16,0.0,5,7.154,0.0,0.0,0.0,26.9,5.8,2.2,1024,1024,1024,1024,0,0,0,0,50,4.989,74.84,165.354336,P-GPS,,50.4
692000,2026-01-07 12:44:16,0.0,5,7.154,0.0,0.0,0.0,26.9,5.7,1.9,1024,1024,1024,1024,0,0,0,0,50,4.989,74.84,165.354336,P-GPS,,50.4
692100,2026-01-07 12:44:16,0.0,5,7.154,0.0,0.0,0.0,26.9,5.6,1.4,1024,1024,1024,1024,0,0,0,0,50,4.989,74.84,165.354336,P-GPS,,50.4
692200,2026-01-07 12:44:17,0.0,5,7.144,0.0,0.0,0.0,26.9,5.7,0.9,1024,1024,1024,1024,0,0,0,0,50,5.031,74.84,165.354336,P-GPS,,50.4
692300,2026-01-07 12:44:17,0.0,5,7.144,0.0,0.0,0.0,26.9,5.6,0.4,1024,1024,1024,1024,0,0,0,0,50,5.031,74.84,165.354336,P-GPS,,50.4
692400,2026-01-07 12:44:17,0.0,5,7.144,0.0,0.0,0.0,26.9,5.3,0.4,1024,1024,1024,1024,0,0,0,0,50,5.031,74.84,165.354336,P-GPS,,50.4
692500,2026-01-07 12:44:17,0.0,5,7.144,0.0,0.0,0.0,26.9,5.3,0.1,1024,1024,1024,1024,0,0,0,0,50,5.031,74.84,165.354336,P-GPS,,50.4
692600,2026-01-07 12:44:17,0.0,5,7.144,0.0,0.0,0.0,26.9,5.4,0.0,1024,1024,1024,1024,0,0,0,0,50,5.031,74.84,165.354336,P-GPS,,50.4
692700,2026-01-07 12:44:17,0.0,5,7.144,0.0,0.0,0.0,26.9,5.7,0.0,1024,1024,1024,1024,0,0,0,0,50,5.031,74.84,165.354336,P-GPS,,50.4
692800,2026-01-07 12:44:17,0.0,5,7.144,0.0,0.0,0.0,26.9,6.0,0.0,1024,1024,1024,1024,0,0,0,0,50,5.031,74.84,165.354336,P-GPS,,50.4
692900,2026-01-07 12:44:17,0.0,5,7.144,0.0,0.0,0.0,26.9,5.9,0.0,1024,1024,1024,1024,0,0,0,0,50,5.031,74.84,165.354336,P-GPS,,50.4
693000,2026-01-07 12:44:17,0.0,5,7.144,0.0,0.0,0.0,26.9,6.0,0.2,1024,1024,1024,1024,0,0,0,0,50,5.031,74.84,165.354336,P-GPS,,50.4
693100,2026-01-07 12:44:17,0.0,5,7.144,0.0,0.0,0.0,26.9,6.3,0.4,1024,1024,1024,1024,0,0,0,0,50,5.031,74.84,165.354336,P-GPS,,50.4
693200,2026-01-07 12:44:18,0.0,5,7.144,0.0,0.0,0.0,26.8,6.1,0.6,1024,1024,1024,1024,0,0,0,0,50,5.031,74.84,165.354336,P-GPS,,50.4
693300,2026-01-07 12:44:18,0.0,5,7.144,0.0,0.0,0.0,26.8,6.1,0.8,1024,1024,1024,1024,0,0,0,0,50,5.031,74.84,165.354336,P-GPS,,50.4
693400,2026-01-07 12:44:18,0.0,5,7.119,0.0,0.0,0.0,26.8,6.4,0.7,1024,1024,1024,1024,0,0,0,0,50,5.315,74.84,165.68242,P-GPS,,50.5
693500,2026-01-07 12:44:18,0.0,5,7.119,0.0,0.0,0.0,26.9,6.3,0.2,1024,1024,1024,1024,0,0,0,0,50,5.315,74.84,165.68242,P-GPS,,50.5
693600,2026-01-07 12:44:18,0.0,5,7.119,0.0,0.0,0.0,26.9,6.7,0.0,1024,1024,1024,1024,0,0,0,0,50,5.315,74.84,165.68242,P-GPS,,50.5
693700,2026-01-07 12:44:18,0.0,5,7.119,0.0,0.0,0.0,26.9,6.8,-0.2,1024,1024,1024,1024,0,0,0,0,50,5.315,74.84,165.68242,P-GPS,,50.5
693800,2026-01-07 12:44:18,0.0,5,7.119,0.0,0.0,0.0,26.8,6.7,0.0,1024,1024,1024,1024,0,0,0,0,50,5.315,74.84,165.68242,P-GPS,,50.5
693900,2026-01-07 12:44:18,0.0,5,7.119,0.0,0.0,0.0,26.8,6.8,0.0,1024,1024,1024,1024,0,0,0,0,50,5.315,74.84,165.68242,P-GPS,,50.5
694000,2026-01-07 12:44:18,0.0,5,7.119,0.0,0.0,0.0,26.9,6.5,0.3,1024,1024,1024,1024,0,0,0,0,50,5.315,74.84,165.68242,P-GPS,,50.5
694100,2026-01-07 12:44:18,0.0,5,7.119,0.0,0.0,0.0,26.8,5.9,0.5,1024,1024,1024,1024,0,0,0,0,50,5.315,74.84,165.68242,P-GPS,,50.5
694200,2026-01-07 12:44:19,0.0,5,7.119,0.0,0.0,0.0,26.8,5.5,0.5,1024,1024,1024,1024,0,0,0,0,50,5.315,74.84,165.68242,P-GPS,,50.5
694300,2026-01-07 12:44:19,0.0,5,7.119,0.0,0.0,0.0,26.9,5.5,0.2,1024,1024,1024,1024,0,0,0,0,50,5.315,74.84,165.68242,P-GPS,,50.5
694400,2026-01-07 12:44:19,0.0,5,7.119,0.0,0.0,0.0,26.9,5.4,-0.2,1024,1024,1024,1024,0,0,0,0,50,5.315,74.84,165.68242,P-GPS,,50.5
694500,2026-01-07 12:44:19,0.0,5,7.133,0.0,0.0,0.0,26.9,5.6,-0.5,1024,1024,1024,1024,0,0,0,0,50,5.269,74.84,165.68242,P-GPS,,50.5
694600,2026-01-07 12:44:19,0.0,5,7.133,0.0,0.0,0.0,26.9,5.8,-0.7,1024,1024,1024,1024,0,0,0,0,50,5.269,74.84,165.68242,P-GPS,,50.5
694700,2026-01-07 12:44:19,0.0,5,7.133,0.0,0.0,0.0,26.9,6.2,-0.9,1024,1024,1024,1024,0,0,0,0,50,5.269,74.84,165.68242,P-GPS,,50.5
694800,2026-01-07 12:44:19,0.0,5,7.133,0.0,0.0,0.0,26.8,6.4,-0.8,1024,1024,1024,1024,0,0,0,0,50,5.269,74.84,165.68242,P-GPS,,50.5
694900,2026-01-07 12:44:19,0.0,5,7.133,0.0,0.0,0.0,26.8,6.4,-0.3,1024,1024,1024,1024,0,0,0,0,50,5.269,74.84,165.68242,P-GPS,,50.5
695000,2026-01-07 12:44:19,0.0,5,7.133,0.0,0.0,0.0,26.8,6.0,0.0,1024,1024,1024,1024,0,0,0,0,50,5.269,74.84,165.354336,P-GPS,,50.4
695100,2026-01-07 12:44:19,0.0,5,7.133,0.0,0.0,0.0,26.9,5.8,0.1,1024,1024,1024,1024,0,0,0,0,50,5.269,74.84,165.354336,P-GPS,,50.4
695200,2026-01-07 12:44:20,0.0,5,7.133,0.0,0.0,0.0,26.8,5.8,0.1,1024,1024,1024,1024,0,0,0,0,50,5.269,74.84,165.354336,P-GPS,,50.4
695300,2026-01-07 12:44:20,0.0,5,7.133,0.0,0.0,0.0,26.8,6.0,0.0,1024,1024,1024,1024,0,0,0,0,50,5.269,74.84,165.354336,P-GPS,,50.4
695400,2026-01-07 12:44:20,0.0,5,7.133,0.0,0.0,0.0,26.8,6.1,0.0,1024,1024,1024,1024,0,0,0,0,50,5.269,74.84,165.354336,P-GPS,,50.4
695500,2026-01-07 12:44:20,0.0,5,7.133,0.0,0.0,0.0,26.8,6.4,-0.1,1024,1024,1024,1024,0,0,0,0,50,5.269,74.84,165.354336,P-GPS,,50.4
695600,2026-01-07 12:44:20,0.0,5,7.133,0.0,0.0,0.0,26.8,6.6,-0.1,1024,1024,1024,1024,0,0,0,0,50,5.269,74.84,165.354336,P-GPS,,50.4
695700,2026-01-07 12:44:20,0.0,5,7.133,0.0,0.0,0.0,26.8,6.6,-0.1,1024,1024,1024,1024,0,0,0,0,49,5.269,74.84,165.354336,P-GPS,,50.4
695800,2026-01-07 12:44:20,0.0,5,7.133,0.0,0.0,0.0,26.7,6.8,0.0,1024,1024,1024,1024,0,0,0,0,49,5.269,74.84,165.68242,P-GPS,,50.5
695900,2026-01-07 12:44:20,0.0,5,7.133,0.0,0.0,0.0,26.7,6.6,-0.1,1024,1024,1024,1024,0,0,0,0,49,5.269,74.84,165.68242,P-GPS,,50.5
696000,2026-01-07 12:44:20,0.0,5,7.133,0.0,0.0,0.0,26.8,7.1,0.0,1024,1024,1024,1024,0,0,0,0,49,5.269,74.84,165.68242,P-GPS,,50.5
696100,2026-01-07 12:44:20,0.0,5,7.133,0.0,0.0,0.0,26.9,7.1,-0.1,1024,1024,1024,1024,0,0,0,0,49,5.269,74.84,165.68242,P-GPS,,50.5
696200,2026-01-07 12:44:21,0.0,5,7.133,0.0,0.0,0.0,26.8,7.0,0.0,1024,1024,1024,1024,0,0,0,0,49,5.269,74.84,165.68242,P-GPS,,50.5
696300,2026-01-07 12:44:21,0.0,5,7.133,0.0,0.0,0.0,26.7,7.1,0.4,1024,1024,1024,1024,0,0,0,0,49,5.269,74.84,165.354336,P-GPS,,50.4
696400,2026-01-07 12:44:21,0.0,5,7.133,0.0,0.0,0.0,26.8,7.0,0.5,1024,1024,1024,1024,0,0,0,0,49,5.269,74.84,165.354336,P-GPS,,50.4
696500,2026-01-07 12:44:21,0.0,5,7.133,0.0,0.0,0.0,26.7,6.9,0.5,1024,1024,1024,1024,0,0,0,0,49,5.269,74.84,165.354336,P-GPS,,50.4
696600,2026-01-07 12:44:21,0.0,5,7.133,0.0,0.0,0.0,26.8,7.0,0.7,1024,1024,1024,1024,0,0,0,0,49,5.269,74.84,165.354336,P-GPS,,50.4
696700,2026-01-07 12:44:21,0.0,5,7.125,0.0,0.0,0.0,26.7,6.9,0.7,1024,1024,1024,1024,0,0,0,0,49,5.389,75.02,165.354336,P-GPS,,50.4
696800,2026-01-07 12:44:21,0.0,5,7.125,0.0,0.0,0.0,26.7,6.9,1.1,1024,1024,1024,1024,0,0,0,0,49,5.389,75.02,165.354336,P-GPS,,50.4
696900,2026-01-07 12:44:21,0.0,5,7.125,0.0,0.0,0.0,26.7,6.3,1.1,1024,1024,1024,1024,0,0,0,0,49,5.389,75.02,165.354336,P-GPS,,50.4
697000,2026-01-07 12:44:21,0.0,5,7.125,0.0,0.0,0.0,26.7,6.1,1.1,1024,1024,1024,1024,0,0,0,0,49,5.389,75.02,165.354336,P-GPS,,50.4
697100,2026-01-07 12:44:21,0.0,5,7.125,0.0,0.0,0.0,26.7,6.0,1.2,1024,1024,1024,1024,0,0,0,0,49,5.389,75.02,165.354336,P-GPS,,50.4
697200,2026-01-07 12:44:22,0.0,5,7.125,0.0,0.0,0.0,26.7,6.2,1.3,1024,1024,1024,1024,0,0,0,0,49,5.389,75.02,165.354336,P-GPS,,50.4
697300,2026-01-07 12:44:22,0.0,5,7.125,0.0,0.0,0.0,26.7,6.4,1.3,1024,1024,1024,1024,0,0,0,0,49,5.389,75.02,165.354336,P-GPS,,50.4
697400,2026-01-07 12:44:22,0.0,5,7.125,0.0,0.0,0.0,26.7,6.5,1.6,1024,1024,1024,1024,0,0,0,0,49,5.389,75.02,165.354336,P-GPS,,50.4
697500,2026-01-07 12:44:22,0.0,5,7.125,0.0,0.0,0.0,26.7,6.4,1.7,1024,1024,1024,1024,0,0,0,0,49,5.389,75.02,165.354336,P-GPS,,50.4
697600,2026-01-07 12:44:22,0.0,5,7.125,0.0,0.0,0.0,26.8,6.1,1.8,1024,1024,1024,1024,0,0,0,0,49,5.389,75.02,165.354336,P-GPS,,50.4
697700,2026-01-07 12:44:22,0.0,5,7.125,0.0,0.0,0.0,26.8,6.2,1.6,1024,1024,1024,1024,0,0,0,0,49,5.389,75.02,165.354336,P-GPS,,50.4
697800,2026-01-07 12:44:22,0.0,5,7.13,0.0,0.0,0.0,26.7,6.2,1.4,1024,1024,1024,1024,0,0,0,0,49,5.295,75.02,165.354336,P-GPS,,50.4
697900,2026-01-07 12:44:22,0.0,5,7.13,0.0,0.0,0.0,26.7,6.1,1.3,1024,1024,1024,1024,0,0,0,0,49,5.295,75.02,165.354336,P-GPS,,50.4
698000,2026-01-07 12:44:22,0.0,5,7.13,0.0,0.0,0.0,26.7,5.8,1.4,1024,1024,1024,1024,0,0,0,0,49,5.295,75.02,165.354336,P-GPS,,50.4
698100,2026-01-07 12:44:22,0.0,5,7.13,0.0,0.0,0.0,26.7,5.6,1.5,1024,1024,1024,1024,0,0,0,0,49,5.295,75.02,165.026252,P-GPS,,50.3
698200,2026-01-07 12:44:23,0.0,5,7.13,0.0,0.0,0.0,26.7,5.3,1.5,1024,1024,1024,1024,0,0,0,0,49,5.295,75.02,165.026252,P-GPS,,50.3
698300,2026-01-07 12:44:23,0.0,5,7.13,0.0,0.0,0.0,26.7,5.2,1.6,1024,1024,1024,1024,0,0,0,0,49,5.295,75.02,165.026252,P-GPS,,50.3
698400,2026-01-07 12:44:23,0.0,5,7.13,0.0,0.0,0.0,26.7,5.3,1.6,1024,1024,1024,1024,0,0,0,0,49,5.295,75.02,165.026252,P-GPS,,50.3
698500,2026-01-07 12:44:23,0.0,5,7.13,0.0,0.0,0.0,26.7,5.2,1.7,1024,1024,1024,1024,0,0,0,0,49,5.295,75.02,165.026252,P-GPS,,50.3
698600,2026-01-07 12:44:23,0.0,5,7.13,0.0,0.0,0.0,26.7,5.3,1.9,1024,1024,1024,1024,0,0,0,0,49,5.295,75.02,165.026252,P-GPS,,50.3
698700,2026-01-07 12:44:23,0.0,5,7.13,0.0,0.0,0.0,26.7,5.4,2.1,1024,1024,1024,1024,0,0,0,0,49,5.295,75.02,165.026252,P-GPS,,50.3
698800,2026-01-07 12:44:23,0.0,5,7.13,0.0,0.0,0.0,26.7,5.6,2.0,1024,1024,1024,1024,0,0,0,0,49,5.295,75.02,165.026252,P-GPS,,50.3
698900,2026-01-07 12:44:23,0.0,5,7.13,0.0,0.0,0.0,26.7,5.6,2.1,1024,1024,1024,1024,0,0,0,0,49,5.295,75.02,165.026252,P-GPS,,50.3
699000,2026-01-07 12:44:23,0.0,5,7.135,0.0,0.0,0.0,26.7,5.5,1.9,1024,1024,1024,1024,0,0,0,0,49,5.099,75.02,165.026252,P-GPS,,50.3
699100,2026-01-07 12:44:23,0.0,5,7.135,0.0,0.0,0.0,26.7,5.3,1.7,1024,1024,1024,1024,0,0,0,0,49,5.099,75.02,165.026252,P-GPS,,50.3
699200,2026-01-07 12:44:24,0.0,5,7.135,0.0,0.0,0.0,26.7,5.1,1.6,1024,1024,1024,1024,0,0,0,0,49,5.099,75.02,165.026252,P-GPS,,50.3
699300,2026-01-07 12:44:24,0.0,5,7.135,0.0,0.0,0.0,26.7,5.0,1.5,1024,1024,1024,1024,0,0,0,0,49,5.099,75.02,165.026252,P-GPS,,50.3
699400,2026-01-07 12:44:24,0.0,5,7.135,0.0,0.0,0.0,26.7,5.1,1.5,1024,1024,1024,1024,0,0,0,0,49,5.099,75.02,165.026252,P-GPS,,50.3
699500,2026-01-07 12:44:24,0.0,5,7.135,0.0,0.0,0.0,26.8,5.2,1.5,1024,1024,1024,1024,0,0,0,0,49,5.099,75.02,165.026252,P-GPS,,50.3
699600,2026-01-07 12:44:24,0.0,5,7.135,0.0,0.0,0.0,26.7,5.0,1.3,1024,1024,931,1024,0,0,-14,0,49,5.099,75.02,165.026252,P-GPS,,50.3
699700,2026-01-07 12:44:24,0.0,5,7.135,0.0,0.0,0.0,26.7,5.3,1.4,1024,1024,371,1024,0,0,-99,0,49,5.099,75.02,165.026252,P-GPS,,50.3
699800,2026-01-07 12:44:24,0.0,5,7.135,0.0,0.0,0.0,26.7,5.7,1.6,1024,1024,364,1024,0,0,-100,0,49,5.099,75.02,165.026252,P-GPS,,50.3
699900,2026-01-07 12:44:24,0.0,5,7.135,0.0,0.0,0.0,26.7,5.6,1.7,1024,1024,364,1024,0,0,-100,0,49,5.099,75.02,165.026252,P-GPS,,50.3
700000,2026-01-07 12:44:24,0.0,5,7.135,0.0,0.0,0.671082,26.6,5.7,1.7,1024,1024,364,1024,0,0,-100,0,49,5.099,75.02,164.698168,P-GPS,,50.2
700100,2026-01-07 12:44:24,0.0,5,7.148,0.0,0.0,1.342164,26.6,5.6,2.0,1024,1024,364,1024,0,0,-100,0,49,4.798,75.02,164.370084,P-GPS,,50.1
700200,2026-01-07 12:44:25,0.0,5,7.148,0.0,0.0,2.013246,26.6,5.6,2.2,1024,1024,364,1024,0,0,-100,0,49,4.798,75.02,164.042,P-GPS,,50.0
700300,2026-01-07 12:44:25,0.0,5,7.148,0.0,0.0,2.908022,26.5,4.6,2.3,1024,1024,364,1024,0,0,-100,0,49,4.798,75.02,163.713916,P-GPS,,49.9
700400,2026-01-07 12:44:25,0.0,5,7.148,0.0,0.0,3.35541,26.3,3.6,2.4,1024,1024,364,1024,0,0,-100,0,49,4.798,75.02,163.057748,P-GPS,,49.7
700500,2026-01-07 12:44:25,0.0,5,7.148,0.0,0.0,3.802798,26.3,4.4,2.2,1024,1024,364,1024,0,0,-100,0,49,4.798,75.02,162.40158,P-GPS,,49.5
700600,2026-01-07 12:44:25,0.0,5,7.148,0.0,0.0,4.026492,26.5,4.5,2.0,1024,1024,364,1024,0,0,-100,0,49,4.798,75.02,161.745412,P-GPS,,49.3
700700,2026-01-07 12:44:25,0.0,5,7.148,0.0,0.0,3.802798,26.7,5.1,2.7,1024,1024,364,1024,0,0,-100,0,49,4.798,75.02,161.089244,P-GPS,,49.1
700800,2026-01-07 12:44:25,0.0,5,7.148,0.0,-0.223694,4.026492,26.7,4.5,4.1,1024,1024,364,1024,0,0,-100,0,49,4.798,75.02,160.433076,P-GPS,,48.9
700900,2026-01-07 12:44:25,0.0,5,7.148,0.0,0.0,4.026492,26.8,4.6,4.4,1024,1024,364,1024,0,0,-100,0,49,4.798,75.02,159.776908,P-GPS,,48.7
701000,2026-01-07 12:44:25,0.223694,5,7.148,0.0,-0.223694,4.026492,26.6,3.8,4.6,1024,1024,364,1024,0,0,-100,0,49,4.798,75.02,159.12074,P-GPS,,48.5
701100,2026-01-07 12:44:25,0.0,5,7.148,0.0,0.0,4.026492,26.5,4.3,4.2,1024,1024,364,1024,0,0,-100,0,49,4.798,75.02,158.464572,P-GPS,,48.3
701200,2026-01-07 12:44:26,0.0,5,7.184,0.0,0.0,4.026492,26.5,3.6,4.4,1024,1024,364,1024,0,0,-100,0,49,3.714,75.02,157.808404,P-GPS,,48.1
