time(millisecond),timestamp,speed(mph),gpslevel,voltage(v),xSpeed(mph),ySpeed(mph),zSpeed(mph),compass_heading(degrees),pitch(degrees),roll(degrees),rc_elevator,rc_aileron,rc_throttle,rc_rudder,rc_elevator(percent),rc_aileron(percent),rc_throttle(percent),rc_rudder(percent),battery_percent,current(A),battery_temperature(f),ascent(feet),flycState,message,height_above_takeoff(meters)
350100,2026-01-07 15:39:05,0.0,5,7.221,0.0,0.0,-4.250186,38.1,4.4,4.2,1024,1024,1024,1024,0,0,0,0,56,5.975,73.4,92.519688,P-GPS,,28.2
350200,2026-01-07 15:39:05,0.0,5,7.221,0.0,0.0,-4.026492,38.1,4.0,4.1,1024,1024,1024,1024,0,0,0,0,56,5.975,73.4,93.175856,P-GPS,,28.4
350300,2026-01-07 15:39:05,0.0,5,7.208,0.0,0.0,-3.579104,38.2,4.7,4.3,1024,1024,1024,1024,0,0,0,0,56,5.581,73.58,93.832024,P-GPS,,28.6
350400,2026-01-07 15:39:05,0.0,5,7.208,0.0,0.0,-2.908022,38.2,4.9,4.5,1024,1024,1665,1024,0,0,97,0,56,5.581,73.58,94.160108,P-GPS,,28.7
350500,2026-01-07 15:39:06,0.0,5,7.208,0.0,0.0,-2.013246,38.3,5.1,4.9,1024,1024,1684,1024,0,0,100,0,56,5.581,73.58,94.488192,P-GPS,,28.8
350600,2026-01-07 15:39:06,0.223694,5,7.208,0.223694,0.0,-1.342164,38.3,5.5,4.8,1024,1024,1684,1024,0,0,100,0,56,5.581,73.58,94.816276,P-GPS,,28.9
350700,2026-01-07 15:39:06,0.0,5,7.208,0.0,0.0,-1.11847,38.3,5.5,4.5,1024,1024,1684,1024,0,0,100,0,56,5.581,73.58,94.816276,P-GPS,,28.9
350800,2026-01-07 15:39:06,0.0,5,7.208,0.0,0.0,-1.789552,38.2,5.4,4.5,1024,1024,1684,1024,0,0,100,0,56,5.581,73.58,95.14436,P-GPS,,29.0
350900,2026-01-07 15:39:06,0.0,5,7.208,0.0,0.0,-2.460634,38.2,5.5,4.0,1024,1024,1684,1024,0,0,100,0,56,5.581,73.58,95.472444,P-GPS,,29.1
351000,2026-01-07 15:39:06,0.0,5,7.208,0.0,0.0,-3.131716,38.3,5.2,4.6,1024,1024,1684,1024,0,0,100,0,56,5.581,73.58,95.800528,P-GPS,,29.2
351100,2026-01-07 15:39:06,0.0,5,7.208,0.0,0.0,-3.579104,38.3,5.0,5.0,1024,1024,1190,1024,0,0,25,0,56,5.581,73.58,96.456696,P-GPS,,29.4
351200,2026-01-07 15:39:06,0.0,5,7.208,0.0,0.0,-4.026492,38.2,4.6,5.3,1024,1024,1024,1024,0,0,0,0,56,5.581,73.58,97.112864,P-GPS,,29.6
351300,2026-01-07 15:39:06,0.0,5,7.208,0.0,0.0,-4.250186,38.2,4.8,5.3,1024,1024,1024,1024,0,0,0,0,56,5.581,73.58,97.769032,P-GPS,,29.8
351400,2026-01-07 15:39:06,0.0,5,7.165,0.0,0.0,-3.802798,38.2,5.1,5.0,1024,1024,1024,1024,0,0,0,0,55,6.031,73.58,98.097116,P-GPS,,29.9
351500,2026-01-07 15:39:06,0.0,5,7.165,0.0,0.0,-3.131716,38.3,5.3,4.9,1024,1024,1024,1024,0,0,0,0,55,6.031,73.58,98.753284,P-GPS,,30.1
351600,2026-01-07 15:39:07,0.0,5,7.165,0.0,0.0,-2.460634,38.3,5.2,4.9,1024,1024,1024,1024,0,0,0,0,55,6.031,73.58,98.753284,P-GPS,,30.1
351700,2026-01-07 15:39:07,0.0,5,7.165,0.0,0.0,-1.565858,38.3,5.1,4.7,1024,1024,1024,1024,0,0,0,0,55,6.031,73.58,99.081368,P-GPS,,30.2
351800,2026-01-07 15:39:07,0.0,5,7.165,0.0,0.0,-0.894776,38.4,5.2,4.3,1024,1024,1024,1024,0,0,0,0,55,6.031,73.58,99.081368,P-GPS,,30.2
351900,2026-01-07 15:39:07,0.0,5,7.165,0.0,0.0,-0.223694,38.4,5.1,4.1,1024,1024,1024,1024,0,0,0,0,55,6.031,73.58,99.409452,P-GPS,,30.3
352000,2026-01-07 15:39:07,0.0,5,7.165,0.0,0.0,0.0,38.4,5.2,4.2,1024,1024,1024,1024,0,0,0,0,55,6.031,73.58,99.409452,P-GPS,,30.3
352100,2026-01-07 15:39:07,0.0,5,7.165,0.0,0.0,0.0,38.4,5.5,4.0,1024,1024,1024,1024,0,0,0,0,55,6.031,73.58,99.409452,P-GPS,,30.3
352200,2026-01-07 15:39:07,0.0,5,7.165,0.0,0.0,0.0,38.3,5.7,4.3,1024,1024,1024,1024,0,0,0,0,55,6.031,73.58,99.409452,P-GPS,,30.3
352300,2026-01-07 15:39:07,0.0,5,7.165,0.0,0.0,0.0,38.3,5.1,4.9,1024,1024,1024,1024,0,0,0,0,55,6.031,73.58,99.409452,P-GPS,,30.3
352400,2026-01-07 15:39:07,0.0,5,7.165,0.0,0.0,0.0,38.2,4.6,5.0,1024,1024,1024,1024,0,0,0,0,55,6.031,73.58,99.409452,P-GPS,,30.3
352500,2026-01-07 15:39:08,0.0,5,7.26,0.0,0.0,0.0,38.2,4.9,4.9,1024,1024,1024,1024,0,0,0,0,55,4.481,73.58,99.409452,P-GPS,,30.3
352600,2026-01-07 15:39:08,0.0,5,7.26,0.0,0.0,0.0,38.2,4.8,4.4,1024,1024,1024,1024,0,0,0,0,55,4.481,73.58,99.409452,P-GPS,,30.3
352700,2026-01-07 15:39:08,0.0,5,7.26,0.0,0.0,0.0,38.2,4.5,4.2,1024,1024,1024,1024,0,0,0,0,55,4.481,73.58,99.409452,P-GPS,,30.3
352800,2026-01-07 15:39:08,0.0,5,7.26,0.0,0.0,0.0,38.2,5.0,4.4,1024,1024,1024,1024,0,0,0,0,55,4.481,73.58,99.409452,P-GPS,,30.3
352900,2026-01-07 15:39:08,0.0,5,7.26,0.0,0.0,0.0,38.2,5.1,4.5,1024,1024,1024,1024,0,0,0,0,55,4.481,73.58,99.409452,P-GPS,,30.3
353000,2026-01-07 15:39:08,0.0,5,7.26,0.0,0.0,0.0,38.2,4.9,4.5,1024,1024,1024,1024,0,0,0,0,55,4.481,73.58,99.409452,P-GPS,,30.3
353100,2026-01-07 15:39:08,0.0,5,7.26,0.0,0.0,0.0,38.2,4.0,4.2,1024,1024,1024,1024,0,0,0,0,55,4.481,73.58,99.409452,P-GPS,,30.3
353200,2026-01-07 15:39:08,0.0,5,7.26,0.0,0.0,0.0,38.2,4.4,4.3,1024,1024,1024,1024,0,0,0,0,55,4.481,73.58,99.409452,P-GPS,,30.3
353300,2026-01-07 15:39:08,0.0,5,7.26,0.0,0.0,0.0,38.1,4.4,4.3,1024,1024,1024,1024,0,0,0,0,55,4.481,73.58,99.081368,P-GPS,,30.2
353400,2026-01-07 15:39:08,0.0,5,7.26,0.0,0.0,0.0,38.2,4.6,4.5,1024,1024,1024,1024,0,0,0,0,55,4.481,73.58,99.081368,P-GPS,,30.2
353500,2026-01-07 15:39:08,0.0,5,7.26,0.0,0.0,0.0,38.2,4.4,4.1,1024,1024,1024,1024,0,0,0,0,55,4.481,73.58,99.081368,P-GPS,,30.2
353600,2026-01-07 15:39:09,0.0,5,7.254,0.0,0.0,0.0,38.2,5.1,4.5,1024,1024,1024,1024,0,0,0,0,55,4.959,73.58,99.081368,P-GPS,,30.2
353700,2026-01-07 15:39:09,0.0,5,7.254,0.0,0.0,0.0,38.2,5.5,4.7,1024,1024,1024,1024,0,0,0,0,55,4.959,73.58,99.081368,P-GPS,,30.2
353800,2026-01-07 15:39:09,0.0,5,7.254,0.0,0.0,0.0,38.2,5.9,4.5,1024,1024,1024,1024,0,0,0,0,55,4.959,73.58,99.081368,P-GPS,,30.2
353900,2026-01-07 15:39:09,0.0,5,7.254,0.0,0.0,0.0,38.2,6.4,4.3,1024,1024,1024,1024,0,0,0,0,55,4.959,73.58,99.081368,P-GPS,,30.2
354000,2026-01-07 15:39:09,0.0,5,7.254,0.0,0.0,0.0,38.2,6.3,4.4,1024,1024,1024,1024,0,0,0,0,55,4.959,73.58,99.081368,P-GPS,,30.2
354100,2026-01-07 15:39:09,0.0,5,7.254,0.0,0.0,0.0,38.2,6.1,4.5,1024,1024,1024,1024,0,0,0,0,55,4.959,73.58,98.753284,P-GPS,,30.1
354200,2026-01-07 15:39:09,0.0,5,7.254,0.0,0.0,0.0,38.2,6.0,4.5,1024,1024,1024,1024,0,0,0,0,55,4.959,73.58,98.753284,P-GPS,,30.1
354300,2026-01-07 15:39:09,0.0,5,7.254,0.0,0.0,0.0,38.3,5.9,4.7,1024,1024,1024,1024,0,0,0,0,55,4.959,73.58,98.753284,P-GPS,,30.1
354400,2026-01-07 15:39:09,0.0,5,7.254,0.0,0.0,0.0,38.2,5.6,4.9,1024,1024,1024,1024,0,0,0,0,55,4.959,73.58,98.753284,P-GPS,,30.1
354500,2026-01-07 15:39:10,0.0,5,7.254,0.0,0.0,0.0,38.3,5.5,4.9,1024,1024,1024,1024,0,0,0,0,55,4.959,73.58,98.753284,P-GPS,,30.1
354600,2026-01-07 15:39:10,0.0,5,7.254,0.0,0.0,0.0,38.2,5.9,4.9,1024,1024,1024,1024,0,0,0,0,55,4.959,73.58,98.753284,P-GPS,,30.1
354700,2026-01-07 15:39:10,0.0,5,7.255,0.0,0.0,0.0,38.3,5.9,4.8,1024,1024,1024,1024,0,0,0,0,55,5.044,73.76,98.4252,P-GPS,,30.0
354800,2026-01-07 15:39:10,0.0,5,7.255,0.0,0.0,0.0,38.3,5.8,4.5,1024,1024,1024,1024,0,0,0,0,55,5.044,73.76,98.4252,P-GPS,,30.0
354900,2026-01-07 15:39:10,0.0,5,7.255,0.0,0.0,0.0,38.3,5.9,4.3,1024,1024,1024,1024,0,0,0,0,55,5.044,73.76,98.4252,P-GPS,,30.0
355000,2026-01-07 15:39:10,0.0,5,7.255,0.0,0.0,0.0,38.3,5.7,4.1,1024,1024,1024,1024,0,0,0,0,55,5.044,73.76,98.4252,P-GPS,,30.0
355100,2026-01-07 15:39:10,0.0,5,7.255,0.0,0.0,0.0,38.3,5.2,4.3,1024,1024,1024,1024,0,0,0,0,55,5.044,73.76,98.4252,P-GPS,,30.0
355200,2026-01-07 15:39:10,0.0,5,7.255,0.0,0.0,0.0,38.3,4.6,4.4,1024,1024,1024,1024,0,0,0,0,55,5.044,73.76,98.4252,P-GPS,,30.0
355300,2026-01-07 15:39:10,0.0,5,7.255,0.0,0.0,0.0,38.4,4.8,4.8,1024,1024,1024,1024,0,0,0,0,55,5.044,73.76,98.4252,P-GPS,,30.0
355400,2026-01-07 15:39:10,0.0,5,7.255,0.0,0.0,0.0,38.5,5.5,4.8,1024,1024,1024,1024,0,0,0,0,55,5.044,73.76,98.4252,P-GPS,,30.0
355500,2026-01-07 15:39:10,0.0,5,7.255,0.0,0.0,0.0,38.6,5.5,5.0,1024,1024,1024,1024,0,0,0,0,55,5.044,73.76,98.4252,P-GPS,,30.0
355600,2026-01-07 15:39:11,0.0,5,7.255,0.0,0.0,0.0,38.6,5.8,5.0,1024,1024,1024,1024,0,0,0,0,55,5.044,73.76,98.753284,P-GPS,,30.1
355700,2026-01-07 15:39:11,0.0,5,7.255,0.0,0.0,0.0,38.5,5.8,4.8,1024,1024,1024,1024,0,0,0,0,55,5.044,73.76,98.753284,P-GPS,,30.1
355800,2026-01-07 15:39:11,0.0,5,7.255,0.0,0.0,0.0,38.6,6.1,4.6,1024,1024,1024,1024,0,0,0,0,55,5.044,73.76,98.753284,P-GPS,,30.1
355900,2026-01-07 15:39:11,0.0,5,7.255,0.0,0.0,0.0,38.7,6.4,4.7,1024,1024,1024,1024,0,0,0,0,55,5.044,73.76,98.753284,P-GPS,,30.1
356000,2026-01-07 15:39:11,0.0,5,7.255,0.0,0.0,0.0,38.7,6.2,4.3,1024,1024,1024,1024,0,0,0,0,55,5.044,73.76,98.753284,P-GPS,,30.1
356100,2026-01-07 15:39:11,0.0,5,7.255,0.0,0.0,0.0,38.7,6.3,4.1,1024,1024,1024,1024,0,0,0,0,55,5.044,73.76,98.753284,P-GPS,,30.1
356200,2026-01-07 15:39:11,0.0,5,7.255,0.0,0.0,0.0,38.6,6.4,4.2,1024,1024,1024,1024,0,0,0,0,55,5.044,73.76,98.753284,P-GPS,,30.1
356300,2026-01-07 15:39:11,0.0,5,7.255,0.0,0.0,0.0,38.4,6.1,3.6,1024,1024,1024,1024,0,0,0,0,55,5.044,73.76,98.753284,P-GPS,,30.1
356400,2026-01-07 15:39:11,0.0,5,7.255,0.0,0.0,0.0,38.4,6.1,3.6,1024,1024,1024,1024,0,0,0,0,55,5.044,73.76,98.753284,P-GPS,,30.1
356500,2026-01-07 15:39:11,0.0,5,7.255,0.0,0.0,0.0,38.5,5.6,3.8,1024,1024,1024,1024,0,0,0,0,55,5.044,73.76,98.4252,P-GPS,,30.0
356600,2026-01-07 15:39:12,0.0,5,7.255,0.0,0.0,0.0,38.6,5.6,4.1,1024,1024,1024,1024,0,0,0,0,55,5.044,73.76,98.4252,P-GPS,,30.0
356700,2026-01-07 15:39:12,0.0,5,7.255,0.0,0.0,0.0,38.6,5.5,4.0,1024,1024,1024,1024,0,0,0,0,55,5.044,73.76,98.4252,P-GPS,,30.0
356800,2026-01-07 15:39:12,0.0,5,7.255,0.0,0.0,0.0,38.4,6.1,3.8,1024,1024,1024,1024,0,0,0,0,55,5.044,73.76,98.4252,P-GPS,,30.0
356900,2026-01-07 15:39:12,0.0,5,7.279,0.0,0.0,0.0,38.4,5.3,4.2,1024,1024,1024,1024,0,0,0,0,55,4.759,73.76,98.4252,P-GPS,,30.0
357000,2026-01-07 15:39:12,0.0,5,7.279,0.0,0.0,0.0,38.3,5.4,4.5,1024,1024,1024,1024,0,0,0,0,55,4.759,73.76,98.4252,P-GPS,,30.0
357100,2026-01-07 15:39:12,0.0,5,7.279,0.0,0.0,0.0,38.3,6.2,4.3,1024,1024,1024,1024,0,0,0,0,55,4.759,73.76,98.4252,P-GPS,,30.0
357200,2026-01-07 15:39:12,0.0,5,7.279,0.0,0.0,0.0,38.2,5.8,4.2,1024,1024,1024,1024,0,0,0,0,55,4.759,73.76,98.4252,P-GPS,,30.0
357300,2026-01-07 15:39:12,0.0,5,7.279,0.0,0.0,0.0,38.2,5.4,4.2,1024,1024,1024,1024,0,0,0,0,55,4.759,73.76,98.4252,P-GPS,,30.0
357400,2026-01-07 15:39:12,0.0,5,7.279,0.0,0.0,0.0,38.2,5.0,4.5,1024,1024,1024,1024,0,0,0,0,55,4.759,73.76,98.4252,P-GPS,,30.0
357500,2026-01-07 15:39:13,0.0,5,7.279,0.0,0.0,0.0,38.2,4.8,4.5,1024,1024,1024,1024,0,0,0,0,55,4.759,73.76,98.4252,P-GPS,,30.0
357600,2026-01-07 15:39:13,0.0,5,7.279,0.0,0.0,0.0,38.2,5.0,4.5,1024,1024,1024,1024,0,0,0,0,55,4.759,73.76,98.4252,P-GPS,,30.0
357700,2026-01-07 15:39:13,0.0,5,7.279,0.0,0.0,0.0,38.3,5.2,4.5,1024,1024,1024,1024,0,0,0,0,55,4.759,73.76,98.4252,P-GPS,,30.0
357800,2026-01-07 15:39:13,0.0,5,7.279,0.0,0.0,0.0,38.3,5.7,4.5,1024,1024,1024,1024,0,0,0,0,55,4.759,73.76,98.4252,P-GPS,,30.0
357900,2026-01-07 15:39:13,0.0,5,7.279,0.0,0.0,0.0,38.3,5.9,4.3,1024,1024,1024,1024,0,0,0,0,55,4.759,73.76,98.4252,P-GPS,,30.0
358000,2026-01-07 15:39:13,0.0,5,7.263,0.0,0.0,0.0,38.3,5.8,4.4,1024,1024,1024,1024,0,0,0,0,55,4.826,73.76,98.097116,P-GPS,,29.9
358100,2026-01-07 15:39:13,0.0,5,7.263,0.0,0.0,0.0,38.3,5.6,4.5,1024,1024,1024,1024,0,0,0,0,55,4.826,73.76,98.097116,P-GPS,,29.9
358200,2026-01-07 15:39:13,0.0,5,7.263,0.0,0.0,0.0,38.3,5.7,4.6,1024,1024,1024,1024,0,0,0,0,55,4.826,73.76,98.097116,P-GPS,,29.9
358300,2026-01-07 15:39:13,0.0,5,7.263,0.0,0.0,0.0,38.3,6.0,4.5,1024,1024,1024,1024,0,0,0,0,55,4.826,73.76,98.097116,P-GPS,,29.9
358400,2026-01-07 15:39:13,0.0,5,7.263,0.0,0.0,0.0,38.3,5.9,4.6,1024,1024,1024,1024,0,0,0,0,55,4.826,73.76,98.097116,P-GPS,,29.9
358500,2026-01-07 15:39:13,0.0,5,7.263,0.0,0.0,0.0,38.3,6.1,4.7,1024,1024,1024,1024,0,0,0,0,55,4.826,73.76,98.097116,P-GPS,,29.9
358600,2026-01-07 15:39:14,0.0,5,7.263,0.0,0.0,0.0,38.3,6.3,4.9,1024,1024,1024,1024,0,0,0,0,55,4.826,73.76,98.097116,P-GPS,,29.9
358700,2026-01-07 15:39:14,0.0,5,7.263,0.0,0.0,0.0,38.3,6.4,4.9,1024,1024,1024,1024,0,0,0,0,55,4.826,73.76,98.097116,P-GPS,,29.9
358800,2026-01-07 15:39:14,0.0,5,7.263,0.0,0.0,0.0,38.3,6.4,4.5,1024,1024,1024,1024,0,0,0,0,55,4.826,73.76,98.097116,P-GPS,,29.9
358900,2026-01-07 15:39:14,0.0,5,7.263,0.0,0.0,0.0,38.3,6.3,4.7,1024,1024,1024,1024,0,0,0,0,55,4.826,73.76,98.097116,P-GPS,,29.9
359000,2026-01-07 15:39:14,0.0,5,7.263,0.0,0.0,0.0,38.2,6.2,4.7,1024,1024,1024,1024,0,0,0,0,55,4.826,73.76,98.097116,P-GPS,,29.9
359100,2026-01-07 15:39:14,0.0,5,7.258,0.0,0.0,0.0,38.1,5.9,4.4,1024,1024,1024,1024,0,0,0,0,55,4.814,73.76,98.097116,P-GPS,,29.9
359200,2026-01-07 15:39:14,0.0,5,7.258,0.0,0.0,0.0,38.0,5.3,4.4,1024,1024,1024,1024,0,0,0,0,55,4.814,73.76,98.097116,P-GPS,,29.9
359300,2026-01-07 15:39:14,0.0,5,7.258,0.0,0.0,0.0,38.0,5.4,4.3,1024,1024,1024,1024,0,0,0,0,55,4.814,73.76,98.097116,P-GPS,,29.9
359400,2026-01-07 15:39:14,0.0,5,7.258,0.0,0.0,0.0,38.1,5.4,4.3,1024,1024,1024,1024,0,0,0,0,55,4.814,73.76,98.097116,P-GPS,,29.9
359500,2026-01-07 15:39:15,0.0,5,7.258,0.0,0.0,0.0,38.1,5.7,4.2,1024,1024,1024,1024,0,0,0,0,55,4.814,73.76,98.097116,P-GPS,,29.9
359600,2026-01-07 15:39:15,0.0,5,7.258,0.0,0.0,0.0,38.2,5.9,4.1,1024,1024,1024,1024,0,0,0,0,55,4.814,73.76,98.097116,P-GPS,,29.9
359700,2026-01-07 15:39:15,0.0,5,7.258,0.0,0.0,0.0,38.2,5.7,4.0,1024,1024,1024,1024,0,0,0,0,55,4.814,73.76,98.097116,P-GPS,,29.9
359800,2026-01-07 15:39:15,0.0,5,7.258,0.0,0.0,0.0,38.2,5.9,3.9,1024,1024,1024,1024,0,0,0,0,55,4.814,73.76,98.097116,P-GPS,,29.9
359900,2026-01-07 15:39:15,0.0,5,7.258,0.0,0.0,0.0,38.2,5.8,3.6,1024,1024,1024,1024,0,0,0,0,55,4.814,73.76,98.097116,P-GPS,,29.9
360000,2026-01-07 15:39:15,0.0,5,7.258,0.0,0.0,0.0,38.2,5.7,3.5,1024,1024,1024,1024,0,0,0,0,55,4.814,73.76,98.097116,P-GPS,,29.9
360100,2026-01-07 15:39:15,0.0,5,7.258,0.0,0.0,0.0,38.3,5.8,3.9,1024,1024,1024,1024,0,0,0,0,55,4.814,73.76,98.097116,P-GPS,,29.9
360200,2026-01-07 15:39:15,0.0,5,7.264,0.0,0.0,0.0,38.3,6.4,4.0,1024,1024,1024,1024,0,0,0,0,55,4.854,73.94,98.097116,P-GPS,,29.9
360300,2026-01-07 15:39:15,0.0,5,7.264,0.0,0.0,0.0,38.3,6.0,3.8,1024,1024,1024,1024,0,0,0,0,55,4.854,73.94,98.097116,P-GPS,,29.9
360400,2026-01-07 15:39:15,0.0,5,7.264,0.0,0.0,0.0,38.3,5.7,3.8,1024,1024,1024,1024,0,0,0,0,55,4.854,73.94,98.097116,P-GPS,,29.9
360500,2026-01-07 15:39:15,0.0,5,7.264,0.0,0.0,0.0,38.4,5.8,4.0,1024,1024,1024,1024,0,0,0,0,55,4.854,73.94,98.097116,P-GPS,,29.9
360600,2026-01-07 15:39:16,0.0,5,7.264,0.0,0.0,0.0,38.4,5.8,4.0,1024,1024,1024,1024,0,0,0,0,55,4.854,73.94,98.097116,P-GPS,,29.9
360700,2026-01-07 15:39:16,0.0,5,7.264,0.0,0.0,0.0,38.3,6.1,4.0,1024,1024,1024,1024,0,0,0,0,55,4.854,73.94,98.097116,P-GPS,,29.9
360800,2026-01-07 15:39:16,0.0,5,7.264,0.0,0.0,0.0,38.3,6.1,4.0,1024,1024,1024,1024,0,0,0,0,55,4.854,73.94,98.097116,P-GPS,,29.9
360900,2026-01-07 15:39:16,0.0,5,7.264,0.0,0.0,0.0,38.2,6.3,3.7,1024,1024,1024,1024,0,0,0,0,55,4.854,73.94,98.097116,P-GPS,,29.9
361000,2026-01-07 15:39:16,0.0,5,7.264,0.0,0.0,0.0,38.2,6.4,3.6,1024,1024,1024,1024,0,0,0,0,55,4.854,73.94,98.097116,P-GPS,,29.9
361100,2026-01-07 15:39:16,0.0,5,7.264,0.0,0.0,0.0,38.2,6.4,3.8,1024,1024,1024,1024,0,0,0,0,55,4.854,73.94,98.097116,P-GPS,,29.9
361200,2026-01-07 15:39:16,0.0,5,7.264,0.0,0.0,0.0,38.2,6.2,3.8,1024,1024,1024,1024,0,0,0,0,55,4.854,73.94,98.097116,P-GPS,,29.9
361300,2026-01-07 15:39:16,0.0,5,7.258,0.0,0.0,0.0,38.2,6.0,3.7,1024,1024,1024,1024,0,0,0,0,55,4.732,73.94,98.097116,P-GPS,,29.9
361400,2026-01-07 15:39:16,0.0,5,7.258,0.0,0.0,0.0,38.3,6.2,4.1,1024,1024,1024,1024,0,0,0,0,55,4.732,73.94,98.097116,P-GPS,,29.9
361500,2026-01-07 15:39:16,0.0,5,7.258,0.0,0.0,0.0,38.2,5.9,4.2,1024,1024,1024,1024,0,0,0,0,55,4.732,73.94,98.097116,P-GPS,,29.9
361600,2026-01-07 15:39:17,0.0,5,7.258,0.0,0.0,0.0,38.2,5.4,4.1,1024,1024,1024,1024,0,0,0,0,55,4.732,73.94,98.097116,P-GPS,,29.9
361700,2026-01-07 15:39:17,0.0,5,7.258,0.0,0.0,0.0,38.3,6.0,4.3,1024,1024,1024,1024,0,0,0,0,55,4.732,73.94,98.097116,P-GPS,,29.9
361800,2026-01-07 15:39:17,0.0,5,7.258,0.0,0.0,0.0,38.3,6.5,4.3,1024,1024,1024,1024,0,0,0,0,55,4.732,73.94,98.097116,P-GPS,,29.9
361900,2026-01-07 15:39:17,0.0,5,7.258,0.0,0.0,0.0,38.3,6.6,3.9,1024,1024,1024,1024,0,0,0,0,55,4.732,73.94,98.097116,P-GPS,,29.9
362000,2026-01-07 15:39:17,0.0,5,7.258,0.0,0.0,0.0,38.3,6.9,3.7,1024,1024,1024,1024,0,0,0,0,55,4.732,73.94,98.097116,P-GPS,,29.9
362100,2026-01-07 15:39:17,0.0,5,7.258,0.0,0.0,0.0,38.2,7.0,4.0,1024,1024,1024,1024,0,0,0,0,55,4.732,73.94,98.097116,P-GPS,,29.9
362200,2026-01-07 15:39:17,0.0,5,7.258,0.0,0.0,0.0,38.3,7.0,4.1,1024,1024,1024,1024,0,0,0,0,55,4.732,73.94,98.097116,P-GPS,,29.9
362300,2026-01-07 15:39:17,0.0,5,7.258,0.0,0.0,0.0,38.3,6.9,4.3,1024,1024,1024,1024,0,0,0,0,55,4.732,73.94,98.097116,P-GPS,,29.9
362400,2026-01-07 15:39:17,0.0,5,7.262,0.0,0.0,0.0,38.3,6.9,4.6,1024,1024,1024,1024,0,0,0,0,55,4.727,73.94,98.097116,P-GPS,,29.9
362500,2026-01-07 15:39:18,0.0,5,7.262,0.0,0.0,0.0,38.3,6.9,4.6,1024,1024,1024,1024,0,0,0,0,55,4.727,73.94,98.097116,P-GPS,,29.9
362600,2026-01-07 15:39:18,0.0,5,7.262,0.0,0.0,0.0,38.3,6.8,4.4,1024,1024,1024,1024,0,0,0,0,55,4.727,73.94,98.097116,P-GPS,,29.9
362700,2026-01-07 15:39:18,0.0,5,7.262,0.0,0.0,0.0,38.3,6.6,4.2,1024,1024,1024,1024,0,0,0,0,55,4.727,73.94,98.097116,P-GPS,,29.9
362800,2026-01-07 15:39:18,0.0,5,7.262,0.0,0.0,0.0,38.3,6.4,4.3,1024,1024,1024,1024,0,0,0,0,55,4.727,73.94,98.097116,P-GPS,,29.9
362900,2026-01-07 15:39:18,0.0,5,7.262,0.0,0.0,0.0,38.3,6.7,4.3,1024,1024,1024,1024,0,0,0,0,55,4.727,73.94,98.097116,P-GPS,,29.9
363000,2026-01-07 15:39:18,0.0,5,7.262,0.0,0.0,0.0,38.4,6.7,4.4,1024,1024,1024,1024,0,0,0,0,55,4.727,73.94,98.097116,P-GPS,,29.9
363100,2026-01-07 15:39:18,0.0,5,7.262,0.0,0.0,0.0,38.4,6.9,4.4,1024,1024,1024,1024,0,0,0,0,55,4.727,73.94,98.097116,P-GPS,,29.9
363200,2026-01-07 15:39:18,0.0,5,7.262,0.0,0.0,0.0,38.4,6.3,4.5,1024,1024,1024,1024,0,0,0,0,55,4.727,73.94,98.097116,P-GPS,,29.9
363300,2026-01-07 15:39:18,0.0,5,7.262,0.0,0.0,0.0,38.4,6.3,4.5,1024,1024,1024,1024,0,0,0,0,55,4.727,73.94,98.097116,P-GPS,,29.9
363400,2026-01-07 15:39:18,0.0,5,7.262,0.0,0.0,0.0,38.4,6.4,4.5,1024,1024,1024,1024,0,0,0,0,55,4.727,73.94,98.097116,P-GPS,,29.9
363500,2026-01-07 15:39:18,0.0,5,7.264,0.0,0.0,0.0,38.4,6.7,4.5,1024,1024,1024,1024,0,0,0,0,55,4.772,73.94,98.097116,P-GPS,,29.9
363600,2026-01-07 15:39:19,0.0,5,7.264,0.0,0.0,0.0,38.4,6.6,4.3,1024,1024,1024,1024,0,0,0,0,55,4.772,73.94,98.097116,P-GPS,,29.9
363700,2026-01-07 15:39:19,0.0,5,7.264,0.0,0.0,0.0,38.4,6.8,4.3,1024,1024,1024,1024,0,0,0,0,55,4.772,73.94,98.097116,P-GPS,,29.9
363800,2026-01-07 15:39:19,0.0,5,7.264,0.0,0.0,0.0,38.4,6.8,4.2,1024,1024,1024,1024,0,0,0,0,55,4.772,73.94,98.097116,P-GPS,,29.9
363900,2026-01-07 15:39:19,0.0,5,7.264,0.0,0.0,0.0,38.4,6.8,4.2,1024,1024,1024,1024,0,0,0,0,55,4.772,73.94,98.097116,P-GPS,,29.9
364000,2026-01-07 15:39:19,0.0,5,7.264,0.0,0.0,0.0,38.4,6.5,4.4,1024,1024,1024,1024,0,0,0,0,55,4.772,73.94,98.097116,P-GPS,,29.9
364100,2026-01-07 15:39:19,0.0,5,7.264,0.0,0.0,0.0,38.4,6.6,4.5,1024,1024,1024,1024,0,0,0,0,55,4.772,73.94,98.097116,P-GPS,,29.9
364200,2026-01-07 15:39:19,0.0,5,7.264,0.0,0.0,0.0,38.4,6.2,4.5,1024,1024,1024,1024,0,0,0,0,55,4.772,73.94,98.097116,P-GPS,,29.9
364300,2026-01-07 15:39:19,0.0,5,7.264,0.0,0.0,0.0,38.5,6.2,4.7,1024,1024,1024,1024,0,0,0,0,55,4.772,73.94,98.097116,P-GPS,,29.9
364400,2026-01-07 15:39:19,0.0,5,7.264,0.0,0.0,0.0,38.5,6.1,4.7,1024,1024,1024,1024,0,0,0,0,55,4.772,73.94,98.097116,P-GPS,,29.9
364500,2026-01-07 15:39:19,0.0,5,7.264,0.0,0.0,0.0,38.4,6.1,4.7,1024,1024,1024,1024,0,0,0,0,55,4.772,73.94,98.097116,P-GPS,,29.9
364600,2026-01-07 15:39:20,0.0,5,7.262,0.0,0.0,0.0,38.4,6.1,4.6,1024,1024,1024,1024,0,0,0,0,54,4.78,73.94,98.097116,P-GPS,,29.9
364700,2026-01-07 15:39:20,0.0,5,7.262,0.0,0.0,0.0,38.4,6.2,4.7,1024,1024,1024,1024,0,0,0,0,54,4.78,73.94,98.097116,P-GPS,,29.9
364800,2026-01-07 15:39:20,0.0,5,7.262,0.0,0.0,0.0,38.4,5.9,4.7,1024,1024,1024,1024,0,0,0,0,54,4.78,73.94,98.097116,P-GPS,,29.9
364900,2026-01-07 15:39:20,0.0,5,7.262,0.0,0.0,0.0,38.4,6.0,4.6,1024,1024,1024,1024,0,0,0,0,54,4.78,73.94,98.097116,P-GPS,,29.9
365000,2026-01-07 15:39:20,0.0,5,7.262,0.0,0.0,0.0,38.4,5.9,4.4,1024,1024,1024,1024,0,0,0,0,54,4.78,73.94,98.097116,P-GPS,,29.9
365100,2026-01-07 15:39:20,0.0,5,7.262,0.0,0.0,0.0,38.4,5.9,4.5,1024,1024,1024,1024,0,0,0,0,54,4.78,73.94,98.097116,P-GPS,,29.9
365200,2026-01-07 15:39:20,0.0,5,7.262,0.0,0.0,0.0,38.4,6.0,4.5,1024,1024,1024,1024,0,0,0,0,54,4.78,73.94,98.097116,P-GPS,,29.9
365300,2026-01-07 15:39:20,0.0,5,7.262,0.0,0.0,0.0,38.3,5.9,4.5,1024,1024,1024,1024,0,0,0,0,54,4.78,73.94,98.097116,P-GPS,,29.9
365400,2026-01-07 15:39:20,0.0,5,7.262,0.0,0.0,0.0,38.4,6.2,4.5,1024,1024,1024,1024,0,0,0,0,54,4.78,73.94,98.097116,P-GPS,,29.9
365500,2026-01-07 15:39:20,0.0,5,7.262,0.0,0.0,0.0,38.4,6.3,4.6,1024,1024,1024,1024,0,0,0,0,54,4.78,73.94,98.097116,P-GPS,,29.9
365600,2026-01-07 15:39:21,0.0,5,7.262,0.0,0.0,0.0,38.4,6.5,4.7,1024,1024,1024,1024,0,0,0,0,54,4.78,73.94,98.097116,P-GPS,,29.9
365700,2026-01-07 15:39:21,0.0,5,7.265,0.0,0.0,0.0,38.4,6.5,4.6,1024,1024,1024,1024,0,0,0,0,54,4.749,74.12,98.097116,P-GPS,,29.9
365800,2026-01-07 15:39:21,0.0,5,7.265,0.0,0.0,0.0,38.4,6.5,4.5,1024,1024,1024,1024,0,0,0,0,54,4.749,74.12,98.097116,P-GPS,,29.9
365900,2026-01-07 15:39:21,0.0,5,7.265,0.0,0.0,0.0,38.4,6.4,4.5,1024,1024,1024,1024,0,0,0,0,54,4.749,74.12,98.097116,P-GPS,,29.9
366000,2026-01-07 15:39:21,0.0,5,7.265,0.0,0.0,0.0,38.4,6.3,4.6,1024,1024,1024,1024,0,0,0,0,54,4.749,74.12,98.097116,P-GPS,,29.9
366100,2026-01-07 15:39:21,0.0,5,7.265,0.0,0.0,0.0,38.4,6.2,4.6,1024,1024,1024,1024,0,0,0,0,54,4.749,74.12,98.097116,P-GPS,,29.9
366200,2026-01-07 15:39:21,0.0,5,7.265,0.0,0.0,0.0,38.4,6.3,4.8,1024,1024,1024,1024,0,0,0,0,54,4.749,74.12,98.097116,P-GPS,,29.9
366300,2026-01-07 15:39:21,0.0,5,7.265,0.0,0.0,0.0,38.4,6.2,4.9,1024,1024,1024,1024,0,0,0,0,54,4.749,74.12,98.4252,P-GPS,,30.0
366400,2026-01-07 15:39:21,0.0,5,7.265,0.0,0.0,0.0,38.4,6.3,4.9,1024,1024,1024,1024,0,0,0,0,54,4.749,74.12,98.097116,P-GPS,,29.9
366500,2026-01-07 15:39:22,0.0,5,7.265,0.0,0.0,0.0,38.4,6.3,4.8,1024,1024,1024,1024,0,0,0,0,54,4.749,74.12,98.4252,P-GPS,,30.0
366600,2026-01-07 15:39:22,0.0,5,7.265,0.0,0.0,0.0,38.4,6.2,4.8,1024,1024,1024,1024,0,0,0,0,54,4.749,74.12,98.4252,P-GPS,,30.0
366700,2026-01-07 15:39:22,0.0,5,7.265,0.0,0.0,0.0,38.4,6.3,4.7,1024,1024,1024,1024,0,0,0,0,54,4.749,74.12,98.4252,P-GPS,,30.0
366800,2026-01-07 15:39:22,0.0,5,7.268,0.0,0.0,0.0,38.4,6.2,4.7,1024,1024,1024,1024,0,0,0,0,54,4.65,74.12,98.4252,P-GPS,,30.0
366900,2026-01-07 15:39:22,0.0,5,7.268,0.0,0.0,0.0,38.5,6.4,4.6,1024,1024,1024,1024,0,0,0,0,54,4.65,74.12,98.4252,P-GPS,,30.0
367000,2026-01-07 15:39:22,0.0,5,7.268,0.0,0.0,0.0,38.5,6.4,4.6,1024,1024,1024,1024,0,0,0,0,54,4.65,74.12,98.4252,P-GPS,,30.0
367100,2026-01-07 15:39:22,0.0,5,7.268,0.0,0.0,0.0,38.4,6.4,4.4,1024,1024,1024,1024,0,0,0,0,54,4.65,74.12,98.4252,P-GPS,,30.0
367200,2026-01-07 15:39:22,0.0,5,7.268,0.0,0.0,0.0,38.4,6.3,4.2,1024,1024,1024,1024,0,0,0,0,54,4.65,74.12,98.4252,P-GPS,,30.0
367300,2026-01-07 15:39:22,0.0,5,7.268,0.0,0.0,0.0,38.4,6.0,4.2,1024,1024,1024,1024,0,0,0,0,54,4.65,74.12,98.4252,P-GPS,,30.0
367400,2026-01-07 15:39:22,0.0,5,7.268,0.0,0.0,0.0,38.4,6.0,4.4,1024,1024,1024,1024,0,0,0,0,54,4.65,74.12,98.4252,P-GPS,,30.0
367500,2026-01-07 15:39:22,0.0,5,7.268,0.0,0.0,0.0,38.4,5.9,4.5,1024,1024,1024,1024,0,0,0,0,54,4.65,74.12,98.4252,P-GPS,,30.0
367600,2026-01-07 15:39:23,0.0,5,7.268,0.0,0.0,0.0,38.4,5.9,4.5,1024,1024,1024,1024,0,0,0,0,54,4.65,74.12,98.4252,P-GPS,,30.0
367700,2026-01-07 15:39:23,0.0,5,7.268,0.0,0.0,0.0,38.4,5.9,4.7,1024,1024,1024,1024,0,0,0,0,54,4.65,74.12,98.4252,P-GPS,,30.0
367800,2026-01-07 15:39:23,0.0,5,7.268,0.0,0.0,0.0,38.4,5.9,4.8,1024,1024,1024,1024,0,0,0,0,54,4.65,74.12,98.4252,P-GPS,,30.0
367900,2026-01-07 15:39:23,0.0,5,7.268,0.0,0.0,0.0,38.3,6.0,4.9,1024,1024,1024,1024,0,0,0,0,54,4.65,74.12,98.4252,P-GPS,,30.0
368000,2026-01-07 15:39:23,0.0,5,7.268,0.0,0.0,0.0,38.3,6.2,4.9,1024,1024,1024,1024,0,0,0,0,54,4.65,74.12,98.4252,P-GPS,,30.0
368100,2026-01-07 15:39:23,0.0,5,7.268,0.0,0.0,0.0,38.3,6.3,4.9,1024,1024,1024,1024,0,0,0,0,54,4.65,74.12,98.4252,P-GPS,,30.0
368200,2026-01-07 15:39:23,0.0,5,7.268,0.0,0.0,0.0,38.2,5.8,4.9,1024,1024,1024,1024,0,0,0,0,54,4.65,74.12,98.4252,P-GPS,,30.0
368300,2026-01-07 15:39:23,0.0,5,7.268,0.0,0.0,0.0,38.2,5.9,5.0,1024,1024,1024,1024,0,0,0,0,54,4.65,74.12,98.4252,P-GPS,,30.0
368400,2026-01-07 15:39:23,0.0,5,7.268,0.0,0.0,0.0,38.2,5.7,5.0,1024,1024,1024,1024,0,0,0,0,54,4.65,74.12,98.097116,P-GPS,,29.9
368500,2026-01-07 15:39:23,0.0,5,7.268,0.0,0.0,0.0,38.3,5.9,5.0,1024,1024,1024,1024,0,0,0,0,54,4.65,74.12,98.097116,P-GPS,,29.9
368600,2026-01-07 15:39:24,0.0,5,7.268,0.0,0.0,0.0,38.3,5.9,5.0,1024,1024,1024,1024,0,0,0,0,54,4.65,74.12,98.097116,P-GPS,,29.9
368700,2026-01-07 15:39:24,0.0,5,7.268,0.0,0.0,0.0,38.3,6.0,4.9,1024,1024,1024,1024,0,0,0,0,54,4.65,74.12,98.097116,P-GPS,,29.9
368800,2026-01-07 15:39:24,0.0,5,7.268,0.0,0.0,0.0,38.3,6.4,5.1,1024,1024,1024,1024,0,0,0,0,54,4.65,74.12,98.097116,P-GPS,,29.9
368900,2026-01-07 15:39:24,0.0,5,7.268,0.0,0.0,0.0,38.2,6.4,5.1,1024,1024,1024,1024,0,0,0,0,54,4.65,74.12,98.097116,P-GPS,,29.9
369000,2026-01-07 15:39:24,0.0,5,7.252,0.0,0.0,0.0,38.2,6.2,5.2,1024,1024,1024,1024,0,0,0,0,54,4.968,74.12,98.097116,P-GPS,,29.9
369100,2026-01-07 15:39:24,0.0,5,7.252,0.0,0.0,0.0,38.2,5.5,5.4,1024,1024,1024,1024,0,0,0,0,54,4.968,74.12,98.097116,P-GPS,,29.9
369200,2026-01-07 15:39:24,0.0,5,7.252,0.0,0.0,0.0,38.1,5.5,5.4,1024,1024,1024,1024,0,0,0,0,54,4.968,74.12,98.097116,P-GPS,,29.9
369300,2026-01-07 15:39:24,0.0,5,7.252,0.0,0.0,0.0,38.2,5.8,5.2,1024,1024,1024,1024,0,0,0,0,54,4.968,74.12,98.097116,P-GPS,,29.9
369400,2026-01-07 15:39:24,0.0,5,7.252,0.0,0.0,0.0,38.1,5.5,5.1,1024,1024,1024,1024,0,0,0,0,54,4.968,74.12,98.097116,P-GPS,,29.9
369500,2026-01-07 15:39:24,0.0,5,7.252,0.0,0.0,0.0,38.2,5.6,5.3,1024,1024,1024,1024,0,0,0,0,54,4.968,74.12,98.097116,P-GPS,,29.9
369600,2026-01-07 15:39:25,0.0,5,7.252,0.0,0.0,0.0,38.2,5.8,5.3,1024,1024,1024,1024,0,0,0,0,54,4.968,74.12,98.097116,P-GPS,,29.9
369700,2026-01-07 15:39:25,0.0,5,7.252,0.0,0.0,0.0,38.3,6.0,5.1,1024,1024,1024,1024,0,0,0,0,54,4.968,74.12,98.097116,P-GPS,,29.9
369800,2026-01-07 15:39:25,0.0,5,7.252,0.0,0.0,0.0,38.3,6.1,5.2,1024,1024,1024,1024,0,0,0,0,54,4.968,74.12,98.097116,P-GPS,,29.9
369900,2026-01-07 15:39:25,0.0,5,7.252,0.0,0.0,0.0,38.4,6.3,4.8,1024,1024,1024,1024,0,0,0,0,54,4.968,74.12,98.097116,P-GPS,,29.9
370000,2026-01-07 15:39:25,0.0,5,7.252,0.0,0.0,0.0,38.4,6.7,4.8,1024,1024,1024,1024,0,0,0,0,54,4.968,74.12,98.097116,P-GPS,,29.9
370100,2026-01-07 15:39:25,0.0,5,7.258,0.0,0.0,0.0,38.4,6.9,4.9,1024,1024,1024,1024,0,0,0,0,54,4.947,74.12,98.097116,P-GPS,,29.9
370200,2026-01-07 15:39:25,0.0,5,7.258,0.0,0.0,0.0,38.3,6.9,4.7,1024,1024,1024,1024,0,0,0,0,54,4.947,74.12,98.097116,P-GPS,,29.9
370300,2026-01-07 15:39:25,0.0,5,7.258,0.0,0.0,0.0,38.4,6.5,4.7,1024,1024,1024,1024,0,0,0,0,54,4.947,74.12,98.097116,P-GPS,,29.9
370400,2026-01-07 15:39:25,0.0,5,7.258,0.0,0.0,0.0,38.4,6.4,4.7,1024,1024,1024,1024,0,0,0,0,54,4.947,74.12,98.097116,P-GPS,,29.9
370500,2026-01-07 15:39:25,0.0,5,7.258,0.0,0.0,0.0,38.4,6.1,4.7,1024,1024,1024,1024,0,0,0,0,54,4.947,74.12,98.097116,P-GPS,,29.9
370600,2026-01-07 15:39:26,0.0,5,7.258,0.0,0.0,0.0,38.4,6.2,4.7,1024,1024,1024,1024,0,0,0,0,54,4.947,74.12,98.097116,P-GPS,,29.9
370700,2026-01-07 15:39:26,0.0,5,7.258,0.0,0.0,0.0,38.4,6.3,4.7,1024,1024,1024,1024,0,0,0,0,54,4.947,74.12,98.097116,P-GPS,,29.9
370800,2026-01-07 15:39:26,0.0,5,7.258,0.0,0.0,0.0,38.4,6.3,4.7,1024,1024,1024,1024,0,0,0,0,54,4.947,74.12,98.097116,P-GPS,,29.9
370900,2026-01-07 15:39:26,0.0,5,7.258,0.0,0.0,0.0,38.4,6.5,4.5,1024,1024,1024,1024,0,0,0,0,54,4.947,74.12,98.097116,P-GPS,,29.9
371000,2026-01-07 15:39:26,0.0,5,7.258,0.0,0.0,0.0,38.4,6.8,4.5,1024,1024,1024,1024,0,0,0,0,54,4.947,74.12,98.097116,P-GPS,,29.9
371100,2026-01-07 15:39:26,0.0,5,7.258,0.0,0.0,0.0,38.4,6.7,4.5,1024,1024,1024,1024,0,0,0,0,54,4.947,74.12,98.097116,P-GPS,,29.9
371200,2026-01-07 15:39:26,0.0,5,7.256,0.0,0.0,0.0,38.3,6.5,4.5,1024,1024,1024,1024,0,0,0,0,54,4.792,74.12,98.097116,P-GPS,,29.9
371300,2026-01-07 15:39:26,0.0,5,7.256,0.0,0.0,0.0,38.3,6.5,4.4,1024,1024,1024,1024,0,0,0,0,54,4.792,74.12,98.097116,P-GPS,,29.9
371400,2026-01-07 15:39:26,0.0,5,7.256,0.0,0.0,0.0,38.3,6.5,4.3,1024,1024,1024,1024,0,0,0,0,54,4.792,74.12,98.097116,P-GPS,,29.9
371500,2026-01-07 15:39:27,0.0,5,7.256,0.0,0.0,0.0,38.3,6.4,4.3,1024,1024,1024,1024,0,0,0,0,54,4.792,74.12,98.097116,P-GPS,,29.9
371600,2026-01-07 15:39:27,0.0,5,7.256,0.0,0.0,0.0,38.3,6.3,4.4,1024,1024,1024,1024,0,0,0,0,54,4.792,74.12,98.097116,P-GPS,,29.9
371700,2026-01-07 15:39:27,0.0,5,7.256,0.0,0.0,0.0,38.3,6.4,4.4,1024,1024,1024,1024,0,0,0,0,54,4.792,74.12,98.097116,P-GPS,,29.9
371800,2026-01-07 15:39:27,0.0,5,7.256,0.0,0.0,0.0,38.2,6.0,4.5,1024,1024,1024,1024,0,0,0,0,54,4.792,74.12,98.097116,P-GPS,,29.9
371900,2026-01-07 15:39:27,0.0,5,7.256,0.0,0.0,0.0,38.2,6.0,4.5,1024,1024,1024,1024,0,0,0,0,54,4.792,74.12,98.4252,P-GPS,,30.0
372000,2026-01-07 15:39:27,0.0,5,7.256,0.0,0.0,0.0,38.2,6.1,4.5,1024,1024,1024,1024,0,0,0,0,54,4.792,74.12,98.4252,P-GPS,,30.0
372100,2026-01-07 15:39:27,0.0,5,7.256,0.0,0.0,0.0,38.3,6.2,4.6,1024,1024,1024,1024,0,0,0,0,54,4.792,74.12,98.4252,P-GPS,,30.0
372200,2026-01-07 15:39:27,0.0,5,7.256,0.0,0.0,0.0,38.3,6.4,4.6,1024,1024,1024,1024,0,0,0,0,54,4.792,74.12,98.4252,P-GPS,,30.0
372300,2026-01-07 15:39:27,0.0,5,7.25,0.0,0.0,0.0,38.3,6.4,4.7,1024,1024,1024,1024,0,0,0,0,54,4.905,74.12,98.4252,P-GPS,,30.0
372400,2026-01-07 15:39:27,0.0,5,7.25,0.0,0.0,0.0,38.3,6.5,4.7,1024,1024,1024,1024,0,0,0,0,54,4.905,74.12,98.4252,P-GPS,,30.0
372500,2026-01-07 15:39:27,0.0,5,7.25,0.0,0.0,0.0,38.3,6.5,4.8,1024,1024,1024,1024,0,0,0,0,54,4.905,74.12,98.4252,P-GPS,,30.0
372600,2026-01-07 15:39:28,0.0,5,7.25,0.0,0.0,0.0,38.4,6.6,4.9,1024,1024,1024,1024,0,0,0,0,54,4.905,74.12,98.4252,P-GPS,,30.0
372700,2026-01-07 15:39:28,0.0,5,7.25,0.0,0.0,0.0,38.4,6.7,4.6,1024,1024,1024,1024,0,0,0,0,54,4.905,74.12,98.4252,P-GPS,,30.0
372800,2026-01-07 15:39:28,0.0,5,7.25,0.0,0.0,0.0,38.3,6.7,4.7,1024,1024,1024,1024,0,0,0,0,54,4.905,74.12,98.4252,P-GPS,,30.0
372900,2026-01-07 15:39:28,0.0,5,7.25,0.0,0.0,0.0,38.3,6.9,4.8,1024,1024,1024,1024,0,0,0,0,54,4.905,74.12,98.4252,P-GPS,,30.0
373000,2026-01-07 15:39:28,0.0,5,7.25,0.0,0.0,0.0,38.4,6.9,4.9,1024,1024,1024,1024,0,0,0,0,54,4.905,74.12,98.4252,P-GPS,,30.0
373100,2026-01-07 15:39:28,0.0,5,7.25,0.0,0.0,0.0,38.4,6.7,4.9,1024,1024,1024,1024,0,0,0,0,54,4.905,74.12,98.4252,P-GPS,,30.0
373200,2026-01-07 15:39:28,0.0,5,7.25,0.0,0.0,0.0,38.4,6.4,5.0,1024,1024,1024,1024,0,0,0,0,54,4.905,74.12,98.4252,P-GPS,,30.0
373300,2026-01-07 15:39:28,0.0,5,7.25,0.0,0.0,0.0,38.4,6.5,5.0,1024,1024,1024,1024,0,0,0,0,54,4.905,74.12,98.4252,P-GPS,,30.0
373400,2026-01-07 15:39:28,0.0,5,7.25,0.0,0.0,0.0,38.4,6.4,5.0,1024,1024,1024,1024,0,0,0,0,54,4.804,74.12,98.4252,P-GPS,,30.0
373500,2026-01-07 15:39:29,0.0,5,7.25,0.0,0.0,0.0,38.4,6.5,4.9,1024,1024,1024,1024,0,0,0,0,54,4.804,74.12,98.753284,P-GPS,,30.1
373600,2026-01-07 15:39:29,0.0,5,7.25,0.0,0.0,0.0,38.4,6.5,5.0,1024,1024,1024,1024,0,0,0,0,54,4.804,74.12,98.753284,P-GPS,,30.1
373700,2026-01-07 15:39:29,0.0,5,7.25,0.0,0.0,0.0,38.4,6.7,5.0,1024,1024,1024,1024,0,0,0,0,54,4.804,74.12,98.753284,P-GPS,,30.1
373800,2026-01-07 15:39:29,0.0,5,7.25,0.0,0.0,0.0,38.4,6.7,5.0,1024,1024,1024,1024,0,0,0,0,54,4.804,74.12,98.753284,P-GPS,,30.1
373900,2026-01-07 15:39:29,0.0,5,7.25,0.0,0.0,0.0,38.4,6.7,4.9,1024,1024,1024,1024,0,0,0,0,54,4.804,74.12,98.753284,P-GPS,,30.1
374000,2026-01-07 15:39:29,0.0,5,7.25,0.0,0.0,0.0,38.4,6.5,5.0,1024,1024,1024,1024,0,0,0,0,54,4.804,74.12,98.753284,P-GPS,,30.1
374100,2026-01-07 15:39:29,0.0,5,7.25,0.0,0.0,0.0,38.4,6.6,4.9,1024,1024,1024,1024,0,0,0,0,54,4.804,74.12,98.753284,P-GPS,,30.1
374200,2026-01-07 15:39:29,0.0,5,7.25,0.0,0.0,0.0,38.4,6.6,4.8,1024,1024,1024,1024,0,0,0,0,54,4.804,74.12,98.753284,P-GPS,,30.1
374300,2026-01-07 15:39:29,0.0,5,7.25,0.0,0.0,0.0,38.4,6.5,4.9,1024,1024,1024,1024,0,0,0,0,54,4.804,74.12,98.753284,P-GPS,,30.1
374400,2026-01-07 15:39:29,0.0,5,7.25,0.0,0.0,0.0,38.4,6.5,4.9,1024,1024,1024,1024,0,0,0,0,54,4.804,74.12,98.753284,P-GPS,,30.1
374500,2026-01-07 15:39:29,0.0,5,7.256,0.0,0.0,0.0,38.4,6.6,4.9,1024,1024,1024,1024,0,0,0,0,54,4.746,74.3,98.753284,P-GPS,,30.1
374600,2026-01-07 15:39:30,0.0,5,7.256,0.0,0.0,0.0,38.4,6.5,4.9,1024,1024,1024,1024,0,0,0,0,54,4.746,74.3,98.753284,P-GPS,,30.1
374700,2026-01-07 15:39:30,0.0,5,7.256,0.0,0.0,0.0,38.4,6.5,4.9,1024,1024,1024,1024,0,0,0,0,54,4.746,74.3,98.753284,P-GPS,,30.1
374800,2026-01-07 15:39:30,0.0,5,7.256,0.0,0.0,0.0,38.4,6.7,5.0,1024,1024,1024,1024,0,0,0,0,54,4.746,74.3,98.753284,P-GPS,,30.1
374900,2026-01-07 15:39:30,0.0,5,7.256,0.0,0.0,0.0,38.5,6.9,5.0,1024,1024,1024,1024,0,0,0,0,54,4.746,74.3,98.753284,P-GPS,,30.1
375000,2026-01-07 15:39:30,0.0,5,7.256,0.0,0.0,0.0,38.4,6.9,5.0,1024,1024,1024,1024,0,0,0,0,54,4.746,74.3,98.753284,P-GPS,,30.1
375100,2026-01-07 15:39:30,0.0,5,7.256,0.0,0.0,0.0,38.4,6.8,5.0,1024,1024,1024,1024,0,0,0,0,54,4.746,74.3,98.753284,P-GPS,,30.1
375200,2026-01-07 15:39:30,0.0,5,7.256,0.0,0.0,0.0,38.4,6.9,5.0,1024,1024,1024,1024,0,0,0,0,54,4.746,74.3,98.753284,P-GPS,,30.1
375300,2026-01-07 15:39:30,0.0,5,7.256,0.0,0.0,0.0,38.4,7.0,4.9,1024,1024,1024,1024,0,0,0,0,54,4.746,74.3,98.753284,P-GPS,,30.1
375400,2026-01-07 15:39:30,0.0,5,7.256,0.0,0.0,0.0,38.4,7.0,4.9,1024,1024,1024,1024,0,0,0,0,54,4.746,74.3,98.753284,P-GPS,,30.1
375500,2026-01-07 15:39:30,0.0,5,7.256,0.0,0.0,0.0,38.4,6.9,4.9,1024,1024,1024,1024,0,0,0,0,54,4.746,74.3,98.753284,P-GPS,,30.1
375600,2026-01-07 15:39:31,0.0,5,7.252,0.0,0.0,0.0,38.3,6.6,5.1,1024,1024,1024,1024,0,0,0,0,54,4.759,74.3,98.753284,P-GPS,,30.1
375700,2026-01-07 15:39:31,0.0,5,7.252,0.0,0.0,0.0,38.3,6.5,5.1,1024,1024,1024,1024,0,0,0,0,54,4.759,74.3,98.753284,P-GPS,,30.1
375800,2026-01-07 15:39:31,0.0,5,7.252,0.0,0.0,0.0,38.3,6.6,5.1,1024,1024,1024,1024,0,0,0,0,54,4.759,74.3,98.753284,P-GPS,,30.1
375900,2026-01-07 15:39:31,0.0,5,7.252,0.0,0.0,0.0,38.4,6.7,5.1,1024,1024,1024,1024,0,0,0,0,54,4.759,74.3,98.753284,P-GPS,,30.1
376000,2026-01-07 15:39:31,0.0,5,7.252,0.0,0.0,0.0,38.4,6.5,5.2,1024,1024,1024,1024,0,0,0,0,54,4.759,74.3,98.4252,P-GPS,,30.0
376100,2026-01-07 15:39:31,0.0,5,7.252,0.0,0.0,0.0,38.3,6.6,5.2,1024,1024,1024,1024,0,0,0,0,54,4.759,74.3,98.4252,P-GPS,,30.0
376200,2026-01-07 15:39:31,0.0,5,7.252,0.0,0.0,0.0,38.3,6.6,5.2,1024,1024,1024,1024,0,0,0,0,54,4.759,74.3,98.4252,P-GPS,,30.0
376300,2026-01-07 15:39:31,0.0,5,7.252,0.0,0.0,0.0,38.3,6.7,5.2,1024,1024,1024,1024,0,0,0,0,54,4.759,74.3,98.4252,P-GPS,,30.0
376400,2026-01-07 15:39:31,0.0,5,7.252,0.0,0.0,0.0,38.4,6.8,5.0,1024,1024,1024,1024,0,0,0,0,54,4.759,74.3,98.4252,P-GPS,,30.0
376500,2026-01-07 15:39:31,0.0,5,7.252,0.0,0.0,0.0,38.4,6.7,4.9,1024,1024,1024,1024,0,0,0,0,54,4.759,74.3,98.4252,P-GPS,,30.0
376600,2026-01-07 15:39:32,0.0,5,7.252,0.0,0.0,0.0,38.4,6.6,4.9,1024,1024,1024,1024,0,0,0,0,54,4.759,74.3,98.4252,P-GPS,,30.0
376700,2026-01-07 15:39:32,0.0,5,7.252,0.0,0.0,0.0,38.4,6.6,4.9,1024,1024,1024,1024,0,0,0,0,54,4.874,74.3,98.4252,P-GPS,,30.0
376800,2026-01-07 15:39:32,0.0,5,7.252,0.0,0.0,0.0,38.3,6.6,4.8,1024,1024,1024,1024,0,0,0,0,54,4.874,74.3,98.4252,P-GPS,,30.0
376900,2026-01-07 15:39:32,0.0,5,7.252,0.0,0.0,0.0,38.4,6.7,4.8,1024,1024,1024,1024,0,0,0,0,54,4.874,74.3,98.4252,P-GPS,,30.0
377000,2026-01-07 15:39:32,0.0,5,7.252,0.0,0.0,0.0,38.4,6.8,4.8,1024,1024,1024,1024,0,0,0,0,54,4.874,74.3,98.4252,P-GPS,,30.0
377100,2026-01-07 15:39:32,0.0,5,7.252,0.0,0.0,0.0,38.4,7.0,4.8,1024,1024,1024,1024,0,0,0,0,54,4.874,74.3,98.4252,P-GPS,,30.0
377200,2026-01-07 15:39:32,0.0,5,7.252,0.0,0.0,0.0,38.4,7.0,4.8,1024,1024,1024,1024,0,0,0,0,54,4.874,74.3,98.4252,P-GPS,,30.0
377300,2026-01-07 15:39:32,0.0,5,7.252,0.0,0.0,0.0,38.4,7.2,4.9,1024,1024,1024,1024,0,0,0,0,54,4.874,74.3,98.4252,P-GPS,,30.0
377400,2026-01-07 15:39:32,0.0,5,7.252,0.0,0.0,0.0,38.3,7.0,4.9,1024,1024,1024,1024,0,0,0,0,54,4.874,74.3,98.4252,P-GPS,,30.0
377500,2026-01-07 15:39:32,0.0,5,7.252,0.0,0.0,0.0,38.3,6.9,5.0,1024,1024,1024,1024,0,0,0,0,54,4.874,74.3,98.4252,P-GPS,,30.0
377600,2026-01-07 15:39:33,0.0,5,7.252,0.0,0.0,0.0,38.3,6.7,5.0,1024,1024,1024,1024,0,0,0,0,54,4.874,74.3,98.4252,P-GPS,,30.0
377700,2026-01-07 15:39:33,0.0,5,7.252,0.0,0.0,0.0,38.2,6.4,4.8,1024,1024,1024,1024,0,0,0,0,54,4.874,74.3,98.4252,P-GPS,,30.0
377800,2026-01-07 15:39:33,0.0,5,7.252,0.0,0.0,0.0,38.3,6.5,4.8,1024,1024,1024,1024,0,0,0,0,54,4.874,74.3,98.4252,P-GPS,,30.0
377900,2026-01-07 15:39:33,0.0,5,7.252,0.0,0.0,0.0,38.3,6.5,4.8,1024,1024,1024,1024,0,0,0,0,54,4.874,74.3,98.4252,P-GPS,,30.0
378000,2026-01-07 15:39:33,0.0,5,7.252,0.0,0.0,0.0,38.3,6.5,4.8,1024,1024,1024,1024,0,0,0,0,54,4.874,74.3,98.4252,P-GPS,,30.0
378100,2026-01-07 15:39:33,0.0,5,7.252,0.0,0.0,0.0,38.3,6.6,4.9,1024,1024,1024,1024,0,0,0,0,54,4.874,74.3,98.4252,P-GPS,,30.0
378200,2026-01-07 15:39:33,0.0,5,7.252,0.0,0.0,0.0,38.3,6.8,4.9,1024,1024,1024,1024,0,0,0,0,54,4.874,74.3,98.4252,P-GPS,,30.0
378300,2026-01-07 15:39:33,0.0,5,7.252,0.0,0.0,0.0,38.3,6.7,4.9,1024,1024,1024,1024,0,0,0,0,54,4.874,74.3,98.4252,P-GPS,,30.0
378400,2026-01-07 15:39:33,0.0,5,7.252,0.0,0.0,0.0,38.3,6.5,4.8,1024,1024,1024,1024,0,0,0,0,54,4.874,74.3,98.4252,P-GPS,,30.0
378500,2026-01-07 15:39:34,0.0,5,7.252,0.0,0.0,0.0,38.3,6.6,4.9,1024,1024,1024,1024,0,0,0,0,54,4.874,74.3,98.4252,P-GPS,,30.0
378600,2026-01-07 15:39:34,0.0,5,7.252,0.0,0.0,0.0,38.3,6.5,5.0,1024,1024,1024,1024,0,0,0,0,54,4.874,74.3,98.4252,P-GPS,,30.0
378700,2026-01-07 15:39:34,0.0,5,7.252,0.0,0.0,0.0,38.4,6.5,5.0,1024,1024,1024,1024,0,0,0,0,54,4.874,74.3,98.4252,P-GPS,,30.0
378800,2026-01-07 15:39:34,0.0,5,7.252,0.0,0.0,0.0,38.4,6.5,5.0,1024,1024,1024,1024,0,0,0,0,54,4.874,74.3,98.4252,P-GPS,,30.0
378900,2026-01-07 15:39:34,0.0,5,7.245,0.0,0.0,0.0,38.4,6.5,5.1,1024,1024,1024,1024,0,0,0,0,54,4.886,74.3,98.4252,P-GPS,,30.0
379000,2026-01-07 15:39:34,0.0,5,7.245,0.0,0.0,0.0,38.3,6.5,5.1,1024,1024,1024,1024,0,0,0,0,54,4.886,74.3,98.4252,P-GPS,,30.0
379100,2026-01-07 15:39:34,0.0,5,7.245,0.0,0.0,0.0,38.4,6.6,5.0,1024,1024,1024,1024,0,0,0,0,54,4.886,74.3,98.4252,P-GPS,,30.0
379200,2026-01-07 15:39:34,0.0,5,7.245,0.0,0.0,0.0,38.3,6.5,5.1,1024,1024,1024,1024,0,0,0,0,54,4.886,74.3,98.4252,P-GPS,,30.0
379300,2026-01-07 15:39:34,0.0,5,7.245,0.0,0.0,0.0,38.3,6.6,5.0,1024,1024,1024,1024,0,0,0,0,54,4.886,74.3,98.4252,P-GPS,,30.0
379400,2026-01-07 15:39:34,0.0,5,7.245,0.0,0.0,0.0,38.3,6.6,4.9,1024,1024,1024,1024,0,0,0,0,54,4.886,74.3,98.4252,P-GPS,,30.0
379500,2026-01-07 15:39:34,0.0,5,7.245,0.0,0.0,0.0,38.3,6.6,4.9,1024,1024,1024,1024,0,0,0,0,54,4.886,74.3,98.4252,P-GPS,,30.0
379600,2026-01-07 15:39:35,0.0,5,7.245,0.0,0.0,0.0,38.4,6.6,4.9,1024,1024,1024,1024,0,0,0,0,54,4.886,74.3,98.4252,P-GPS,,30.0
379700,2026-01-07 15:39:35,0.0,5,7.245,0.0,0.0,0.0,38.4,6.6,5.0,1024,1024,1024,1024,0,0,0,0,54,4.886,74.3,98.4252,P-GPS,,30.0
379800,2026-01-07 15:39:35,0.0,5,7.245,0.0,0.0,0.0,38.4,6.6,5.0,1024,1024,1024,1024,0,0,0,0,54,4.886,74.3,98.4252,P-GPS,,30.0
379900,2026-01-07 15:39:35,0.0,5,7.245,0.0,0.0,0.0,38.4,6.7,5.0,1024,1024,1024,1024,0,0,0,0,54,4.886,74.3,98.4252,P-GPS,,30.0
380000,2026-01-07 15:39:35,0.0,5,7.246,0.0,0.0,0.0,38.4,6.7,4.8,1024,1024,1024,1024,0,0,0,0,54,4.838,74.3,98.4252,P-GPS,,30.0
380100,2026-01-07 15:39:35,0.0,5,7.246,0.0,0.0,0.0,38.4,6.7,4.8,1024,1024,1024,1024,0,0,0,0,54,4.838,74.3,98.4252,P-GPS,,30.0
380200,2026-01-07 15:39:35,0.0,5,7.246,0.0,0.0,0.0,38.4,6.7,4.8,1024,1024,1024,1024,0,0,0,0,54,4.838,74.3,98.4252,P-GPS,,30.0
380300,2026-01-07 15:39:35,0.0,5,7.246,0.0,0.0,0.0,38.5,6.7,4.7,1024,1024,1024,1024,0,0,0,0,54,4.838,74.3,98.4252,P-GPS,,30.0
380400,2026-01-07 15:39:35,0.0,5,7.246,0.0,0.0,0.0,38.5,6.7,4.7,1024,1024,1024,1024,0,0,0,0,54,4.838,74.3,98.4252,P-GPS,,30.0
380500,2026-01-07 15:39:35,0.0,5,7.246,0.0,0.0,0.0,38.5,6.7,4.8,1024,1024,1024,1024,0,0,0,0,54,4.838,74.3,98.4252,P-GPS,,30.0
380600,2026-01-07 15:39:36,0.0,5,7.246,0.0,0.0,0.0,38.5,6.7,4.9,1024,1024,1024,1024,0,0,0,0,54,4.838,74.3,98.4252,P-GPS,,30.0
380700,2026-01-07 15:39:36,0.0,5,7.246,0.0,0.0,0.0,38.4,6.7,5.0,1024,1024,1024,1024,0,0,0,0,54,4.838,74.3,98.4252,P-GPS,,30.0
380800,2026-01-07 15:39:36,0.0,5,7.246,0.0,0.0,0.0,38.4,6.9,4.9,1024,1024,1024,1024,0,0,0,0,54,4.838,74.3,98.4252,P-GPS,,30.0
380900,2026-01-07 15:39:36,0.0,5,7.246,0.0,0.0,0.0,38.4,6.8,4.9,1024,1024,1024,1024,0,0,0,0,54,4.838,74.3,98.4252,P-GPS,,30.0
381000,2026-01-07 15:39:36,0.0,5,7.246,0.0,0.0,0.0,38.4,6.7,4.8,1024,1024,1024,1024,0,0,0,0,54,4.838,74.3,98.4252,P-GPS,,30.0
381100,2026-01-07 15:39:36,0.0,5,7.247,0.0,0.0,0.0,38.4,6.5,4.8,1024,1024,1249,1024,0,0,34,0,53,4.745,74.3,98.4252,P-GPS,,30.0
381200,2026-01-07 15:39:36,0.0,5,7.247,0.0,0.0,0.0,38.4,6.5,4.7,1024,1024,1684,1024,0,0,100,0,53,4.745,74.3,98.4252,P-GPS,,30.0
381300,2026-01-07 15:39:36,0.0,5,7.247,0.0,0.0,0.0,38.4,6.5,4.7,1024,1024,1684,1024,0,0,100,0,53,4.745,74.3,98.4252,P-GPS,,30.0
381400,2026-01-07 15:39:36,0.0,5,7.247,0.0,0.0,-0.223694,38.4,5.8,4.2,1024,1024,1684,1024,0,0,100,0,53,4.745,74.3,98.4252,P-GPS,,30.0
381500,2026-01-07 15:39:36,0.0,5,7.247,0.0,0.0,-0.671082,38.4,5.9,4.2,1024,1024,1684,1024,0,0,100,0,53,4.745,74.3,98.753284,P-GPS,,30.1
381600,2026-01-07 15:39:37,0.0,5,7.247,0.0,0.0,-1.342164,38.4,6.6,4.5,1024,1024,1684,1024,0,0,100,0,53,4.745,74.3,98.753284,P-GPS,,30.1
381700,2026-01-07 15:39:37,0.0,5,7.247,0.0,0.0,-2.23694,38.5,6.9,5.0,1024,1024,1684,1024,0,0,100,0,53,4.745,74.3,99.081368,P-GPS,,30.2
381800,2026-01-07 15:39:37,0.0,5,7.247,0.0,0.0,-2.908022,38.4,6.6,5.2,1024,1024,1684,1024,0,0,100,0,53,4.745,74.3,99.737536,P-GPS,,30.4
381900,2026-01-07 15:39:37,0.0,5,7.247,0.0,0.0,-3.579104,38.3,6.3,5.7,1024,1024,1684,1024,0,0,100,0,53,4.745,74.3,100.06562,P-GPS,,30.5
382000,2026-01-07 15:39:37,0.0,5,7.247,0.0,0.0,-3.802798,38.4,6.6,6.2,1024,1024,1684,1024,0,0,100,0,53,4.745,74.3,100.721788,P-GPS,,30.7
382100,2026-01-07 15:39:37,0.0,5,7.247,0.0,0.0,-4.250186,38.3,6.3,6.3,1024,1024,1684,1024,0,0,100,0,53,4.745,74.3,101.049872,P-GPS,,30.8
382200,2026-01-07 15:39:37,0.0,5,7.11,0.0,0.0,-4.250186,38.2,5.8,6.0,1024,1024,1684,1024,0,0,100,0,53,6.717,74.3,101.70604,P-GPS,,31.0
382300,2026-01-07 15:39:37,0.0,5,7.11,0.0,0.0,-4.250186,38.2,5.6,5.6,1024,1024,1684,1024,0,0,100,0,53,6.717,74.3,102.362208,P-GPS,,31.2
382400,2026-01-07 15:39:37,0.0,5,7.11,0.0,0.0,-4.250186,38.2,5.5,5.4,1024,1024,1684,1024,0,0,100,0,53,6.717,74.3,103.018376,P-GPS,,31.4
382500,2026-01-07 15:39:37,0.0,5,7.11,0.0,0.0,-4.250186,38.2,5.7,5.2,1024,1024,1684,1024,0,0,100,0,53,6.717,74.3,103.674544,P-GPS,,31.6
382600,2026-01-07 15:39:38,0.0,5,7.11,0.0,0.0,-4.250186,38.2,5.8,5.0,1024,1024,1684,1024,0,0,100,0,53,6.717,74.3,104.330712,P-GPS,,31.8
431400,2026-01-07 15:40:26,0.0,5,7.236,0.0,0.0,4.026492,38.1,2.6,4.1,1024,1024,364,1024,0,0,-100,0,50,4.101,74.66,104.658796,P-GPS,,31.9
431500,2026-01-07 15:40:26,0.0,5,7.236,0.0,0.0,4.026492,38.1,2.9,3.8,1024,1024,364,1024,0,0,-100,0,50,4.101,74.66,104.002628,P-GPS,,31.7
431600,2026-01-07 15:40:27,0.0,5,7.236,0.0,0.0,4.026492,38.1,2.8,4.3,1024,1024,364,1024,0,0,-100,0,50,4.101,74.66,103.34646,P-GPS,,31.5
431700,2026-01-07 15:40:27,0.0,5,7.236,0.0,0.0,4.026492,38.2,2.1,4.4,1024,1024,364,1024,0,0,-100,0,50,4.101,74.66,103.018376,P-GPS,,31.4
431800,2026-01-07 15:40:27,0.0,5,7.236,0.0,0.0,3.802798,38.1,2.6,4.0,1024,1024,364,1024,0,0,-100,0,50,4.074,74.66,102.362208,P-GPS,,31.2
431900,2026-01-07 15:40:27,0.0,5,7.236,0.0,0.0,3.802798,38.1,3.0,3.8,1024,1024,364,1024,0,0,-100,0,50,4.074,74.66,101.70604,P-GPS,,31.0
432000,2026-01-07 15:40:27,0.0,5,7.236,0.0,0.0,3.802798,38.1,2.9,3.2,1024,1024,364,1024,0,0,-100,0,50,4.074,74.66,101.049872,P-GPS,,30.8
432100,2026-01-07 15:40:27,0.0,5,7.236,0.0,0.0,3.802798,38.3,3.0,4.0,1024,1024,364,1024,0,0,-100,0,50,4.074,74.66,100.721788,P-GPS,,30.7
432200,2026-01-07 15:40:27,0.0,5,7.236,0.0,0.0,3.802798,38.1,3.4,3.6,1024,1024,364,1024,0,0,-100,0,50,4.074,74.66,100.06562,P-GPS,,30.5
432300,2026-01-07 15:40:27,0.0,5,7.236,0.0,0.0,3.802798,38.0,2.9,4.2,1024,1024,364,1024,0,0,-100,0,50,4.074,74.66,99.409452,P-GPS,,30.3
432400,2026-01-07 15:40:27,0.0,5,7.236,0.0,0.0,3.802798,38.0,3.1,4.1,1024,1024,364,1024,0,0,-100,0,50,4.074,74.66,98.753284,P-GPS,,30.1
432500,2026-01-07 15:40:27,0.0,5,7.236,0.0,0.0,4.026492,38.0,3.2,4.2,1024,1024,364,1024,0,0,-100,0,50,4.074,74.66,98.4252,P-GPS,,30.0
432600,2026-01-07 15:40:28,0.0,5,7.236,0.0,0.0,4.026492,38.0,3.1,4.7,1024,1024,364,1024,0,0,-100,0,50,4.074,74.66,97.769032,P-GPS,,29.8
432700,2026-01-07 15:40:28,0.0,5,7.236,0.0,0.0,3.802798,38.1,3.1,4.5,1024,1024,364,1024,0,0,-100,0,50,4.074,74.66,97.112864,P-GPS,,29.6
432800,2026-01-07 15:40:28,0.0,5,7.236,0.0,0.0,3.802798,38.2,4.1,4.0,1024,1024,364,1024,0,0,-100,0,50,4.074,74.66,96.456696,P-GPS,,29.4
432900,2026-01-07 15:40:28,0.0,5,7.236,0.0,0.0,4.026492,38.2,2.9,4.3,1024,1024,364,1024,0,0,-100,0,50,4.074,74.66,95.800528,P-GPS,,29.2
433000,2026-01-07 15:40:28,0.0,5,7.236,0.0,0.0,4.026492,38.1,3.1,3.6,1024,1024,364,1024,0,0,-100,0,50,4.074,74.66,95.472444,P-GPS,,29.1
433100,2026-01-07 15:40:28,0.0,5,7.236,0.0,0.0,3.802798,38.3,3.9,3.3,1024,1024,364,1024,0,0,-100,0,50,4.074,74.66,94.816276,P-GPS,,28.9
433200,2026-01-07 15:40:28,0.0,5,7.236,0.0,0.0,4.026492,38.2,3.0,3.3,1024,1024,364,1024,0,0,-100,0,50,4.074,74.66,94.160108,P-GPS,,28.7
433300,2026-01-07 15:40:28,0.0,5,7.236,0.0,0.0,4.026492,38.3,2.5,3.7,1024,1024,364,1024,0,0,-100,0,50,4.074,74.66,93.50394,P-GPS,,28.5
433400,2026-01-07 15:40:28,0.0,5,7.236,0.0,0.0,3.802798,38.4,2.4,4.5,1024,1024,364,1024,0,0,-100,0,50,4.074,74.66,93.175856,P-GPS,,28.4
433500,2026-01-07 15:40:28,0.0,5,7.236,0.0,0.0,4.026492,38.2,2.7,4.6,1024,1024,364,1024,0,0,-100,0,50,4.074,74.66,92.519688,P-GPS,,28.2
