time(millisecond),timestamp,speed(mph),gpslevel,voltage(v),xSpeed(mph),ySpeed(mph),zSpeed(mph),compass_heading(degrees),pitch(degrees),roll(degrees),rc_elevator,rc_aileron,rc_throttle,rc_rudder,rc_elevator(percent),rc_aileron(percent),rc_throttle(percent),rc_rudder(percent),battery_percent,current(A),battery_temperature(f),ascent(feet),flycState,message,height_above_takeoff(meters)
664600,2026-01-07 15:45:35,0.0,5,6.881,0.0,0.0,-4.250186,24.3,5.3,2.3,1024,1024,1684,1024,0,0,100,0,34,6.376,78.08,92.191604,P-GPS,,28.1
664700,2026-01-07 15:45:35,0.0,5,6.881,0.0,0.0,-4.250186,24.4,5.8,1.8,1024,1024,1684,1024,0,0,100,0,34,6.376,78.08,92.847772,P-GPS,,28.3
664800,2026-01-07 15:45:35,0.0,5,6.881,0.0,0.0,-4.250186,24.4,5.7,1.5,1024,1024,1684,1024,0,0,100,0,34,6.376,78.08,93.50394,P-GPS,,28.5
664900,2026-01-07 15:45:35,0.0,5,6.881,0.0,0.0,-4.47388,24.4,5.3,2.3,1024,1024,1684,1024,0,0,100,0,34,6.376,78.08,94.160108,P-GPS,,28.7
665000,2026-01-07 15:45:35,0.0,5,6.881,0.0,0.0,-4.47388,24.4,5.7,2.7,1024,1024,1684,1024,0,0,100,0,34,6.376,78.08,94.816276,P-GPS,,28.9
665100,2026-01-07 15:45:35,0.0,5,6.881,0.0,0.0,-4.47388,24.4,5.6,3.2,1024,1024,1684,1024,0,0,100,0,34,6.376,78.08,95.472444,P-GPS,,29.1
665200,2026-01-07 15:45:35,0.0,5,6.881,0.0,0.0,-4.47388,24.5,5.5,3.8,1024,1024,1684,1024,0,0,100,0,34,6.376,78.08,96.128612,P-GPS,,29.3
665300,2026-01-07 15:45:36,0.0,5,6.893,0.0,0.0,-4.47388,24.5,5.3,3.7,1024,1024,1684,1024,0,0,100,0,34,6.135,78.08,96.78478,P-GPS,,29.5
665400,2026-01-07 15:45:36,0.0,5,6.893,0.0,0.0,-4.47388,24.6,5.3,3.9,1024,1024,1294,1024,0,0,41,0,34,6.135,78.08,97.440948,P-GPS,,29.7
665500,2026-01-07 15:45:36,0.0,5,6.893,0.0,0.0,-4.250186,24.4,5.5,3.8,1024,1024,1024,1024,0,0,0,0,34,6.135,78.08,98.097116,P-GPS,,29.9
665600,2026-01-07 15:45:36,0.0,5,6.893,0.0,0.0,-4.250186,24.3,5.5,3.6,1024,1024,1024,1024,0,0,0,0,34,6.135,78.08,98.753284,P-GPS,,30.1
665700,2026-01-07 15:45:36,0.0,5,6.893,0.0,0.0,-4.250186,24.5,6.2,3.5,1024,1024,1024,1024,0,0,0,0,34,6.135,78.08,99.409452,P-GPS,,30.3
665800,2026-01-07 15:45:36,0.0,5,6.893,0.0,0.0,-3.579104,24.6,7.2,3.5,1024,1024,1024,1024,0,0,0,0,34,6.135,78.08,100.06562,P-GPS,,30.5
665900,2026-01-07 15:45:36,0.0,5,6.893,0.0,0.0,-2.908022,24.7,7.4,3.5,1024,1024,1024,1024,0,0,0,0,34,6.135,78.08,100.393704,P-GPS,,30.6
666000,2026-01-07 15:45:36,0.0,5,6.893,0.0,0.0,-2.013246,24.7,7.5,3.2,1024,1024,1024,1024,0,0,0,0,34,6.135,78.08,100.721788,P-GPS,,30.7
666100,2026-01-07 15:45:36,0.0,5,6.893,0.0,0.0,-1.342164,24.7,7.4,3.2,1024,1024,1024,1024,0,0,0,0,34,6.135,78.08,101.049872,P-GPS,,30.8
666200,2026-01-07 15:45:36,0.0,5,6.893,0.0,0.0,-0.671082,24.6,7.1,3.0,1024,1024,1024,1024,0,0,0,0,34,6.135,78.08,101.049872,P-GPS,,30.8
666300,2026-01-07 15:45:37,0.0,5,6.893,0.0,0.0,-0.223694,24.6,6.7,3.1,1024,1024,1024,1024,0,0,0,0,34,6.135,78.08,101.377956,P-GPS,,30.9
666400,2026-01-07 15:45:37,0.0,5,6.984,0.0,0.0,0.0,24.6,6.4,3.1,1024,1024,1024,1024,0,0,0,0,34,4.299,78.08,101.377956,P-GPS,,30.9
666500,2026-01-07 15:45:37,0.0,5,6.984,0.0,0.0,0.0,24.6,6.3,3.3,1024,1024,1024,1024,0,0,0,0,34,4.299,78.08,101.377956,P-GPS,,30.9
666600,2026-01-07 15:45:37,0.0,5,6.984,0.0,0.0,0.0,24.6,6.2,3.4,1024,1024,1024,1024,0,0,0,0,34,4.299,78.08,101.377956,P-GPS,,30.9
666700,2026-01-07 15:45:37,0.0,5,6.984,0.0,0.0,0.0,24.6,6.2,3.5,1024,1024,1024,1024,0,0,0,0,34,4.299,78.08,101.377956,P-GPS,,30.9
666800,2026-01-07 15:45:37,0.0,5,6.984,0.0,0.0,0.0,24.6,6.3,3.3,1024,1024,1024,1024,0,0,0,0,34,4.299,78.08,101.70604,P-GPS,,31.0
666900,2026-01-07 15:45:37,0.0,5,6.984,0.0,0.0,0.0,24.5,5.8,3.3,1024,1024,1024,1024,0,0,0,0,34,4.299,78.08,101.70604,P-GPS,,31.0
667000,2026-01-07 15:45:37,0.0,5,6.984,0.0,0.0,0.0,24.5,5.7,3.4,1024,1024,1024,1024,0,0,0,0,34,4.299,78.08,101.70604,P-GPS,,31.0
667100,2026-01-07 15:45:37,0.0,5,6.984,0.0,0.0,0.0,24.5,5.5,3.8,1024,1024,1024,1024,0,0,0,0,34,4.299,78.08,101.70604,P-GPS,,31.0
667200,2026-01-07 15:45:37,0.0,5,6.984,0.0,0.0,0.0,24.6,5.0,3.7,1024,1024,1024,1024,0,0,0,0,34,4.299,78.08,101.70604,P-GPS,,31.0
667300,2026-01-07 15:45:37,0.0,5,6.984,0.0,0.0,0.0,24.5,4.7,3.7,1024,1024,1024,1024,0,0,0,0,34,4.299,78.08,101.70604,P-GPS,,31.0
667400,2026-01-07 15:45:38,0.0,5,6.984,0.0,0.0,0.0,24.5,4.9,3.9,1024,1024,1024,1024,0,0,0,0,34,4.299,78.08,101.70604,P-GPS,,31.0
667500,2026-01-07 15:45:38,0.0,5,6.949,0.0,0.0,0.0,24.5,5.1,3.7,1024,1024,1024,1024,0,0,0,0,34,4.86,78.08,101.70604,P-GPS,,31.0
667600,2026-01-07 15:45:38,0.0,5,6.949,0.0,0.0,0.0,24.6,4.7,3.8,1024,1024,1024,1024,0,0,0,0,34,4.86,78.08,101.70604,P-GPS,,31.0
667700,2026-01-07 15:45:38,0.0,5,6.949,0.0,0.0,0.0,24.6,3.6,3.8,1024,1024,1024,1024,0,0,0,0,34,4.86,78.08,101.70604,P-GPS,,31.0
667800,2026-01-07 15:45:38,0.0,5,6.949,0.0,0.0,0.0,24.5,3.6,3.9,1024,1024,1024,1024,0,0,0,0,34,4.86,78.08,101.70604,P-GPS,,31.0
667900,2026-01-07 15:45:38,0.0,5,6.949,0.0,0.0,0.0,24.7,4.7,3.8,1024,1024,1024,1024,0,0,0,0,34,4.86,78.08,101.377956,P-GPS,,30.9
668000,2026-01-07 15:45:38,0.0,5,6.949,0.0,0.0,0.0,24.8,5.2,4.3,1024,1024,1024,1024,0,0,0,0,34,4.86,78.08,101.377956,P-GPS,,30.9
668100,2026-01-07 15:45:38,0.0,5,6.949,0.0,0.0,0.223694,24.7,5.3,4.3,1024,1024,1024,1024,0,0,0,0,34,4.86,78.08,101.049872,P-GPS,,30.8
668200,2026-01-07 15:45:38,0.0,5,6.949,0.0,0.0,0.223694,24.6,5.8,4.1,1024,1024,1024,1024,0,0,0,0,34,4.86,78.08,101.049872,P-GPS,,30.8
668300,2026-01-07 15:45:39,0.0,5,6.949,0.0,0.0,0.223694,24.6,6.1,4.1,1024,1024,1024,1024,0,0,0,0,34,4.86,78.08,101.049872,P-GPS,,30.8
668400,2026-01-07 15:45:39,0.0,5,6.949,0.0,0.0,0.0,24.5,6.2,4.3,1024,1024,1024,1024,0,0,0,0,34,4.86,78.08,101.049872,P-GPS,,30.8
668500,2026-01-07 15:45:39,0.0,5,6.949,0.0,0.0,0.0,24.4,4.9,3.9,1024,1024,1024,1024,0,0,0,0,34,4.86,78.08,101.049872,P-GPS,,30.8
668600,2026-01-07 15:45:39,0.0,5,6.949,0.0,0.0,0.0,24.4,4.7,3.2,1024,1024,1024,1024,0,0,0,0,34,4.86,78.08,101.049872,P-GPS,,30.8
668700,2026-01-07 15:45:39,0.0,5,6.949,0.0,0.0,0.0,24.3,4.6,2.6,1024,1024,1024,1024,0,0,0,0,34,4.86,78.08,101.049872,P-GPS,,30.8
668800,2026-01-07 15:45:39,0.0,5,6.949,0.0,0.0,0.0,24.3,4.7,2.4,1024,1024,1024,1024,0,0,0,0,34,4.86,78.08,101.049872,P-GPS,,30.8
668900,2026-01-07 15:45:39,0.0,5,6.949,0.0,0.0,0.0,24.3,4.9,2.3,1024,1024,1024,1024,0,0,0,0,34,4.86,78.08,101.049872,P-GPS,,30.8
669000,2026-01-07 15:45:39,0.0,5,6.949,0.0,0.0,0.0,24.4,5.0,2.2,1024,1024,1024,1024,0,0,0,0,34,4.86,78.08,100.721788,P-GPS,,30.7
669100,2026-01-07 15:45:39,0.0,5,6.949,0.0,0.0,0.0,24.4,5.2,2.1,1024,1024,1024,1024,0,0,0,0,34,4.86,78.08,100.721788,P-GPS,,30.7
669200,2026-01-07 15:45:39,0.0,5,6.949,0.0,0.0,0.0,24.4,5.2,1.8,1024,1024,1024,1024,0,0,0,0,34,4.86,78.08,100.721788,P-GPS,,30.7
669300,2026-01-07 15:45:39,0.0,5,6.949,0.0,0.0,0.0,24.4,5.4,1.6,1024,1024,1024,1024,0,0,0,0,34,4.86,78.08,100.393704,P-GPS,,30.6
669400,2026-01-07 15:45:40,0.0,5,6.949,0.0,0.0,0.0,24.5,5.2,1.5,1024,1024,1024,1024,0,0,0,0,34,4.86,78.08,100.393704,P-GPS,,30.6
669500,2026-01-07 15:45:40,0.0,5,6.949,0.0,0.0,0.0,24.5,5.4,1.7,1024,1024,1024,1024,0,0,0,0,34,4.86,78.08,100.393704,P-GPS,,30.6
669600,2026-01-07 15:45:40,0.0,5,6.949,0.0,0.0,0.0,24.5,5.3,1.7,1024,1024,1024,1024,0,0,0,0,34,4.86,78.08,100.393704,P-GPS,,30.6
669700,2026-01-07 15:45:40,0.0,5,6.939,0.0,0.0,0.0,24.5,5.5,1.7,1024,1024,1024,1024,0,0,0,0,34,4.649,78.08,100.393704,P-GPS,,30.6
669800,2026-01-07 15:45:40,0.0,5,6.939,0.0,0.0,0.0,24.5,5.4,1.7,1024,1024,1024,1024,0,0,0,0,34,4.649,78.08,100.393704,P-GPS,,30.6
669900,2026-01-07 15:45:40,0.0,5,6.939,0.0,0.0,0.0,24.6,5.5,1.9,1024,1024,1024,1024,0,0,0,0,34,4.649,78.08,100.06562,P-GPS,,30.5
670000,2026-01-07 15:45:40,0.0,5,6.939,0.0,0.0,0.0,24.5,5.8,1.9,1024,1024,1024,1024,0,0,0,0,34,4.649,78.08,100.06562,P-GPS,,30.5
670100,2026-01-07 15:45:40,0.0,5,6.939,0.0,0.0,0.0,24.5,6.0,2.2,1024,1024,1024,1024,0,0,0,0,34,4.649,78.08,100.393704,P-GPS,,30.6
670200,2026-01-07 15:45:40,0.0,5,6.939,0.0,0.0,0.0,24.5,6.1,2.5,1024,1024,1024,1024,0,0,0,0,34,4.649,78.08,100.393704,P-GPS,,30.6
670300,2026-01-07 15:45:41,0.0,5,6.939,0.0,0.0,0.0,24.5,6.0,2.8,1024,1024,1024,1024,0,0,0,0,34,4.649,78.08,100.393704,P-GPS,,30.6
670400,2026-01-07 15:45:41,0.0,5,6.939,0.0,0.0,0.0,24.5,5.9,2.7,1024,1024,1024,1024,0,0,0,0,34,4.649,78.08,100.393704,P-GPS,,30.6
670500,2026-01-07 15:45:41,0.0,5,6.939,0.0,0.0,0.0,24.5,6.0,2.6,1024,1024,1024,1024,0,0,0,0,34,4.649,78.08,100.393704,P-GPS,,30.6
670600,2026-01-07 15:45:41,0.0,5,6.939,0.0,0.0,0.0,24.6,5.8,2.6,1024,1024,1024,1024,0,0,0,0,34,4.649,78.08,100.393704,P-GPS,,30.6
670700,2026-01-07 15:45:41,0.0,5,6.939,0.0,0.0,0.0,24.6,5.8,2.7,1024,1024,1024,1024,0,0,0,0,34,4.649,78.08,100.393704,P-GPS,,30.6
670800,2026-01-07 15:45:41,0.0,5,6.934,0.0,0.0,0.0,24.6,5.8,2.5,1024,1024,1024,1024,0,0,0,0,34,5.004,78.26,100.393704,P-GPS,,30.6
670900,2026-01-07 15:45:41,0.0,5,6.934,0.0,0.0,0.0,24.5,5.8,2.6,1024,1024,1024,1024,0,0,0,0,34,5.004,78.26,100.393704,P-GPS,,30.6
671000,2026-01-07 15:45:41,0.0,5,6.934,0.0,0.0,0.0,24.5,5.9,2.4,1024,1024,1024,1024,0,0,0,0,34,5.004,78.26,100.393704,P-GPS,,30.6
671100,2026-01-07 15:45:41,0.0,5,6.934,0.0,0.0,0.0,24.5,6.1,2.7,1024,1024,1024,1024,0,0,0,0,34,5.004,78.26,100.393704,P-GPS,,30.6
671200,2026-01-07 15:45:41,0.0,5,6.934,0.0,0.0,0.0,24.5,6.1,2.5,1024,1024,1024,1024,0,0,0,0,34,5.004,78.26,100.393704,P-GPS,,30.6
671300,2026-01-07 15:45:41,0.0,5,6.934,0.0,0.0,0.0,24.4,6.0,2.6,1024,1024,1024,1024,0,0,0,0,34,5.004,78.26,100.393704,P-GPS,,30.6
671400,2026-01-07 15:45:42,0.0,5,6.934,0.0,0.0,0.0,24.5,6.1,2.7,1024,1024,1024,1024,0,0,0,0,34,5.004,78.26,100.393704,P-GPS,,30.6
671500,2026-01-07 15:45:42,0.0,5,6.934,0.0,0.0,0.0,24.5,6.2,2.9,1024,1024,1024,1024,0,0,0,0,34,5.004,78.26,100.393704,P-GPS,,30.6
671600,2026-01-07 15:45:42,0.0,5,6.934,0.0,0.0,0.0,24.4,6.2,3.1,1024,1024,1024,1024,0,0,0,0,34,5.004,78.26,100.393704,P-GPS,,30.6
671700,2026-01-07 15:45:42,0.0,5,6.934,0.0,0.0,0.0,24.5,6.3,3.5,1024,1024,1024,1024,0,0,0,0,34,5.004,78.26,100.721788,P-GPS,,30.7
671800,2026-01-07 15:45:42,0.0,5,6.934,0.0,0.0,0.0,24.5,6.3,3.7,1024,1024,1024,1024,0,0,0,0,34,5.004,78.26,100.721788,P-GPS,,30.7
671900,2026-01-07 15:45:42,0.0,5,6.929,0.0,0.0,0.0,24.5,6.3,3.8,1024,1024,1024,1024,0,0,0,0,34,5.124,78.26,100.721788,P-GPS,,30.7
672000,2026-01-07 15:45:42,0.0,5,6.929,0.0,0.0,0.0,24.5,6.2,3.8,1024,1024,1024,1024,0,0,0,0,34,5.124,78.26,100.721788,P-GPS,,30.7
672100,2026-01-07 15:45:42,0.0,5,6.929,0.0,0.0,0.0,24.5,6.4,3.9,1024,1024,1024,1024,0,0,0,0,34,5.124,78.26,100.721788,P-GPS,,30.7
672200,2026-01-07 15:45:42,0.0,5,6.929,0.0,0.0,0.0,24.5,6.4,4.0,1024,1024,1024,1024,0,0,0,0,34,5.124,78.26,100.721788,P-GPS,,30.7
672300,2026-01-07 15:45:43,0.0,5,6.929,0.0,0.0,0.0,24.5,6.3,4.0,1024,1024,1024,1024,0,0,0,0,34,5.124,78.26,100.721788,P-GPS,,30.7
672400,2026-01-07 15:45:43,0.0,5,6.929,0.0,0.0,0.0,24.5,6.4,4.1,1024,1024,1024,1024,0,0,0,0,34,5.124,78.26,100.721788,P-GPS,,30.7
672500,2026-01-07 15:45:43,0.0,5,6.929,0.0,0.0,0.0,24.5,6.3,4.2,1024,1024,1024,1024,0,0,0,0,34,5.124,78.26,100.721788,P-GPS,,30.7
672600,2026-01-07 15:45:43,0.0,5,6.929,0.0,0.0,0.0,24.4,6.0,4.4,1024,1024,1024,1024,0,0,0,0,34,5.124,78.26,101.049872,P-GPS,,30.8
672700,2026-01-07 15:45:43,0.0,5,6.929,0.0,0.0,0.0,24.5,6.5,4.5,1024,1024,1024,1024,0,0,0,0,34,5.124,78.26,101.049872,P-GPS,,30.8
672800,2026-01-07 15:45:43,0.0,5,6.929,0.0,0.0,0.0,24.5,6.5,4.3,1024,1024,1024,1024,0,0,0,0,34,5.124,78.26,101.049872,P-GPS,,30.8
672900,2026-01-07 15:45:43,0.0,5,6.929,0.0,0.0,0.0,24.5,6.5,4.3,1024,1024,1024,1024,0,0,0,0,34,5.124,78.26,101.049872,P-GPS,,30.8
673000,2026-01-07 15:45:43,0.0,5,6.923,0.0,0.0,0.0,24.5,6.7,4.5,1024,1024,1024,1024,0,0,0,0,34,5.202,78.26,101.049872,P-GPS,,30.8
673100,2026-01-07 15:45:43,0.0,5,6.923,0.0,0.0,0.0,24.5,6.3,4.4,1024,1024,1024,1024,0,0,0,0,34,5.202,78.26,101.049872,P-GPS,,30.8
673200,2026-01-07 15:45:43,0.0,5,6.923,0.0,0.0,0.0,24.5,6.3,4.3,1024,1024,1024,1024,0,0,0,0,34,5.202,78.26,101.049872,P-GPS,,30.8
673300,2026-01-07 15:45:43,0.0,5,6.923,0.0,0.0,0.0,24.5,6.9,4.4,1024,1024,1024,1024,0,0,0,0,34,5.202,78.26,100.721788,P-GPS,,30.7
673400,2026-01-07 15:45:44,0.0,5,6.923,0.0,0.0,0.0,24.5,7.0,4.4,1024,1024,1024,1024,0,0,0,0,34,5.202,78.26,100.721788,P-GPS,,30.7
673500,2026-01-07 15:45:44,0.0,5,6.923,0.0,0.0,0.0,24.5,6.7,4.1,1024,1024,1024,1024,0,0,0,0,34,5.202,78.26,100.721788,P-GPS,,30.7
673600,2026-01-07 15:45:44,0.0,5,6.923,0.0,0.0,0.0,24.4,6.8,4.4,1024,1024,1024,1024,0,0,0,0,34,5.202,78.26,100.721788,P-GPS,,30.7
673700,2026-01-07 15:45:44,0.0,5,6.923,0.0,0.0,0.0,24.5,6.9,4.1,1024,1024,1024,1024,0,0,0,0,34,5.202,78.26,100.721788,P-GPS,,30.7
673800,2026-01-07 15:45:44,0.0,5,6.923,0.0,0.0,0.0,24.5,6.9,3.8,1024,1024,1024,1024,0,0,0,0,34,5.202,78.26,100.721788,P-GPS,,30.7
673900,2026-01-07 15:45:44,0.0,5,6.923,0.0,0.0,0.0,24.5,6.5,4.0,1024,1024,1024,1024,0,0,0,0,34,5.202,78.26,100.721788,P-GPS,,30.7
674000,2026-01-07 15:45:44,0.0,5,6.923,0.0,0.0,0.0,24.4,6.0,4.0,1024,1024,1024,1024,0,0,0,0,34,5.202,78.26,100.721788,P-GPS,,30.7
674100,2026-01-07 15:45:44,0.0,5,6.923,0.0,0.0,0.0,24.6,6.3,3.7,1024,1024,1024,1024,0,0,0,0,34,5.322,78.26,100.721788,P-GPS,,30.7
674200,2026-01-07 15:45:44,0.0,5,6.923,0.0,0.0,0.0,24.5,6.4,4.0,1024,1024,1024,1024,0,0,0,0,34,5.322,78.26,100.721788,P-GPS,,30.7
674300,2026-01-07 15:45:44,0.0,5,6.923,0.0,0.0,0.0,24.5,6.1,4.1,1024,1024,1024,1024,0,0,0,0,34,5.322,78.26,100.721788,P-GPS,,30.7
674400,2026-01-07 15:45:45,0.0,5,6.923,0.0,0.0,0.0,24.6,5.9,4.0,1024,1024,1024,1024,0,0,0,0,34,5.322,78.26,100.721788,P-GPS,,30.7
674500,2026-01-07 15:45:45,0.0,5,6.923,0.0,0.0,0.0,24.6,5.7,3.9,1024,1024,1024,1024,0,0,0,0,34,5.322,78.26,100.721788,P-GPS,,30.7
674600,2026-01-07 15:45:45,0.0,5,6.923,0.0,0.0,0.0,24.6,6.1,4.1,1024,1024,1024,1024,0,0,0,0,34,5.322,78.26,100.721788,P-GPS,,30.7
674700,2026-01-07 15:45:45,0.0,5,6.923,0.0,0.0,0.0,24.6,6.1,4.1,1024,1024,1024,1024,0,0,0,0,34,5.322,78.26,100.721788,P-GPS,,30.7
674800,2026-01-07 15:45:45,0.0,5,6.923,0.0,0.0,0.0,24.6,6.0,4.1,1024,1024,1024,1024,0,0,0,0,34,5.322,78.26,100.721788,P-GPS,,30.7
674900,2026-01-07 15:45:45,0.0,5,6.923,0.0,0.0,0.0,24.6,6.2,4.3,1024,1024,1024,1024,0,0,0,0,34,5.322,78.26,100.721788,P-GPS,,30.7
675000,2026-01-07 15:45:45,0.0,5,6.923,0.0,0.0,0.0,24.6,6.3,4.2,1024,1024,1024,1024,0,0,0,0,34,5.322,78.26,100.721788,P-GPS,,30.7
675100,2026-01-07 15:45:45,0.0,5,6.923,0.0,0.0,0.0,24.7,6.1,4.2,1024,1024,1024,1024,0,0,0,0,34,5.322,78.26,100.721788,P-GPS,,30.7
675200,2026-01-07 15:45:45,0.0,5,6.937,0.0,0.0,0.0,24.6,6.3,4.5,1024,1024,1024,1024,0,0,0,0,34,5.013,78.26,100.721788,P-GPS,,30.7
675300,2026-01-07 15:45:46,0.0,5,6.937,0.0,0.0,0.0,24.6,6.3,4.0,1024,1024,1024,1024,0,0,0,0,34,5.013,78.26,100.721788,P-GPS,,30.7
675400,2026-01-07 15:45:46,0.0,5,6.937,0.0,0.0,0.0,24.6,6.3,4.1,1024,1024,1024,1024,0,0,0,0,34,5.013,78.26,100.721788,P-GPS,,30.7
675500,2026-01-07 15:45:46,0.0,5,6.937,0.0,0.0,0.0,24.6,6.4,4.0,1024,1024,1024,1024,0,0,0,0,34,5.013,78.26,100.721788,P-GPS,,30.7
675600,2026-01-07 15:45:46,0.0,5,6.937,0.0,0.0,0.0,24.7,6.3,4.1,1024,1024,1024,1024,0,0,0,0,34,5.013,78.26,100.721788,P-GPS,,30.7
675700,2026-01-07 15:45:46,0.0,5,6.937,0.0,0.0,0.0,24.7,6.7,4.1,1024,1024,1024,1024,0,0,0,0,34,5.013,78.26,100.721788,P-GPS,,30.7
675800,2026-01-07 15:45:46,0.0,5,6.937,0.0,0.0,0.0,24.6,6.7,3.9,1024,1024,1024,1024,0,0,0,0,34,5.013,78.26,100.721788,P-GPS,,30.7
675900,2026-01-07 15:45:46,0.0,5,6.937,0.0,0.0,0.0,24.6,6.5,3.8,1024,1024,1024,1024,0,0,0,0,34,5.013,78.26,100.721788,P-GPS,,30.7
676000,2026-01-07 15:45:46,0.0,5,6.937,0.0,0.0,0.0,24.6,6.4,3.8,1024,1024,1024,1024,0,0,0,0,34,5.013,78.26,100.721788,P-GPS,,30.7
676100,2026-01-07 15:45:46,0.0,5,6.937,0.0,0.0,0.0,24.6,6.3,3.6,1024,1024,1024,1024,0,0,0,0,34,5.013,78.26,100.721788,P-GPS,,30.7
676200,2026-01-07 15:45:46,0.0,5,6.937,0.0,0.0,0.0,24.6,6.2,3.8,1024,1024,1024,1024,0,0,0,0,34,5.013,78.26,100.721788,P-GPS,,30.7
676300,2026-01-07 15:45:46,0.0,5,6.929,0.0,0.0,0.0,24.6,6.6,4.1,1024,1024,1024,1024,0,0,0,0,34,4.908,78.26,100.721788,P-GPS,,30.7
676400,2026-01-07 15:45:47,0.0,5,6.929,0.0,0.0,0.0,24.5,6.5,4.3,1024,1024,1024,1024,0,0,0,0,34,4.908,78.26,100.393704,P-GPS,,30.6
676500,2026-01-07 15:45:47,0.0,5,6.929,0.0,0.0,0.0,24.5,6.1,4.5,1024,1024,1024,1024,0,0,0,0,34,4.908,78.26,100.393704,P-GPS,,30.6
676600,2026-01-07 15:45:47,0.0,5,6.929,0.0,0.0,0.0,24.6,5.5,4.4,1024,1024,1024,1024,0,0,0,0,34,4.908,78.26,100.393704,P-GPS,,30.6
676700,2026-01-07 15:45:47,0.0,5,6.929,0.0,0.0,0.0,24.5,5.6,4.5,1024,1024,1024,1024,0,0,0,0,34,4.908,78.26,100.393704,P-GPS,,30.6
676800,2026-01-07 15:45:47,0.0,5,6.929,0.0,0.0,0.0,24.6,5.7,4.2,1024,1024,1024,1024,0,0,0,0,34,4.908,78.26,100.393704,P-GPS,,30.6
676900,2026-01-07 15:45:47,0.0,5,6.929,0.0,0.0,0.0,24.6,5.8,4.4,1024,1024,1024,1024,0,0,0,0,34,4.908,78.26,100.393704,P-GPS,,30.6
677000,2026-01-07 15:45:47,0.0,5,6.929,0.0,0.0,0.0,24.5,5.7,4.2,1024,1024,1024,1024,0,0,0,0,34,4.908,78.26,100.393704,P-GPS,,30.6
677100,2026-01-07 15:45:47,0.0,5,6.929,0.0,0.0,0.0,24.5,5.8,4.3,1024,1024,1024,1024,0,0,0,0,34,4.908,78.26,100.06562,P-GPS,,30.5
677200,2026-01-07 15:45:47,0.0,5,6.929,0.0,0.0,0.0,24.6,5.7,4.4,1024,1024,1024,1024,0,0,0,0,34,4.908,78.26,100.06562,P-GPS,,30.5
677300,2026-01-07 15:45:48,0.0,5,6.929,0.0,0.0,0.0,24.4,5.4,4.6,1024,1024,1024,1024,0,0,0,0,34,4.908,78.26,100.06562,P-GPS,,30.5
677400,2026-01-07 15:45:48,0.0,5,6.915,0.0,0.0,0.0,24.4,5.3,4.6,1024,1024,1024,1024,0,0,0,0,34,5.21,78.26,100.06562,P-GPS,,30.5
677500,2026-01-07 15:45:48,0.0,5,6.915,0.0,0.0,0.0,24.4,5.6,4.1,1024,1024,1024,1024,0,0,0,0,34,5.21,78.26,100.06562,P-GPS,,30.5
677600,2026-01-07 15:45:48,0.0,5,6.915,0.0,0.0,0.0,24.5,5.4,3.5,1024,1024,1024,1024,0,0,0,0,34,5.21,78.26,100.06562,P-GPS,,30.5
677700,2026-01-07 15:45:48,0.0,5,6.915,0.0,0.0,0.0,24.6,5.8,3.7,1024,1024,1024,1024,0,0,0,0,34,5.21,78.26,100.06562,P-GPS,,30.5
677800,2026-01-07 15:45:48,0.0,5,6.915,0.0,0.0,0.0,24.7,6.4,3.9,1024,1024,1024,1024,0,0,0,0,34,5.21,78.26,100.06562,P-GPS,,30.5
677900,2026-01-07 15:45:48,0.0,5,6.915,0.0,0.0,0.0,24.7,7.2,4.3,1024,1024,1024,1024,0,0,0,0,34,5.21,78.26,100.06562,P-GPS,,30.5
678000,2026-01-07 15:45:48,0.0,5,6.915,0.0,0.0,0.0,24.7,7.5,4.1,1024,1024,1024,1024,0,0,0,0,34,5.21,78.26,100.06562,P-GPS,,30.5
678100,2026-01-07 15:45:48,0.0,5,6.915,0.0,0.0,0.0,24.7,7.7,4.2,1024,1024,1024,1024,0,0,0,0,34,5.21,78.26,100.06562,P-GPS,,30.5
678200,2026-01-07 15:45:48,0.0,5,6.915,0.0,0.0,0.0,24.7,7.4,4.2,1024,1024,1024,1024,0,0,0,0,34,5.21,78.26,100.06562,P-GPS,,30.5
678300,2026-01-07 15:45:48,0.0,5,6.915,0.0,0.0,0.0,24.7,7.9,4.7,1024,1024,1024,1024,0,0,0,0,34,5.21,78.26,100.393704,P-GPS,,30.6
678400,2026-01-07 15:45:49,0.0,5,6.915,0.0,0.0,0.0,24.7,7.8,4.5,1024,1024,1024,1024,0,0,0,0,34,5.21,78.26,100.393704,P-GPS,,30.6
678500,2026-01-07 15:45:49,0.0,5,6.936,0.0,0.0,0.0,24.7,7.3,4.7,1024,1024,1024,1024,0,0,0,0,33,4.808,78.44,100.06562,P-GPS,,30.5
678600,2026-01-07 15:45:49,0.0,5,6.936,0.0,0.0,0.0,24.7,7.2,4.9,1024,1024,1024,1024,0,0,0,0,33,4.808,78.44,100.06562,P-GPS,,30.5
678700,2026-01-07 15:45:49,0.0,5,6.936,0.0,0.0,0.0,24.7,7.3,4.8,1024,1024,1024,1024,0,0,0,0,33,4.808,78.44,100.06562,P-GPS,,30.5
678800,2026-01-07 15:45:49,0.0,5,6.936,0.0,0.0,0.0,24.7,7.2,4.5,1024,1024,1024,1024,0,0,0,0,33,4.808,78.44,100.06562,P-GPS,,30.5
678900,2026-01-07 15:45:49,0.0,5,6.936,0.0,0.0,0.0,24.7,6.9,4.4,1024,1024,1024,1024,0,0,0,0,33,4.808,78.44,100.06562,P-GPS,,30.5
679000,2026-01-07 15:45:49,0.0,5,6.936,0.0,0.0,0.0,24.7,7.2,4.7,1024,1024,1024,1024,0,0,0,0,33,4.808,78.44,100.06562,P-GPS,,30.5
679100,2026-01-07 15:45:49,0.0,5,6.936,0.0,0.0,0.0,24.6,6.9,4.9,1024,1024,1024,1024,0,0,0,0,33,4.808,78.44,100.06562,P-GPS,,30.5
679200,2026-01-07 15:45:49,0.0,5,6.936,0.0,0.0,0.0,24.7,7.1,4.9,1024,1024,1024,1024,0,0,0,0,33,4.808,78.44,100.06562,P-GPS,,30.5
679300,2026-01-07 15:45:50,0.0,5,6.936,0.0,0.0,0.0,24.8,7.0,4.5,1024,1024,1024,1024,0,0,0,0,33,4.808,78.44,100.06562,P-GPS,,30.5
679400,2026-01-07 15:45:50,0.0,5,6.936,0.0,0.0,0.0,24.7,7.0,4.4,1024,1024,1024,1024,0,0,0,0,33,4.808,78.44,100.06562,P-GPS,,30.5
679500,2026-01-07 15:45:50,0.0,5,6.936,0.0,0.0,0.0,24.7,7.3,4.4,1024,1024,1024,1024,0,0,0,0,33,4.808,78.44,100.06562,P-GPS,,30.5
679600,2026-01-07 15:45:50,0.0,5,6.936,0.0,0.0,0.0,24.6,7.3,4.2,1024,1024,1024,1024,0,0,0,0,33,4.808,78.44,100.06562,P-GPS,,30.5
679700,2026-01-07 15:45:50,0.0,5,6.936,0.0,0.0,0.0,24.7,7.3,4.2,1024,1024,1024,1024,0,0,0,0,33,4.808,78.44,100.06562,P-GPS,,30.5
679800,2026-01-07 15:45:50,0.0,5,6.936,0.0,0.0,0.0,24.7,7.0,4.2,1024,1024,1024,1024,0,0,0,0,33,4.808,78.44,100.06562,P-GPS,,30.5
679900,2026-01-07 15:45:50,0.0,5,6.936,0.0,0.0,0.0,24.7,6.9,4.3,1024,1024,1024,1024,0,0,0,0,33,4.808,78.44,100.06562,P-GPS,,30.5
680000,2026-01-07 15:45:50,0.0,5,6.936,0.0,0.0,0.0,24.8,6.9,4.5,1024,1024,1024,1024,0,0,0,0,33,4.808,78.44,100.06562,P-GPS,,30.5
680100,2026-01-07 15:45:50,0.0,5,6.936,0.0,0.0,0.0,24.7,6.3,4.4,1024,1024,1024,1024,0,0,0,0,33,4.808,78.44,100.06562,P-GPS,,30.5
680200,2026-01-07 15:45:50,0.0,5,6.936,0.0,0.0,0.0,24.7,5.9,4.5,1024,1024,1024,1024,0,0,0,0,33,4.808,78.44,100.06562,P-GPS,,30.5
680300,2026-01-07 15:45:50,0.0,5,6.936,0.0,0.0,0.0,24.7,5.9,4.6,1024,1024,1024,1024,0,0,0,0,33,4.808,78.44,100.06562,P-GPS,,30.5
680400,2026-01-07 15:45:51,0.0,5,6.936,0.0,0.0,0.0,24.7,5.9,4.7,1024,1024,1024,1024,0,0,0,0,33,4.808,78.44,100.06562,P-GPS,,30.5
680500,2026-01-07 15:45:51,0.0,5,6.936,0.0,0.0,0.0,24.7,5.9,4.5,1024,1024,1024,1024,0,0,0,0,33,4.808,78.44,100.06562,P-GPS,,30.5
680600,2026-01-07 15:45:51,0.0,5,6.936,0.0,0.0,0.0,24.7,6.0,4.6,1024,1024,1024,1024,0,0,0,0,33,4.808,78.44,100.06562,P-GPS,,30.5
680700,2026-01-07 15:45:51,0.0,5,6.934,0.0,0.0,0.0,24.7,6.1,4.5,1024,1024,1024,1024,0,0,0,0,33,4.891,78.44,100.06562,P-GPS,,30.5
680800,2026-01-07 15:45:51,0.0,5,6.934,0.0,0.0,0.0,24.7,6.1,4.4,1024,1024,1024,1024,0,0,0,0,33,4.891,78.44,100.06562,P-GPS,,30.5
680900,2026-01-07 15:45:51,0.0,5,6.934,0.0,0.0,0.0,24.7,6.0,4.4,1024,1024,1024,1024,0,0,0,0,33,4.891,78.44,100.06562,P-GPS,,30.5
681000,2026-01-07 15:45:51,0.0,5,6.934,0.0,0.0,0.0,24.7,6.0,4.5,1024,1024,1024,1024,0,0,0,0,33,4.891,78.44,100.06562,P-GPS,,30.5
681100,2026-01-07 15:45:51,0.0,5,6.934,0.0,0.0,0.0,24.7,6.4,4.4,1024,1024,1024,1024,0,0,0,0,33,4.891,78.44,100.06562,P-GPS,,30.5
681200,2026-01-07 15:45:51,0.0,5,6.934,0.0,0.0,0.0,24.6,6.4,4.5,1024,1024,1024,1024,0,0,0,0,33,4.891,78.44,100.06562,P-GPS,,30.5
681300,2026-01-07 15:45:51,0.0,5,6.934,0.0,0.0,0.0,24.6,6.6,4.5,1024,1024,1024,1024,0,0,0,0,33,4.891,78.44,100.06562,P-GPS,,30.5
681400,2026-01-07 15:45:52,0.0,5,6.934,0.0,0.0,0.0,24.6,6.6,4.6,1024,1024,1024,1024,0,0,0,0,33,4.891,78.44,100.06562,P-GPS,,30.5
681500,2026-01-07 15:45:52,0.0,5,6.934,0.0,0.0,0.0,24.7,6.8,4.6,1024,1024,1024,1024,0,0,0,0,33,4.891,78.44,100.06562,P-GPS,,30.5
681600,2026-01-07 15:45:52,0.0,5,6.934,0.0,0.0,0.0,24.7,6.5,4.5,1024,1024,1024,1024,0,0,0,0,33,4.891,78.44,100.06562,P-GPS,,30.5
681700,2026-01-07 15:45:52,0.0,5,6.934,0.0,0.0,0.0,24.7,6.5,4.7,1024,1024,1024,1024,0,0,0,0,33,4.891,78.44,100.06562,P-GPS,,30.5
681800,2026-01-07 15:45:52,0.0,5,6.934,0.0,0.0,0.0,24.6,6.6,4.7,1024,1024,1024,1024,0,0,0,0,33,4.891,78.44,100.06562,P-GPS,,30.5
681900,2026-01-07 15:45:52,0.0,5,6.934,0.0,0.0,0.0,24.6,6.8,4.6,1024,1024,1024,1024,0,0,0,0,33,4.891,78.44,100.06562,P-GPS,,30.5
682000,2026-01-07 15:45:52,0.0,5,6.934,0.0,0.0,0.0,24.5,6.7,4.5,1024,1024,1024,1024,0,0,0,0,33,4.891,78.44,100.06562,P-GPS,,30.5
682100,2026-01-07 15:45:52,0.0,5,6.934,0.0,0.0,0.0,24.5,6.9,4.4,1024,1024,1024,1024,0,0,0,0,33,4.891,78.44,100.06562,P-GPS,,30.5
682200,2026-01-07 15:45:52,0.0,5,6.934,0.0,0.0,0.0,24.6,7.1,4.3,1024,1024,1024,1024,0,0,0,0,33,4.891,78.44,100.06562,P-GPS,,30.5
682300,2026-01-07 15:45:53,0.0,5,6.934,0.0,0.0,0.0,24.6,7.3,4.4,1024,1024,1024,1024,0,0,0,0,33,4.891,78.44,100.06562,P-GPS,,30.5
682400,2026-01-07 15:45:53,0.0,5,6.934,0.0,0.0,0.0,24.5,7.5,4.5,1024,1024,1024,1024,0,0,0,0,33,4.891,78.44,100.06562,P-GPS,,30.5
682500,2026-01-07 15:45:53,0.0,5,6.934,0.0,0.0,0.0,24.5,7.2,4.1,1024,1024,1024,1024,0,0,0,0,33,4.891,78.44,100.06562,P-GPS,,30.5
682600,2026-01-07 15:45:53,0.0,5,6.938,0.0,0.0,0.0,24.5,7.4,4.0,1024,1024,1024,1024,0,0,0,0,33,4.779,78.62,99.737536,P-GPS,,30.4
682700,2026-01-07 15:45:53,0.0,5,6.938,0.0,0.0,0.0,24.5,7.3,4.0,1024,1024,1024,1024,0,0,0,0,33,4.779,78.62,99.737536,P-GPS,,30.4
682800,2026-01-07 15:45:53,0.0,5,6.938,0.0,0.0,0.0,24.5,7.4,3.8,1024,1024,1024,1024,0,0,0,0,33,4.779,78.62,99.737536,P-GPS,,30.4
682900,2026-01-07 15:45:53,0.0,5,6.938,0.0,0.0,0.0,24.5,7.4,3.8,1024,1024,1024,1024,0,0,0,0,33,4.779,78.62,99.737536,P-GPS,,30.4
683000,2026-01-07 15:45:53,0.0,5,6.938,0.0,0.0,0.0,24.5,7.3,3.6,1024,1024,1024,1024,0,0,0,0,33,4.779,78.62,99.737536,P-GPS,,30.4
683100,2026-01-07 15:45:53,0.0,5,6.938,0.0,0.0,0.0,24.5,7.4,3.8,1024,1024,1024,1024,0,0,0,0,33,4.779,78.62,99.737536,P-GPS,,30.4
683200,2026-01-07 15:45:53,0.0,5,6.938,0.0,0.0,0.0,24.5,7.2,3.7,1024,1024,1024,1024,0,0,0,0,33,4.779,78.62,99.737536,P-GPS,,30.4
683300,2026-01-07 15:45:53,0.0,5,6.938,0.0,0.0,0.0,24.6,7.2,3.7,1024,1024,1024,1024,0,0,0,0,33,4.779,78.62,99.737536,P-GPS,,30.4
683400,2026-01-07 15:45:54,0.0,5,6.938,0.0,0.0,0.0,24.5,7.3,3.8,1024,1024,1024,1024,0,0,0,0,33,4.779,78.62,99.737536,P-GPS,,30.4
683500,2026-01-07 15:45:54,0.0,5,6.938,0.0,0.0,0.0,24.5,7.5,3.9,1024,1024,1024,1024,0,0,0,0,33,4.779,78.62,99.737536,P-GPS,,30.4
683600,2026-01-07 15:45:54,0.0,5,6.935,0.0,0.0,0.0,24.5,7.2,4.0,1024,1024,1024,1024,0,0,0,0,33,4.821,78.62,99.737536,P-GPS,,30.4
683700,2026-01-07 15:45:54,0.0,5,6.935,0.0,0.0,0.0,24.5,7.2,4.1,1024,1024,1024,1024,0,0,0,0,33,4.821,78.62,99.737536,P-GPS,,30.4
683800,2026-01-07 15:45:54,0.0,5,6.935,0.0,0.0,0.0,24.5,6.9,4.2,1024,1024,1024,1024,0,0,0,0,33,4.821,78.62,99.737536,P-GPS,,30.4
683900,2026-01-07 15:45:54,0.0,5,6.935,0.0,0.0,0.0,24.5,7.2,4.0,1024,1024,1024,1024,0,0,0,0,33,4.821,78.62,99.737536,P-GPS,,30.4
684000,2026-01-07 15:45:54,0.0,5,6.935,0.0,0.0,0.0,24.5,6.7,3.8,1024,1024,1024,1024,0,0,0,0,33,4.821,78.62,99.737536,P-GPS,,30.4
684100,2026-01-07 15:45:54,0.0,5,6.935,0.0,0.0,0.0,24.5,6.6,4.0,1024,1024,1024,1024,0,0,0,0,33,4.821,78.62,99.737536,P-GPS,,30.4
684200,2026-01-07 15:45:54,0.0,5,6.935,0.0,0.0,0.0,24.6,6.8,4.1,1024,1024,1024,1024,0,0,0,0,33,4.821,78.62,99.737536,P-GPS,,30.4
684300,2026-01-07 15:45:55,0.0,5,6.935,0.0,0.0,0.0,24.6,6.6,4.0,1024,1024,1024,1024,0,0,0,0,33,4.821,78.62,99.737536,P-GPS,,30.4
684400,2026-01-07 15:45:55,0.0,5,6.935,0.0,0.0,0.0,24.6,6.9,4.2,1024,1024,1024,1024,0,0,0,0,33,4.821,78.62,99.737536,P-GPS,,30.4
684500,2026-01-07 15:45:55,0.0,5,6.935,0.0,0.0,0.0,24.5,6.8,4.1,1024,1024,1024,1024,0,0,0,0,33,4.821,78.62,99.737536,P-GPS,,30.4
684600,2026-01-07 15:45:55,0.0,5,6.932,0.0,0.0,0.0,24.5,6.9,4.2,1024,1024,1024,1024,0,0,0,0,33,4.917,78.62,99.737536,P-GPS,,30.4
684700,2026-01-07 15:45:55,0.0,5,6.932,0.0,0.0,0.0,24.5,6.9,3.7,1024,1024,1024,1024,0,0,0,0,33,4.917,78.62,99.737536,P-GPS,,30.4
684800,2026-01-07 15:45:55,0.0,5,6.932,0.0,0.0,0.0,24.5,7.0,3.5,1024,1024,1024,1024,0,0,0,0,33,4.917,78.62,99.737536,P-GPS,,30.4
684900,2026-01-07 15:45:55,0.0,5,6.932,0.0,0.0,0.0,24.6,7.2,3.4,1024,1024,1024,1024,0,0,0,0,33,4.917,78.62,99.737536,P-GPS,,30.4
685000,2026-01-07 15:45:55,0.0,5,6.932,0.0,0.0,0.0,24.6,8.1,3.8,1024,1024,1024,1024,0,0,0,0,33,4.917,78.62,99.737536,P-GPS,,30.4
685100,2026-01-07 15:45:55,0.0,5,6.932,0.0,0.0,0.0,24.7,7.8,4.0,1024,1024,1024,1024,0,0,0,0,33,4.917,78.62,99.737536,P-GPS,,30.4
685200,2026-01-07 15:45:55,0.0,5,6.932,0.0,0.0,0.0,24.6,8.1,3.9,1024,1024,1024,1024,0,0,0,0,33,4.917,78.62,99.737536,P-GPS,,30.4
685300,2026-01-07 15:45:55,0.0,5,6.932,0.0,0.0,0.0,24.6,7.9,3.6,1024,1024,1024,1024,0,0,0,0,33,4.917,78.62,99.737536,P-GPS,,30.4
685400,2026-01-07 15:45:56,0.0,5,6.932,0.0,0.0,0.0,24.5,7.8,3.4,1024,1024,1024,1024,0,0,0,0,33,4.917,78.62,99.737536,P-GPS,,30.4
685500,2026-01-07 15:45:56,0.0,5,6.932,0.0,0.0,0.0,24.5,7.3,3.7,1024,1024,1024,1024,0,0,0,0,33,4.917,78.62,99.737536,P-GPS,,30.4
685600,2026-01-07 15:45:56,0.0,5,6.932,0.0,0.0,0.0,24.4,6.7,3.3,1024,1024,1024,1024,0,0,0,0,33,4.898,78.62,99.737536,P-GPS,,30.4
685700,2026-01-07 15:45:56,0.0,5,6.932,0.0,0.0,0.0,24.3,6.3,3.3,1024,1024,1024,1024,0,0,0,0,33,4.898,78.62,99.737536,P-GPS,,30.4
685800,2026-01-07 15:45:56,0.0,5,6.932,0.0,0.0,0.0,24.5,6.6,3.1,1024,1024,1024,1024,0,0,0,0,33,4.898,78.62,99.409452,P-GPS,,30.3
685900,2026-01-07 15:45:56,0.0,5,6.932,0.0,0.0,0.0,24.5,6.2,3.4,1024,1024,1024,1024,0,0,0,0,33,4.898,78.62,99.409452,P-GPS,,30.3
686000,2026-01-07 15:45:56,0.0,5,6.932,0.0,0.0,0.0,24.5,6.2,3.8,1024,1024,1024,1024,0,0,0,0,33,4.898,78.62,99.409452,P-GPS,,30.3
686100,2026-01-07 15:45:56,0.0,5,6.932,0.0,0.0,0.0,24.5,6.3,4.0,1024,1024,1024,1024,0,0,0,0,33,4.898,78.62,99.409452,P-GPS,,30.3
686200,2026-01-07 15:45:56,0.0,5,6.932,0.0,0.0,0.0,24.4,6.7,3.9,1024,1024,1024,1024,0,0,0,0,33,4.898,78.62,99.409452,P-GPS,,30.3
686300,2026-01-07 15:45:57,0.0,5,6.932,0.0,0.0,0.0,24.5,6.9,3.9,1024,1024,1024,1024,0,0,0,0,33,4.898,78.62,99.737536,P-GPS,,30.4
686400,2026-01-07 15:45:57,0.0,5,6.932,0.0,0.0,0.0,24.5,6.8,4.0,1024,1024,1024,1024,0,0,0,0,33,4.898,78.62,99.737536,P-GPS,,30.4
686500,2026-01-07 15:45:57,0.0,5,6.932,0.0,0.0,0.0,24.5,6.7,4.0,1024,1024,1024,1024,0,0,0,0,33,4.898,78.62,99.737536,P-GPS,,30.4
686600,2026-01-07 15:45:57,0.0,5,6.888,0.0,0.0,0.0,24.5,6.7,4.1,1024,1024,1024,1024,0,0,0,0,33,5.462,78.62,99.737536,P-GPS,,30.4
686700,2026-01-07 15:45:57,0.0,5,6.888,0.0,0.0,0.0,24.4,6.8,4.0,1024,1024,1024,1024,0,0,0,0,33,5.462,78.62,99.737536,P-GPS,,30.4
686800,2026-01-07 15:45:57,0.0,5,6.888,0.0,0.0,0.0,24.5,7.0,3.9,1024,1024,1024,1024,0,0,0,0,33,5.462,78.62,99.737536,P-GPS,,30.4
686900,2026-01-07 15:45:57,0.0,5,6.888,0.0,0.0,0.0,24.5,7.0,3.8,1024,1024,1024,1024,0,0,0,0,33,5.462,78.62,99.737536,P-GPS,,30.4
687000,2026-01-07 15:45:57,0.0,5,6.888,0.0,0.0,0.0,24.5,7.0,3.8,1024,1024,1024,1024,0,0,0,0,33,5.462,78.62,99.737536,P-GPS,,30.4
687100,2026-01-07 15:45:57,0.0,5,6.888,0.0,0.0,0.0,24.5,7.0,3.7,1024,1024,1024,1024,0,0,0,0,33,5.462,78.62,99.737536,P-GPS,,30.4
687200,2026-01-07 15:45:57,0.0,5,6.888,0.0,0.0,0.0,24.5,7.0,3.6,1024,1024,1024,1024,0,0,0,0,33,5.462,78.62,99.737536,P-GPS,,30.4
687300,2026-01-07 15:45:57,0.0,5,6.888,0.0,0.0,0.0,24.5,6.8,3.5,1024,1024,1024,1024,0,0,0,0,33,5.462,78.62,99.737536,P-GPS,,30.4
687400,2026-01-07 15:45:58,0.0,5,6.888,0.0,0.0,0.0,24.5,7.1,3.9,1024,1024,1024,1024,0,0,0,0,33,5.462,78.62,99.737536,P-GPS,,30.4
687500,2026-01-07 15:45:58,0.0,5,6.888,0.0,0.0,0.0,24.6,7.0,3.7,1024,1024,1024,1024,0,0,0,0,33,5.462,78.62,99.737536,P-GPS,,30.4
687600,2026-01-07 15:45:58,0.0,5,6.908,0.0,0.0,0.0,24.6,7.1,3.9,1024,1024,1024,1024,0,0,0,0,33,5.39,78.62,99.737536,P-GPS,,30.4
687700,2026-01-07 15:45:58,0.0,5,6.908,0.0,0.0,0.0,24.6,7.4,4.2,1024,1024,1024,1024,0,0,0,0,33,5.39,78.62,99.737536,P-GPS,,30.4
687800,2026-01-07 15:45:58,0.0,5,6.908,0.0,0.0,0.0,24.6,7.4,4.1,1024,1024,1024,1024,0,0,0,0,33,5.39,78.62,99.737536,P-GPS,,30.4
687900,2026-01-07 15:45:58,0.0,5,6.908,0.0,0.0,0.0,24.6,7.4,3.9,1024,1024,1024,1024,0,0,0,0,33,5.39,78.62,100.06562,P-GPS,,30.5
688000,2026-01-07 15:45:58,0.0,5,6.908,0.0,0.0,0.0,24.5,7.4,3.8,1024,1024,1024,1024,0,0,0,0,33,5.39,78.62,100.06562,P-GPS,,30.5
688100,2026-01-07 15:45:58,0.0,5,6.908,0.0,0.0,0.0,24.6,7.3,3.6,1024,1024,1024,1024,0,0,0,0,33,5.39,78.62,100.06562,P-GPS,,30.5
688200,2026-01-07 15:45:58,0.0,5,6.908,0.0,0.0,0.0,24.6,7.3,3.6,1024,1024,1024,1024,0,0,0,0,33,5.39,78.62,100.06562,P-GPS,,30.5
688300,2026-01-07 15:45:59,0.0,5,6.908,0.0,0.0,0.0,24.6,7.2,3.6,1024,1024,1024,1024,0,0,0,0,33,5.39,78.62,100.06562,P-GPS,,30.5
688400,2026-01-07 15:45:59,0.0,5,6.908,0.0,0.0,0.0,24.6,7.2,3.7,1024,1024,1024,1024,0,0,0,0,33,5.39,78.62,100.06562,P-GPS,,30.5
688500,2026-01-07 15:45:59,0.0,5,6.908,0.0,0.0,0.0,24.5,6.9,3.7,1024,1024,1024,1024,0,0,0,0,33,5.39,78.62,100.06562,P-GPS,,30.5
688600,2026-01-07 15:45:59,0.0,5,6.908,0.0,0.0,0.0,24.6,6.9,3.6,1024,1024,1024,1024,0,0,0,0,33,5.39,78.62,100.06562,P-GPS,,30.5
688700,2026-01-07 15:45:59,0.0,5,6.908,0.0,0.0,0.0,24.6,7.0,3.4,1024,1024,1024,1024,0,0,0,0,33,5.39,78.62,100.06562,P-GPS,,30.5
688800,2026-01-07 15:45:59,0.0,5,6.908,0.0,0.0,0.0,24.7,7.2,3.5,1024,1024,1024,1024,0,0,0,0,33,5.39,78.62,100.06562,P-GPS,,30.5
688900,2026-01-07 15:45:59,0.0,5,6.908,0.0,0.0,0.0,24.6,7.5,3.9,1024,1024,1024,1024,0,0,0,0,33,5.39,78.62,100.06562,P-GPS,,30.5
689000,2026-01-07 15:45:59,0.0,5,6.908,0.0,0.0,0.0,24.6,7.3,3.9,1024,1024,1024,1024,0,0,0,0,33,5.39,78.62,100.06562,P-GPS,,30.5
689100,2026-01-07 15:45:59,0.0,5,6.908,0.0,0.0,0.0,24.6,7.0,3.9,1024,1024,1024,1024,0,0,0,0,33,5.39,78.62,100.06562,P-GPS,,30.5
689200,2026-01-07 15:45:59,0.0,5,6.908,0.0,0.0,0.0,24.6,6.7,3.8,1024,1024,1024,1024,0,0,0,0,33,5.39,78.62,100.06562,P-GPS,,30.5
689300,2026-01-07 15:45:59,0.0,5,6.908,0.0,0.0,0.0,24.6,6.5,3.7,1024,1024,1024,1024,0,0,0,0,33,5.39,78.62,100.393704,P-GPS,,30.6
689400,2026-01-07 15:46:00,0.0,5,6.908,0.0,0.0,0.0,24.6,6.6,3.7,1024,1024,1024,1024,0,0,0,0,33,5.39,78.62,100.393704,P-GPS,,30.6
689500,2026-01-07 15:46:00,0.0,5,6.914,0.0,0.0,0.0,24.6,6.5,3.8,1024,1024,1024,1024,0,0,0,0,33,5.175,78.62,100.393704,P-GPS,,30.6
689600,2026-01-07 15:46:00,0.0,5,6.914,0.0,0.0,0.0,24.6,6.8,4.0,1024,1024,1024,1024,0,0,0,0,33,5.175,78.62,100.393704,P-GPS,,30.6
689700,2026-01-07 15:46:00,0.0,5,6.914,0.0,0.0,0.0,24.7,6.9,4.1,1024,1024,1024,1024,0,0,0,0,33,5.175,78.62,100.393704,P-GPS,,30.6
689800,2026-01-07 15:46:00,0.0,5,6.914,0.0,0.0,0.0,24.7,6.6,4.3,1024,1024,1024,1024,0,0,0,0,33,5.175,78.62,100.393704,P-GPS,,30.6
689900,2026-01-07 15:46:00,0.0,5,6.914,0.0,0.0,0.0,24.7,6.8,4.2,1024,1024,1024,1024,0,0,0,0,33,5.175,78.62,100.393704,P-GPS,,30.6
690000,2026-01-07 15:46:00,0.0,5,6.914,0.0,0.0,0.0,24.6,7.2,4.4,1024,1024,1024,1024,0,0,0,0,33,5.175,78.62,100.393704,P-GPS,,30.6
690100,2026-01-07 15:46:00,0.0,5,6.914,0.0,0.0,0.0,24.6,6.9,4.1,1024,1024,1024,1024,0,0,0,0,33,5.175,78.62,100.393704,P-GPS,,30.6
690200,2026-01-07 15:46:00,0.0,5,6.914,0.0,0.0,0.0,24.6,6.9,3.9,1024,1024,1024,1024,0,0,0,0,33,5.175,78.62,100.393704,P-GPS,,30.6
690300,2026-01-07 15:46:01,0.0,5,6.914,0.0,0.0,0.0,24.6,6.7,3.6,1024,1024,1024,1024,0,0,0,0,33,5.175,78.62,100.393704,P-GPS,,30.6
690400,2026-01-07 15:46:01,0.0,5,6.914,0.0,0.0,0.0,24.5,7.1,3.8,1024,1024,1024,1024,0,0,0,0,33,5.175,78.62,100.393704,P-GPS,,30.6
690500,2026-01-07 15:46:01,0.0,5,6.914,0.0,0.0,0.0,24.6,7.2,3.8,1024,1024,1024,1024,0,0,0,0,33,5.175,78.62,100.393704,P-GPS,,30.6
690600,2026-01-07 15:46:01,0.0,5,6.914,0.0,0.0,0.0,24.7,7.1,3.9,1024,1024,1024,1024,0,0,0,0,33,5.175,78.62,100.393704,P-GPS,,30.6
690700,2026-01-07 15:46:01,0.0,5,6.914,0.0,0.0,0.0,24.6,7.3,4.0,1024,1024,1024,1024,0,0,0,0,33,5.175,78.62,100.393704,P-GPS,,30.6
690800,2026-01-07 15:46:01,0.0,5,6.914,0.0,0.0,0.0,24.6,6.8,3.8,1024,1024,1024,1024,0,0,0,0,33,5.175,78.62,100.06562,P-GPS,,30.5
690900,2026-01-07 15:46:01,0.0,5,6.914,0.0,0.0,0.0,24.5,6.5,3.8,1024,1024,1024,1024,0,0,0,0,33,5.175,78.62,100.06562,P-GPS,,30.5
691000,2026-01-07 15:46:01,0.0,5,6.914,0.0,0.0,0.0,24.5,6.3,4.1,1024,1024,1024,1024,0,0,0,0,33,5.175,78.62,100.06562,P-GPS,,30.5
691100,2026-01-07 15:46:01,0.0,5,6.914,0.0,0.0,0.0,24.5,5.9,3.8,1024,1024,1024,1024,0,0,0,0,33,5.175,78.62,100.393704,P-GPS,,30.6
691200,2026-01-07 15:46:01,0.0,5,6.914,0.0,0.0,0.0,24.5,6.0,3.9,1024,1024,1024,1024,0,0,0,0,33,5.175,78.62,100.393704,P-GPS,,30.6
691300,2026-01-07 15:46:01,0.0,5,6.914,0.0,0.0,0.0,24.6,6.5,4.0,1024,1024,1024,1024,0,0,0,0,33,5.175,78.62,100.393704,P-GPS,,30.6
691400,2026-01-07 15:46:02,0.0,5,6.914,0.0,0.0,0.0,24.6,6.8,4.1,1024,1024,1024,1024,0,0,0,0,33,5.175,78.62,100.393704,P-GPS,,30.6
691500,2026-01-07 15:46:02,0.0,5,6.914,0.0,0.0,0.0,24.6,7.2,4.2,1024,1024,1024,1024,0,0,0,0,33,5.175,78.62,100.393704,P-GPS,,30.6
691600,2026-01-07 15:46:02,0.0,5,6.914,0.0,0.0,0.0,24.6,7.1,4.2,1024,1024,1024,1024,0,0,0,0,33,5.175,78.62,100.393704,P-GPS,,30.6
691700,2026-01-07 15:46:02,0.0,5,6.914,0.0,0.0,0.0,24.6,7.0,3.8,1024,1024,1024,1024,0,0,0,0,33,5.175,78.62,100.393704,P-GPS,,30.6
691800,2026-01-07 15:46:02,0.0,5,6.91,0.0,0.0,0.0,24.6,7.2,4.0,1024,1024,1024,1024,0,0,0,0,32,5.183,78.8,100.06562,P-GPS,,30.5
691900,2026-01-07 15:46:02,0.0,5,6.91,0.0,0.0,0.0,24.6,6.7,3.6,1024,1024,1024,1024,0,0,0,0,32,5.183,78.8,100.06562,P-GPS,,30.5
692000,2026-01-07 15:46:02,0.0,5,6.91,0.0,0.0,0.0,24.5,6.5,3.5,1024,1024,1024,1024,0,0,0,0,32,5.183,78.8,100.06562,P-GPS,,30.5
692100,2026-01-07 15:46:02,0.0,5,6.91,0.0,0.0,0.0,24.5,6.7,3.7,1024,1024,1024,1024,0,0,0,0,32,5.183,78.8,100.06562,P-GPS,,30.5
692200,2026-01-07 15:46:02,0.0,5,6.91,0.0,0.0,0.0,24.6,6.5,3.7,1024,1024,1024,1024,0,0,0,0,32,5.183,78.8,100.06562,P-GPS,,30.5
692300,2026-01-07 15:46:02,0.0,5,6.91,0.0,0.0,0.0,24.5,6.1,3.6,1024,1024,1024,1024,0,0,0,0,32,5.183,78.8,100.06562,P-GPS,,30.5
692400,2026-01-07 15:46:03,0.0,5,6.91,0.0,0.0,0.0,24.5,6.2,3.7,1024,1024,1024,1024,0,0,0,0,32,5.183,78.8,100.06562,P-GPS,,30.5
692500,2026-01-07 15:46:03,0.0,5,6.91,0.0,0.0,0.0,24.6,6.0,3.5,1024,1024,1024,1024,0,0,0,0,32,5.183,78.8,100.06562,P-GPS,,30.5
692600,2026-01-07 15:46:03,0.0,5,6.91,0.0,0.0,0.0,24.6,6.2,3.5,1024,1024,1024,1024,0,0,0,0,32,5.183,78.8,100.06562,P-GPS,,30.5
692700,2026-01-07 15:46:03,0.0,5,6.91,0.0,0.0,0.0,24.6,6.3,3.6,1024,1024,1024,1024,0,0,0,0,32,5.183,78.8,100.06562,P-GPS,,30.5
692800,2026-01-07 15:46:03,0.0,5,6.91,0.0,0.0,0.0,24.4,6.4,3.7,1024,1024,1024,1024,0,0,0,0,32,5.183,78.8,100.06562,P-GPS,,30.5
692900,2026-01-07 15:46:03,0.0,5,6.904,0.0,0.0,0.0,24.5,5.8,3.7,1024,1024,1024,1024,0,0,0,0,32,5.312,78.62,100.06562,P-GPS,,30.5
693000,2026-01-07 15:46:03,0.0,5,6.904,0.0,0.0,0.0,24.5,6.0,3.8,1024,1024,1024,1024,0,0,0,0,32,5.312,78.62,100.06562,P-GPS,,30.5
693100,2026-01-07 15:46:03,0.0,5,6.904,0.0,0.0,0.0,24.6,6.2,3.7,1024,1024,1024,1024,0,0,0,0,32,5.312,78.62,100.06562,P-GPS,,30.5
693200,2026-01-07 15:46:03,0.0,5,6.904,0.0,0.0,0.0,24.6,6.5,3.6,1024,1024,1024,1024,0,0,0,0,32,5.312,78.62,100.06562,P-GPS,,30.5
693300,2026-01-07 15:46:04,0.0,5,6.904,0.0,0.0,0.0,24.7,7.1,3.5,1024,1024,1024,1024,0,0,0,0,32,5.312,78.62,100.06562,P-GPS,,30.5
693400,2026-01-07 15:46:04,0.0,5,6.904,0.0,0.0,0.0,24.5,6.7,3.3,1024,1024,1024,1024,0,0,0,0,32,5.312,78.62,100.06562,P-GPS,,30.5
693500,2026-01-07 15:46:04,0.0,5,6.904,0.0,0.0,0.0,24.5,7.0,3.6,1024,1024,1024,1024,0,0,0,0,32,5.312,78.62,100.06562,P-GPS,,30.5
693600,2026-01-07 15:46:04,0.0,5,6.904,0.0,0.0,0.0,24.6,6.9,3.3,1024,1024,1024,1024,0,0,0,0,32,5.312,78.62,100.06562,P-GPS,,30.5
693700,2026-01-07 15:46:04,0.0,5,6.904,0.0,0.0,0.0,24.5,7.1,3.4,1024,1024,1024,1024,0,0,0,0,32,5.312,78.62,100.06562,P-GPS,,30.5
693800,2026-01-07 15:46:04,0.0,5,6.904,0.0,0.0,0.0,24.5,7.2,3.3,1024,1024,1024,1024,0,0,0,0,32,5.312,78.62,100.06562,P-GPS,,30.5
693900,2026-01-07 15:46:04,0.0,5,6.904,0.0,0.0,0.0,24.5,7.1,3.1,1024,1024,1111,1024,0,0,13,0,32,5.312,78.62,100.06562,P-GPS,,30.5
694000,2026-01-07 15:46:04,0.0,5,6.894,0.0,0.0,0.0,24.5,7.0,2.9,1024,1024,1304,1024,0,0,42,0,32,5.26,78.8,100.06562,P-GPS,,30.5
694100,2026-01-07 15:46:04,0.0,5,6.894,0.0,0.0,0.0,24.5,6.5,2.5,1024,1024,1684,1024,0,0,100,0,32,5.26,78.8,100.06562,P-GPS,,30.5
694200,2026-01-07 15:46:04,0.0,5,6.894,0.0,0.0,0.0,24.6,6.4,2.4,1024,1024,1684,1024,0,0,100,0,32,5.26,78.8,100.06562,P-GPS,,30.5
694300,2026-01-07 15:46:04,0.0,5,6.894,0.0,0.0,-0.447388,24.6,6.4,2.3,1024,1024,1684,1024,0,0,100,0,32,5.26,78.8,100.06562,P-GPS,,30.5
694400,2026-01-07 15:46:05,0.0,5,6.894,0.0,0.0,-1.11847,24.6,6.7,2.7,1024,1024,1684,1024,0,0,100,0,32,5.26,78.8,100.393704,P-GPS,,30.6
694500,2026-01-07 15:46:05,0.0,5,6.894,0.0,0.0,-1.789552,24.5,6.6,2.8,1024,1024,1684,1024,0,0,100,0,32,5.26,78.8,100.721788,P-GPS,,30.7
694600,2026-01-07 15:46:05,0.0,5,6.894,0.0,0.0,-2.684328,24.4,6.6,2.8,1024,1024,1684,1024,0,0,100,0,32,5.26,78.8,101.049872,P-GPS,,30.8
694700,2026-01-07 15:46:05,0.0,5,6.894,0.0,0.0,-3.35541,24.5,6.9,3.1,1024,1024,1684,1024,0,0,100,0,32,5.26,78.8,101.377956,P-GPS,,30.9
694800,2026-01-07 15:46:05,0.0,5,6.894,0.0,0.0,-3.802798,24.5,7.1,3.4,1024,1024,1684,1024,0,0,100,0,32,5.26,78.8,102.034124,P-GPS,,31.1
694900,2026-01-07 15:46:05,0.0,5,6.894,0.0,0.0,-4.250186,24.6,7.3,3.8,1024,1024,1684,1024,0,0,100,0,32,5.26,78.8,102.690292,P-GPS,,31.3
695000,2026-01-07 15:46:05,0.0,5,6.894,0.0,0.0,-4.47388,24.6,7.3,3.9,1024,1024,1684,1024,0,0,100,0,32,5.26,78.8,103.34646,P-GPS,,31.5
695100,2026-01-07 15:46:05,0.0,5,6.773,0.0,0.0,-4.47388,24.6,6.9,3.7,1024,1024,1684,1024,0,0,100,0,32,7.211,78.8,104.002628,P-GPS,,31.7
695200,2026-01-07 15:46:05,0.0,5,6.773,0.0,0.0,-4.47388,24.5,6.6,3.3,1024,1024,1684,1024,0,0,100,0,32,7.211,78.8,104.658796,P-GPS,,31.9
741400,2026-01-07 15:46:52,0.0,5,6.894,0.0,0.0,4.026492,17.6,4.8,4.1,1024,1024,364,1024,0,0,-100,0,29,4.582,78.98,104.330712,P-GPS,,31.8
741500,2026-01-07 15:46:52,0.0,5,6.894,0.0,0.0,4.026492,17.6,5.2,4.2,1024,1024,364,1024,0,0,-100,0,29,4.582,78.98,103.674544,P-GPS,,31.6
741600,2026-01-07 15:46:52,0.0,5,6.894,0.0,0.0,4.026492,17.6,5.1,4.0,1024,1024,364,1024,0,0,-100,0,29,4.582,78.98,103.018376,P-GPS,,31.4
741700,2026-01-07 15:46:52,0.0,5,6.894,0.0,0.0,3.802798,17.7,5.3,4.1,1024,1024,364,1024,0,0,-100,0,29,4.582,78.98,102.690292,P-GPS,,31.3
741800,2026-01-07 15:46:52,0.0,5,6.894,0.0,0.0,3.802798,17.7,5.4,4.2,1024,1024,364,1024,0,0,-100,0,29,4.582,78.98,102.034124,P-GPS,,31.1
741900,2026-01-07 15:46:52,0.0,5,6.894,0.0,0.0,3.802798,17.7,5.6,3.9,1024,1024,364,1024,0,0,-100,0,29,4.582,78.98,101.377956,P-GPS,,30.9
742000,2026-01-07 15:46:52,0.0,5,6.894,0.0,0.0,3.802798,17.8,5.9,3.7,1024,1024,364,1024,0,0,-100,0,29,4.582,78.98,101.049872,P-GPS,,30.8
742100,2026-01-07 15:46:52,0.0,5,6.894,0.0,0.0,3.802798,17.7,5.4,3.9,1024,1024,364,1024,0,0,-100,0,29,4.582,78.98,100.393704,P-GPS,,30.6
742200,2026-01-07 15:46:52,0.0,5,6.894,0.0,0.0,3.802798,17.7,5.2,3.8,1024,1024,364,1024,0,0,-100,0,29,4.582,78.98,99.737536,P-GPS,,30.4
742300,2026-01-07 15:46:53,0.0,5,6.894,0.0,0.0,3.802798,17.6,4.9,4.1,1024,1024,364,1024,0,0,-100,0,29,4.582,78.98,99.081368,P-GPS,,30.2
742400,2026-01-07 15:46:53,0.0,5,6.892,0.0,0.0,3.802798,17.6,5.4,4.0,1024,1024,364,1024,0,0,-100,0,28,4.646,78.8,98.4252,P-GPS,,30.0
742500,2026-01-07 15:46:53,0.0,5,6.892,0.0,0.0,3.802798,17.6,5.1,4.1,1024,1024,364,1024,0,0,-100,0,28,4.646,78.8,97.769032,P-GPS,,29.8
742600,2026-01-07 15:46:53,0.0,5,6.892,0.0,0.0,3.802798,17.7,5.2,4.3,1024,1024,364,1024,0,0,-100,0,28,4.646,78.8,97.112864,P-GPS,,29.6
742700,2026-01-07 15:46:53,0.0,5,6.892,0.0,0.0,4.026492,17.7,5.2,4.6,1024,1024,364,1024,0,0,-100,0,28,4.646,78.8,96.456696,P-GPS,,29.4
742800,2026-01-07 15:46:53,0.0,5,6.892,0.0,0.0,4.026492,17.7,5.0,4.9,1024,1024,364,1024,0,0,-100,0,28,4.646,78.8,95.800528,P-GPS,,29.2
742900,2026-01-07 15:46:53,0.0,5,6.892,0.0,0.0,4.026492,17.5,5.1,4.9,1024,1024,364,1024,0,0,-100,0,28,4.646,78.8,95.14436,P-GPS,,29.0
743000,2026-01-07 15:46:53,0.0,5,6.892,0.0,0.0,4.026492,17.5,6.1,4.4,1024,1024,364,1024,0,0,-100,0,28,4.646,78.8,94.488192,P-GPS,,28.8
743100,2026-01-07 15:46:53,0.0,5,6.892,0.0,0.0,4.026492,17.5,5.9,4.2,1024,1024,364,1024,0,0,-100,0,28,4.646,78.8,93.832024,P-GPS,,28.6
743200,2026-01-07 15:46:53,0.0,5,6.892,0.0,0.0,4.026492,17.5,6.1,4.2,1024,1024,364,1024,0,0,-100,0,28,4.646,78.8,93.175856,P-GPS,,28.4
743300,2026-01-07 15:46:53,0.0,5,6.892,0.0,0.0,4.026492,17.6,5.8,4.1,1024,1024,364,1024,0,0,-100,0,28,4.646,78.8,92.519688,P-GPS,,28.2
