time(millisecond),timestamp,speed(mph),gpslevel,voltage(v),xSpeed(mph),ySpeed(mph),zSpeed(mph),compass_heading(degrees),pitch(degrees),roll(degrees),rc_elevator,rc_aileron,rc_throttle,rc_rudder,rc_elevator(percent),rc_aileron(percent),rc_throttle(percent),rc_rudder(percent),battery_percent,current(A),battery_temperature(f),ascent(feet),flycState,message,height_above_takeoff(meters)
704600,2026-01-07 15:46:15,0.0,5,6.836,0.0,0.0,0.0,24.7,7.4,4.4,1024,1024,1024,1024,0,0,0,0,31,6.329,78.8,165.354336,P-GPS,,50.4
704700,2026-01-07 15:46:15,0.0,5,6.836,0.0,0.0,0.0,24.7,7.2,4.3,1024,1024,1024,1024,0,0,0,0,31,6.329,78.8,165.354336,P-GPS,,50.4
704800,2026-01-07 15:46:15,0.0,5,6.836,0.0,0.0,0.0,24.7,7.3,4.2,1024,1024,1024,1024,0,0,0,0,31,6.329,78.8,165.68242,P-GPS,,50.5
704900,2026-01-07 15:46:15,0.0,5,6.836,0.0,0.0,0.0,24.7,7.5,4.3,1024,1024,1024,1024,0,0,0,0,31,6.329,78.8,165.68242,P-GPS,,50.5
705000,2026-01-07 15:46:15,0.0,5,6.836,0.0,0.0,0.0,24.7,7.5,4.3,1024,1024,1024,1024,0,0,0,0,31,6.329,78.8,165.68242,P-GPS,,50.5
705100,2026-01-07 15:46:15,0.0,5,6.836,0.0,0.0,0.0,24.7,7.5,4.2,1024,1024,1024,1024,0,0,0,0,31,6.329,78.8,165.68242,P-GPS,,50.5
705200,2026-01-07 15:46:15,0.0,5,6.836,0.0,0.0,0.0,24.7,7.7,4.3,1024,1024,1024,1024,0,0,0,0,31,6.329,78.8,165.68242,P-GPS,,50.5
705300,2026-01-07 15:46:15,0.0,5,6.836,0.0,0.0,0.0,24.7,7.7,4.3,1024,1024,1024,1024,0,0,0,0,31,6.329,78.8,165.68242,P-GPS,,50.5
705400,2026-01-07 15:46:16,0.0,5,6.836,0.0,0.0,0.0,24.7,7.5,4.2,1024,1024,1024,1024,0,0,0,0,31,6.329,78.8,165.68242,P-GPS,,50.5
705500,2026-01-07 15:46:16,0.0,5,6.836,0.0,0.0,0.0,24.6,6.9,4.0,1024,1024,1024,1024,0,0,0,0,31,6.329,78.8,165.68242,P-GPS,,50.5
705600,2026-01-07 15:46:16,0.0,5,6.915,0.0,0.0,0.0,24.5,6.3,4.1,1024,1024,1024,1024,0,0,0,0,31,4.174,78.8,165.68242,P-GPS,,50.5
705700,2026-01-07 15:46:16,0.0,5,6.915,0.0,0.0,0.0,24.7,5.8,4.0,1024,1024,1024,1024,0,0,0,0,31,4.174,78.8,165.68242,P-GPS,,50.5
705800,2026-01-07 15:46:16,0.0,5,6.915,0.0,0.0,0.0,24.6,5.8,4.1,1024,1024,1024,1024,0,0,0,0,31,4.174,78.8,165.68242,P-GPS,,50.5
705900,2026-01-07 15:46:16,0.0,5,6.915,0.0,0.0,0.0,24.6,6.0,4.2,1024,1024,1024,1024,0,0,0,0,31,4.174,78.8,165.68242,P-GPS,,50.5
706000,2026-01-07 15:46:16,0.0,5,6.915,0.0,0.0,0.0,24.6,6.0,4.2,1024,1024,1024,1024,0,0,0,0,31,4.174,78.8,165.68242,P-GPS,,50.5
706100,2026-01-07 15:46:16,0.0,5,6.915,0.0,0.0,0.0,24.6,5.5,4.1,1024,1024,1024,1024,0,0,0,0,31,4.174,78.8,165.68242,P-GPS,,50.5
706200,2026-01-07 15:46:16,0.0,5,6.915,0.0,0.0,0.0,24.7,5.8,4.2,1024,1024,1024,1024,0,0,0,0,31,4.174,78.8,165.354336,P-GPS,,50.4
706300,2026-01-07 15:46:17,0.0,5,6.915,0.0,0.0,0.0,24.6,5.9,4.0,1024,1024,1024,1024,0,0,0,0,31,4.174,78.8,165.354336,P-GPS,,50.4
706400,2026-01-07 15:46:17,0.0,5,6.915,0.0,0.0,0.0,24.6,6.3,4.4,1024,1024,1024,1024,0,0,0,0,31,4.174,78.8,165.354336,P-GPS,,50.4
706500,2026-01-07 15:46:17,0.0,5,6.915,0.0,0.0,0.0,24.6,6.1,3.9,1024,1024,1024,1024,0,0,0,0,31,4.174,78.8,165.354336,P-GPS,,50.4
706600,2026-01-07 15:46:17,0.0,5,6.905,0.0,0.0,0.0,24.6,6.1,4.0,1024,1024,1024,1024,0,0,0,0,31,4.939,78.8,165.354336,P-GPS,,50.4
706700,2026-01-07 15:46:17,0.0,5,6.905,0.0,0.0,0.0,24.6,6.4,4.1,1024,1024,1024,1024,0,0,0,0,31,4.939,78.8,165.354336,P-GPS,,50.4
706800,2026-01-07 15:46:17,0.0,5,6.905,0.0,0.0,0.0,24.6,6.1,3.7,1024,1024,1024,1024,0,0,0,0,31,4.939,78.8,165.354336,P-GPS,,50.4
706900,2026-01-07 15:46:17,0.0,5,6.905,0.0,0.0,0.0,24.5,6.2,4.0,1024,1024,1024,1024,0,0,0,0,31,4.939,78.8,165.354336,P-GPS,,50.4
707000,2026-01-07 15:46:17,0.0,5,6.905,0.0,0.0,0.0,24.6,5.9,3.8,1024,1024,1024,1024,0,0,0,0,31,4.939,78.8,165.354336,P-GPS,,50.4
707100,2026-01-07 15:46:17,0.0,5,6.905,0.0,0.0,0.0,24.6,6.2,3.8,1024,1024,1024,1024,0,0,0,0,31,4.939,78.8,165.354336,P-GPS,,50.4
707200,2026-01-07 15:46:17,0.0,5,6.905,0.0,0.0,0.0,24.5,6.2,3.6,1024,1024,1024,1024,0,0,0,0,31,4.939,78.8,165.354336,P-GPS,,50.4
707300,2026-01-07 15:46:17,0.0,5,6.905,0.0,0.0,0.0,24.5,6.2,3.8,1024,1024,1024,1024,0,0,0,0,31,4.939,78.8,165.354336,P-GPS,,50.4
707400,2026-01-07 15:46:18,0.0,5,6.905,0.0,0.0,0.0,24.5,6.3,3.9,1024,1024,1024,1024,0,0,0,0,31,4.939,78.8,165.026252,P-GPS,,50.3
707500,2026-01-07 15:46:18,0.0,5,6.905,0.0,0.0,0.0,24.6,6.3,4.0,1024,1024,1024,1024,0,0,0,0,31,4.939,78.8,165.026252,P-GPS,,50.3
707600,2026-01-07 15:46:18,0.0,5,6.896,0.0,0.0,0.0,24.6,6.3,4.1,1024,1024,1024,1024,0,0,0,0,31,4.94,78.8,165.026252,P-GPS,,50.3
707700,2026-01-07 15:46:18,0.0,5,6.896,0.0,0.0,0.0,24.6,6.2,4.1,1024,1024,1024,1024,0,0,0,0,31,4.94,78.8,165.026252,P-GPS,,50.3
707800,2026-01-07 15:46:18,0.0,5,6.896,0.0,0.0,0.0,24.5,6.2,4.2,1024,1024,1024,1024,0,0,0,0,31,4.94,78.8,165.026252,P-GPS,,50.3
707900,2026-01-07 15:46:18,0.0,5,6.896,0.0,0.0,0.0,24.5,6.2,4.3,1024,1024,1024,1024,0,0,0,0,31,4.94,78.8,164.698168,P-GPS,,50.2
708000,2026-01-07 15:46:18,0.0,5,6.896,0.0,0.0,0.0,24.5,5.8,4.1,1024,1024,1024,1024,0,0,0,0,31,4.94,78.8,164.698168,P-GPS,,50.2
708100,2026-01-07 15:46:18,0.0,5,6.896,0.0,0.0,0.0,24.5,5.9,4.1,1024,1024,1024,1024,0,0,0,0,31,4.94,78.8,164.698168,P-GPS,,50.2
708200,2026-01-07 15:46:18,0.0,5,6.896,0.0,0.0,0.0,24.5,6.1,4.2,1024,1024,1024,1024,0,0,0,0,31,4.94,78.8,164.698168,P-GPS,,50.2
708300,2026-01-07 15:46:19,0.0,5,6.896,0.0,0.0,0.0,24.5,6.1,4.1,1024,1024,1024,1024,0,0,0,0,31,4.94,78.8,164.698168,P-GPS,,50.2
708400,2026-01-07 15:46:19,0.0,5,6.896,0.0,0.0,0.0,24.5,6.0,4.1,1024,1024,1024,1024,0,0,0,0,31,4.94,78.8,164.370084,P-GPS,,50.1
708500,2026-01-07 15:46:19,0.0,5,6.896,0.0,0.0,0.0,24.5,5.7,3.8,1024,1024,1024,1024,0,0,0,0,31,4.94,78.8,164.370084,P-GPS,,50.1
708600,2026-01-07 15:46:19,0.0,5,6.887,0.0,0.0,0.0,24.5,5.8,3.8,1024,1024,1024,1024,0,0,0,0,31,5.157,78.98,164.370084,P-GPS,,50.1
708700,2026-01-07 15:46:19,0.0,5,6.887,0.0,0.0,0.0,24.6,6.3,3.6,1024,1024,1024,1024,0,0,0,0,31,5.157,78.98,164.370084,P-GPS,,50.1
708800,2026-01-07 15:46:19,0.0,5,6.887,0.0,0.0,0.0,24.6,6.6,3.7,1024,1024,1024,1024,0,0,0,0,31,5.157,78.98,164.370084,P-GPS,,50.1
708900,2026-01-07 15:46:19,0.0,5,6.887,0.0,0.0,0.0,24.6,6.9,3.9,1024,1024,1024,1024,0,0,0,0,31,5.157,78.98,164.370084,P-GPS,,50.1
709000,2026-01-07 15:46:19,0.0,5,6.887,0.0,0.0,0.0,24.6,6.9,4.2,1024,1024,1024,1024,0,0,0,0,31,5.157,78.98,164.370084,P-GPS,,50.1
709100,2026-01-07 15:46:19,0.0,5,6.887,0.0,0.0,0.0,24.6,6.4,3.9,1024,1024,1024,1024,0,0,0,0,31,5.157,78.98,164.370084,P-GPS,,50.1
709200,2026-01-07 15:46:19,0.0,5,6.887,0.0,0.0,0.0,24.6,6.4,3.6,1024,1024,1024,1024,0,0,0,0,31,5.157,78.98,164.370084,P-GPS,,50.1
709300,2026-01-07 15:46:20,0.0,5,6.887,0.0,0.0,0.0,24.6,6.5,3.8,1024,1024,1024,1024,0,0,0,0,31,5.157,78.98,164.370084,P-GPS,,50.1
709400,2026-01-07 15:46:20,0.0,5,6.887,0.0,0.0,0.0,24.6,6.8,3.9,1024,1024,1024,1024,0,0,0,0,31,5.157,78.98,164.370084,P-GPS,,50.1
709500,2026-01-07 15:46:20,0.0,5,6.887,0.0,0.0,0.0,24.6,7.0,4.1,1024,1024,1024,1024,0,0,0,0,31,5.157,78.98,164.370084,P-GPS,,50.1
709600,2026-01-07 15:46:20,0.0,5,6.888,0.0,0.0,0.0,24.6,7.1,4.1,1024,1024,1024,1024,0,0,0,0,31,5.152,78.98,164.370084,P-GPS,,50.1
709700,2026-01-07 15:46:20,0.0,5,6.888,0.0,0.0,0.0,24.6,6.8,4.0,1024,1024,1024,1024,0,0,0,0,31,5.152,78.98,164.370084,P-GPS,,50.1
709800,2026-01-07 15:46:20,0.0,5,6.888,0.0,0.0,0.0,24.6,6.7,4.0,1024,1024,1024,1024,0,0,0,0,31,5.152,78.98,164.370084,P-GPS,,50.1
709900,2026-01-07 15:46:20,0.0,5,6.888,0.0,0.0,0.0,24.5,6.9,4.1,1024,1024,1024,1024,0,0,0,0,31,5.152,78.98,164.370084,P-GPS,,50.1
710000,2026-01-07 15:46:20,0.0,5,6.888,0.0,0.0,0.0,24.6,6.7,4.0,1024,1024,1024,1024,0,0,0,0,31,5.152,78.98,164.370084,P-GPS,,50.1
710100,2026-01-07 15:46:20,0.0,5,6.888,0.0,0.0,0.0,24.6,6.5,3.9,1024,1024,1024,1024,0,0,0,0,31,5.152,78.98,164.370084,P-GPS,,50.1
710200,2026-01-07 15:46:20,0.0,5,6.888,0.0,0.0,0.0,24.6,6.4,4.0,1024,1024,1024,1024,0,0,0,0,31,5.152,78.98,164.370084,P-GPS,,50.1
710300,2026-01-07 15:46:20,0.0,5,6.888,0.0,0.0,0.0,24.6,6.5,4.0,1024,1024,1024,1024,0,0,0,0,31,5.152,78.98,164.370084,P-GPS,,50.1
710400,2026-01-07 15:46:21,0.0,5,6.888,0.0,0.0,0.0,24.6,6.5,4.0,1024,1024,1024,1024,0,0,0,0,31,5.152,78.98,164.370084,P-GPS,,50.1
710500,2026-01-07 15:46:21,0.0,5,6.889,0.0,0.0,0.0,24.6,6.7,4.0,1024,1024,1024,1024,0,0,0,0,31,5.128,78.98,164.370084,P-GPS,,50.1
710600,2026-01-07 15:46:21,0.0,5,6.889,0.0,0.0,0.0,24.6,6.9,4.0,1024,1024,1024,1024,0,0,0,0,31,5.128,78.98,164.370084,P-GPS,,50.1
710700,2026-01-07 15:46:21,0.0,5,6.889,0.0,0.0,0.0,24.6,6.8,4.0,1024,1024,1024,1024,0,0,0,0,31,5.128,78.98,164.370084,P-GPS,,50.1
710800,2026-01-07 15:46:21,0.0,5,6.889,0.0,0.0,0.0,24.6,6.8,4.0,1024,1024,1024,1024,0,0,0,0,31,5.128,78.98,164.370084,P-GPS,,50.1
710900,2026-01-07 15:46:21,0.0,5,6.889,0.0,0.0,0.0,24.6,6.8,4.0,1024,1024,1024,1024,0,0,0,0,31,5.128,78.98,164.370084,P-GPS,,50.1
711000,2026-01-07 15:46:21,0.0,5,6.889,0.0,0.0,0.0,24.6,6.7,4.0,1024,1024,1024,1024,0,0,0,0,31,5.128,78.98,164.370084,P-GPS,,50.1
711100,2026-01-07 15:46:21,0.0,5,6.889,0.0,0.0,0.0,24.6,6.5,3.9,1024,1024,1024,1024,0,0,0,0,31,5.128,78.98,164.370084,P-GPS,,50.1
711200,2026-01-07 15:46:21,0.0,5,6.889,0.0,0.0,0.0,24.6,6.5,3.9,1024,1024,1024,1024,0,0,0,0,31,5.128,78.98,164.370084,P-GPS,,50.1
711300,2026-01-07 15:46:22,0.0,5,6.889,0.0,0.0,0.0,24.6,6.5,3.9,1024,1024,1024,1024,0,0,0,0,31,5.128,78.98,164.370084,P-GPS,,50.1
711400,2026-01-07 15:46:22,0.0,5,6.889,0.0,0.0,0.0,24.6,6.5,4.0,1024,1024,1024,1024,0,0,0,0,31,5.128,78.98,164.370084,P-GPS,,50.1
711500,2026-01-07 15:46:22,0.0,5,6.889,0.0,0.0,0.0,24.6,6.6,4.0,1024,1024,1024,1024,0,0,0,0,31,5.128,78.98,164.370084,P-GPS,,50.1
711600,2026-01-07 15:46:22,0.0,5,6.889,0.0,0.0,0.0,24.6,6.8,4.1,1024,1024,1024,1024,0,0,0,0,31,5.128,78.98,164.370084,P-GPS,,50.1
711700,2026-01-07 15:46:22,0.0,5,6.889,0.0,0.0,0.0,24.6,6.9,4.3,1024,1024,1024,1024,0,0,0,0,31,5.128,78.98,164.370084,P-GPS,,50.1
711800,2026-01-07 15:46:22,0.0,5,6.889,0.0,0.0,0.0,24.5,7.1,4.5,1024,1024,1024,1024,0,0,0,0,31,5.128,78.98,164.370084,P-GPS,,50.1
711900,2026-01-07 15:46:22,0.0,5,6.889,0.0,0.0,0.0,24.6,6.8,4.2,1024,1024,1024,1024,0,0,0,0,31,5.128,78.98,164.370084,P-GPS,,50.1
712000,2026-01-07 15:46:22,0.0,5,6.889,0.0,0.0,0.0,24.6,6.7,4.0,1024,1024,1024,1024,0,0,0,0,31,5.128,78.98,164.370084,P-GPS,,50.1
712100,2026-01-07 15:46:22,0.0,5,6.889,0.0,0.0,0.0,24.6,6.7,4.0,1024,1024,1024,1024,0,0,0,0,31,5.128,78.98,164.370084,P-GPS,,50.1
712200,2026-01-07 15:46:22,0.0,5,6.889,0.0,0.0,0.0,24.6,6.8,4.0,1024,1024,1024,1024,0,0,0,0,31,5.128,78.98,164.370084,P-GPS,,50.1
712300,2026-01-07 15:46:22,0.0,5,6.889,0.0,0.0,0.0,24.6,6.6,3.9,1024,1024,1024,1024,0,0,0,0,31,5.128,78.98,164.370084,P-GPS,,50.1
712400,2026-01-07 15:46:23,0.0,5,6.889,0.0,0.0,0.0,24.5,6.9,4.2,1024,1024,1024,1024,0,0,0,0,31,5.128,78.98,164.370084,P-GPS,,50.1
712500,2026-01-07 15:46:23,0.0,5,6.889,0.0,0.0,0.0,24.5,6.8,4.1,1024,1024,1024,1024,0,0,0,0,31,5.128,78.98,164.370084,P-GPS,,50.1
712600,2026-01-07 15:46:23,0.0,5,6.889,0.0,0.0,0.0,24.6,6.8,4.1,1024,1024,1024,1024,0,0,0,0,31,5.128,78.98,164.370084,P-GPS,,50.1
712700,2026-01-07 15:46:23,0.0,5,6.892,0.0,0.0,0.0,24.6,6.9,4.2,1024,1024,1024,1024,0,0,0,0,31,5.03,78.8,164.370084,P-GPS,,50.1
712800,2026-01-07 15:46:23,0.0,5,6.892,0.0,0.0,0.0,24.6,7.1,4.3,1024,1024,1024,1024,0,0,0,0,31,5.03,78.8,164.370084,P-GPS,,50.1
712900,2026-01-07 15:46:23,0.0,5,6.892,0.0,0.0,0.0,24.6,7.2,4.3,1024,1024,1024,1024,0,0,0,0,31,5.03,78.8,164.370084,P-GPS,,50.1
713000,2026-01-07 15:46:23,0.0,5,6.892,0.0,0.0,0.0,24.6,7.2,4.3,1024,1024,1024,1024,0,0,0,0,31,5.03,78.8,164.370084,P-GPS,,50.1
713100,2026-01-07 15:46:23,0.0,5,6.892,0.0,0.0,0.0,24.6,7.2,4.3,1024,1024,1024,1024,0,0,0,0,31,5.03,78.8,164.370084,P-GPS,,50.1
713200,2026-01-07 15:46:23,0.0,5,6.892,0.0,0.0,0.0,24.6,7.2,4.5,1024,1024,1024,1024,0,0,0,0,31,5.03,78.8,164.370084,P-GPS,,50.1
713300,2026-01-07 15:46:23,0.0,5,6.892,0.0,0.0,0.0,24.6,7.2,4.4,1024,1024,1024,1024,0,0,0,0,31,5.03,78.8,164.370084,P-GPS,,50.1
713400,2026-01-07 15:46:24,0.0,5,6.892,0.0,0.0,0.0,24.6,6.9,4.2,1024,1024,1024,1024,0,0,0,0,31,5.03,78.8,164.370084,P-GPS,,50.1
713500,2026-01-07 15:46:24,0.0,5,6.892,0.0,0.0,0.0,24.6,6.8,4.0,1024,1024,1024,1024,0,0,0,0,31,5.03,78.8,164.370084,P-GPS,,50.1
713600,2026-01-07 15:46:24,0.0,5,6.892,0.0,0.0,0.0,24.6,6.8,4.0,1024,1024,1024,1024,0,0,0,0,31,5.03,78.8,164.370084,P-GPS,,50.1
713700,2026-01-07 15:46:24,0.0,5,6.892,0.0,0.0,0.0,24.6,6.9,4.1,1024,1024,1024,1024,0,0,0,0,31,5.03,78.8,164.370084,P-GPS,,50.1
713800,2026-01-07 15:46:24,0.0,5,6.892,0.0,0.0,0.0,24.6,7.0,4.1,1024,1024,1024,1024,0,0,0,0,30,5.049,78.98,164.370084,P-GPS,,50.1
713900,2026-01-07 15:46:24,0.0,5,6.892,0.0,0.0,0.0,24.6,7.1,4.1,1024,1024,1024,1024,0,0,0,0,30,5.049,78.98,164.370084,P-GPS,,50.1
714000,2026-01-07 15:46:24,0.0,5,6.892,0.0,0.0,0.0,24.6,7.5,4.5,1024,1024,1024,1024,0,0,0,0,30,5.049,78.98,164.370084,P-GPS,,50.1
714100,2026-01-07 15:46:24,0.0,5,6.892,0.0,0.0,0.0,24.6,7.1,4.1,1024,1024,1024,1024,0,0,0,0,30,5.049,78.98,164.370084,P-GPS,,50.1
714200,2026-01-07 15:46:24,0.0,5,6.892,0.0,0.0,0.0,24.6,6.9,4.1,1024,1024,1024,1024,0,0,0,0,30,5.049,78.98,164.370084,P-GPS,,50.1
714300,2026-01-07 15:46:25,0.0,5,6.892,0.0,0.0,0.0,24.6,6.9,4.0,1024,1024,1024,1024,0,0,0,0,30,5.049,78.98,164.370084,P-GPS,,50.1
714400,2026-01-07 15:46:25,0.0,5,6.892,0.0,0.0,0.0,24.6,6.8,4.2,1024,1024,1024,1024,0,0,0,0,30,5.049,78.98,164.370084,P-GPS,,50.1
714500,2026-01-07 15:46:25,0.0,5,6.892,0.0,0.0,0.0,24.6,7.0,4.1,1024,1024,1024,1024,0,0,0,0,30,5.049,78.98,164.370084,P-GPS,,50.1
714600,2026-01-07 15:46:25,0.0,5,6.892,0.0,0.0,0.0,24.6,7.1,4.3,1024,1024,1024,1024,0,0,0,0,30,5.049,78.98,164.042,P-GPS,,50.0
714700,2026-01-07 15:46:25,0.0,5,6.892,0.0,0.0,0.0,24.6,7.1,4.3,1024,1024,1024,1024,0,0,0,0,30,5.049,78.98,164.042,P-GPS,,50.0
714800,2026-01-07 15:46:25,0.0,5,6.892,0.0,0.0,0.0,24.6,7.3,4.5,1024,1024,1024,1024,0,0,0,0,30,5.049,78.98,164.042,P-GPS,,50.0
714900,2026-01-07 15:46:25,0.0,5,6.888,0.0,0.0,0.0,24.5,7.2,4.4,1024,1024,1024,1024,0,0,0,0,30,5.084,78.8,164.042,P-GPS,,50.0
715000,2026-01-07 15:46:25,0.0,5,6.888,0.0,0.0,0.0,24.5,7.1,4.4,1024,1024,1024,1024,0,0,0,0,30,5.084,78.8,164.042,P-GPS,,50.0
715100,2026-01-07 15:46:25,0.0,5,6.888,0.0,0.0,0.0,24.6,6.8,4.3,1024,1024,1024,1024,0,0,0,0,30,5.084,78.8,164.042,P-GPS,,50.0
715200,2026-01-07 15:46:25,0.0,5,6.888,0.0,0.0,0.0,24.6,6.6,4.4,1024,1024,1024,1024,0,0,0,0,30,5.084,78.8,164.042,P-GPS,,50.0
715300,2026-01-07 15:46:26,0.0,5,6.888,0.0,0.0,0.0,24.6,6.2,4.3,1024,1024,1024,1024,0,0,0,0,30,5.084,78.8,164.042,P-GPS,,50.0
715400,2026-01-07 15:46:26,0.0,5,6.888,0.0,0.0,0.0,24.5,6.3,4.6,1024,1024,1024,1024,0,0,0,0,30,5.084,78.8,164.042,P-GPS,,50.0
715500,2026-01-07 15:46:26,0.0,5,6.888,0.0,0.0,0.0,24.5,6.2,4.6,1024,1024,1024,1024,0,0,0,0,30,5.084,78.8,164.042,P-GPS,,50.0
715600,2026-01-07 15:46:26,0.0,5,6.888,0.0,0.0,0.0,24.5,6.2,4.5,1024,1024,1024,1024,0,0,0,0,30,5.084,78.8,164.042,P-GPS,,50.0
715700,2026-01-07 15:46:26,0.0,5,6.888,0.0,0.0,0.0,24.5,6.2,4.3,1024,1024,1024,1024,0,0,0,0,30,5.084,78.8,164.042,P-GPS,,50.0
715800,2026-01-07 15:46:26,0.0,5,6.888,0.0,0.0,0.0,24.5,6.3,4.4,1024,1024,1024,1024,0,0,0,0,30,5.084,78.8,163.713916,P-GPS,,49.9
715900,2026-01-07 15:46:26,0.0,5,6.888,0.0,0.0,0.0,24.6,6.0,4.1,1024,1024,1024,1024,0,0,0,0,30,5.084,78.8,163.713916,P-GPS,,49.9
716000,2026-01-07 15:46:26,0.0,5,6.878,0.0,0.0,0.0,24.5,6.2,4.3,1024,1024,1024,1024,0,0,0,0,30,5.26,78.8,163.713916,P-GPS,,49.9
716100,2026-01-07 15:46:26,0.0,5,6.878,0.0,0.0,0.0,24.5,6.1,4.3,1024,1024,1024,1024,0,0,0,0,30,5.26,78.8,163.713916,P-GPS,,49.9
716200,2026-01-07 15:46:26,0.0,5,6.878,0.0,0.0,0.0,24.5,6.2,4.3,1024,1024,1024,1024,0,0,0,0,30,5.26,78.8,163.713916,P-GPS,,49.9
716300,2026-01-07 15:46:27,0.0,5,6.878,0.0,0.0,0.0,24.5,6.0,4.2,1024,1024,1024,1024,0,0,0,0,30,5.26,78.8,163.713916,P-GPS,,49.9
716400,2026-01-07 15:46:27,0.0,5,6.878,0.0,0.0,0.0,24.5,5.8,4.0,1024,1024,1024,1024,0,0,0,0,30,5.26,78.8,163.713916,P-GPS,,49.9
716500,2026-01-07 15:46:27,0.0,5,6.878,0.0,0.0,0.0,24.6,5.9,4.1,1024,1024,1024,1024,0,0,0,0,30,5.26,78.8,163.713916,P-GPS,,49.9
716600,2026-01-07 15:46:27,0.0,5,6.878,0.0,0.0,0.0,24.6,6.0,4.2,1024,1024,1024,1024,0,0,0,0,30,5.26,78.8,163.713916,P-GPS,,49.9
716700,2026-01-07 15:46:27,0.0,5,6.878,0.0,0.0,0.0,24.6,6.4,4.4,1024,1024,1024,1024,0,0,0,0,30,5.26,78.8,163.713916,P-GPS,,49.9
716800,2026-01-07 15:46:27,0.0,5,6.878,0.0,0.0,0.0,24.6,6.5,4.4,1024,1024,1024,1024,0,0,0,0,30,5.26,78.8,163.713916,P-GPS,,49.9
716900,2026-01-07 15:46:27,0.0,5,6.878,0.0,0.0,0.0,24.5,6.4,4.5,1024,1024,1024,1024,0,0,0,0,30,5.26,78.8,163.713916,P-GPS,,49.9
717000,2026-01-07 15:46:27,0.0,5,6.878,0.0,0.0,0.0,24.6,6.5,4.2,1024,1024,1024,1024,0,0,0,0,30,5.26,78.8,163.713916,P-GPS,,49.9
717100,2026-01-07 15:46:27,0.0,5,6.882,0.0,0.0,0.0,24.6,6.3,4.2,1024,1024,1024,1024,0,0,0,0,30,5.238,78.98,163.713916,P-GPS,,49.9
717200,2026-01-07 15:46:27,0.0,5,6.882,0.0,0.0,0.0,24.6,6.4,4.3,1024,1024,1024,1024,0,0,0,0,30,5.238,78.98,164.042,P-GPS,,50.0
717300,2026-01-07 15:46:27,0.0,5,6.882,0.0,0.0,0.0,24.6,6.4,4.4,1024,1024,1024,1024,0,0,0,0,30,5.238,78.98,164.042,P-GPS,,50.0
717400,2026-01-07 15:46:28,0.0,5,6.882,0.0,0.0,0.0,24.6,6.6,4.6,1024,1024,1024,1024,0,0,0,0,30,5.238,78.98,164.042,P-GPS,,50.0
717500,2026-01-07 15:46:28,0.0,5,6.882,0.0,0.0,0.0,24.7,6.7,4.6,1024,1024,1024,1024,0,0,0,0,30,5.238,78.98,164.042,P-GPS,,50.0
717600,2026-01-07 15:46:28,0.0,5,6.882,0.0,0.0,0.0,24.7,6.9,4.7,1024,1024,1024,1024,0,0,0,0,30,5.238,78.98,164.042,P-GPS,,50.0
717700,2026-01-07 15:46:28,0.0,5,6.882,0.0,0.0,0.0,24.7,7.0,4.6,1024,1024,1024,1024,0,0,0,0,30,5.238,78.98,164.042,P-GPS,,50.0
717800,2026-01-07 15:46:28,0.0,5,6.882,0.0,0.0,0.0,24.7,7.2,4.7,1024,1024,1024,1024,0,0,0,0,30,5.238,78.98,164.042,P-GPS,,50.0
717900,2026-01-07 15:46:28,0.0,5,6.882,0.0,0.0,0.0,24.7,7.1,4.6,1024,1024,1024,1024,0,0,0,0,30,5.238,78.98,164.370084,P-GPS,,50.1
718000,2026-01-07 15:46:28,0.0,5,6.882,0.0,0.0,0.0,24.7,7.2,4.8,1024,1024,1024,1024,0,0,0,0,30,5.238,78.98,164.370084,P-GPS,,50.1
718100,2026-01-07 15:46:28,0.0,5,6.882,0.0,0.0,0.0,24.6,7.2,4.8,1024,1024,1024,1024,0,0,0,0,30,5.238,78.98,164.370084,P-GPS,,50.1
718200,2026-01-07 15:46:28,0.0,5,6.888,0.0,0.0,0.0,24.6,6.8,4.9,1024,1024,1024,1024,0,0,0,0,30,5.063,78.8,164.370084,P-GPS,,50.1
718300,2026-01-07 15:46:29,0.0,5,6.888,0.0,0.0,0.0,24.6,6.5,4.5,1024,1024,1024,1024,0,0,0,0,30,5.063,78.8,164.370084,P-GPS,,50.1
718400,2026-01-07 15:46:29,0.0,5,6.888,0.0,0.0,0.0,24.6,6.9,4.4,1024,1024,1024,1024,0,0,0,0,30,5.063,78.8,164.370084,P-GPS,,50.1
718500,2026-01-07 15:46:29,0.0,5,6.888,0.0,0.0,0.0,24.6,7.0,4.4,1024,1024,1024,1024,0,0,0,0,30,5.063,78.8,164.370084,P-GPS,,50.1
718600,2026-01-07 15:46:29,0.0,5,6.888,0.0,0.0,0.0,24.6,7.1,4.6,1024,1024,1024,1024,0,0,0,0,30,5.063,78.8,164.370084,P-GPS,,50.1
718700,2026-01-07 15:46:29,0.0,5,6.888,0.0,0.0,0.0,24.6,6.9,4.4,1024,1024,1024,1024,0,0,0,0,30,5.063,78.8,164.370084,P-GPS,,50.1
718800,2026-01-07 15:46:29,0.0,5,6.888,0.0,0.0,0.0,24.6,6.9,4.3,1024,1024,1024,1024,0,0,0,0,30,5.063,78.8,164.370084,P-GPS,,50.1
718900,2026-01-07 15:46:29,0.0,5,6.888,0.0,0.0,0.0,24.6,6.9,4.3,1024,1024,1024,1024,0,0,0,0,30,5.063,78.8,164.370084,P-GPS,,50.1
719000,2026-01-07 15:46:29,0.0,5,6.888,0.0,0.0,0.0,24.6,7.0,4.4,1024,1024,1024,1024,0,0,0,0,30,5.063,78.8,164.370084,P-GPS,,50.1
719100,2026-01-07 15:46:29,0.0,5,6.888,0.0,0.0,0.0,24.6,7.0,4.3,1024,1024,1024,1024,0,0,0,0,30,5.063,78.8,164.370084,P-GPS,,50.1
719200,2026-01-07 15:46:29,0.0,5,6.888,0.0,0.0,0.0,24.7,7.1,4.4,1024,1024,1024,1024,0,0,0,0,30,5.063,78.8,164.370084,P-GPS,,50.1
719300,2026-01-07 15:46:29,0.0,5,6.889,0.0,0.0,0.0,24.7,7.3,4.2,1024,1024,1024,1024,0,0,0,0,30,4.968,78.98,164.370084,P-GPS,,50.1
719400,2026-01-07 15:46:30,0.0,5,6.889,0.0,0.0,0.0,24.7,7.5,4.2,1024,1024,1024,1024,0,0,0,0,30,4.968,78.98,164.370084,P-GPS,,50.1
719500,2026-01-07 15:46:30,0.0,5,6.889,0.0,0.0,0.0,24.7,7.6,4.1,1024,1024,1024,1024,0,0,0,0,30,4.968,78.98,164.370084,P-GPS,,50.1
719600,2026-01-07 15:46:30,0.0,5,6.889,0.0,0.0,0.0,24.7,7.5,4.1,1024,1024,1024,1024,0,0,0,0,30,4.968,78.98,164.370084,P-GPS,,50.1
719700,2026-01-07 15:46:30,0.0,5,6.889,0.0,0.0,0.0,24.6,7.4,4.3,1024,1024,1024,1024,0,0,0,0,30,4.968,78.98,164.370084,P-GPS,,50.1
719800,2026-01-07 15:46:30,0.0,5,6.889,0.0,0.0,0.0,24.6,7.0,4.2,1024,1024,1024,1024,0,0,0,0,30,4.968,78.98,164.370084,P-GPS,,50.1
719900,2026-01-07 15:46:30,0.0,5,6.889,0.0,0.0,0.0,24.6,6.8,4.2,1024,1024,1024,1024,0,0,0,0,30,4.968,78.98,164.370084,P-GPS,,50.1
720000,2026-01-07 15:46:30,0.0,5,6.889,0.0,0.0,0.0,24.6,6.9,4.2,1024,1024,1024,1024,0,0,0,0,30,4.968,78.98,164.370084,P-GPS,,50.1
720100,2026-01-07 15:46:30,0.0,5,6.889,0.0,0.0,0.0,24.7,7.1,4.2,1024,1024,1024,1024,0,0,0,0,30,4.968,78.98,164.370084,P-GPS,,50.1
720200,2026-01-07 15:46:30,0.0,5,6.889,0.0,0.0,0.0,24.7,7.3,4.5,1024,1024,1024,1024,0,0,0,0,30,4.968,78.98,164.370084,P-GPS,,50.1
720300,2026-01-07 15:46:31,0.0,5,6.889,0.0,0.0,0.0,24.7,7.0,4.3,1024,1024,1024,1024,0,0,0,0,30,4.968,78.98,164.370084,P-GPS,,50.1
720400,2026-01-07 15:46:31,0.0,5,6.894,0.0,0.0,0.0,24.7,7.1,4.2,1024,1024,1024,1024,0,0,0,0,30,4.928,78.98,164.370084,P-GPS,,50.1
720500,2026-01-07 15:46:31,0.0,5,6.894,0.0,0.0,0.0,24.8,7.5,4.4,1024,1024,1024,1024,0,0,0,0,30,4.928,78.98,164.370084,P-GPS,,50.1
720600,2026-01-07 15:46:31,0.0,5,6.894,0.0,0.0,0.0,24.8,7.4,4.3,1024,1024,1024,1024,0,0,0,0,30,4.928,78.98,164.370084,P-GPS,,50.1
720700,2026-01-07 15:46:31,0.0,5,6.894,0.0,0.0,0.0,24.8,7.4,4.4,1024,1024,1024,1024,0,0,0,0,30,4.928,78.98,164.370084,P-GPS,,50.1
720800,2026-01-07 15:46:31,0.0,5,6.894,0.0,0.0,0.0,24.7,7.4,4.7,1024,1024,1024,1024,0,0,0,0,30,4.928,78.98,164.370084,P-GPS,,50.1
720900,2026-01-07 15:46:31,0.0,5,6.894,0.0,0.0,0.0,24.6,7.4,4.9,1024,1024,1024,1024,0,0,0,0,30,4.928,78.98,164.370084,P-GPS,,50.1
721000,2026-01-07 15:46:31,0.0,5,6.894,0.0,0.0,0.0,24.7,7.1,4.7,1024,1024,1024,1024,0,0,0,0,30,4.928,78.98,164.370084,P-GPS,,50.1
721100,2026-01-07 15:46:31,0.0,5,6.894,0.0,0.0,0.0,24.6,6.8,4.4,1024,1024,1024,1024,0,0,0,0,30,4.928,78.98,164.370084,P-GPS,,50.1
721200,2026-01-07 15:46:31,0.0,5,6.894,0.0,0.0,0.0,24.6,6.8,4.3,1024,1024,1024,1024,0,0,0,0,30,4.928,78.98,164.370084,P-GPS,,50.1
721300,2026-01-07 15:46:31,0.0,5,6.894,0.0,0.0,0.0,24.6,6.5,4.2,1024,1024,1024,1024,0,0,0,0,30,4.928,78.98,164.370084,P-GPS,,50.1
721400,2026-01-07 15:46:32,0.0,5,6.894,0.0,0.0,0.0,24.6,6.4,4.5,1024,1024,1024,1024,0,0,0,0,30,4.928,78.98,164.370084,P-GPS,,50.1
721500,2026-01-07 15:46:32,0.0,5,6.886,0.0,0.0,0.0,24.6,6.6,4.6,1024,1024,1024,1024,0,0,0,0,30,4.958,78.98,164.370084,P-GPS,,50.1
721600,2026-01-07 15:46:32,0.0,5,6.886,0.0,0.0,0.0,24.6,6.2,4.3,1024,1024,1024,1024,0,0,0,0,30,4.958,78.98,164.370084,P-GPS,,50.1
721700,2026-01-07 15:46:32,0.0,5,6.886,0.0,0.0,0.0,24.6,6.0,4.3,1024,1024,1024,1024,0,0,0,0,30,4.958,78.98,164.370084,P-GPS,,50.1
721800,2026-01-07 15:46:32,0.0,5,6.886,0.0,0.0,0.0,24.6,6.1,4.3,1024,1024,1024,1024,0,0,0,0,30,4.958,78.98,164.370084,P-GPS,,50.1
721900,2026-01-07 15:46:32,0.0,5,6.886,0.0,0.0,0.0,24.6,6.3,4.2,1024,1024,1024,1024,0,0,0,0,30,4.958,78.98,164.370084,P-GPS,,50.1
722000,2026-01-07 15:46:32,0.0,5,6.886,0.0,0.0,0.0,24.6,6.4,4.1,1024,1024,1024,1024,0,0,0,0,30,4.958,78.98,164.370084,P-GPS,,50.1
722100,2026-01-07 15:46:32,0.0,5,6.886,0.0,0.0,0.0,24.5,6.4,4.1,1024,1024,1024,1024,0,0,0,0,30,4.958,78.98,164.370084,P-GPS,,50.1
722200,2026-01-07 15:46:32,0.0,5,6.886,0.0,0.0,0.0,24.6,6.7,4.1,1024,1024,1024,1024,0,0,0,0,30,4.958,78.98,164.370084,P-GPS,,50.1
722300,2026-01-07 15:46:33,0.0,5,6.886,0.0,0.0,0.0,24.6,6.5,4.0,1024,1024,1024,1024,0,0,0,0,30,4.958,78.98,164.370084,P-GPS,,50.1
722400,2026-01-07 15:46:33,0.0,5,6.886,0.0,0.0,0.0,24.6,6.4,4.0,1024,1024,1024,1024,0,0,0,0,30,4.958,78.98,164.370084,P-GPS,,50.1
722500,2026-01-07 15:46:33,0.0,5,6.886,0.0,0.0,0.0,24.7,6.6,4.1,1024,1024,1024,1024,0,0,0,0,30,4.958,78.98,164.370084,P-GPS,,50.1
722600,2026-01-07 15:46:33,0.0,5,6.886,0.0,0.0,0.0,24.6,6.6,4.1,1024,1024,1024,1024,0,0,0,0,30,4.958,78.98,164.370084,P-GPS,,50.1
722700,2026-01-07 15:46:33,0.0,5,6.886,0.0,0.0,0.0,24.6,6.5,4.2,1024,1024,1024,1024,0,0,0,0,30,4.958,78.98,164.370084,P-GPS,,50.1
722800,2026-01-07 15:46:33,0.0,5,6.886,0.0,0.0,0.0,24.5,6.7,4.4,1024,1024,1024,1024,0,0,0,0,30,4.958,78.98,164.370084,P-GPS,,50.1
722900,2026-01-07 15:46:33,0.0,5,6.886,0.0,0.0,0.0,24.6,6.2,4.0,1024,1024,1024,1024,0,0,0,0,30,4.958,78.98,164.698168,P-GPS,,50.2
723000,2026-01-07 15:46:33,0.0,5,6.886,0.0,0.0,0.0,24.6,6.1,4.0,1024,1024,1024,1024,0,0,0,0,30,4.958,78.98,164.698168,P-GPS,,50.2
723100,2026-01-07 15:46:33,0.0,5,6.886,0.0,0.0,0.0,24.5,6.3,4.2,1024,1024,1024,1024,0,0,0,0,30,4.958,78.98,164.698168,P-GPS,,50.2
723200,2026-01-07 15:46:33,0.0,5,6.886,0.0,0.0,0.0,24.6,6.3,4.2,1024,1024,1024,1024,0,0,0,0,30,4.958,78.98,164.698168,P-GPS,,50.2
723300,2026-01-07 15:46:33,0.0,5,6.886,0.0,0.0,0.0,24.6,6.1,4.1,1024,1024,1024,1024,0,0,0,0,30,4.958,78.98,164.698168,P-GPS,,50.2
723400,2026-01-07 15:46:34,0.0,5,6.886,0.0,0.0,0.0,24.6,6.0,3.9,1024,1024,1024,1024,0,0,0,0,30,4.958,78.98,164.698168,P-GPS,,50.2
723500,2026-01-07 15:46:34,0.0,5,6.886,0.0,0.0,0.0,24.5,6.3,4.0,1024,1024,1024,1024,0,0,0,0,30,4.958,78.98,164.698168,P-GPS,,50.2
723600,2026-01-07 15:46:34,0.0,5,6.886,0.0,0.0,0.0,24.5,6.1,4.2,1024,1024,1024,1024,0,0,0,0,30,4.958,78.98,164.698168,P-GPS,,50.2
723700,2026-01-07 15:46:34,0.0,5,6.889,0.0,0.0,0.0,24.5,5.9,4.3,1024,1024,1024,1024,0,0,0,0,30,4.991,78.98,164.698168,P-GPS,,50.2
723800,2026-01-07 15:46:34,0.0,5,6.889,0.0,0.0,0.0,24.4,5.8,4.4,1024,1024,1024,1024,0,0,0,0,30,4.991,78.98,164.698168,P-GPS,,50.2
723900,2026-01-07 15:46:34,0.0,5,6.889,0.0,0.0,0.0,24.5,5.3,4.1,1024,1024,1024,1024,0,0,0,0,30,4.991,78.98,164.698168,P-GPS,,50.2
724000,2026-01-07 15:46:34,0.0,5,6.889,0.0,0.0,0.0,24.5,5.3,4.0,1024,1024,1024,1024,0,0,0,0,30,4.991,78.98,164.370084,P-GPS,,50.1
724100,2026-01-07 15:46:34,0.0,5,6.889,0.0,0.0,0.0,24.5,5.6,4.2,1024,1024,1024,1024,0,0,0,0,30,4.991,78.98,164.370084,P-GPS,,50.1
724200,2026-01-07 15:46:34,0.0,5,6.889,0.0,0.0,0.0,24.5,5.6,4.2,1024,1024,1024,1024,0,0,0,0,30,4.991,78.98,164.370084,P-GPS,,50.1
724300,2026-01-07 15:46:35,0.0,5,6.889,0.0,0.0,0.0,24.5,5.6,4.4,1024,1024,1024,1024,0,0,0,0,30,4.991,78.98,164.370084,P-GPS,,50.1
724400,2026-01-07 15:46:35,0.0,5,6.889,0.0,0.0,0.0,24.5,5.7,4.4,1024,1024,1024,1024,0,0,0,0,30,4.991,78.98,164.370084,P-GPS,,50.1
724500,2026-01-07 15:46:35,0.0,5,6.889,0.0,0.0,0.0,24.5,5.4,4.2,1024,1024,1024,1024,0,0,0,0,30,4.991,78.98,164.370084,P-GPS,,50.1
724600,2026-01-07 15:46:35,0.0,5,6.889,0.0,0.0,0.0,24.5,5.4,4.2,1024,1024,1024,1024,0,0,0,0,30,4.991,78.98,164.370084,P-GPS,,50.1
724700,2026-01-07 15:46:35,0.0,5,6.889,0.0,0.0,0.0,24.5,5.5,4.2,1024,1024,1024,1024,0,0,0,0,30,4.991,78.98,164.370084,P-GPS,,50.1
724800,2026-01-07 15:46:35,0.0,5,6.878,0.0,0.0,0.0,24.6,5.6,4.3,1024,1024,1024,1024,0,0,0,0,30,5.204,78.98,164.370084,P-GPS,,50.1
724900,2026-01-07 15:46:35,0.0,5,6.878,0.0,0.0,0.0,24.5,5.9,4.5,1024,1024,1024,1024,0,0,0,0,30,5.204,78.98,164.370084,P-GPS,,50.1
725000,2026-01-07 15:46:35,0.0,5,6.878,0.0,0.0,0.0,24.6,6.0,4.6,1024,1024,1024,1024,0,0,0,0,30,5.204,78.98,164.370084,P-GPS,,50.1
725100,2026-01-07 15:46:35,0.0,5,6.878,0.0,0.0,0.0,24.6,5.9,4.5,1024,1024,1024,1024,0,0,0,0,30,5.204,78.98,164.370084,P-GPS,,50.1
725200,2026-01-07 15:46:35,0.0,5,6.878,0.0,0.0,0.0,24.6,5.8,4.5,1024,1024,1024,1024,0,0,0,0,30,5.204,78.98,164.370084,P-GPS,,50.1
725300,2026-01-07 15:46:35,0.0,5,6.878,0.0,0.0,0.0,24.5,6.1,4.5,1024,1024,1024,1024,0,0,0,0,30,5.204,78.98,164.370084,P-GPS,,50.1
725400,2026-01-07 15:46:36,0.0,5,6.878,0.0,0.0,0.0,24.6,6.1,4.5,1024,1024,1024,1024,0,0,0,0,30,5.204,78.98,164.370084,P-GPS,,50.1
725500,2026-01-07 15:46:36,0.0,5,6.878,0.0,0.0,0.0,24.5,5.9,4.3,1024,1024,1024,1024,0,0,0,0,30,5.204,78.98,164.370084,P-GPS,,50.1
725600,2026-01-07 15:46:36,0.0,5,6.878,0.0,0.0,0.0,24.5,6.2,4.5,1024,1024,1024,1024,0,0,0,0,30,5.204,78.98,164.370084,P-GPS,,50.1
725700,2026-01-07 15:46:36,0.0,5,6.878,0.0,0.0,0.0,24.5,6.0,4.5,1024,1024,1024,1024,0,0,0,0,30,5.204,78.98,164.370084,P-GPS,,50.1
725800,2026-01-07 15:46:36,0.0,5,6.878,0.0,0.0,0.0,24.5,5.7,4.4,1024,1024,1024,1024,0,0,0,0,30,5.204,78.98,164.370084,P-GPS,,50.1
725900,2026-01-07 15:46:36,0.0,5,6.872,0.0,0.0,0.0,24.6,5.7,4.0,1024,1024,1024,1024,0,0,0,0,30,5.24,78.98,164.370084,P-GPS,,50.1
726000,2026-01-07 15:46:36,0.0,5,6.872,0.0,0.0,0.0,24.5,5.9,4.2,1024,1024,1024,1024,0,0,0,0,30,5.24,78.98,164.370084,P-GPS,,50.1
726100,2026-01-07 15:46:36,0.0,5,6.872,0.0,0.0,0.0,24.5,5.9,4.4,1024,1024,1024,1024,0,0,0,0,30,5.24,78.98,164.370084,P-GPS,,50.1
726200,2026-01-07 15:46:36,0.0,5,6.872,0.0,0.0,0.0,24.5,5.9,4.2,1024,1024,1024,1024,0,0,0,0,30,5.24,78.98,164.370084,P-GPS,,50.1
726300,2026-01-07 15:46:37,0.0,5,6.872,0.0,0.0,0.0,24.6,5.7,4.1,1024,1024,1024,1024,0,0,0,0,30,5.24,78.98,164.370084,P-GPS,,50.1
726400,2026-01-07 15:46:37,0.0,5,6.872,0.0,0.0,0.0,24.5,5.9,4.5,1024,1024,1024,1024,0,0,0,0,30,5.24,78.98,164.370084,P-GPS,,50.1
726500,2026-01-07 15:46:37,0.0,5,6.872,0.0,0.0,0.0,24.5,6.0,4.4,1024,1024,1024,1024,0,0,0,0,30,5.24,78.98,164.370084,P-GPS,,50.1
726600,2026-01-07 15:46:37,0.0,5,6.872,0.0,0.0,0.0,24.6,5.7,4.2,1024,1024,1024,1024,0,0,0,0,30,5.24,78.98,164.370084,P-GPS,,50.1
726700,2026-01-07 15:46:37,0.0,5,6.872,0.0,0.0,0.0,24.6,5.5,4.0,1024,1024,1024,1024,0,0,0,0,30,5.24,78.98,164.370084,P-GPS,,50.1
726800,2026-01-07 15:46:37,0.0,5,6.872,0.0,0.0,0.0,24.6,5.7,4.1,1024,1024,1024,1024,0,0,0,0,30,5.24,78.98,164.698168,P-GPS,,50.2
726900,2026-01-07 15:46:37,0.0,5,6.872,0.0,0.0,0.0,24.6,5.8,4.2,1024,1024,1024,1024,0,0,0,0,30,5.24,78.98,164.698168,P-GPS,,50.2
727000,2026-01-07 15:46:37,0.0,5,6.877,0.0,0.0,0.0,24.5,6.2,4.5,1024,1024,1024,1024,0,0,0,0,30,5.239,78.98,164.698168,P-GPS,,50.2
727100,2026-01-07 15:46:37,0.0,5,6.877,0.0,0.0,0.0,24.6,5.8,4.3,1024,1024,1024,1024,0,0,0,0,30,5.239,78.98,164.698168,P-GPS,,50.2
727200,2026-01-07 15:46:37,0.0,5,6.877,0.0,0.0,0.0,24.6,5.8,4.3,1024,1024,1024,1024,0,0,0,0,30,5.239,78.98,164.698168,P-GPS,,50.2
727300,2026-01-07 15:46:38,0.0,5,6.877,0.0,0.0,0.0,24.6,5.7,4.2,1024,1024,1024,1024,0,0,0,0,30,5.239,78.98,164.698168,P-GPS,,50.2
727400,2026-01-07 15:46:38,0.0,5,6.877,0.0,0.0,0.0,24.6,5.9,4.3,1024,1024,1024,1024,0,0,0,0,30,5.239,78.98,164.698168,P-GPS,,50.2
727500,2026-01-07 15:46:38,0.0,5,6.877,0.0,0.0,0.0,24.6,6.0,4.2,1024,1024,1024,1024,0,0,0,0,30,5.239,78.98,164.698168,P-GPS,,50.2
727600,2026-01-07 15:46:38,0.0,5,6.877,0.0,0.0,0.0,24.6,6.1,4.2,1024,1024,1024,1024,0,0,0,0,30,5.239,78.98,164.698168,P-GPS,,50.2
727700,2026-01-07 15:46:38,0.0,5,6.877,0.0,0.0,0.0,24.6,6.0,4.2,1024,1024,1024,1024,0,0,0,0,30,5.239,78.98,164.698168,P-GPS,,50.2
727800,2026-01-07 15:46:38,0.0,5,6.877,0.0,0.0,0.0,24.6,6.4,4.5,1024,1024,1024,1024,0,0,0,0,30,5.239,78.98,164.698168,P-GPS,,50.2
727900,2026-01-07 15:46:38,0.0,5,6.877,0.0,0.0,0.0,24.6,6.0,4.3,1024,1024,1024,1024,0,0,0,0,30,5.239,78.98,164.698168,P-GPS,,50.2
728000,2026-01-07 15:46:38,0.0,5,6.877,0.0,0.0,0.0,24.6,6.0,4.2,1024,1024,1024,1024,0,0,0,0,30,5.239,78.98,164.698168,P-GPS,,50.2
728100,2026-01-07 15:46:38,0.0,5,6.874,0.0,0.0,0.0,24.6,5.7,4.1,1024,1024,1024,1024,0,0,0,0,30,5.216,78.98,164.698168,P-GPS,,50.2
728200,2026-01-07 15:46:38,0.0,5,6.874,0.0,0.0,0.0,24.6,5.7,4.1,1024,1024,1024,1024,0,0,0,0,30,5.216,78.98,164.698168,P-GPS,,50.2
728300,2026-01-07 15:46:38,0.0,5,6.874,0.0,0.0,0.0,24.6,5.9,4.2,1024,1024,1024,1024,0,0,0,0,30,5.216,78.98,164.698168,P-GPS,,50.2
728400,2026-01-07 15:46:39,0.0,5,6.874,0.0,0.0,0.0,24.6,5.9,4.2,1024,1024,1024,1024,0,0,0,0,30,5.216,78.98,164.698168,P-GPS,,50.2
728500,2026-01-07 15:46:39,0.0,5,6.874,0.0,0.0,0.0,24.6,6.3,4.6,1024,1024,1024,1024,0,0,0,0,30,5.216,78.98,164.698168,P-GPS,,50.2
728600,2026-01-07 15:46:39,0.0,5,6.874,0.0,0.0,0.0,24.6,6.2,4.5,1024,1024,1024,1024,0,0,0,0,30,5.216,78.98,164.698168,P-GPS,,50.2
728700,2026-01-07 15:46:39,0.0,5,6.874,0.0,0.0,0.0,24.6,5.7,4.3,1024,1024,1024,1024,0,0,0,0,30,5.216,78.98,164.698168,P-GPS,,50.2
728800,2026-01-07 15:46:39,0.0,5,6.874,0.0,0.0,0.0,24.6,5.7,4.2,1024,1024,1024,1024,0,0,0,0,30,5.216,78.98,164.698168,P-GPS,,50.2
728900,2026-01-07 15:46:39,0.0,5,6.874,0.0,0.0,0.0,24.6,5.7,4.2,1024,1024,1024,1024,0,0,0,0,30,5.216,78.98,164.698168,P-GPS,,50.2
729000,2026-01-07 15:46:39,0.0,5,6.874,0.0,0.0,0.0,24.6,6.0,4.1,1024,1024,1024,1024,0,0,0,0,30,5.216,78.98,164.698168,P-GPS,,50.2
729100,2026-01-07 15:46:39,0.0,5,6.874,0.0,0.0,0.0,24.6,5.9,4.1,1024,1024,1024,1024,0,0,0,0,30,5.216,78.98,164.698168,P-GPS,,50.2
729200,2026-01-07 15:46:39,0.0,5,6.873,0.0,0.0,0.0,24.6,6.0,4.2,1024,1024,1024,1024,0,0,0,0,29,5.231,78.98,164.698168,P-GPS,,50.2
729300,2026-01-07 15:46:40,0.0,5,6.873,0.0,0.0,0.0,24.6,6.0,4.1,1024,1024,1024,1024,0,0,0,0,29,5.231,78.98,164.698168,P-GPS,,50.2
729400,2026-01-07 15:46:40,0.0,5,6.873,0.0,0.0,0.0,24.6,6.3,4.4,1024,1024,1024,1024,0,0,0,0,29,5.231,78.98,164.698168,P-GPS,,50.2
729500,2026-01-07 15:46:40,0.0,5,6.873,0.0,0.0,0.0,24.5,5.9,4.3,1024,1024,1024,1024,0,0,0,0,29,5.231,78.98,164.698168,P-GPS,,50.2
729600,2026-01-07 15:46:40,0.0,5,6.873,0.0,0.0,0.0,24.6,6.0,4.3,1024,1024,1024,1024,0,0,0,0,29,5.231,78.98,165.026252,P-GPS,,50.3
729700,2026-01-07 15:46:40,0.0,5,6.873,0.0,0.0,0.0,24.6,5.8,4.2,1024,1024,1024,1024,0,0,0,0,29,5.231,78.98,165.026252,P-GPS,,50.3
729800,2026-01-07 15:46:40,0.0,5,6.873,0.0,0.0,0.0,24.6,5.9,4.2,1024,1024,1024,1024,0,0,0,0,29,5.231,78.98,165.026252,P-GPS,,50.3
729900,2026-01-07 15:46:40,0.0,5,6.873,0.0,0.0,0.0,24.6,5.9,4.3,1024,1024,1024,1024,0,0,0,0,29,5.231,78.98,165.026252,P-GPS,,50.3
730000,2026-01-07 15:46:40,0.0,5,6.873,0.0,0.0,0.0,24.6,6.0,4.3,1024,1024,1024,1024,0,0,0,0,29,5.231,78.98,165.026252,P-GPS,,50.3
730100,2026-01-07 15:46:40,0.0,5,6.873,0.0,0.0,0.0,24.5,6.2,4.4,1024,1024,1024,1024,0,0,0,0,29,5.231,78.98,165.026252,P-GPS,,50.3
730200,2026-01-07 15:46:40,0.0,5,6.873,0.0,0.0,0.0,24.6,5.7,4.3,1024,1024,1024,1024,0,0,0,0,29,5.231,78.98,165.026252,P-GPS,,50.3
730300,2026-01-07 15:46:40,0.0,5,6.865,0.0,0.0,0.0,24.6,5.6,4.0,1024,1024,1024,1024,0,0,0,0,29,5.275,78.98,165.026252,P-GPS,,50.3
730400,2026-01-07 15:46:41,0.0,5,6.865,0.0,0.0,0.0,24.5,5.8,4.2,1024,1024,1024,1024,0,0,0,0,29,5.275,78.98,165.026252,P-GPS,,50.3
730500,2026-01-07 15:46:41,0.0,5,6.865,0.0,0.0,0.0,24.6,5.7,4.2,1024,1024,1024,1024,0,0,0,0,29,5.275,78.98,165.026252,P-GPS,,50.3
730600,2026-01-07 15:46:41,0.0,5,6.865,0.0,0.0,0.0,24.6,5.9,4.3,1024,1024,1024,1024,0,0,0,0,29,5.275,78.98,165.026252,P-GPS,,50.3
730700,2026-01-07 15:46:41,0.0,5,6.865,0.0,0.0,0.0,24.6,5.9,4.4,1024,1024,902,1024,0,0,-18,0,29,5.275,78.98,165.026252,P-GPS,,50.3
730800,2026-01-07 15:46:41,0.0,5,6.865,0.0,0.0,0.0,24.6,6.1,4.5,1024,1024,902,1024,0,0,-18,0,29,5.275,78.98,165.026252,P-GPS,,50.3
730900,2026-01-07 15:46:41,0.0,5,6.865,0.0,0.0,0.0,24.6,6.0,4.5,1024,1024,364,1024,0,0,-100,0,29,5.275,78.98,165.026252,P-GPS,,50.3
731000,2026-01-07 15:46:41,0.0,5,6.865,0.0,0.0,0.0,24.6,5.9,4.9,1024,1024,364,1024,0,0,-100,0,29,5.275,78.98,165.026252,P-GPS,,50.3
