time(millisecond),timestamp,speed(mph),gpslevel,voltage(v),xSpeed(mph),ySpeed(mph),zSpeed(mph),compass_heading(degrees),pitch(degrees),roll(degrees),rc_elevator,rc_aileron,rc_throttle,rc_rudder,rc_elevator(percent),rc_aileron(percent),rc_throttle(percent),rc_rudder(percent),battery_percent,current(A),battery_temperature(f),ascent(feet),flycState,message,height_above_takeoff(meters)
184100,2026-01-07 12:31:35,0.0,5,7.669,0.0,0.0,-4.250186,29.7,5.9,0.9,1024,1024,1684,1024,0,0,100,0,84,4.882,69.44,92.191604,P-GPS,,28.1
184200,2026-01-07 12:31:35,0.0,5,7.669,0.0,0.0,-4.250186,29.6,6.3,1.2,1024,1024,1684,1024,0,0,100,0,84,4.882,69.44,92.847772,P-GPS,,28.3
184300,2026-01-07 12:31:35,0.0,5,7.669,0.0,0.0,-4.250186,29.7,6.5,1.3,1024,1024,1684,1024,0,0,100,0,84,4.882,69.44,93.50394,P-GPS,,28.5
184400,2026-01-07 12:31:36,0.0,5,7.669,0.0,0.0,-4.250186,29.6,5.7,0.9,1024,1024,1684,1024,0,0,100,0,84,4.882,69.44,93.832024,P-GPS,,28.6
184500,2026-01-07 12:31:36,0.0,5,7.669,0.0,0.0,-4.250186,29.6,5.1,0.8,1024,1024,1684,1024,0,0,100,0,84,4.882,69.44,94.488192,P-GPS,,28.8
184600,2026-01-07 12:31:36,0.0,5,7.669,0.0,0.0,-4.250186,29.6,5.5,0.5,1024,1024,1684,1024,0,0,100,0,84,4.882,69.44,95.14436,P-GPS,,29.0
184700,2026-01-07 12:31:36,0.0,5,7.662,0.0,0.0,-4.250186,29.6,4.7,0.8,1024,1024,1684,1024,0,0,100,0,84,5.152,69.44,96.128612,P-GPS,,29.3
184800,2026-01-07 12:31:36,0.0,5,7.662,0.0,0.0,-4.250186,29.6,4.6,1.0,1024,1024,1684,1024,0,0,100,0,84,5.152,69.44,96.78478,P-GPS,,29.5
184900,2026-01-07 12:31:36,0.0,5,7.662,0.0,0.0,-4.250186,29.5,4.8,0.9,1024,1024,1258,1024,0,0,35,0,84,5.152,69.44,97.440948,P-GPS,,29.7
185000,2026-01-07 12:31:36,0.0,5,7.662,0.0,0.0,-4.250186,29.6,5.3,1.1,1024,1024,1024,1024,0,0,0,0,84,5.152,69.44,98.097116,P-GPS,,29.9
185100,2026-01-07 12:31:36,0.0,5,7.662,0.0,0.0,-4.250186,29.6,5.0,0.9,1024,1024,1024,1024,0,0,0,0,84,5.152,69.44,98.753284,P-GPS,,30.1
185200,2026-01-07 12:31:36,0.0,5,7.662,0.0,0.0,-3.802798,29.6,5.5,0.8,1024,1024,1024,1024,0,0,0,0,84,5.152,69.44,99.409452,P-GPS,,30.3
185300,2026-01-07 12:31:37,0.0,5,7.662,0.0,0.0,-3.35541,29.7,5.9,0.9,1024,1024,1024,1024,0,0,0,0,84,5.152,69.44,99.737536,P-GPS,,30.4
185400,2026-01-07 12:31:37,0.0,5,7.662,0.0,0.0,-2.460634,29.7,6.2,1.2,1024,1024,1024,1024,0,0,0,0,84,5.152,69.44,100.393704,P-GPS,,30.6
185500,2026-01-07 12:31:37,0.0,5,7.662,0.0,0.0,-1.789552,29.7,6.4,1.2,1024,1024,1024,1024,0,0,0,0,84,5.152,69.44,100.721788,P-GPS,,30.7
185600,2026-01-07 12:31:37,0.0,5,7.662,0.0,0.0,-0.894776,29.7,6.7,1.8,1024,1024,1024,1024,0,0,0,0,84,5.152,69.44,100.721788,P-GPS,,30.7
185700,2026-01-07 12:31:37,0.0,5,7.662,0.0,0.0,-0.447388,29.7,6.6,2.0,1024,1024,1024,1024,0,0,0,0,84,5.152,69.44,101.049872,P-GPS,,30.8
185800,2026-01-07 12:31:37,0.0,5,7.756,0.0,0.0,0.0,29.6,6.4,1.8,1024,1024,1024,1024,0,0,0,0,84,4.256,69.44,101.049872,P-GPS,,30.8
185900,2026-01-07 12:31:37,0.0,5,7.756,0.0,0.0,0.0,29.6,5.8,2.2,1024,1024,1024,1024,0,0,0,0,84,4.256,69.44,101.049872,P-GPS,,30.8
186000,2026-01-07 12:31:37,0.0,5,7.756,0.0,0.0,0.0,29.6,5.6,2.7,1024,1024,1024,1024,0,0,0,0,84,4.256,69.44,101.049872,P-GPS,,30.8
186100,2026-01-07 12:31:37,0.0,5,7.756,0.0,0.0,0.0,29.7,5.8,3.0,1024,1024,1024,1024,0,0,0,0,84,4.256,69.44,101.377956,P-GPS,,30.9
186200,2026-01-07 12:31:37,0.0,5,7.756,0.0,0.0,0.0,29.7,5.8,3.5,1024,1024,1024,1024,0,0,0,0,84,4.256,69.44,101.377956,P-GPS,,30.9
186300,2026-01-07 12:31:38,0.0,5,7.756,0.0,0.0,0.0,29.6,5.2,3.4,1024,1024,1024,1024,0,0,0,0,84,4.256,69.44,101.377956,P-GPS,,30.9
186400,2026-01-07 12:31:38,0.0,5,7.756,0.0,0.0,0.0,29.5,4.1,3.0,1024,1024,1024,1024,0,0,0,0,84,4.256,69.44,101.377956,P-GPS,,30.9
186500,2026-01-07 12:31:38,0.0,5,7.756,0.0,0.0,0.0,29.6,3.8,2.8,1024,1024,1024,1024,0,0,0,0,84,4.256,69.44,101.377956,P-GPS,,30.9
186600,2026-01-07 12:31:38,0.0,5,7.756,0.0,0.0,0.0,29.6,4.0,2.6,1024,1024,1024,1024,0,0,0,0,84,4.256,69.44,101.049872,P-GPS,,30.8
186700,2026-01-07 12:31:38,0.0,5,7.756,0.0,0.0,0.0,29.6,4.2,2.7,1024,1024,1024,1024,0,0,0,0,84,4.256,69.44,101.049872,P-GPS,,30.8
186800,2026-01-07 12:31:38,0.0,5,7.756,0.0,0.0,0.0,29.7,4.5,2.8,1024,1024,1024,1024,0,0,0,0,84,4.256,69.44,101.049872,P-GPS,,30.8
186900,2026-01-07 12:31:38,0.0,5,7.687,0.0,0.0,0.0,29.6,4.7,2.4,1024,1024,1024,1024,0,0,0,0,84,4.621,69.44,101.049872,P-GPS,,30.8
187000,2026-01-07 12:31:38,0.0,5,7.687,0.0,0.0,0.0,29.4,4.5,2.5,1024,1024,1024,1024,0,0,0,0,84,4.621,69.44,101.049872,P-GPS,,30.8
187100,2026-01-07 12:31:38,0.0,5,7.687,0.0,0.0,0.0,29.5,4.7,2.9,1024,1024,1024,1024,0,0,0,0,84,4.621,69.44,101.049872,P-GPS,,30.8
187200,2026-01-07 12:31:38,0.0,5,7.687,0.0,0.0,0.0,29.7,5.4,2.9,1024,1024,1024,1024,0,0,0,0,84,4.621,69.44,101.049872,P-GPS,,30.8
187300,2026-01-07 12:31:38,0.0,5,7.687,0.0,0.0,0.0,29.7,6.3,2.9,1024,1024,1024,1024,0,0,0,0,84,4.621,69.44,101.049872,P-GPS,,30.8
187400,2026-01-07 12:31:39,0.0,5,7.687,0.0,0.0,0.0,29.9,6.8,3.1,1024,1024,1024,1024,0,0,0,0,84,4.621,69.44,101.049872,P-GPS,,30.8
187500,2026-01-07 12:31:39,0.0,5,7.687,0.0,0.0,0.0,29.7,6.9,2.6,1024,1024,1024,1024,0,0,0,0,84,4.621,69.44,101.049872,P-GPS,,30.8
187600,2026-01-07 12:31:39,0.0,5,7.687,0.0,0.0,0.0,29.7,6.1,2.9,1024,1024,1024,1024,0,0,0,0,84,4.621,69.44,101.049872,P-GPS,,30.8
187700,2026-01-07 12:31:39,0.0,5,7.687,0.0,0.0,0.0,29.8,6.5,3.1,1024,1024,1024,1024,0,0,0,0,84,4.621,69.44,101.049872,P-GPS,,30.8
187800,2026-01-07 12:31:39,0.0,5,7.687,0.0,0.0,0.0,29.8,6.5,3.2,1024,1024,1024,1024,0,0,0,0,84,4.621,69.44,101.049872,P-GPS,,30.8
187900,2026-01-07 12:31:39,0.0,5,7.687,0.0,0.0,0.0,29.7,6.5,2.9,1024,1024,1024,1024,0,0,0,0,84,4.621,69.44,101.049872,P-GPS,,30.8
188000,2026-01-07 12:31:39,0.0,5,7.687,0.0,0.0,0.0,29.5,6.0,3.1,1024,1024,1024,1024,0,0,0,0,84,4.621,69.44,101.049872,P-GPS,,30.8
188100,2026-01-07 12:31:39,0.0,5,7.663,0.0,0.0,0.0,29.6,5.5,3.6,1024,1024,1024,1024,0,0,0,0,84,4.966,69.44,101.049872,P-GPS,,30.8
188200,2026-01-07 12:31:39,0.0,5,7.663,0.0,0.0,0.0,29.7,6.2,3.6,1024,1024,1024,1024,0,0,0,0,84,4.966,69.44,101.049872,P-GPS,,30.8
188300,2026-01-07 12:31:40,0.0,5,7.663,0.0,0.0,0.0,29.6,5.7,3.7,1024,1024,1024,1024,0,0,0,0,84,4.966,69.44,101.049872,P-GPS,,30.8
188400,2026-01-07 12:31:40,0.0,5,7.663,0.0,0.0,0.0,29.8,6.3,3.5,1024,1024,1024,1024,0,0,0,0,84,4.966,69.44,100.721788,P-GPS,,30.7
188500,2026-01-07 12:31:40,0.0,5,7.663,0.0,0.0,0.0,29.7,6.2,3.1,1024,1024,1024,1024,0,0,0,0,84,4.966,69.44,100.721788,P-GPS,,30.7
188600,2026-01-07 12:31:40,0.0,5,7.663,0.0,0.0,0.0,29.7,5.6,3.0,1024,1024,1024,1024,0,0,0,0,84,4.966,69.44,100.721788,P-GPS,,30.7
188700,2026-01-07 12:31:40,0.0,5,7.663,0.0,0.0,0.0,29.6,5.6,3.1,1024,1024,1024,1024,0,0,0,0,84,4.966,69.44,100.721788,P-GPS,,30.7
188800,2026-01-07 12:31:40,0.0,5,7.663,0.0,0.0,0.0,29.7,5.5,2.9,1024,1024,1024,1024,0,0,0,0,84,4.966,69.44,100.721788,P-GPS,,30.7
188900,2026-01-07 12:31:40,0.0,5,7.663,0.0,0.0,0.0,29.7,5.7,2.7,1024,1024,1024,1024,0,0,0,0,84,4.966,69.44,100.721788,P-GPS,,30.7
189000,2026-01-07 12:31:40,0.0,5,7.663,0.0,0.0,0.0,29.7,5.8,2.9,1024,1024,1024,1024,0,0,0,0,84,4.966,69.44,100.721788,P-GPS,,30.7
189100,2026-01-07 12:31:40,0.0,5,7.663,0.0,0.0,0.0,29.7,5.8,3.0,1024,1024,1024,1024,0,0,0,0,84,4.966,69.44,100.721788,P-GPS,,30.7
189200,2026-01-07 12:31:40,0.0,5,7.652,0.0,0.0,0.0,29.7,6.2,2.8,1024,1024,1024,1024,0,0,0,0,84,5.133,69.44,100.721788,P-GPS,,30.7
189300,2026-01-07 12:31:41,0.0,5,7.652,0.0,0.0,0.0,29.7,6.1,2.8,1024,1024,1024,1024,0,0,0,0,84,5.133,69.44,100.721788,P-GPS,,30.7
189400,2026-01-07 12:31:41,0.0,5,7.652,0.0,0.0,0.0,29.7,5.9,2.5,1024,1024,1024,1024,0,0,0,0,84,5.133,69.44,100.393704,P-GPS,,30.6
189500,2026-01-07 12:31:41,0.0,5,7.652,0.0,0.0,0.0,29.7,6.1,2.5,1024,1024,1024,1024,0,0,0,0,84,5.133,69.44,100.393704,P-GPS,,30.6
189600,2026-01-07 12:31:41,0.0,5,7.652,0.0,0.0,0.0,29.7,6.3,2.6,1024,1024,1024,1024,0,0,0,0,84,5.133,69.44,100.393704,P-GPS,,30.6
189700,2026-01-07 12:31:41,0.0,5,7.652,0.0,0.0,0.0,29.8,6.5,2.7,1024,1024,1024,1024,0,0,0,0,84,5.133,69.44,100.393704,P-GPS,,30.6
189800,2026-01-07 12:31:41,0.0,5,7.652,0.0,0.0,0.0,29.8,6.9,2.6,1024,1024,1024,1024,0,0,0,0,84,5.133,69.44,100.393704,P-GPS,,30.6
189900,2026-01-07 12:31:41,0.0,5,7.652,0.0,0.0,0.0,29.8,7.0,2.5,1024,1024,1024,1024,0,0,0,0,84,5.133,69.44,100.393704,P-GPS,,30.6
190000,2026-01-07 12:31:41,0.0,5,7.652,0.0,0.0,0.0,29.7,6.8,2.4,1024,1024,1024,1024,0,0,0,0,84,5.133,69.44,100.393704,P-GPS,,30.6
190100,2026-01-07 12:31:41,0.0,5,7.652,0.0,0.0,0.0,29.7,6.6,2.4,1024,1024,1024,1024,0,0,0,0,84,5.133,69.44,100.393704,P-GPS,,30.6
190200,2026-01-07 12:31:41,0.0,5,7.652,0.0,0.0,0.0,29.7,6.3,2.6,1024,1024,1024,1024,0,0,0,0,84,5.133,69.44,100.393704,P-GPS,,30.6
190300,2026-01-07 12:31:42,0.0,5,7.652,0.0,0.0,0.0,29.7,6.2,2.7,1024,1024,1024,1024,0,0,0,0,84,5.133,69.44,100.393704,P-GPS,,30.6
190400,2026-01-07 12:31:42,0.0,5,7.652,0.0,0.0,0.0,29.7,6.2,2.9,1024,1024,1024,1024,0,0,0,0,84,5.133,69.44,100.393704,P-GPS,,30.6
190500,2026-01-07 12:31:42,0.0,5,7.652,0.0,0.0,0.0,29.7,6.3,3.1,1024,1024,1024,1024,0,0,0,0,84,5.133,69.44,100.393704,P-GPS,,30.6
190600,2026-01-07 12:31:42,0.0,5,7.652,0.0,0.0,0.0,29.8,6.0,3.2,1024,1024,1024,1024,0,0,0,0,84,5.133,69.44,100.393704,P-GPS,,30.6
190700,2026-01-07 12:31:42,0.0,5,7.652,0.0,0.0,0.0,30.0,5.8,3.1,1024,1024,1024,1024,0,0,0,0,84,5.133,69.44,100.393704,P-GPS,,30.6
190800,2026-01-07 12:31:42,0.0,5,7.652,0.0,0.0,0.0,29.9,5.7,3.0,1024,1024,1024,1024,0,0,0,0,84,5.133,69.44,100.393704,P-GPS,,30.6
190900,2026-01-07 12:31:42,0.0,5,7.652,0.0,0.0,0.0,29.8,5.4,3.1,1024,1024,1024,1024,0,0,0,0,84,5.133,69.44,100.06562,P-GPS,,30.5
191000,2026-01-07 12:31:42,0.0,5,7.652,0.0,0.0,0.0,29.8,5.1,3.2,1024,1024,1024,1024,0,0,0,0,84,5.133,69.44,100.06562,P-GPS,,30.5
191100,2026-01-07 12:31:42,0.0,5,7.652,0.0,0.0,0.0,29.7,4.3,3.8,1024,1024,1024,1024,0,0,0,0,84,5.133,69.44,100.06562,P-GPS,,30.5
191200,2026-01-07 12:31:42,0.0,5,7.652,0.0,0.0,0.0,29.6,4.3,4.2,1024,1024,1024,1024,0,0,0,0,84,5.133,69.44,100.06562,P-GPS,,30.5
191300,2026-01-07 12:31:43,0.0,5,7.652,0.0,0.0,0.0,29.6,4.6,4.4,1024,1024,1024,1024,0,0,0,0,84,5.133,69.44,100.06562,P-GPS,,30.5
191400,2026-01-07 12:31:43,0.0,5,7.667,0.0,0.0,0.0,29.7,5.2,4.4,1024,1024,1024,1024,0,0,0,0,84,4.969,69.62,100.06562,P-GPS,,30.5
191500,2026-01-07 12:31:43,0.0,5,7.667,0.0,0.0,0.0,29.7,5.4,4.3,1024,1024,1024,1024,0,0,0,0,84,4.969,69.62,100.06562,P-GPS,,30.5
191600,2026-01-07 12:31:43,0.0,5,7.667,0.0,0.0,0.0,29.7,5.3,4.2,1024,1024,1024,1024,0,0,0,0,84,4.969,69.62,100.06562,P-GPS,,30.5
191700,2026-01-07 12:31:43,0.0,5,7.667,0.0,0.0,0.0,29.7,5.2,4.1,1024,1024,1024,1024,0,0,0,0,84,4.969,69.62,100.06562,P-GPS,,30.5
191800,2026-01-07 12:31:43,0.0,5,7.667,0.0,0.0,0.0,29.7,5.3,3.8,1024,1024,1024,1024,0,0,0,0,84,4.969,69.62,100.06562,P-GPS,,30.5
191900,2026-01-07 12:31:43,0.0,5,7.667,0.0,0.0,0.0,29.7,5.3,3.5,1024,1024,1024,1024,0,0,0,0,84,4.969,69.62,100.06562,P-GPS,,30.5
192000,2026-01-07 12:31:43,0.0,5,7.667,0.0,0.0,0.0,29.7,5.2,3.5,1024,1024,1024,1024,0,0,0,0,84,4.969,69.62,100.06562,P-GPS,,30.5
192100,2026-01-07 12:31:43,0.0,5,7.667,0.0,0.0,0.0,29.7,5.4,3.6,1024,1024,1024,1024,0,0,0,0,84,4.969,69.62,100.06562,P-GPS,,30.5
192200,2026-01-07 12:31:43,0.0,5,7.667,0.0,0.0,0.0,29.7,5.5,3.6,1024,1024,1024,1024,0,0,0,0,84,4.969,69.62,100.06562,P-GPS,,30.5
192300,2026-01-07 12:31:44,0.0,5,7.667,0.0,0.0,0.0,29.7,5.4,3.6,1024,1024,1024,1024,0,0,0,0,84,4.969,69.62,100.06562,P-GPS,,30.5
192400,2026-01-07 12:31:44,0.0,5,7.667,0.0,0.0,0.0,29.7,5.3,3.5,1024,1024,1024,1024,0,0,0,0,84,4.969,69.62,99.737536,P-GPS,,30.4
192500,2026-01-07 12:31:44,0.0,5,7.67,0.0,0.0,0.0,29.7,5.3,3.5,1024,1024,1024,1024,0,0,0,0,84,4.866,69.62,99.737536,P-GPS,,30.4
192600,2026-01-07 12:31:44,0.0,5,7.67,0.0,0.0,0.0,29.7,5.4,3.5,1024,1024,1024,1024,0,0,0,0,84,4.866,69.62,99.737536,P-GPS,,30.4
192700,2026-01-07 12:31:44,0.0,5,7.67,0.0,0.0,0.0,29.7,5.6,3.5,1024,1024,1024,1024,0,0,0,0,84,4.866,69.62,99.737536,P-GPS,,30.4
192800,2026-01-07 12:31:44,0.0,5,7.67,0.0,0.0,0.0,29.7,5.6,3.5,1024,1024,1024,1024,0,0,0,0,84,4.866,69.62,99.737536,P-GPS,,30.4
192900,2026-01-07 12:31:44,0.0,5,7.67,0.0,0.0,0.0,29.7,5.7,3.6,1024,1024,1024,1024,0,0,0,0,84,4.866,69.62,99.737536,P-GPS,,30.4
193000,2026-01-07 12:31:44,0.0,5,7.67,0.0,0.0,0.0,29.7,6.0,3.6,1024,1024,1024,1024,0,0,0,0,84,4.866,69.62,99.737536,P-GPS,,30.4
193100,2026-01-07 12:31:44,0.0,5,7.67,0.0,0.0,0.0,29.7,6.0,3.6,1024,1024,1024,1024,0,0,0,0,84,4.866,69.62,99.737536,P-GPS,,30.4
193200,2026-01-07 12:31:44,0.0,5,7.67,0.0,0.0,0.0,29.7,5.9,3.5,1024,1024,1024,1024,0,0,0,0,84,4.866,69.62,99.737536,P-GPS,,30.4
193300,2026-01-07 12:31:45,0.0,5,7.67,0.0,0.0,0.0,29.8,5.9,3.7,1024,1024,1024,1024,0,0,0,0,84,4.866,69.62,99.737536,P-GPS,,30.4
193400,2026-01-07 12:31:45,0.0,5,7.67,0.0,0.0,0.0,29.8,6.1,3.6,1024,1024,1024,1024,0,0,0,0,84,4.866,69.62,99.737536,P-GPS,,30.4
193500,2026-01-07 12:31:45,0.0,5,7.67,0.0,0.0,0.0,29.8,6.1,3.5,1024,1024,1024,1024,0,0,0,0,84,4.866,69.62,99.737536,P-GPS,,30.4
193600,2026-01-07 12:31:45,0.0,5,7.675,0.0,0.0,0.0,29.8,6.1,3.4,1024,1024,1024,1024,0,0,0,0,83,4.767,69.62,99.737536,P-GPS,,30.4
193700,2026-01-07 12:31:45,0.0,5,7.675,0.0,0.0,0.0,29.8,6.1,3.5,1024,1024,1024,1024,0,0,0,0,83,4.767,69.62,100.06562,P-GPS,,30.5
193800,2026-01-07 12:31:45,0.0,5,7.675,0.0,0.0,0.0,29.8,6.1,3.7,1024,1024,1024,1024,0,0,0,0,83,4.767,69.62,100.06562,P-GPS,,30.5
193900,2026-01-07 12:31:45,0.0,5,7.675,0.0,0.0,0.0,29.8,6.0,3.7,1024,1024,1024,1024,0,0,0,0,83,4.767,69.62,100.06562,P-GPS,,30.5
194000,2026-01-07 12:31:45,0.0,5,7.675,0.0,0.0,0.0,29.8,6.0,3.8,1024,1024,1024,1024,0,0,0,0,83,4.767,69.62,100.06562,P-GPS,,30.5
194100,2026-01-07 12:31:45,0.0,5,7.675,0.0,0.0,0.0,29.8,6.1,3.9,1024,1024,1024,1024,0,0,0,0,83,4.767,69.62,100.06562,P-GPS,,30.5
194200,2026-01-07 12:31:45,0.0,5,7.675,0.0,0.0,0.0,29.8,6.0,4.1,1024,1024,1024,1024,0,0,0,0,83,4.767,69.62,100.06562,P-GPS,,30.5
194300,2026-01-07 12:31:45,0.0,5,7.675,0.0,0.0,0.0,29.8,5.7,4.1,1024,1024,1024,1024,0,0,0,0,83,4.767,69.62,100.06562,P-GPS,,30.5
194400,2026-01-07 12:31:46,0.0,5,7.675,0.0,0.0,0.0,29.8,5.7,4.1,1024,1024,1024,1024,0,0,0,0,83,4.767,69.62,100.06562,P-GPS,,30.5
194500,2026-01-07 12:31:46,0.0,5,7.675,0.0,0.0,0.0,29.8,5.5,4.0,1024,1024,1024,1024,0,0,0,0,83,4.767,69.62,100.06562,P-GPS,,30.5
194600,2026-01-07 12:31:46,0.0,5,7.675,0.0,0.0,0.0,29.8,5.6,4.0,1024,1024,1024,1024,0,0,0,0,83,4.767,69.62,100.06562,P-GPS,,30.5
194700,2026-01-07 12:31:46,0.0,5,7.679,0.0,0.0,0.0,29.8,5.8,4.0,1024,1024,1024,1024,0,0,0,0,83,4.63,69.62,100.06562,P-GPS,,30.5
194800,2026-01-07 12:31:46,0.0,5,7.679,0.0,0.0,0.0,29.8,5.9,3.9,1024,1024,1024,1024,0,0,0,0,83,4.63,69.62,100.06562,P-GPS,,30.5
194900,2026-01-07 12:31:46,0.0,5,7.679,0.0,0.0,0.0,29.8,6.0,4.1,1024,1024,1024,1024,0,0,0,0,83,4.63,69.62,100.06562,P-GPS,,30.5
195000,2026-01-07 12:31:46,0.0,5,7.679,0.0,0.0,0.0,29.8,5.9,4.0,1024,1024,1024,1024,0,0,0,0,83,4.63,69.62,100.06562,P-GPS,,30.5
195100,2026-01-07 12:31:46,0.0,5,7.679,0.0,0.0,0.0,29.8,6.0,3.9,1024,1024,1024,1024,0,0,0,0,83,4.63,69.62,100.06562,P-GPS,,30.5
195200,2026-01-07 12:31:46,0.0,5,7.679,0.0,0.0,0.0,29.9,6.5,3.9,1024,1024,1024,1024,0,0,0,0,83,4.63,69.62,100.06562,P-GPS,,30.5
195300,2026-01-07 12:31:47,0.0,5,7.679,0.0,0.0,0.0,29.8,6.6,3.8,1024,1024,1024,1024,0,0,0,0,83,4.63,69.62,100.06562,P-GPS,,30.5
195400,2026-01-07 12:31:47,0.0,5,7.679,0.0,0.0,0.0,29.8,6.5,3.7,1024,1024,1024,1024,0,0,0,0,83,4.63,69.62,100.06562,P-GPS,,30.5
195500,2026-01-07 12:31:47,0.0,5,7.679,0.0,0.0,0.0,29.8,6.5,3.9,1024,1024,1024,1024,0,0,0,0,83,4.63,69.62,100.06562,P-GPS,,30.5
195600,2026-01-07 12:31:47,0.0,5,7.679,0.0,0.0,0.0,29.9,6.4,3.9,1024,1024,1024,1024,0,0,0,0,83,4.63,69.62,99.737536,P-GPS,,30.4
195700,2026-01-07 12:31:47,0.0,5,7.679,0.0,0.0,0.0,29.8,6.3,3.8,1024,1024,1024,1024,0,0,0,0,83,4.63,69.62,99.737536,P-GPS,,30.4
195800,2026-01-07 12:31:47,0.0,5,7.679,0.0,0.0,0.0,29.8,6.1,3.9,1024,1024,1024,1024,0,0,0,0,83,4.63,69.62,99.737536,P-GPS,,30.4
195900,2026-01-07 12:31:47,0.0,5,7.673,0.0,0.0,0.0,29.8,5.9,3.9,1024,1024,1024,1024,0,0,0,0,83,4.687,69.62,99.737536,P-GPS,,30.4
196000,2026-01-07 12:31:47,0.0,5,7.673,0.0,0.0,0.0,29.8,5.9,4.0,1024,1024,1024,1024,0,0,0,0,83,4.687,69.62,99.737536,P-GPS,,30.4
196100,2026-01-07 12:31:47,0.0,5,7.673,0.0,0.0,0.0,29.9,6.0,4.1,1024,1024,1024,1024,0,0,0,0,83,4.687,69.62,99.737536,P-GPS,,30.4
196200,2026-01-07 12:31:47,0.0,5,7.673,0.0,0.0,0.0,29.8,5.9,4.1,1024,1024,1024,1024,0,0,0,0,83,4.687,69.62,99.737536,P-GPS,,30.4
196300,2026-01-07 12:31:48,0.0,5,7.673,0.0,0.0,0.0,29.8,5.8,4.1,1024,1024,1024,1024,0,0,0,0,83,4.687,69.62,99.737536,P-GPS,,30.4
196400,2026-01-07 12:31:48,0.0,5,7.673,0.0,0.0,0.0,29.8,5.7,4.0,1024,1024,1024,1024,0,0,0,0,83,4.687,69.62,99.737536,P-GPS,,30.4
196500,2026-01-07 12:31:48,0.0,5,7.673,0.0,0.0,0.0,29.8,5.7,4.0,1024,1024,1024,1024,0,0,0,0,83,4.687,69.62,99.737536,P-GPS,,30.4
196600,2026-01-07 12:31:48,0.0,5,7.673,0.0,0.0,0.0,29.8,5.5,4.1,1024,1024,1024,1024,0,0,0,0,83,4.687,69.62,99.737536,P-GPS,,30.4
196700,2026-01-07 12:31:48,0.0,5,7.673,0.0,0.0,0.0,29.8,5.5,4.2,1024,1024,1024,1024,0,0,0,0,83,4.687,69.62,99.737536,P-GPS,,30.4
196800,2026-01-07 12:31:48,0.0,5,7.673,0.0,0.0,0.0,29.8,5.4,4.3,1024,1024,1024,1024,0,0,0,0,83,4.687,69.62,99.737536,P-GPS,,30.4
196900,2026-01-07 12:31:48,0.0,5,7.673,0.0,0.0,0.0,29.8,5.4,4.1,1024,1024,1024,1024,0,0,0,0,83,4.687,69.62,99.737536,P-GPS,,30.4
197000,2026-01-07 12:31:48,0.0,5,7.675,0.0,0.0,0.0,29.8,5.4,4.3,1024,1024,1024,1024,0,0,0,0,83,4.669,69.62,99.737536,P-GPS,,30.4
197100,2026-01-07 12:31:48,0.0,5,7.675,0.0,0.0,0.0,29.8,5.4,4.4,1024,1024,1024,1024,0,0,0,0,83,4.669,69.62,99.737536,P-GPS,,30.4
197200,2026-01-07 12:31:48,0.0,5,7.675,0.0,0.0,0.0,29.8,5.7,4.2,1024,1024,1024,1024,0,0,0,0,83,4.669,69.62,99.737536,P-GPS,,30.4
197300,2026-01-07 12:31:49,0.0,5,7.675,0.0,0.0,0.0,29.7,5.5,4.5,1024,1024,1024,1024,0,0,0,0,83,4.669,69.62,99.737536,P-GPS,,30.4
197400,2026-01-07 12:31:49,0.0,5,7.675,0.0,0.0,0.0,29.7,5.5,4.5,1024,1024,1024,1024,0,0,0,0,83,4.669,69.62,99.737536,P-GPS,,30.4
197500,2026-01-07 12:31:49,0.0,5,7.675,0.0,0.0,0.0,29.8,5.9,4.5,1024,1024,1024,1024,0,0,0,0,83,4.669,69.62,99.737536,P-GPS,,30.4
197600,2026-01-07 12:31:49,0.0,5,7.675,0.0,0.0,0.0,29.8,6.1,4.6,1024,1024,1024,1024,0,0,0,0,83,4.669,69.62,99.737536,P-GPS,,30.4
197700,2026-01-07 12:31:49,0.0,5,7.675,0.0,0.0,0.0,29.8,6.4,4.5,1024,1024,1024,1024,0,0,0,0,83,4.669,69.62,99.409452,P-GPS,,30.3
197800,2026-01-07 12:31:49,0.0,5,7.675,0.0,0.0,0.0,29.8,6.5,4.4,1024,1024,1024,1024,0,0,0,0,83,4.669,69.62,99.409452,P-GPS,,30.3
197900,2026-01-07 12:31:49,0.0,5,7.675,0.0,0.0,0.0,29.8,6.4,4.4,1024,1024,1024,1024,0,0,0,0,83,4.669,69.62,99.409452,P-GPS,,30.3
198000,2026-01-07 12:31:49,0.0,5,7.675,0.0,0.0,0.0,29.8,6.3,4.4,1024,1024,1024,1024,0,0,0,0,83,4.669,69.62,99.409452,P-GPS,,30.3
198100,2026-01-07 12:31:49,0.0,5,7.665,0.0,0.0,0.0,29.8,6.4,4.4,1024,1024,1024,1024,0,0,0,0,83,4.759,69.62,99.409452,P-GPS,,30.3
198200,2026-01-07 12:31:49,0.0,5,7.665,0.0,0.0,0.0,29.8,6.3,4.4,1024,1024,1024,1024,0,0,0,0,83,4.759,69.62,99.409452,P-GPS,,30.3
198300,2026-01-07 12:31:50,0.0,5,7.665,0.0,0.0,0.0,29.8,6.2,4.5,1024,1024,1024,1024,0,0,0,0,83,4.759,69.62,99.409452,P-GPS,,30.3
198400,2026-01-07 12:31:50,0.0,5,7.665,0.0,0.0,0.0,29.8,6.4,4.3,1024,1024,1024,1024,0,0,0,0,83,4.759,69.62,99.081368,P-GPS,,30.2
198500,2026-01-07 12:31:50,0.0,5,7.665,0.0,0.0,0.0,29.9,6.5,4.6,1024,1024,1024,1024,0,0,0,0,83,4.759,69.62,99.081368,P-GPS,,30.2
198600,2026-01-07 12:31:50,0.0,5,7.665,0.0,0.0,0.0,29.9,6.5,4.7,1024,1024,1024,1024,0,0,0,0,83,4.759,69.62,99.081368,P-GPS,,30.2
198700,2026-01-07 12:31:50,0.0,5,7.665,0.0,0.0,0.0,29.9,6.5,4.8,1024,1024,1024,1024,0,0,0,0,83,4.759,69.62,99.081368,P-GPS,,30.2
198800,2026-01-07 12:31:50,0.0,5,7.665,0.0,0.0,0.0,29.9,6.4,4.7,1024,1024,1024,1024,0,0,0,0,83,4.759,69.62,99.081368,P-GPS,,30.2
198900,2026-01-07 12:31:50,0.0,5,7.665,0.0,0.0,0.0,29.9,6.0,4.7,1024,1024,1024,1024,0,0,0,0,83,4.759,69.62,99.081368,P-GPS,,30.2
199000,2026-01-07 12:31:50,0.0,5,7.665,0.0,0.0,0.0,29.9,5.7,4.7,1024,1024,1024,1024,0,0,0,0,83,4.759,69.62,99.081368,P-GPS,,30.2
199100,2026-01-07 12:31:50,0.0,5,7.665,0.0,0.0,0.0,29.8,5.8,4.5,1024,1024,1024,1024,0,0,0,0,83,4.759,69.62,99.081368,P-GPS,,30.2
199200,2026-01-07 12:31:50,0.0,5,7.662,0.0,0.0,0.0,29.8,5.5,4.3,1024,1024,1024,1024,0,0,0,0,83,4.848,69.62,99.081368,P-GPS,,30.2
199300,2026-01-07 12:31:51,0.0,5,7.662,0.0,0.0,0.0,29.8,5.8,4.2,1024,1024,1024,1024,0,0,0,0,83,4.848,69.62,99.081368,P-GPS,,30.2
199400,2026-01-07 12:31:51,0.0,5,7.662,0.0,0.0,0.0,29.9,5.9,4.2,1024,1024,1024,1024,0,0,0,0,83,4.848,69.62,98.753284,P-GPS,,30.1
199500,2026-01-07 12:31:51,0.0,5,7.662,0.0,0.0,0.0,29.9,5.9,4.6,1024,1024,1024,1024,0,0,0,0,83,4.848,69.62,98.753284,P-GPS,,30.1
199600,2026-01-07 12:31:51,0.0,5,7.662,0.0,0.0,0.0,29.8,6.1,4.6,1024,1024,1024,1024,0,0,0,0,83,4.848,69.62,98.753284,P-GPS,,30.1
199700,2026-01-07 12:31:51,0.0,5,7.662,0.0,0.0,0.0,29.9,6.0,4.4,1024,1024,1024,1024,0,0,0,0,83,4.848,69.62,98.753284,P-GPS,,30.1
199800,2026-01-07 12:31:51,0.0,5,7.662,0.0,0.0,0.0,29.8,6.0,4.2,1024,1024,1024,1024,0,0,0,0,83,4.848,69.62,98.753284,P-GPS,,30.1
199900,2026-01-07 12:31:51,0.0,5,7.662,0.0,0.0,0.0,29.8,6.4,4.0,1024,1024,1024,1024,0,0,0,0,83,4.848,69.62,98.753284,P-GPS,,30.1
200000,2026-01-07 12:31:51,0.0,5,7.662,0.0,0.0,0.0,29.8,6.7,3.8,1024,1024,1024,1024,0,0,0,0,83,4.848,69.62,98.753284,P-GPS,,30.1
200100,2026-01-07 12:31:51,0.0,5,7.662,0.0,0.0,0.0,29.8,6.3,3.9,1024,1024,1024,1024,0,0,0,0,83,4.848,69.62,98.753284,P-GPS,,30.1
200200,2026-01-07 12:31:51,0.0,5,7.662,0.0,0.0,0.0,29.8,6.4,3.6,1024,1024,1024,1024,0,0,0,0,83,4.848,69.62,98.753284,P-GPS,,30.1
200300,2026-01-07 12:31:51,0.0,5,7.662,0.0,0.0,0.0,29.9,6.2,3.6,1024,1024,1024,1024,0,0,0,0,83,4.848,69.62,98.753284,P-GPS,,30.1
200400,2026-01-07 12:31:52,0.0,5,7.662,0.0,0.0,0.0,29.8,5.9,3.8,1024,1024,1024,1024,0,0,0,0,83,4.848,69.62,98.753284,P-GPS,,30.1
200500,2026-01-07 12:31:52,0.0,5,7.662,0.0,0.0,0.0,29.8,6.0,3.7,1024,1024,1024,1024,0,0,0,0,83,4.848,69.62,98.753284,P-GPS,,30.1
200600,2026-01-07 12:31:52,0.0,5,7.662,0.0,0.0,0.0,29.8,5.8,4.0,1024,1024,1024,1024,0,0,0,0,83,4.848,69.62,98.753284,P-GPS,,30.1
200700,2026-01-07 12:31:52,0.0,5,7.662,0.0,0.0,0.0,29.8,5.7,4.0,1024,1024,1024,1024,0,0,0,0,83,4.848,69.62,98.753284,P-GPS,,30.1
200800,2026-01-07 12:31:52,0.0,5,7.662,0.0,0.0,0.0,29.8,5.8,4.1,1024,1024,1024,1024,0,0,0,0,83,4.848,69.62,98.753284,P-GPS,,30.1
200900,2026-01-07 12:31:52,0.0,5,7.662,0.0,0.0,0.0,29.8,5.9,4.0,1024,1024,1024,1024,0,0,0,0,83,4.848,69.62,98.753284,P-GPS,,30.1
201000,2026-01-07 12:31:52,0.0,5,7.662,0.0,0.0,0.0,29.9,6.1,4.0,1024,1024,1024,1024,0,0,0,0,83,4.848,69.62,98.753284,P-GPS,,30.1
201100,2026-01-07 12:31:52,0.0,5,7.662,0.0,0.0,0.0,29.8,6.0,4.0,1024,1024,1024,1024,0,0,0,0,83,4.848,69.62,98.753284,P-GPS,,30.1
201200,2026-01-07 12:31:52,0.0,5,7.662,0.0,0.0,0.0,29.8,6.1,3.9,1024,1024,1024,1024,0,0,0,0,83,4.848,69.62,98.753284,P-GPS,,30.1
201300,2026-01-07 12:31:53,0.0,5,7.662,0.0,0.0,0.0,29.9,6.4,3.9,1024,1024,1024,1024,0,0,0,0,83,4.848,69.62,99.081368,P-GPS,,30.2
201400,2026-01-07 12:31:53,0.0,5,7.659,0.0,0.0,0.0,29.9,6.5,3.9,1024,1024,1024,1024,0,0,0,0,83,4.945,69.8,99.081368,P-GPS,,30.2
201500,2026-01-07 12:31:53,0.0,5,7.659,0.0,0.0,0.0,29.9,6.4,3.9,1024,1024,1024,1024,0,0,0,0,83,4.945,69.8,99.081368,P-GPS,,30.2
201600,2026-01-07 12:31:53,0.0,5,7.659,0.0,0.0,0.0,29.9,6.4,3.9,1024,1024,1024,1024,0,0,0,0,83,4.945,69.8,99.081368,P-GPS,,30.2
201700,2026-01-07 12:31:53,0.0,5,7.659,0.0,0.0,0.0,29.8,6.3,3.8,1024,1024,1024,1024,0,0,0,0,83,4.945,69.8,99.081368,P-GPS,,30.2
201800,2026-01-07 12:31:53,0.0,5,7.659,0.0,0.0,0.0,29.8,6.5,3.8,1024,1024,1024,1024,0,0,0,0,83,4.945,69.8,99.081368,P-GPS,,30.2
201900,2026-01-07 12:31:53,0.0,5,7.659,0.0,0.0,0.0,29.8,6.5,3.7,1024,1024,1024,1024,0,0,0,0,83,4.945,69.8,99.081368,P-GPS,,30.2
202000,2026-01-07 12:31:53,0.0,5,7.659,0.0,0.0,0.0,29.8,6.3,3.6,1024,1024,1024,1024,0,0,0,0,83,4.945,69.8,99.081368,P-GPS,,30.2
202100,2026-01-07 12:31:53,0.0,5,7.659,0.0,0.0,0.0,29.8,6.4,3.4,1024,1024,1024,1024,0,0,0,0,83,4.945,69.8,99.081368,P-GPS,,30.2
202200,2026-01-07 12:31:53,0.0,5,7.659,0.0,0.0,0.0,29.8,6.3,3.4,1024,1024,1024,1024,0,0,0,0,83,4.945,69.8,99.081368,P-GPS,,30.2
202300,2026-01-07 12:31:54,0.0,5,7.659,0.0,0.0,0.0,29.8,6.3,3.4,1024,1024,1024,1024,0,0,0,0,83,4.945,69.8,99.081368,P-GPS,,30.2
202400,2026-01-07 12:31:54,0.0,5,7.659,0.0,0.0,0.0,29.8,6.3,3.4,1024,1024,1024,1024,0,0,0,0,83,4.945,69.8,99.081368,P-GPS,,30.2
202500,2026-01-07 12:31:54,0.0,5,7.659,0.0,0.0,0.0,29.8,6.1,3.4,1024,1024,1024,1024,0,0,0,0,83,4.805,69.8,99.081368,P-GPS,,30.2
202600,2026-01-07 12:31:54,0.0,5,7.659,0.0,0.0,0.0,29.8,6.1,3.4,1024,1024,1024,1024,0,0,0,0,83,4.805,69.8,99.081368,P-GPS,,30.2
202700,2026-01-07 12:31:54,0.0,5,7.659,0.0,0.0,0.0,29.8,6.2,3.6,1024,1024,1024,1024,0,0,0,0,83,4.805,69.8,99.081368,P-GPS,,30.2
202800,2026-01-07 12:31:54,0.0,5,7.659,0.0,0.0,0.0,29.8,6.2,3.7,1024,1024,1024,1024,0,0,0,0,83,4.805,69.8,99.081368,P-GPS,,30.2
202900,2026-01-07 12:31:54,0.0,5,7.659,0.0,0.0,0.0,29.8,6.4,3.7,1024,1024,1024,1024,0,0,0,0,83,4.805,69.8,99.081368,P-GPS,,30.2
203000,2026-01-07 12:31:54,0.0,5,7.659,0.0,0.0,0.0,29.8,6.5,3.5,1024,1024,1024,1024,0,0,0,0,83,4.805,69.8,99.081368,P-GPS,,30.2
203100,2026-01-07 12:31:54,0.0,5,7.659,0.0,0.0,0.0,29.8,6.5,3.5,1024,1024,1024,1024,0,0,0,0,83,4.805,69.8,99.409452,P-GPS,,30.3
203200,2026-01-07 12:31:54,0.0,5,7.659,0.0,0.0,0.0,29.8,6.5,3.7,1024,1024,1024,1024,0,0,0,0,83,4.805,69.8,99.409452,P-GPS,,30.3
203300,2026-01-07 12:31:55,0.0,5,7.659,0.0,0.0,0.0,29.9,6.7,3.7,1024,1024,1024,1024,0,0,0,0,83,4.805,69.8,99.409452,P-GPS,,30.3
203400,2026-01-07 12:31:55,0.0,5,7.659,0.0,0.0,0.0,29.9,6.7,3.8,1024,1024,1024,1024,0,0,0,0,83,4.805,69.8,99.409452,P-GPS,,30.3
203500,2026-01-07 12:31:55,0.0,5,7.659,0.0,0.0,0.0,29.8,6.5,3.9,1024,1024,1024,1024,0,0,0,0,83,4.805,69.8,99.409452,P-GPS,,30.3
203600,2026-01-07 12:31:55,0.0,5,7.659,0.0,0.0,0.0,29.8,6.4,3.8,1024,1024,1024,1024,0,0,0,0,83,4.805,69.8,99.409452,P-GPS,,30.3
203700,2026-01-07 12:31:55,0.0,5,7.665,0.0,0.0,0.0,29.8,6.2,3.6,1024,1024,1024,1024,0,0,0,0,83,4.753,69.8,99.409452,P-GPS,,30.3
203800,2026-01-07 12:31:55,0.0,5,7.665,0.0,0.0,0.0,29.8,6.1,3.6,1024,1024,1038,1024,0,0,2,0,83,4.753,69.8,99.409452,P-GPS,,30.3
203900,2026-01-07 12:31:55,0.0,5,7.665,0.0,0.0,0.0,29.8,6.1,3.6,1024,1024,1442,1024,0,0,63,0,83,4.753,69.8,99.409452,P-GPS,,30.3
204000,2026-01-07 12:31:55,0.0,5,7.665,0.0,0.0,0.0,29.8,6.3,3.8,1024,1024,1553,1024,0,0,80,0,83,4.753,69.8,99.409452,P-GPS,,30.3
204100,2026-01-07 12:31:55,0.0,5,7.665,0.0,0.0,0.0,29.7,6.3,3.9,1024,1024,1573,1024,0,0,83,0,83,4.753,69.8,99.409452,P-GPS,,30.3
204200,2026-01-07 12:31:55,0.0,5,7.665,0.0,0.0,-0.447388,29.7,6.3,3.6,1024,1024,1573,1024,0,0,83,0,83,4.753,69.8,99.737536,P-GPS,,30.4
204300,2026-01-07 12:31:56,0.0,5,7.665,0.0,0.0,-1.342164,29.6,5.7,3.3,1024,1024,1574,1024,0,0,83,0,83,4.753,69.8,99.737536,P-GPS,,30.4
204400,2026-01-07 12:31:56,0.0,5,7.665,0.0,0.0,-2.013246,29.6,5.8,3.4,1024,1024,1576,1024,0,0,84,0,83,4.753,69.8,100.06562,P-GPS,,30.5
204500,2026-01-07 12:31:56,0.0,5,7.665,0.0,0.0,-2.684328,29.6,6.0,3.5,1024,1024,1579,1024,0,0,84,0,83,4.753,69.8,100.393704,P-GPS,,30.6
204600,2026-01-07 12:31:56,0.0,5,7.665,0.0,0.0,-2.908022,29.7,6.3,3.6,1024,1024,1582,1024,0,0,85,0,83,4.753,69.8,100.721788,P-GPS,,30.7
204700,2026-01-07 12:31:56,0.0,5,7.665,0.0,0.0,-3.131716,29.7,6.3,3.8,1024,1024,1601,1024,0,0,87,0,83,4.753,69.8,101.377956,P-GPS,,30.9
204800,2026-01-07 12:31:56,0.0,5,7.573,0.0,0.0,-3.35541,29.7,6.2,3.5,1024,1024,1638,1024,0,0,93,0,83,6.125,69.8,101.70604,P-GPS,,31.0
204900,2026-01-07 12:31:56,0.0,5,7.573,0.0,0.0,-3.35541,29.7,6.4,3.2,1024,1024,1640,1024,0,0,93,0,83,6.125,69.8,102.362208,P-GPS,,31.2
205000,2026-01-07 12:31:56,0.0,5,7.573,0.0,0.0,-3.35541,29.7,6.3,2.8,1024,1024,1647,1024,0,0,94,0,83,6.125,69.8,102.690292,P-GPS,,31.3
205100,2026-01-07 12:31:56,0.0,5,7.573,0.0,0.0,-3.579104,29.8,6.7,2.7,1024,1024,1647,1024,0,0,94,0,83,6.125,69.8,103.34646,P-GPS,,31.5
205200,2026-01-07 12:31:56,0.0,5,7.573,0.0,0.0,-3.802798,29.7,6.4,2.9,1024,1024,1681,1024,0,0,100,0,83,6.125,69.8,104.002628,P-GPS,,31.7
205300,2026-01-07 12:31:56,0.0,5,7.573,0.0,0.0,-3.802798,29.7,6.4,3.0,1024,1024,1684,1024,0,0,100,0,83,6.125,69.8,104.330712,P-GPS,,31.8
248000,2026-01-07 12:32:39,0.0,5,7.623,0.0,0.0,3.579104,29.8,1.9,3.4,1024,1024,364,1024,0,0,-100,0,81,4.478,70.34,104.658796,P-GPS,,31.9
248100,2026-01-07 12:32:39,0.0,5,7.623,0.0,0.0,3.802798,30.1,3.2,4.2,1024,1024,364,1024,0,0,-100,0,81,4.478,70.34,104.002628,P-GPS,,31.7
248200,2026-01-07 12:32:39,0.0,5,7.632,0.0,0.0,4.026492,29.9,2.1,2.8,1024,1024,364,1024,0,0,-100,0,80,4.462,70.16,103.674544,P-GPS,,31.6
248300,2026-01-07 12:32:40,0.0,5,7.632,0.0,0.0,4.026492,29.8,-0.3,3.2,1024,1024,364,1024,0,0,-100,0,80,4.462,70.16,103.018376,P-GPS,,31.4
248400,2026-01-07 12:32:40,0.0,5,7.632,0.0,0.0,4.026492,29.5,0.3,3.7,1024,1024,364,1024,0,0,-100,0,80,4.462,70.16,102.362208,P-GPS,,31.2
248500,2026-01-07 12:32:40,0.0,5,7.632,0.0,0.0,4.026492,29.5,1.2,4.2,1024,1024,364,1024,0,0,-100,0,80,4.462,70.16,101.70604,P-GPS,,31.0
248600,2026-01-07 12:32:40,0.0,5,7.632,0.0,0.0,4.026492,29.6,2.1,4.8,1024,1024,364,1024,0,0,-100,0,80,4.462,70.16,101.049872,P-GPS,,30.8
248700,2026-01-07 12:32:40,0.0,5,7.632,0.0,0.0,4.026492,29.5,2.5,4.8,1024,1024,364,1024,0,0,-100,0,80,4.462,70.16,100.721788,P-GPS,,30.7
248800,2026-01-07 12:32:40,0.0,5,7.632,0.0,0.0,4.026492,29.7,2.3,4.8,1024,1024,364,1024,0,0,-100,0,80,4.462,70.16,100.06562,P-GPS,,30.5
248900,2026-01-07 12:32:40,0.0,5,7.632,0.0,0.0,4.026492,29.6,2.8,4.3,1024,1024,364,1024,0,0,-100,0,80,4.462,70.16,99.409452,P-GPS,,30.3
249000,2026-01-07 12:32:40,0.0,5,7.632,0.0,0.0,4.026492,29.5,1.6,4.7,1024,1024,364,1024,0,0,-100,0,80,4.462,70.16,99.081368,P-GPS,,30.2
249100,2026-01-07 12:32:40,0.0,5,7.632,0.0,0.0,3.802798,29.4,2.9,4.3,1024,1024,364,1024,0,0,-100,0,80,4.462,70.16,98.4252,P-GPS,,30.0
249200,2026-01-07 12:32:40,0.0,5,7.632,0.0,0.0,3.802798,29.4,1.9,4.6,1024,1024,364,1024,0,0,-100,0,80,4.462,70.16,98.097116,P-GPS,,29.9
249300,2026-01-07 12:32:41,0.0,5,7.632,0.0,0.0,3.802798,29.2,2.4,4.8,1024,1024,364,1024,0,0,-100,0,80,4.462,70.16,97.440948,P-GPS,,29.7
249400,2026-01-07 12:32:41,0.0,5,7.632,0.0,0.0,3.802798,29.2,2.1,4.8,1024,1024,364,1024,0,0,-100,0,80,4.462,70.16,97.112864,P-GPS,,29.6
249500,2026-01-07 12:32:41,0.0,5,7.632,0.0,0.0,3.802798,29.2,3.5,4.1,1024,1024,364,1024,0,0,-100,0,80,4.462,70.16,96.456696,P-GPS,,29.4
249600,2026-01-07 12:32:41,0.0,5,7.632,0.0,0.0,3.802798,29.1,3.4,3.9,1024,1024,364,1024,0,0,-100,0,80,4.462,70.16,95.800528,P-GPS,,29.2
249700,2026-01-07 12:32:41,0.0,5,7.632,0.0,0.0,3.802798,29.2,2.7,3.9,1024,1024,364,1024,0,0,-100,0,80,4.462,70.16,95.472444,P-GPS,,29.1
249800,2026-01-07 12:32:41,0.0,5,7.632,0.0,0.0,3.802798,29.4,3.2,3.8,1024,1024,364,1024,0,0,-100,0,80,4.462,70.16,94.816276,P-GPS,,28.9
249900,2026-01-07 12:32:41,0.0,5,7.632,0.0,0.0,3.802798,29.5,2.9,3.8,1024,1024,364,1024,0,0,-100,0,80,4.462,70.16,94.160108,P-GPS,,28.7
250000,2026-01-07 12:32:41,0.0,5,7.632,0.0,0.0,3.802798,29.4,3.4,3.3,1024,1024,364,1024,0,0,-100,0,80,4.462,70.16,93.832024,P-GPS,,28.6
250100,2026-01-07 12:32:41,0.0,5,7.632,0.0,0.0,4.026492,29.3,2.8,3.4,1024,1024,364,1024,0,0,-100,0,80,4.462,70.16,93.175856,P-GPS,,28.4
250200,2026-01-07 12:32:41,0.0,5,7.632,0.0,0.0,4.026492,29.4,3.2,3.1,1024,1024,364,1024,0,0,-100,0,80,4.462,70.16,92.519688,P-GPS,,28.2
