time(millisecond),timestamp,speed(mph),gpslevel,voltage(v),xSpeed(mph),ySpeed(mph),zSpeed(mph),compass_heading(degrees),pitch(degrees),roll(degrees),rc_elevator,rc_aileron,rc_throttle,rc_rudder,rc_elevator(percent),rc_aileron(percent),rc_throttle(percent),rc_rudder(percent),battery_percent,current(A),battery_temperature(f),ascent(feet),flycState,message,height_above_takeoff(meters)
548700,2026-01-07 15:43:02,0.0,5,6.97,0.0,0.0,-4.47388,7.8,7.8,2.6,1024,1024,1684,1024,0,0,100,0,42,6.595,76.28,157.808404,P-GPS,,48.1
548800,2026-01-07 15:43:02,0.0,5,6.97,0.0,0.0,-4.250186,7.8,7.5,2.7,1024,1024,1684,1024,0,0,100,0,42,6.595,76.28,158.464572,P-GPS,,48.3
548900,2026-01-07 15:43:02,0.0,5,6.969,0.0,0.0,-4.47388,7.9,7.7,2.9,1024,1024,1684,1024,0,0,100,0,42,6.464,76.28,159.12074,P-GPS,,48.5
549000,2026-01-07 15:43:02,0.0,5,6.969,0.0,0.0,-4.47388,7.9,7.7,2.7,1024,1024,1684,1024,0,0,100,0,42,6.464,76.28,159.776908,P-GPS,,48.7
549100,2026-01-07 15:43:03,0.0,5,6.969,0.0,0.0,-4.47388,7.8,7.4,2.5,1024,1024,1684,1024,0,0,100,0,42,6.464,76.28,160.433076,P-GPS,,48.9
549200,2026-01-07 15:43:03,0.0,5,6.969,0.0,0.0,-4.47388,7.8,7.4,2.4,1024,1024,1684,1024,0,0,100,0,42,6.464,76.28,161.089244,P-GPS,,49.1
549300,2026-01-07 15:43:03,0.0,5,6.969,0.0,0.0,-4.47388,7.8,7.1,2.3,1024,1024,1684,1024,0,0,100,0,42,6.464,76.28,161.745412,P-GPS,,49.3
549400,2026-01-07 15:43:03,0.0,5,6.969,0.0,0.0,-4.250186,7.8,7.4,2.2,1024,1024,1684,1024,0,0,100,0,42,6.464,76.28,162.40158,P-GPS,,49.5
549500,2026-01-07 15:43:03,0.0,5,6.969,0.0,0.0,-4.250186,7.8,7.7,1.9,1024,1024,1684,1024,0,0,100,0,42,6.464,76.28,163.057748,P-GPS,,49.7
549600,2026-01-07 15:43:03,0.0,5,6.969,0.0,0.0,-4.250186,7.8,7.7,1.7,1024,1024,1024,1024,0,0,0,0,42,6.464,76.28,163.713916,P-GPS,,49.9
549700,2026-01-07 15:43:03,0.0,5,6.969,0.0,0.0,-4.47388,7.7,7.5,1.6,1024,1024,1024,1024,0,0,0,0,42,6.464,76.28,164.370084,P-GPS,,50.1
549800,2026-01-07 15:43:03,0.0,5,6.969,0.0,0.0,-4.250186,7.8,7.4,1.5,1024,1024,1024,1024,0,0,0,0,42,6.464,76.28,165.026252,P-GPS,,50.3
549900,2026-01-07 15:43:03,0.0,5,6.969,0.0,0.0,-3.802798,7.9,7.7,1.8,1024,1024,1024,1024,0,0,0,0,42,6.464,76.28,165.68242,P-GPS,,50.5
550000,2026-01-07 15:43:03,0.0,5,7.035,0.0,0.0,-3.131716,8.0,8.0,2.1,1024,1024,1024,1024,0,0,0,0,42,5.747,76.28,166.010504,P-GPS,,50.6
550100,2026-01-07 15:43:04,0.0,5,7.035,0.0,0.0,-2.23694,8.0,8.1,2.7,1024,1024,1024,1024,0,0,0,0,42,5.747,76.28,166.338588,P-GPS,,50.7
550200,2026-01-07 15:43:04,0.0,5,7.035,0.0,0.0,-1.565858,8.0,8.0,2.8,1024,1024,1024,1024,0,0,0,0,42,5.747,76.28,166.666672,P-GPS,,50.8
550300,2026-01-07 15:43:04,0.0,5,7.035,0.0,0.0,-0.894776,7.9,7.9,2.8,1024,1024,1024,1024,0,0,0,0,42,5.747,76.28,166.666672,P-GPS,,50.8
550400,2026-01-07 15:43:04,0.0,5,7.035,0.0,0.0,-0.223694,7.9,7.4,2.8,1024,1024,1024,1024,0,0,0,0,42,5.747,76.28,166.994756,P-GPS,,50.9
550500,2026-01-07 15:43:04,0.0,5,7.035,0.0,0.0,0.0,7.9,7.1,2.4,1024,1024,1024,1024,0,0,0,0,42,5.747,76.28,166.994756,P-GPS,,50.9
550600,2026-01-07 15:43:04,0.0,5,7.035,0.0,0.0,0.0,7.8,7.1,2.5,1024,1024,1024,1024,0,0,0,0,42,5.747,76.28,166.994756,P-GPS,,50.9
550700,2026-01-07 15:43:04,0.0,5,7.035,0.0,0.0,0.0,7.8,7.1,2.6,1024,1024,1024,1024,0,0,0,0,42,5.747,76.28,166.994756,P-GPS,,50.9
550800,2026-01-07 15:43:04,0.0,5,7.035,0.0,0.0,0.0,7.7,7.3,3.0,1024,1024,1024,1024,0,0,0,0,42,5.747,76.28,166.994756,P-GPS,,50.9
550900,2026-01-07 15:43:04,0.0,5,7.035,0.0,0.0,0.0,7.7,6.8,3.1,1024,1024,1024,1024,0,0,0,0,42,5.747,76.28,166.994756,P-GPS,,50.9
551000,2026-01-07 15:43:05,0.0,5,7.035,0.0,0.0,0.0,7.7,6.4,3.3,1024,1024,1024,1024,0,0,0,0,42,5.747,76.28,166.994756,P-GPS,,50.9
551100,2026-01-07 15:43:05,0.0,5,7.039,0.0,0.0,0.0,7.7,6.4,3.4,1024,1024,1024,1024,0,0,0,0,42,4.479,76.28,166.994756,P-GPS,,50.9
551200,2026-01-07 15:43:05,0.0,5,7.039,0.0,0.0,0.0,7.7,6.7,3.4,1024,1024,1024,1024,0,0,0,0,42,4.479,76.28,166.994756,P-GPS,,50.9
551300,2026-01-07 15:43:05,0.0,5,7.039,0.0,0.0,0.0,7.8,6.9,3.3,1024,1024,1024,1024,0,0,0,0,42,4.479,76.28,166.994756,P-GPS,,50.9
551400,2026-01-07 15:43:05,0.0,5,7.039,0.0,0.0,0.0,7.8,7.1,3.5,1024,1024,1024,1024,0,0,0,0,42,4.479,76.28,167.32284,P-GPS,,51.0
551500,2026-01-07 15:43:05,0.0,5,7.039,0.0,0.0,0.0,7.8,7.1,3.5,1024,1024,1024,1024,0,0,0,0,42,4.479,76.28,167.32284,P-GPS,,51.0
551600,2026-01-07 15:43:05,0.0,5,7.039,0.0,0.0,0.0,7.8,7.4,3.4,1024,1024,1024,1024,0,0,0,0,42,4.479,76.28,167.32284,P-GPS,,51.0
551700,2026-01-07 15:43:05,0.0,5,7.039,0.0,0.0,0.0,7.8,7.4,3.3,1024,1024,1024,1024,0,0,0,0,42,4.479,76.28,167.32284,P-GPS,,51.0
551800,2026-01-07 15:43:05,0.0,5,7.039,0.0,0.0,0.0,7.8,7.2,3.3,1024,1024,1024,1024,0,0,0,0,42,4.479,76.28,167.32284,P-GPS,,51.0
551900,2026-01-07 15:43:05,0.0,5,7.039,0.0,0.0,0.0,7.8,7.0,3.6,1024,1024,1024,1024,0,0,0,0,42,4.479,76.28,167.32284,P-GPS,,51.0
552000,2026-01-07 15:43:05,0.0,5,7.039,0.0,0.0,0.0,7.8,7.1,3.6,1024,1024,1024,1024,0,0,0,0,42,4.479,76.28,167.32284,P-GPS,,51.0
552100,2026-01-07 15:43:06,0.0,5,7.039,0.0,0.0,0.0,7.8,6.9,3.5,1024,1024,1024,1024,0,0,0,0,42,4.479,76.28,167.32284,P-GPS,,51.0
552200,2026-01-07 15:43:06,0.0,5,7.046,0.0,0.0,0.0,7.8,7.0,3.4,1024,1024,1024,1024,0,0,0,0,42,4.818,76.46,167.32284,P-GPS,,51.0
552300,2026-01-07 15:43:06,0.0,5,7.046,0.0,0.0,0.0,7.8,7.0,3.2,1024,1024,1024,1024,0,0,0,0,42,4.818,76.46,166.994756,P-GPS,,50.9
552400,2026-01-07 15:43:06,0.0,5,7.046,0.0,0.0,0.0,7.7,6.8,3.1,1024,1024,1024,1024,0,0,0,0,42,4.818,76.46,166.994756,P-GPS,,50.9
552500,2026-01-07 15:43:06,0.0,5,7.046,0.0,0.0,0.0,7.8,6.4,3.0,1024,1024,1024,1024,0,0,0,0,42,4.818,76.46,166.994756,P-GPS,,50.9
552600,2026-01-07 15:43:06,0.0,5,7.046,0.0,0.0,0.0,7.8,6.6,3.0,1024,1024,1024,1024,0,0,0,0,42,4.818,76.46,166.994756,P-GPS,,50.9
552700,2026-01-07 15:43:06,0.0,5,7.046,0.0,0.0,0.0,7.8,6.6,3.1,1024,1024,1024,1024,0,0,0,0,42,4.818,76.46,166.994756,P-GPS,,50.9
552800,2026-01-07 15:43:06,0.0,5,7.046,0.0,0.0,0.0,7.8,6.6,3.0,1024,1024,1024,1024,0,0,0,0,42,4.818,76.46,166.994756,P-GPS,,50.9
552900,2026-01-07 15:43:06,0.0,5,7.046,0.0,0.0,0.0,7.8,6.9,3.2,1024,1024,1024,1024,0,0,0,0,42,4.818,76.46,166.994756,P-GPS,,50.9
553000,2026-01-07 15:43:07,0.0,5,7.046,0.0,0.0,0.0,7.8,6.6,2.9,1024,1024,1024,1024,0,0,0,0,42,4.818,76.46,166.994756,P-GPS,,50.9
553100,2026-01-07 15:43:07,0.0,5,7.046,0.0,0.0,0.0,7.8,6.1,2.7,1024,1024,1024,1024,0,0,0,0,42,4.818,76.46,166.994756,P-GPS,,50.9
553200,2026-01-07 15:43:07,0.0,5,7.046,0.0,0.0,0.0,7.8,6.0,2.9,1024,1024,1024,1024,0,0,0,0,42,4.818,76.46,166.994756,P-GPS,,50.9
553300,2026-01-07 15:43:07,0.0,5,7.043,0.0,0.0,0.0,7.8,6.0,3.2,1024,1024,1024,1024,0,0,0,0,42,4.903,76.46,166.994756,P-GPS,,50.9
553400,2026-01-07 15:43:07,0.0,5,7.043,0.0,0.0,0.0,7.8,6.0,3.2,1024,1024,1024,1024,0,0,0,0,42,4.903,76.46,166.666672,P-GPS,,50.8
553500,2026-01-07 15:43:07,0.0,5,7.043,0.0,0.0,0.0,7.8,5.9,3.2,1024,1024,1024,1024,0,0,0,0,42,4.903,76.46,166.666672,P-GPS,,50.8
553600,2026-01-07 15:43:07,0.0,5,7.043,0.0,0.0,0.0,7.8,5.9,3.1,1024,1024,1024,1024,0,0,0,0,42,4.903,76.46,166.666672,P-GPS,,50.8
553700,2026-01-07 15:43:07,0.0,5,7.043,0.0,0.0,0.0,7.8,5.8,3.2,1024,1024,1024,1024,0,0,0,0,42,4.903,76.46,166.666672,P-GPS,,50.8
553800,2026-01-07 15:43:07,0.0,5,7.043,0.0,0.0,0.0,7.8,5.9,3.1,1024,1024,1024,1024,0,0,0,0,42,4.903,76.46,166.666672,P-GPS,,50.8
553900,2026-01-07 15:43:07,0.0,5,7.043,0.0,0.0,0.0,7.8,6.1,3.1,1024,1024,1024,1024,0,0,0,0,42,4.903,76.46,166.338588,P-GPS,,50.7
554000,2026-01-07 15:43:07,0.0,5,7.043,0.0,0.0,0.0,7.8,6.3,3.0,1024,1024,1024,1024,0,0,0,0,42,4.903,76.46,166.338588,P-GPS,,50.7
554100,2026-01-07 15:43:08,0.0,5,7.043,0.0,0.0,0.0,7.9,6.4,3.1,1024,1024,1024,1024,0,0,0,0,42,4.903,76.46,166.338588,P-GPS,,50.7
554200,2026-01-07 15:43:08,0.0,5,7.043,0.0,0.0,0.0,7.9,6.5,3.2,1024,1024,1024,1024,0,0,0,0,42,4.903,76.46,166.338588,P-GPS,,50.7
554300,2026-01-07 15:43:08,0.0,5,7.043,0.0,0.0,0.0,7.8,6.5,3.1,1024,1024,1024,1024,0,0,0,0,42,4.903,76.46,166.338588,P-GPS,,50.7
554400,2026-01-07 15:43:08,0.0,5,7.043,0.0,0.0,0.0,7.8,6.1,2.8,1024,1024,1024,1024,0,0,0,0,42,4.903,76.46,166.338588,P-GPS,,50.7
554500,2026-01-07 15:43:08,0.0,5,7.043,0.0,0.0,0.0,7.8,6.3,2.6,1024,1024,1024,1024,0,0,0,0,42,4.903,76.46,166.338588,P-GPS,,50.7
554600,2026-01-07 15:43:08,0.0,5,7.043,0.0,0.0,0.0,7.8,6.4,2.7,1024,1024,1024,1024,0,0,0,0,42,4.903,76.46,166.338588,P-GPS,,50.7
554700,2026-01-07 15:43:08,0.0,5,7.043,0.0,0.0,0.0,7.8,6.3,2.9,1024,1024,1024,1024,0,0,0,0,42,4.903,76.46,166.338588,P-GPS,,50.7
554800,2026-01-07 15:43:08,0.0,5,7.043,0.0,0.0,0.0,7.8,6.5,2.7,1024,1024,1024,1024,0,0,0,0,42,4.903,76.46,166.338588,P-GPS,,50.7
554900,2026-01-07 15:43:08,0.0,5,7.043,0.0,0.0,0.0,7.9,6.4,3.0,1024,1024,1024,1024,0,0,0,0,42,4.903,76.46,166.338588,P-GPS,,50.7
555000,2026-01-07 15:43:09,0.0,5,7.043,0.0,0.0,0.0,7.9,6.4,3.0,1024,1024,1024,1024,0,0,0,0,42,4.903,76.46,166.338588,P-GPS,,50.7
555100,2026-01-07 15:43:09,0.0,5,7.043,0.0,0.0,0.0,7.8,6.4,2.9,1024,1024,1024,1024,0,0,0,0,42,4.903,76.46,166.338588,P-GPS,,50.7
555200,2026-01-07 15:43:09,0.0,5,7.043,0.0,0.0,0.0,7.8,6.3,2.9,1024,1024,1024,1024,0,0,0,0,42,4.903,76.46,166.338588,P-GPS,,50.7
555300,2026-01-07 15:43:09,0.0,5,7.043,0.0,0.0,0.0,7.8,6.2,3.1,1024,1024,1024,1024,0,0,0,0,42,4.903,76.46,166.338588,P-GPS,,50.7
555400,2026-01-07 15:43:09,0.0,5,7.042,0.0,0.0,0.0,7.8,6.0,3.2,1024,1024,1024,1024,0,0,0,0,42,4.825,76.46,166.338588,P-GPS,,50.7
555500,2026-01-07 15:43:09,0.0,5,7.042,0.0,0.0,0.0,7.9,6.3,3.3,1024,1024,1024,1024,0,0,0,0,42,4.825,76.46,166.338588,P-GPS,,50.7
555600,2026-01-07 15:43:09,0.0,5,7.042,0.0,0.0,0.0,7.9,6.4,3.5,1024,1024,1024,1024,0,0,0,0,42,4.825,76.46,166.338588,P-GPS,,50.7
555700,2026-01-07 15:43:09,0.0,5,7.042,0.0,0.0,0.0,7.8,6.4,3.4,1024,1024,1024,1024,0,0,0,0,42,4.825,76.46,166.338588,P-GPS,,50.7
555800,2026-01-07 15:43:09,0.0,5,7.042,0.0,0.0,0.0,7.9,6.6,3.6,1024,1024,1024,1024,0,0,0,0,42,4.825,76.46,166.338588,P-GPS,,50.7
555900,2026-01-07 15:43:09,0.0,5,7.042,0.0,0.0,0.0,7.9,6.8,3.7,1024,1024,1024,1024,0,0,0,0,42,4.825,76.46,166.338588,P-GPS,,50.7
556000,2026-01-07 15:43:09,0.0,5,7.042,0.0,0.0,0.0,7.9,7.1,3.8,1024,1024,1024,1024,0,0,0,0,42,4.825,76.46,166.338588,P-GPS,,50.7
556100,2026-01-07 15:43:10,0.0,5,7.042,0.0,0.0,0.0,7.9,6.8,3.9,1024,1024,1024,1024,0,0,0,0,42,4.825,76.46,166.338588,P-GPS,,50.7
556200,2026-01-07 15:43:10,0.0,5,7.042,0.0,0.0,0.0,7.9,6.7,3.8,1024,1024,1024,1024,0,0,0,0,42,4.825,76.46,166.338588,P-GPS,,50.7
556300,2026-01-07 15:43:10,0.0,5,7.042,0.0,0.0,0.0,7.9,6.9,3.7,1024,1024,1024,1024,0,0,0,0,42,4.825,76.46,166.338588,P-GPS,,50.7
556400,2026-01-07 15:43:10,0.0,5,7.042,0.0,0.0,0.0,7.9,7.0,3.6,1024,1024,1024,1024,0,0,0,0,42,4.825,76.46,166.338588,P-GPS,,50.7
556500,2026-01-07 15:43:10,0.0,5,7.042,0.0,0.0,0.0,7.8,6.5,3.3,1024,1024,1024,1024,0,0,0,0,42,4.825,76.46,166.338588,P-GPS,,50.7
556600,2026-01-07 15:43:10,0.0,5,7.055,0.0,0.0,0.0,7.8,6.4,3.4,1024,1024,1024,1024,0,0,0,0,42,4.684,76.46,166.338588,P-GPS,,50.7
556700,2026-01-07 15:43:10,0.0,5,7.055,0.0,0.0,0.0,7.8,6.3,3.5,1024,1024,1024,1024,0,0,0,0,42,4.684,76.46,166.338588,P-GPS,,50.7
556800,2026-01-07 15:43:10,0.0,5,7.055,0.0,0.0,0.0,7.7,6.4,3.4,1024,1024,1024,1024,0,0,0,0,42,4.684,76.46,166.338588,P-GPS,,50.7
556900,2026-01-07 15:43:10,0.0,5,7.055,0.0,0.0,0.0,7.8,6.7,3.8,1024,1024,1024,1024,0,0,0,0,42,4.684,76.46,166.338588,P-GPS,,50.7
557000,2026-01-07 15:43:10,0.0,5,7.055,0.0,0.0,0.0,8.0,7.3,4.1,1024,1024,1024,1024,0,0,0,0,42,4.684,76.46,166.338588,P-GPS,,50.7
557100,2026-01-07 15:43:11,0.0,5,7.055,0.0,0.0,0.0,8.0,7.3,4.1,1024,1024,1024,1024,0,0,0,0,42,4.684,76.46,166.338588,P-GPS,,50.7
557200,2026-01-07 15:43:11,0.0,5,7.055,0.0,0.0,0.0,8.0,7.1,4.0,1024,1024,1024,1024,0,0,0,0,42,4.684,76.46,166.338588,P-GPS,,50.7
557300,2026-01-07 15:43:11,0.0,5,7.055,0.0,0.0,0.0,8.0,6.9,4.3,1024,1024,1024,1024,0,0,0,0,42,4.684,76.46,166.338588,P-GPS,,50.7
557400,2026-01-07 15:43:11,0.0,5,7.055,0.0,0.0,0.0,7.9,7.0,4.3,1024,1024,1024,1024,0,0,0,0,42,4.684,76.46,166.338588,P-GPS,,50.7
557500,2026-01-07 15:43:11,0.0,5,7.055,0.0,0.0,0.0,7.9,6.8,4.0,1024,1024,1024,1024,0,0,0,0,42,4.684,76.46,166.666672,P-GPS,,50.8
557600,2026-01-07 15:43:11,0.0,5,7.055,0.0,0.0,0.0,8.0,6.7,3.8,1024,1024,1024,1024,0,0,0,0,42,4.684,76.46,166.666672,P-GPS,,50.8
557700,2026-01-07 15:43:11,0.0,5,7.049,0.0,0.0,0.0,8.0,6.8,4.0,1024,1024,1024,1024,0,0,0,0,41,4.702,76.46,166.666672,P-GPS,,50.8
557800,2026-01-07 15:43:11,0.0,5,7.049,0.0,0.0,0.0,7.9,6.5,3.8,1024,1024,1024,1024,0,0,0,0,41,4.702,76.46,166.666672,P-GPS,,50.8
557900,2026-01-07 15:43:11,0.0,5,7.049,0.0,0.0,0.0,7.9,6.2,3.8,1024,1024,1024,1024,0,0,0,0,41,4.702,76.46,166.666672,P-GPS,,50.8
558000,2026-01-07 15:43:11,0.0,5,7.049,0.0,0.0,0.0,7.9,6.1,3.8,1024,1024,1024,1024,0,0,0,0,41,4.702,76.46,166.666672,P-GPS,,50.8
558100,2026-01-07 15:43:12,0.0,5,7.049,0.0,0.0,0.0,7.9,5.9,3.9,1024,1024,1024,1024,0,0,0,0,41,4.702,76.46,166.666672,P-GPS,,50.8
558200,2026-01-07 15:43:12,0.0,5,7.049,0.0,0.0,0.0,7.9,6.3,3.8,1024,1024,1024,1024,0,0,0,0,41,4.702,76.46,166.666672,P-GPS,,50.8
558300,2026-01-07 15:43:12,0.0,5,7.049,0.0,0.0,0.0,7.9,6.5,3.6,1024,1024,1024,1024,0,0,0,0,41,4.702,76.46,166.666672,P-GPS,,50.8
558400,2026-01-07 15:43:12,0.0,5,7.049,0.0,0.0,0.0,7.9,6.6,3.5,1024,1024,1024,1024,0,0,0,0,41,4.702,76.46,166.666672,P-GPS,,50.8
558500,2026-01-07 15:43:12,0.0,5,7.049,0.0,0.0,0.0,7.9,6.3,3.6,1024,1024,1024,1024,0,0,0,0,41,4.702,76.46,166.338588,P-GPS,,50.7
558600,2026-01-07 15:43:12,0.0,5,7.049,0.0,0.0,0.0,7.9,6.3,3.7,1024,1024,1024,1024,0,0,0,0,41,4.702,76.46,166.338588,P-GPS,,50.7
558700,2026-01-07 15:43:12,0.0,5,7.049,0.0,0.0,0.0,7.9,6.2,3.5,1024,1024,1024,1024,0,0,0,0,41,4.702,76.46,166.338588,P-GPS,,50.7
558800,2026-01-07 15:43:12,0.0,5,7.048,0.0,0.0,0.0,7.9,6.4,3.6,1024,1024,1024,1024,0,0,0,0,41,4.731,76.46,166.338588,P-GPS,,50.7
558900,2026-01-07 15:43:12,0.0,5,7.048,0.0,0.0,0.0,7.9,6.6,3.7,1024,1024,1024,1024,0,0,0,0,41,4.731,76.46,166.338588,P-GPS,,50.7
559000,2026-01-07 15:43:13,0.0,5,7.048,0.0,0.0,0.0,7.9,6.6,3.7,1024,1024,1024,1024,0,0,0,0,41,4.731,76.46,166.338588,P-GPS,,50.7
559100,2026-01-07 15:43:13,0.0,5,7.048,0.0,0.0,0.0,7.9,6.8,3.6,1024,1024,1024,1024,0,0,0,0,41,4.731,76.46,166.338588,P-GPS,,50.7
559200,2026-01-07 15:43:13,0.0,5,7.048,0.0,0.0,0.0,7.9,7.1,3.1,1024,1024,1024,1024,0,0,0,0,41,4.731,76.46,166.338588,P-GPS,,50.7
559300,2026-01-07 15:43:13,0.0,5,7.048,0.0,0.0,0.0,7.9,6.6,2.9,1024,1024,1024,1024,0,0,0,0,41,4.731,76.46,166.338588,P-GPS,,50.7
559400,2026-01-07 15:43:13,0.0,5,7.048,0.0,0.0,0.0,7.8,6.5,3.2,1024,1024,1024,1024,0,0,0,0,41,4.731,76.46,166.338588,P-GPS,,50.7
559500,2026-01-07 15:43:13,0.0,5,7.048,0.0,0.0,0.0,7.9,6.4,3.5,1024,1024,1024,1024,0,0,0,0,41,4.731,76.46,166.338588,P-GPS,,50.7
559600,2026-01-07 15:43:13,0.0,5,7.048,0.0,0.0,0.0,7.8,6.3,3.5,1024,1024,1024,1024,0,0,0,0,41,4.731,76.46,166.010504,P-GPS,,50.6
559700,2026-01-07 15:43:13,0.0,5,7.048,0.0,0.0,0.0,7.9,6.1,3.4,1024,1024,1024,1024,0,0,0,0,41,4.731,76.46,166.338588,P-GPS,,50.7
559800,2026-01-07 15:43:13,0.0,5,7.048,0.0,0.0,0.0,7.9,6.0,3.2,1024,1024,1024,1024,0,0,0,0,41,4.731,76.46,166.338588,P-GPS,,50.7
559900,2026-01-07 15:43:13,0.0,5,7.035,0.0,0.0,0.0,7.8,5.9,3.1,1024,1024,1024,1024,0,0,0,0,41,4.994,76.46,166.338588,P-GPS,,50.7
560000,2026-01-07 15:43:14,0.0,5,7.035,0.0,0.0,0.0,7.9,5.8,3.4,1024,1024,1024,1024,0,0,0,0,41,4.994,76.46,166.338588,P-GPS,,50.7
560100,2026-01-07 15:43:14,0.0,5,7.035,0.0,0.0,0.0,7.9,6.1,3.6,1024,1024,1024,1024,0,0,0,0,41,4.994,76.46,166.338588,P-GPS,,50.7
560200,2026-01-07 15:43:14,0.0,5,7.035,0.0,0.0,0.0,7.9,6.5,4.0,1024,1024,1024,1024,0,0,0,0,41,4.994,76.46,166.338588,P-GPS,,50.7
560300,2026-01-07 15:43:14,0.0,5,7.035,0.0,0.0,0.0,7.9,7.0,3.8,1024,1024,1024,1024,0,0,0,0,41,4.994,76.46,166.338588,P-GPS,,50.7
560400,2026-01-07 15:43:14,0.0,5,7.035,0.0,0.0,0.0,7.9,7.2,3.7,1024,1024,1024,1024,0,0,0,0,41,4.994,76.46,166.338588,P-GPS,,50.7
560500,2026-01-07 15:43:14,0.0,5,7.035,0.0,0.0,0.0,7.9,7.0,3.4,1024,1024,1024,1024,0,0,0,0,41,4.994,76.46,166.338588,P-GPS,,50.7
560600,2026-01-07 15:43:14,0.0,5,7.035,0.0,0.0,0.0,7.8,6.9,3.3,1024,1024,1024,1024,0,0,0,0,41,4.994,76.46,166.010504,P-GPS,,50.6
560700,2026-01-07 15:43:14,0.0,5,7.035,0.0,0.0,0.0,7.9,6.6,3.4,1024,1024,1024,1024,0,0,0,0,41,4.994,76.46,166.010504,P-GPS,,50.6
560800,2026-01-07 15:43:14,0.0,5,7.035,0.0,0.0,0.0,7.9,6.7,3.5,1024,1024,1024,1024,0,0,0,0,41,4.994,76.46,166.010504,P-GPS,,50.6
560900,2026-01-07 15:43:14,0.0,5,7.035,0.0,0.0,0.0,7.9,6.4,3.4,1024,1024,1024,1024,0,0,0,0,41,4.994,76.46,166.010504,P-GPS,,50.6
561000,2026-01-07 15:43:14,0.0,5,7.036,0.0,0.0,0.0,8.0,6.6,3.2,1024,1024,1024,1024,0,0,0,0,41,4.982,76.46,166.010504,P-GPS,,50.6
561100,2026-01-07 15:43:15,0.0,5,7.036,0.0,0.0,0.0,7.9,6.6,3.2,1024,1024,1024,1024,0,0,0,0,41,4.982,76.46,166.010504,P-GPS,,50.6
561200,2026-01-07 15:43:15,0.0,5,7.036,0.0,0.0,0.0,7.9,6.4,3.1,1024,1024,1024,1024,0,0,0,0,41,4.982,76.46,166.010504,P-GPS,,50.6
561300,2026-01-07 15:43:15,0.0,5,7.036,0.0,0.0,0.0,7.9,6.7,3.2,1024,1024,1024,1024,0,0,0,0,41,4.982,76.46,166.010504,P-GPS,,50.6
561400,2026-01-07 15:43:15,0.0,5,7.036,0.0,0.0,0.0,7.9,6.4,3.2,1024,1024,1024,1024,0,0,0,0,41,4.982,76.46,166.010504,P-GPS,,50.6
561500,2026-01-07 15:43:15,0.0,5,7.036,0.0,0.0,0.0,7.9,6.3,3.0,1024,1024,1024,1024,0,0,0,0,41,4.982,76.46,166.010504,P-GPS,,50.6
561600,2026-01-07 15:43:15,0.0,5,7.036,0.0,0.0,0.0,7.9,6.3,3.2,1024,1024,1024,1024,0,0,0,0,41,4.982,76.46,166.010504,P-GPS,,50.6
561700,2026-01-07 15:43:15,0.0,5,7.036,0.0,0.0,0.0,7.9,6.4,3.2,1024,1024,1024,1024,0,0,0,0,41,4.982,76.46,165.68242,P-GPS,,50.5
561800,2026-01-07 15:43:15,0.0,5,7.036,0.0,0.0,0.0,8.0,6.5,3.2,1024,1024,1024,1024,0,0,0,0,41,4.982,76.46,165.68242,P-GPS,,50.5
561900,2026-01-07 15:43:15,0.0,5,7.036,0.0,0.0,0.0,7.9,6.3,3.2,1024,1024,1024,1024,0,0,0,0,41,4.982,76.46,165.68242,P-GPS,,50.5
562000,2026-01-07 15:43:16,0.0,5,7.036,0.0,0.0,0.0,7.8,5.9,3.0,1024,1024,1024,1024,0,0,0,0,41,4.982,76.46,165.68242,P-GPS,,50.5
562100,2026-01-07 15:43:16,0.0,5,7.036,0.0,0.0,0.0,7.8,5.7,3.2,1024,1024,1024,1024,0,0,0,0,41,5.016,76.46,165.68242,P-GPS,,50.5
562200,2026-01-07 15:43:16,0.0,5,7.036,0.0,0.0,0.0,7.8,5.6,3.2,1024,1024,1024,1024,0,0,0,0,41,5.016,76.46,165.68242,P-GPS,,50.5
562300,2026-01-07 15:43:16,0.0,5,7.036,0.0,0.0,0.0,7.8,5.4,3.3,1024,1024,1024,1024,0,0,0,0,41,5.016,76.46,166.010504,P-GPS,,50.6
562400,2026-01-07 15:43:16,0.0,5,7.036,0.0,0.0,0.0,7.8,5.6,3.6,1024,1024,1024,1024,0,0,0,0,41,5.016,76.46,166.010504,P-GPS,,50.6
562500,2026-01-07 15:43:16,0.0,5,7.036,0.0,0.0,0.0,7.9,6.1,3.8,1024,1024,1024,1024,0,0,0,0,41,5.016,76.46,166.010504,P-GPS,,50.6
562600,2026-01-07 15:43:16,0.0,5,7.036,0.0,0.0,0.0,7.9,6.2,3.7,1024,1024,1024,1024,0,0,0,0,41,5.016,76.46,166.010504,P-GPS,,50.6
562700,2026-01-07 15:43:16,0.0,5,7.036,0.0,0.0,0.0,7.9,6.3,3.6,1024,1024,1024,1024,0,0,0,0,41,5.016,76.46,166.010504,P-GPS,,50.6
562800,2026-01-07 15:43:16,0.0,5,7.036,0.0,0.0,0.0,7.9,6.5,3.3,1024,1024,1024,1024,0,0,0,0,41,5.016,76.46,166.010504,P-GPS,,50.6
562900,2026-01-07 15:43:16,0.0,5,7.036,0.0,0.0,0.0,7.8,6.6,3.2,1024,1024,1024,1024,0,0,0,0,41,5.016,76.46,166.010504,P-GPS,,50.6
563000,2026-01-07 15:43:16,0.0,5,7.036,0.0,0.0,0.0,7.8,6.4,2.9,1024,1024,1024,1024,0,0,0,0,41,5.016,76.46,166.010504,P-GPS,,50.6
563100,2026-01-07 15:43:17,0.0,5,7.036,0.0,0.0,0.0,7.9,6.8,3.1,1024,1024,1024,1024,0,0,0,0,41,5.016,76.46,166.010504,P-GPS,,50.6
563200,2026-01-07 15:43:17,0.0,5,7.041,0.0,0.0,0.0,7.9,6.8,3.0,1024,1024,1024,1024,0,0,0,0,41,4.8,76.46,166.010504,P-GPS,,50.6
563300,2026-01-07 15:43:17,0.0,5,7.041,0.0,0.0,0.0,7.9,6.9,3.0,1024,1024,1024,1024,0,0,0,0,41,4.8,76.46,166.010504,P-GPS,,50.6
563400,2026-01-07 15:43:17,0.0,5,7.041,0.0,0.0,0.0,8.0,6.9,3.2,1024,1024,1024,1024,0,0,0,0,41,4.8,76.46,166.010504,P-GPS,,50.6
563500,2026-01-07 15:43:17,0.0,5,7.041,0.0,0.0,0.0,7.9,6.7,3.3,1024,1024,1024,1024,0,0,0,0,41,4.8,76.46,166.010504,P-GPS,,50.6
563600,2026-01-07 15:43:17,0.0,5,7.041,0.0,0.0,0.0,7.9,6.5,3.4,1024,1024,1024,1024,0,0,0,0,41,4.8,76.46,166.010504,P-GPS,,50.6
563700,2026-01-07 15:43:17,0.0,5,7.041,0.0,0.0,0.0,7.9,6.6,3.6,1024,1024,1024,1024,0,0,0,0,41,4.8,76.46,166.010504,P-GPS,,50.6
563800,2026-01-07 15:43:17,0.0,5,7.041,0.0,0.0,0.0,7.9,6.5,3.4,1024,1024,1024,1024,0,0,0,0,41,4.8,76.46,166.010504,P-GPS,,50.6
563900,2026-01-07 15:43:17,0.0,5,7.041,0.0,0.0,0.0,7.8,6.6,3.5,1024,1024,1024,1024,0,0,0,0,41,4.8,76.46,166.010504,P-GPS,,50.6
564000,2026-01-07 15:43:18,0.0,5,7.041,0.0,0.0,0.0,7.8,6.7,3.4,1024,1024,1024,1024,0,0,0,0,41,4.8,76.46,165.68242,P-GPS,,50.5
564100,2026-01-07 15:43:18,0.0,5,7.041,0.0,0.0,0.0,7.9,6.9,3.3,1024,1024,1024,1024,0,0,0,0,41,4.8,76.46,165.68242,P-GPS,,50.5
564200,2026-01-07 15:43:18,0.0,5,7.041,0.0,0.0,0.0,7.9,7.1,3.2,1024,1024,1024,1024,0,0,0,0,41,4.8,76.46,165.68242,P-GPS,,50.5
564300,2026-01-07 15:43:18,0.0,5,7.049,0.0,0.0,0.0,7.8,6.9,3.0,1024,1024,1024,1024,0,0,0,0,41,4.754,76.46,165.68242,P-GPS,,50.5
564400,2026-01-07 15:43:18,0.0,5,7.049,0.0,0.0,0.0,7.8,6.9,3.1,1024,1024,1024,1024,0,0,0,0,41,4.754,76.46,165.68242,P-GPS,,50.5
564500,2026-01-07 15:43:18,0.0,5,7.049,0.0,0.0,0.0,7.8,6.8,2.9,1024,1024,1024,1024,0,0,0,0,41,4.754,76.46,165.68242,P-GPS,,50.5
564600,2026-01-07 15:43:18,0.0,5,7.049,0.0,0.0,0.0,7.8,6.6,2.8,1024,1024,1024,1024,0,0,0,0,41,4.754,76.46,165.68242,P-GPS,,50.5
564700,2026-01-07 15:43:18,0.0,5,7.049,0.0,0.0,0.0,7.8,6.4,3.1,1024,1024,1024,1024,0,0,0,0,41,4.754,76.46,165.354336,P-GPS,,50.4
564800,2026-01-07 15:43:18,0.0,5,7.049,0.0,0.0,0.0,7.8,6.6,3.3,1024,1024,1024,1024,0,0,0,0,41,4.754,76.46,165.354336,P-GPS,,50.4
564900,2026-01-07 15:43:18,0.0,5,7.049,0.0,0.0,0.0,7.9,7.0,3.2,1024,1024,1024,1024,0,0,0,0,41,4.754,76.46,165.354336,P-GPS,,50.4
565000,2026-01-07 15:43:18,0.0,5,7.049,0.0,0.0,0.0,7.9,6.7,3.0,1024,1024,1024,1024,0,0,0,0,41,4.754,76.46,165.354336,P-GPS,,50.4
565100,2026-01-07 15:43:19,0.0,5,7.049,0.0,0.0,0.0,7.8,6.5,2.9,1024,1024,1024,1024,0,0,0,0,41,4.754,76.46,165.354336,P-GPS,,50.4
565200,2026-01-07 15:43:19,0.0,5,7.049,0.0,0.0,0.0,7.8,6.7,2.9,1024,1024,1024,1024,0,0,0,0,41,4.754,76.46,165.354336,P-GPS,,50.4
565300,2026-01-07 15:43:19,0.0,5,7.049,0.0,0.0,0.0,7.8,6.8,2.9,1024,1024,1024,1024,0,0,0,0,41,4.754,76.46,165.354336,P-GPS,,50.4
565400,2026-01-07 15:43:19,0.0,5,7.049,0.0,0.0,0.0,7.9,7.0,2.9,1024,1024,1024,1024,0,0,0,0,41,4.754,76.46,165.354336,P-GPS,,50.4
565500,2026-01-07 15:43:19,0.0,5,7.049,0.0,0.0,0.0,7.9,6.7,2.7,1024,1024,1024,1024,0,0,0,0,41,4.754,76.46,165.354336,P-GPS,,50.4
565600,2026-01-07 15:43:19,0.0,5,7.049,0.0,0.0,0.0,7.9,6.8,2.7,1024,1024,1024,1024,0,0,0,0,41,4.754,76.46,165.354336,P-GPS,,50.4
565700,2026-01-07 15:43:19,0.0,5,7.049,0.0,0.0,0.0,7.9,6.9,2.8,1024,1024,1024,1024,0,0,0,0,41,4.754,76.46,165.354336,P-GPS,,50.4
565800,2026-01-07 15:43:19,0.0,5,7.049,0.0,0.0,0.0,7.9,7.1,2.9,1024,1024,1024,1024,0,0,0,0,41,4.754,76.46,165.354336,P-GPS,,50.4
565900,2026-01-07 15:43:19,0.0,5,7.049,0.0,0.0,0.0,8.0,7.4,2.8,1024,1024,1024,1024,0,0,0,0,41,4.754,76.46,165.354336,P-GPS,,50.4
566000,2026-01-07 15:43:20,0.0,5,7.049,0.0,0.0,0.0,8.0,7.4,2.9,1024,1024,1024,1024,0,0,0,0,41,4.754,76.46,165.354336,P-GPS,,50.4
566100,2026-01-07 15:43:20,0.0,5,7.049,0.0,0.0,0.0,8.0,7.1,2.9,1024,1024,1024,1024,0,0,0,0,41,4.754,76.46,165.354336,P-GPS,,50.4
566200,2026-01-07 15:43:20,0.0,5,7.049,0.0,0.0,0.0,8.0,7.3,2.7,1024,1024,1024,1024,0,0,0,0,41,4.754,76.46,165.354336,P-GPS,,50.4
566300,2026-01-07 15:43:20,0.0,5,7.049,0.0,0.0,0.0,7.9,6.7,2.9,1024,1024,1024,1024,0,0,0,0,41,4.754,76.46,165.354336,P-GPS,,50.4
566400,2026-01-07 15:43:20,0.0,5,7.049,0.0,0.0,0.0,7.9,6.0,2.7,1024,1024,1024,1024,0,0,0,0,41,4.754,76.46,165.354336,P-GPS,,50.4
566500,2026-01-07 15:43:20,0.0,5,7.031,0.0,0.0,0.0,7.9,5.7,2.7,1024,1024,1024,1024,0,0,0,0,41,5.002,76.46,165.354336,P-GPS,,50.4
566600,2026-01-07 15:43:20,0.0,5,7.031,0.0,0.0,0.0,7.9,6.0,2.6,1024,1024,1024,1024,0,0,0,0,41,5.002,76.46,165.354336,P-GPS,,50.4
566700,2026-01-07 15:43:20,0.0,5,7.031,0.0,0.0,0.0,7.9,6.3,2.6,1024,1024,1024,1024,0,0,0,0,41,5.002,76.46,165.354336,P-GPS,,50.4
566800,2026-01-07 15:43:20,0.0,5,7.031,0.0,0.0,0.0,7.9,6.4,2.5,1024,1024,1024,1024,0,0,0,0,41,5.002,76.46,165.354336,P-GPS,,50.4
566900,2026-01-07 15:43:20,0.0,5,7.031,0.0,0.0,0.0,7.8,6.5,2.6,1024,1024,1024,1024,0,0,0,0,41,5.002,76.46,165.354336,P-GPS,,50.4
567000,2026-01-07 15:43:20,0.0,5,7.031,0.0,0.0,0.0,7.8,6.4,2.9,1024,1024,1024,1024,0,0,0,0,41,5.002,76.46,165.68242,P-GPS,,50.5
567100,2026-01-07 15:43:21,0.0,5,7.031,0.0,0.0,0.0,7.8,6.1,2.8,1024,1024,1024,1024,0,0,0,0,41,5.002,76.46,165.68242,P-GPS,,50.5
567200,2026-01-07 15:43:21,0.0,5,7.031,0.0,0.0,0.0,7.8,6.3,3.1,1024,1024,1024,1024,0,0,0,0,41,5.002,76.46,165.68242,P-GPS,,50.5
567300,2026-01-07 15:43:21,0.0,5,7.031,0.0,0.0,0.0,7.8,6.2,2.9,1024,1024,1024,1024,0,0,0,0,41,5.002,76.46,165.68242,P-GPS,,50.5
567400,2026-01-07 15:43:21,0.0,5,7.031,0.0,0.0,0.0,7.9,6.3,2.9,1024,1024,1024,1024,0,0,0,0,41,5.002,76.46,165.68242,P-GPS,,50.5
567500,2026-01-07 15:43:21,0.0,5,7.031,0.0,0.0,0.0,7.9,6.6,3.2,1024,1024,1024,1024,0,0,0,0,41,5.002,76.46,165.68242,P-GPS,,50.5
567600,2026-01-07 15:43:21,0.0,5,7.034,0.0,0.0,0.0,7.9,7.0,3.5,1024,1024,1024,1024,0,0,0,0,41,5.043,76.46,165.68242,P-GPS,,50.5
567700,2026-01-07 15:43:21,0.0,5,7.034,0.0,0.0,0.0,7.9,6.9,3.6,1024,1024,1024,1024,0,0,0,0,41,5.043,76.46,165.68242,P-GPS,,50.5
567800,2026-01-07 15:43:21,0.0,5,7.034,0.0,0.0,0.0,7.8,6.7,3.3,1024,1024,1024,1024,0,0,0,0,41,5.043,76.46,165.68242,P-GPS,,50.5
567900,2026-01-07 15:43:21,0.0,5,7.034,0.0,0.0,0.0,7.8,6.2,3.3,1024,1024,1024,1024,0,0,0,0,41,5.043,76.46,166.010504,P-GPS,,50.6
568000,2026-01-07 15:43:22,0.0,5,7.034,0.0,0.0,0.0,7.8,6.2,3.6,1024,1024,1024,1024,0,0,0,0,41,5.043,76.46,166.010504,P-GPS,,50.6
568100,2026-01-07 15:43:22,0.0,5,7.034,0.0,0.0,0.0,7.8,6.1,3.5,1024,1024,1024,1024,0,0,0,0,41,5.043,76.46,166.010504,P-GPS,,50.6
568200,2026-01-07 15:43:22,0.0,5,7.034,0.0,0.0,0.0,7.8,6.5,3.5,1024,1024,1024,1024,0,0,0,0,41,5.043,76.46,166.010504,P-GPS,,50.6
568300,2026-01-07 15:43:22,0.0,5,7.034,0.0,0.0,0.0,7.9,6.7,3.2,1024,1024,1024,1024,0,0,0,0,41,5.043,76.46,166.010504,P-GPS,,50.6
568400,2026-01-07 15:43:22,0.0,5,7.034,0.0,0.0,0.0,7.9,7.2,3.1,1024,1024,1024,1024,0,0,0,0,41,5.043,76.46,166.010504,P-GPS,,50.6
568500,2026-01-07 15:43:22,0.0,5,7.034,0.0,0.0,0.0,7.9,7.2,2.9,1024,1024,1024,1024,0,0,0,0,41,5.043,76.46,166.010504,P-GPS,,50.6
568600,2026-01-07 15:43:22,0.0,5,7.034,0.0,0.0,0.0,7.8,6.8,3.0,1024,1024,1024,1024,0,0,0,0,41,5.043,76.46,166.010504,P-GPS,,50.6
568700,2026-01-07 15:43:22,0.0,5,7.028,0.0,0.0,0.0,7.8,6.3,2.7,1024,1024,1024,1024,0,0,0,0,41,5.05,76.64,166.010504,P-GPS,,50.6
568800,2026-01-07 15:43:22,0.0,5,7.028,0.0,0.0,0.0,7.8,6.6,2.9,1024,1024,1024,1024,0,0,0,0,41,5.05,76.64,166.010504,P-GPS,,50.6
568900,2026-01-07 15:43:22,0.0,5,7.028,0.0,0.0,0.0,7.8,7.0,3.1,1024,1024,1024,1024,0,0,0,0,41,5.05,76.64,166.010504,P-GPS,,50.6
569000,2026-01-07 15:43:22,0.0,5,7.028,0.0,0.0,0.0,7.8,7.1,3.4,1024,1024,1024,1024,0,0,0,0,41,5.05,76.64,166.010504,P-GPS,,50.6
569100,2026-01-07 15:43:23,0.0,5,7.028,0.0,0.0,0.0,7.9,7.0,3.6,1024,1024,1024,1024,0,0,0,0,41,5.05,76.64,166.010504,P-GPS,,50.6
569200,2026-01-07 15:43:23,0.0,5,7.028,0.0,0.0,0.0,7.9,7.2,3.7,1024,1024,1024,1024,0,0,0,0,41,5.05,76.64,166.010504,P-GPS,,50.6
569300,2026-01-07 15:43:23,0.0,5,7.028,0.0,0.0,0.0,7.9,7.0,3.5,1024,1024,1024,1024,0,0,0,0,41,5.05,76.64,166.010504,P-GPS,,50.6
569400,2026-01-07 15:43:23,0.0,5,7.028,0.0,0.0,0.0,7.8,7.0,3.1,1024,1024,1024,1024,0,0,0,0,41,5.05,76.64,166.010504,P-GPS,,50.6
569500,2026-01-07 15:43:23,0.0,5,7.028,0.0,0.0,0.0,7.8,6.6,3.0,1024,1024,1024,1024,0,0,0,0,41,5.05,76.64,166.010504,P-GPS,,50.6
569600,2026-01-07 15:43:23,0.0,5,7.028,0.0,0.0,0.0,7.9,6.8,3.2,1024,1024,1024,1024,0,0,0,0,41,5.05,76.64,166.010504,P-GPS,,50.6
569700,2026-01-07 15:43:23,0.0,5,7.028,0.0,0.0,0.0,7.9,6.7,3.1,1024,1024,1024,1024,0,0,0,0,41,5.05,76.64,166.010504,P-GPS,,50.6
569800,2026-01-07 15:43:23,0.0,5,7.043,0.0,0.0,0.0,7.8,6.8,3.0,1024,1024,1024,1024,0,0,0,0,41,4.821,76.64,165.68242,P-GPS,,50.5
569900,2026-01-07 15:43:23,0.0,5,7.043,0.0,0.0,0.0,7.8,6.6,3.1,1024,1024,1024,1024,0,0,0,0,41,4.821,76.64,165.68242,P-GPS,,50.5
570000,2026-01-07 15:43:24,0.0,5,7.043,0.0,0.0,0.0,7.8,6.6,3.2,1024,1024,1024,1024,0,0,0,0,41,4.821,76.64,165.68242,P-GPS,,50.5
570100,2026-01-07 15:43:24,0.0,5,7.043,0.0,0.0,0.0,7.8,6.8,3.0,1024,1024,1024,1024,0,0,0,0,41,4.821,76.64,165.68242,P-GPS,,50.5
570200,2026-01-07 15:43:24,0.0,5,7.043,0.0,0.0,0.0,7.8,7.0,2.9,1024,1024,1024,1024,0,0,0,0,41,4.821,76.64,165.68242,P-GPS,,50.5
570300,2026-01-07 15:43:24,0.0,5,7.043,0.0,0.0,0.0,7.8,6.7,2.8,1024,1024,1024,1024,0,0,0,0,41,4.821,76.64,165.354336,P-GPS,,50.4
570400,2026-01-07 15:43:24,0.0,5,7.043,0.0,0.0,0.0,7.8,6.8,2.7,1024,1024,1024,1024,0,0,0,0,41,4.821,76.64,165.354336,P-GPS,,50.4
570500,2026-01-07 15:43:24,0.0,5,7.043,0.0,0.0,0.0,7.8,7.2,2.8,1024,1024,1024,1024,0,0,0,0,41,4.821,76.64,165.354336,P-GPS,,50.4
570600,2026-01-07 15:43:24,0.0,5,7.043,0.0,0.0,0.0,7.8,7.3,2.8,1024,1024,1024,1024,0,0,0,0,41,4.821,76.64,165.354336,P-GPS,,50.4
570700,2026-01-07 15:43:24,0.0,5,7.043,0.0,0.0,0.0,7.8,7.3,2.8,1024,1024,1024,1024,0,0,0,0,41,4.821,76.64,165.354336,P-GPS,,50.4
570800,2026-01-07 15:43:24,0.0,5,7.043,0.0,0.0,0.0,7.8,7.3,2.8,1024,1024,1024,1024,0,0,0,0,41,4.821,76.64,165.354336,P-GPS,,50.4
570900,2026-01-07 15:43:24,0.0,5,7.044,0.0,0.0,0.0,7.8,7.4,2.9,1024,1024,1024,1024,0,0,0,0,41,4.747,76.64,165.026252,P-GPS,,50.3
571000,2026-01-07 15:43:25,0.0,5,7.044,0.0,0.0,0.0,7.9,7.5,2.9,1024,1024,1024,1024,0,0,0,0,41,4.747,76.64,165.026252,P-GPS,,50.3
571100,2026-01-07 15:43:25,0.0,5,7.044,0.0,0.0,0.0,7.9,7.3,2.9,1024,1024,1024,1024,0,0,0,0,41,4.747,76.64,165.026252,P-GPS,,50.3
571200,2026-01-07 15:43:25,0.0,5,7.044,0.0,0.0,0.0,7.9,7.3,3.0,1024,1024,1024,1024,0,0,0,0,41,4.747,76.64,165.026252,P-GPS,,50.3
571300,2026-01-07 15:43:25,0.0,5,7.044,0.0,0.0,0.0,7.9,7.0,2.8,1024,1024,1024,1024,0,0,0,0,41,4.747,76.64,165.026252,P-GPS,,50.3
571400,2026-01-07 15:43:25,0.0,5,7.044,0.0,0.0,0.0,7.9,6.6,2.6,1024,1024,1024,1024,0,0,0,0,41,4.747,76.64,165.026252,P-GPS,,50.3
571500,2026-01-07 15:43:25,0.0,5,7.044,0.0,0.0,0.0,7.9,6.6,2.4,1024,1024,1024,1024,0,0,0,0,41,4.747,76.64,165.026252,P-GPS,,50.3
571600,2026-01-07 15:43:25,0.0,5,7.044,0.0,0.0,0.0,7.8,6.8,2.6,1024,1024,1024,1024,0,0,0,0,41,4.747,76.64,165.026252,P-GPS,,50.3
571700,2026-01-07 15:43:25,0.0,5,7.044,0.0,0.0,0.0,7.8,6.7,2.8,1024,1024,1024,1024,0,0,0,0,41,4.747,76.64,165.354336,P-GPS,,50.4
571800,2026-01-07 15:43:25,0.0,5,7.044,0.0,0.0,0.0,8.0,7.0,3.3,1024,1024,1024,1024,0,0,0,0,41,4.747,76.64,165.354336,P-GPS,,50.4
571900,2026-01-07 15:43:25,0.0,5,7.044,0.0,0.0,0.0,8.0,7.6,3.8,1024,1024,1024,1024,0,0,0,0,41,4.747,76.64,165.354336,P-GPS,,50.4
572000,2026-01-07 15:43:25,0.0,5,7.045,0.0,0.0,0.0,8.0,7.6,3.7,1024,1024,1024,1024,0,0,0,0,40,4.787,76.64,165.68242,P-GPS,,50.5
572100,2026-01-07 15:43:26,0.0,5,7.045,0.0,0.0,0.0,8.0,7.6,3.8,1024,1024,1024,1024,0,0,0,0,40,4.787,76.64,165.68242,P-GPS,,50.5
572200,2026-01-07 15:43:26,0.0,5,7.045,0.0,0.0,0.0,7.9,7.3,3.9,1024,1024,1024,1024,0,0,0,0,40,4.787,76.64,165.68242,P-GPS,,50.5
572300,2026-01-07 15:43:26,0.0,5,7.045,0.0,0.0,0.0,8.0,6.7,3.6,1024,1024,1024,1024,0,0,0,0,40,4.787,76.64,165.68242,P-GPS,,50.5
572400,2026-01-07 15:43:26,0.0,5,7.045,0.0,0.0,0.0,8.0,6.7,3.4,1024,1024,1024,1024,0,0,0,0,40,4.787,76.64,165.68242,P-GPS,,50.5
572500,2026-01-07 15:43:26,0.0,5,7.045,0.0,0.0,0.0,7.9,6.7,3.1,1024,1024,1024,1024,0,0,0,0,40,4.787,76.64,165.68242,P-GPS,,50.5
572600,2026-01-07 15:43:26,0.0,5,7.045,0.0,0.0,0.0,7.9,6.7,2.9,1024,1024,1024,1024,0,0,0,0,40,4.787,76.64,165.68242,P-GPS,,50.5
572700,2026-01-07 15:43:26,0.0,5,7.045,0.0,0.0,0.0,7.9,6.9,2.9,1024,1024,1024,1024,0,0,0,0,40,4.787,76.64,165.68242,P-GPS,,50.5
572800,2026-01-07 15:43:26,0.0,5,7.045,0.0,0.0,0.0,7.9,7.1,2.9,1024,1024,1024,1024,0,0,0,0,40,4.787,76.64,165.68242,P-GPS,,50.5
572900,2026-01-07 15:43:26,0.0,5,7.045,0.0,0.0,0.0,7.9,7.1,3.0,1024,1024,1024,1024,0,0,0,0,40,4.787,76.64,165.68242,P-GPS,,50.5
573000,2026-01-07 15:43:26,0.0,5,7.045,0.0,0.0,0.0,7.8,6.7,3.1,1024,1024,1024,1024,0,0,0,0,40,4.787,76.64,165.68242,P-GPS,,50.5
573100,2026-01-07 15:43:27,0.0,5,7.025,0.0,0.0,0.0,7.8,5.8,3.1,1024,1024,1024,1024,0,0,0,0,40,5.06,76.64,165.68242,P-GPS,,50.5
573200,2026-01-07 15:43:27,0.0,5,7.025,0.0,0.0,0.0,7.8,6.0,3.2,1024,1024,1024,1024,0,0,0,0,40,5.06,76.64,165.68242,P-GPS,,50.5
573300,2026-01-07 15:43:27,0.0,5,7.025,0.0,0.0,0.0,7.8,6.3,3.1,1024,1024,1024,1024,0,0,0,0,40,5.06,76.64,165.68242,P-GPS,,50.5
573400,2026-01-07 15:43:27,0.0,5,7.025,0.0,0.0,0.0,7.8,6.7,2.9,1024,1024,1024,1024,0,0,0,0,40,5.06,76.64,165.68242,P-GPS,,50.5
573500,2026-01-07 15:43:27,0.0,5,7.025,0.0,0.0,0.0,7.9,6.4,3.1,1024,1024,1024,1024,0,0,0,0,40,5.06,76.64,165.68242,P-GPS,,50.5
573600,2026-01-07 15:43:27,0.0,5,7.025,0.0,0.0,0.0,7.9,6.5,3.3,1024,1024,1024,1024,0,0,0,0,40,5.06,76.64,165.68242,P-GPS,,50.5
573700,2026-01-07 15:43:27,0.0,5,7.025,0.0,0.0,0.0,7.9,6.8,3.2,1024,1024,1024,1024,0,0,0,0,40,5.06,76.64,165.68242,P-GPS,,50.5
573800,2026-01-07 15:43:27,0.0,5,7.025,0.0,0.0,0.0,7.9,6.6,3.1,1024,1024,1024,1024,0,0,0,0,40,5.06,76.64,165.68242,P-GPS,,50.5
573900,2026-01-07 15:43:27,0.0,5,7.025,0.0,0.0,0.0,7.9,6.7,3.1,1024,1024,1024,1024,0,0,0,0,40,5.06,76.64,165.68242,P-GPS,,50.5
574000,2026-01-07 15:43:27,0.0,5,7.025,0.0,0.0,0.0,7.9,6.9,3.1,1024,1024,1024,1024,0,0,0,0,40,5.06,76.64,165.68242,P-GPS,,50.5
574100,2026-01-07 15:43:28,0.0,5,7.025,0.0,0.0,0.0,7.9,7.0,2.9,1024,1024,1024,1024,0,0,0,0,40,5.06,76.64,165.68242,P-GPS,,50.5
574200,2026-01-07 15:43:28,0.0,5,7.024,0.0,0.0,0.0,7.8,6.8,2.8,1024,1024,1024,1024,0,0,0,0,40,5.103,76.64,165.68242,P-GPS,,50.5
574300,2026-01-07 15:43:28,0.0,5,7.024,0.0,0.0,0.0,7.8,6.2,2.8,1024,1024,1024,1024,0,0,0,0,40,5.103,76.64,165.68242,P-GPS,,50.5
574400,2026-01-07 15:43:28,0.0,5,7.024,0.0,0.0,0.0,7.8,6.1,3.0,1024,1024,1024,1024,0,0,0,0,40,5.103,76.64,166.010504,P-GPS,,50.6
574500,2026-01-07 15:43:28,0.0,5,7.024,0.0,0.0,0.0,7.7,5.9,3.8,1024,1024,1024,1024,0,0,0,0,40,5.103,76.64,166.010504,P-GPS,,50.6
574600,2026-01-07 15:43:28,0.0,5,7.024,0.0,0.0,0.0,7.8,6.1,4.1,1024,1024,1024,1024,0,0,0,0,40,5.103,76.64,166.010504,P-GPS,,50.6
574700,2026-01-07 15:43:28,0.0,5,7.024,0.0,0.0,0.0,7.9,6.3,4.3,1024,1024,1024,1024,0,0,0,0,40,5.103,76.64,166.010504,P-GPS,,50.6
574800,2026-01-07 15:43:28,0.0,5,7.024,0.0,0.0,0.0,8.0,6.7,4.5,1024,1024,1024,1024,0,0,0,0,40,5.103,76.64,166.010504,P-GPS,,50.6
574900,2026-01-07 15:43:28,0.0,5,7.024,0.0,0.0,0.0,8.0,6.7,4.6,1024,1024,1024,1024,0,0,0,0,40,5.103,76.64,166.338588,P-GPS,,50.7
575000,2026-01-07 15:43:28,0.0,5,7.024,0.0,0.0,0.0,7.9,6.6,4.7,1024,1024,1024,1024,0,0,0,0,40,5.103,76.64,166.338588,P-GPS,,50.7
575100,2026-01-07 15:43:29,0.0,5,7.024,0.0,0.0,0.0,7.9,6.3,4.3,1024,1024,1024,1024,0,0,0,0,40,5.103,76.64,166.338588,P-GPS,,50.7
575200,2026-01-07 15:43:29,0.0,5,7.024,0.0,0.0,0.0,7.8,6.0,4.1,1024,1024,1024,1024,0,0,0,0,40,5.103,76.64,166.338588,P-GPS,,50.7
575300,2026-01-07 15:43:29,0.0,5,7.024,0.0,0.0,0.0,7.9,5.9,3.7,1024,1024,1024,1024,0,0,0,0,40,5.103,76.64,166.338588,P-GPS,,50.7
575400,2026-01-07 15:43:29,0.0,5,7.024,0.0,0.0,0.0,7.9,6.3,3.5,1024,1024,1024,1024,0,0,0,0,40,5.103,76.64,166.010504,P-GPS,,50.6
575500,2026-01-07 15:43:29,0.0,5,7.024,0.0,0.0,0.0,7.9,6.6,3.1,1024,1024,1024,1024,0,0,0,0,40,5.103,76.64,166.010504,P-GPS,,50.6
575600,2026-01-07 15:43:29,0.0,5,7.024,0.0,0.0,0.0,7.9,6.9,2.7,1024,1024,1024,1024,0,0,0,0,40,5.103,76.64,166.010504,P-GPS,,50.6
575700,2026-01-07 15:43:29,0.0,5,7.024,0.0,0.0,0.0,7.8,7.2,3.2,1024,1024,1024,1024,0,0,0,0,40,5.103,76.64,166.010504,P-GPS,,50.6
575800,2026-01-07 15:43:29,0.0,5,7.024,0.0,0.0,0.0,7.9,6.4,3.3,1024,1024,1024,1024,0,0,0,0,40,5.103,76.64,166.010504,P-GPS,,50.6
575900,2026-01-07 15:43:29,0.0,5,7.024,0.0,0.0,0.0,7.8,6.4,3.9,1024,1024,1024,1024,0,0,0,0,40,5.103,76.64,166.010504,P-GPS,,50.6
576000,2026-01-07 15:43:29,0.0,5,7.024,0.0,0.0,0.0,7.8,6.4,3.9,1024,1024,1024,1024,0,0,0,0,40,5.103,76.64,166.338588,P-GPS,,50.7
576100,2026-01-07 15:43:30,0.0,5,7.024,0.0,0.0,0.0,7.9,6.9,4.0,1024,1024,1024,1024,0,0,0,0,40,5.103,76.64,166.338588,P-GPS,,50.7
576200,2026-01-07 15:43:30,0.0,5,7.024,0.0,0.0,0.0,7.9,7.5,4.0,1024,1024,1024,1024,0,0,0,0,40,5.103,76.64,166.338588,P-GPS,,50.7
576300,2026-01-07 15:43:30,0.0,5,7.024,0.0,0.0,0.0,8.0,7.4,4.1,1024,1024,1024,1024,0,0,0,0,40,5.103,76.64,166.338588,P-GPS,,50.7
576400,2026-01-07 15:43:30,0.0,5,7.025,0.0,0.0,0.0,8.0,7.6,4.0,1024,1024,1024,1024,0,0,0,0,40,4.972,76.64,166.338588,P-GPS,,50.7
576500,2026-01-07 15:43:30,0.0,5,7.025,0.0,0.0,0.0,8.0,7.8,3.8,1024,1024,1024,1024,0,0,0,0,40,4.972,76.64,166.010504,P-GPS,,50.6
576600,2026-01-07 15:43:30,0.0,5,7.025,0.0,0.0,0.0,8.0,7.7,3.8,1024,1024,1024,1024,0,0,0,0,40,4.972,76.64,166.010504,P-GPS,,50.6
576700,2026-01-07 15:43:30,0.0,5,7.025,0.0,0.0,0.0,7.9,7.8,3.8,1024,1024,1024,1024,0,0,0,0,40,4.972,76.64,166.010504,P-GPS,,50.6
576800,2026-01-07 15:43:30,0.0,5,7.025,0.0,0.0,0.0,8.0,7.9,3.6,1024,1024,1024,1024,0,0,0,0,40,4.972,76.64,166.010504,P-GPS,,50.6
576900,2026-01-07 15:43:30,0.0,5,7.025,0.0,0.0,0.0,8.0,8.4,3.6,1024,1024,1024,1024,0,0,0,0,40,4.972,76.64,166.010504,P-GPS,,50.6
577000,2026-01-07 15:43:30,0.0,5,7.025,0.0,0.0,0.0,7.9,7.9,3.7,1024,1024,1024,1024,0,0,0,0,40,4.972,76.64,166.010504,P-GPS,,50.6
577100,2026-01-07 15:43:31,0.0,5,7.025,0.0,0.0,0.0,7.9,7.9,3.5,1024,1024,1024,1024,0,0,0,0,40,4.972,76.64,166.010504,P-GPS,,50.6
577200,2026-01-07 15:43:31,0.0,5,7.025,0.0,0.0,0.0,7.9,8.1,3.7,1024,1024,1024,1024,0,0,0,0,40,4.972,76.64,166.010504,P-GPS,,50.6
577300,2026-01-07 15:43:31,0.0,5,7.025,0.0,0.0,0.0,8.0,8.0,3.7,1024,1024,1024,1024,0,0,0,0,40,4.972,76.64,166.010504,P-GPS,,50.6
577400,2026-01-07 15:43:31,0.0,5,7.025,0.0,0.0,0.0,7.9,7.8,3.5,1024,1024,1024,1024,0,0,0,0,40,4.972,76.64,166.010504,P-GPS,,50.6
577500,2026-01-07 15:43:31,0.0,5,7.02,0.0,0.0,0.0,7.9,7.6,3.3,1024,1024,1024,1024,0,0,0,0,40,5.02,76.64,166.010504,P-GPS,,50.6
577600,2026-01-07 15:43:31,0.0,5,7.02,0.0,0.0,0.0,7.8,7.7,3.7,1024,1024,1024,1024,0,0,0,0,40,5.02,76.64,166.010504,P-GPS,,50.6
577700,2026-01-07 15:43:31,0.0,5,7.02,0.0,0.0,0.0,7.9,7.2,3.6,1024,1024,1024,1024,0,0,0,0,40,5.02,76.64,166.010504,P-GPS,,50.6
577800,2026-01-07 15:43:31,0.0,5,7.02,0.0,0.0,0.0,7.9,6.9,3.6,1024,1024,1024,1024,0,0,0,0,40,5.02,76.64,166.010504,P-GPS,,50.6
577900,2026-01-07 15:43:31,0.0,5,7.02,0.0,0.0,0.0,7.9,7.3,3.9,1024,1024,1024,1024,0,0,0,0,40,5.02,76.64,166.010504,P-GPS,,50.6
578000,2026-01-07 15:43:31,0.0,5,7.02,0.0,0.0,0.0,7.9,7.1,3.9,1024,1024,1024,1024,0,0,0,0,40,5.02,76.64,166.010504,P-GPS,,50.6
578100,2026-01-07 15:43:32,0.0,5,7.02,0.0,0.0,0.0,7.9,7.2,3.9,1024,1024,1024,1024,0,0,0,0,40,5.02,76.64,166.010504,P-GPS,,50.6
578200,2026-01-07 15:43:32,0.0,5,7.02,0.0,0.0,0.0,7.9,7.0,3.9,1024,1024,1024,1024,0,0,0,0,40,5.02,76.64,166.010504,P-GPS,,50.6
578300,2026-01-07 15:43:32,0.0,5,7.02,0.0,0.0,0.0,7.9,7.3,3.7,1024,1024,1024,1024,0,0,0,0,40,5.02,76.64,165.68242,P-GPS,,50.5
578400,2026-01-07 15:43:32,0.0,5,7.02,0.0,0.0,0.0,7.9,7.6,3.7,1024,1024,1024,1024,0,0,0,0,40,5.02,76.64,165.68242,P-GPS,,50.5
578500,2026-01-07 15:43:32,0.0,5,7.02,0.0,0.0,0.0,7.9,7.5,3.7,1024,1024,1024,1024,0,0,0,0,40,5.02,76.64,165.68242,P-GPS,,50.5
578600,2026-01-07 15:43:32,0.0,5,7.019,0.0,0.0,0.0,7.9,7.1,3.6,1024,1024,1024,1024,0,0,0,0,40,5.05,76.64,165.68242,P-GPS,,50.5
578700,2026-01-07 15:43:32,0.0,5,7.019,0.0,0.0,0.0,7.9,7.1,3.4,1024,1024,1024,1024,0,0,0,0,40,5.05,76.64,165.68242,P-GPS,,50.5
578800,2026-01-07 15:43:32,0.0,5,7.019,0.0,0.0,0.0,7.9,6.9,3.2,1024,1024,1024,1024,0,0,0,0,40,5.05,76.64,165.354336,P-GPS,,50.4
578900,2026-01-07 15:43:32,0.0,5,7.019,0.0,0.0,0.0,7.8,6.5,2.7,1024,1024,1024,1024,0,0,0,0,40,5.05,76.64,165.354336,P-GPS,,50.4
579000,2026-01-07 15:43:32,0.0,5,7.019,0.0,0.0,0.0,7.8,6.4,2.6,1024,1024,1024,1024,0,0,0,0,40,5.05,76.64,165.354336,P-GPS,,50.4
579100,2026-01-07 15:43:33,0.0,5,7.019,0.0,0.0,0.0,7.7,6.6,2.7,1024,1024,1024,1024,0,0,0,0,40,5.05,76.64,165.354336,P-GPS,,50.4
579200,2026-01-07 15:43:33,0.0,5,7.019,0.0,0.0,0.0,7.9,6.9,3.2,1024,1024,766,1024,0,0,-39,0,40,5.05,76.64,165.354336,P-GPS,,50.4
579300,2026-01-07 15:43:33,0.0,5,7.019,0.0,0.0,0.0,7.9,7.2,3.5,1024,1024,364,1024,0,0,-100,0,40,5.05,76.64,165.68242,P-GPS,,50.5
579400,2026-01-07 15:43:33,0.0,5,7.019,0.0,0.0,0.0,8.0,7.5,3.9,1024,1024,364,1024,0,0,-100,0,40,5.05,76.64,165.68242,P-GPS,,50.5
579500,2026-01-07 15:43:33,0.0,5,7.019,0.0,0.0,0.0,8.1,7.8,4.4,1024,1024,364,1024,0,0,-100,0,40,5.05,76.64,165.68242,P-GPS,,50.5
579600,2026-01-07 15:43:33,0.0,5,7.019,0.0,0.0,0.223694,8.1,8.4,4.8,1024,1024,364,1024,0,0,-100,0,40,5.05,76.64,165.354336,P-GPS,,50.4
579700,2026-01-07 15:43:33,0.0,5,7.066,0.0,0.0,0.894776,8.1,8.7,4.8,1024,1024,364,1024,0,0,-100,0,40,4.503,76.64,165.354336,P-GPS,,50.4
579800,2026-01-07 15:43:33,0.0,5,7.066,0.0,0.0,1.565858,8.0,8.7,5.1,1024,1024,364,1024,0,0,-100,0,40,4.503,76.64,164.698168,P-GPS,,50.2
579900,2026-01-07 15:43:33,0.0,5,7.066,0.0,0.0,2.460634,7.9,8.1,4.5,1024,1024,364,1024,0,0,-100,0,40,4.503,76.64,164.370084,P-GPS,,50.1
580000,2026-01-07 15:43:33,0.0,5,7.066,0.0,0.0,3.131716,7.7,7.0,4.4,1024,1024,364,1024,0,0,-100,0,40,4.503,76.64,163.713916,P-GPS,,49.9
580100,2026-01-07 15:43:34,0.0,5,7.066,0.0,0.0,3.579104,7.7,6.0,4.0,1024,1024,364,1024,0,0,-100,0,40,4.503,76.64,163.057748,P-GPS,,49.7
580200,2026-01-07 15:43:34,0.0,5,7.066,0.0,0.0,3.802798,7.5,4.2,3.7,1024,1024,364,1024,0,0,-100,0,40,4.503,76.64,162.40158,P-GPS,,49.5
580300,2026-01-07 15:43:34,0.0,5,7.066,0.0,0.0,3.802798,7.5,5.2,2.9,1024,1024,364,1024,0,0,-100,0,40,4.503,76.64,161.417328,P-GPS,,49.2
580400,2026-01-07 15:43:34,0.0,5,7.066,0.0,0.0,4.026492,7.6,5.2,3.4,1024,1024,364,1024,0,0,-100,0,40,4.503,76.64,160.76116,P-GPS,,49.0
580500,2026-01-07 15:43:34,0.0,5,7.066,0.0,0.0,4.026492,7.5,4.7,3.8,1024,1024,364,1024,0,0,-100,0,40,4.503,76.64,160.104992,P-GPS,,48.8
580600,2026-01-07 15:43:34,0.0,5,7.066,0.0,0.0,4.026492,7.5,4.4,3.7,1024,1024,364,1024,0,0,-100,0,40,4.503,76.64,159.12074,P-GPS,,48.5
580700,2026-01-07 15:43:34,0.0,5,7.066,0.0,0.0,4.026492,7.5,4.0,3.0,1024,1024,364,1024,0,0,-100,0,40,4.503,76.64,158.464572,P-GPS,,48.3
580800,2026-01-07 15:43:34,0.0,5,7.073,0.0,0.0,3.802798,7.9,5.3,2.6,1024,1024,364,1024,0,0,-100,0,40,3.579,76.64,157.808404,P-GPS,,48.1
