index,time(millisecond),timestamp,speed(mph),gpslevel,voltage(v),xSpeed(mph),ySpeed(mph),zSpeed(mph),compass_heading(degrees),pitch(degrees),roll(degrees),rc_elevator,rc_aileron,rc_throttle,rc_rudder,rc_elevator(percent),rc_aileron(percent),rc_throttle(percent),rc_rudder(percent),battery_percent,current(A),battery_temperature(f),ascent(feet),flycState,message,height_above_takeoff(meters)
108,628300,2026-01-07 15:44:58,0.0,5,7.058,0.0,0.0,0.0,24.3,3.0,3.0,1024,1024,1024,1024,0,0,0,0,37,4.947,77.18,35.761156,P-GPS,,10.9
109,628400,2026-01-07 15:44:59,0.0,5,7.058,0.0,0.0,0.0,24.3,2.8,3.1,1024,1024,1024,1024,0,0,0,0,37,4.947,77.18,35.761156,P-GPS,,10.9
110,628500,2026-01-07 15:44:59,0.0,5,7.058,0.0,0.0,0.0,24.3,2.9,3.0,1024,1024,1024,1024,0,0,0,0,37,4.947,77.18,35.761156,P-GPS,,10.9
111,628600,2026-01-07 15:44:59,0.0,5,7.058,0.0,0.0,0.0,24.3,2.9,2.9,1024,1024,1024,1024,0,0,0,0,37,4.947,77.18,35.761156,P-GPS,,10.9
112,628700,2026-01-07 15:44:59,0.0,5,7.058,0.0,0.0,0.0,24.3,2.8,2.8,1024,1024,1024,1024,0,0,0,0,37,4.947,77.18,35.761156,P-GPS,,10.9
113,628800,2026-01-07 15:44:59,0.0,5,7.058,0.0,0.0,0.0,24.2,2.7,2.9,1024,1024,1024,1024,0,0,0,0,37,4.947,77.18,35.433072,P-GPS,,10.8
114,628900,2026-01-07 15:44:59,0.0,5,7.011,0.0,0.0,0.0,24.3,2.5,3.0,1024,1024,1024,1024,0,0,0,0,37,4.924,77.18,35.433072,P-GPS,,10.8
115,629000,2026-01-07 15:44:59,0.0,5,7.011,0.0,0.0,0.0,24.3,2.1,2.9,1024,1024,1024,1024,0,0,0,0,37,4.924,77.18,35.433072,P-GPS,,10.8
116,629100,2026-01-07 15:44:59,0.0,5,7.011,0.0,0.0,0.0,24.3,1.6,2.5,1024,1024,1024,1024,0,0,0,0,37,4.924,77.18,35.433072,P-GPS,,10.8
117,629200,2026-01-07 15:44:59,0.0,5,7.011,0.0,0.0,0.0,24.4,1.7,2.5,1024,1024,1024,1024,0,0,0,0,37,4.924,77.18,35.433072,P-GPS,,10.8
118,629300,2026-01-07 15:45:00,0.0,5,7.011,0.0,0.0,0.0,24.4,1.8,2.3,1024,1024,1024,1024,0,0,0,0,37,4.924,77.18,35.433072,P-GPS,,10.8
119,629400,2026-01-07 15:45:00,0.0,5,7.011,0.0,0.0,0.0,24.4,1.8,2.1,1024,1024,1024,1024,0,0,0,0,37,4.924,77.18,35.433072,P-GPS,,10.8
120,629500,2026-01-07 15:45:00,0.0,5,7.011,0.0,0.0,0.0,24.3,1.7,1.9,1024,1024,1024,1024,0,0,0,0,37,4.924,77.18,35.433072,P-GPS,,10.8
121,629600,2026-01-07 15:45:00,0.0,5,7.011,0.0,0.0,0.0,24.3,1.8,1.9,1024,1024,1024,1024,0,0,0,0,37,4.924,77.18,35.433072,P-GPS,,10.8
122,629700,2026-01-07 15:45:00,0.0,5,7.011,0.0,0.0,0.0,24.3,1.9,1.7,1024,1024,1024,1024,0,0,0,0,37,4.924,77.18,35.104988,P-GPS,,10.7
123,629800,2026-01-07 15:45:00,0.0,5,7.011,0.0,0.0,0.0,24.3,1.9,1.7,1024,1024,1024,1024,0,0,0,0,37,4.924,77.18,35.104988,P-GPS,,10.7
124,629900,2026-01-07 15:45:00,0.0,5,7.011,0.0,0.0,0.0,24.4,1.9,1.8,1024,1024,1024,1024,0,0,0,0,37,4.924,77.18,35.104988,P-GPS,,10.7
125,630000,2026-01-07 15:45:00,0.0,5,7.012,0.0,0.0,0.0,24.4,1.9,1.9,1024,1024,1024,1024,0,0,0,0,37,4.975,77.18,35.104988,P-GPS,,10.7
126,630100,2026-01-07 15:45:00,0.0,5,7.012,0.0,0.0,0.0,24.3,2.1,1.9,1024,1024,1024,1024,0,0,0,0,37,4.975,77.18,35.104988,P-GPS,,10.7
127,630200,2026-01-07 15:45:00,0.0,5,7.012,0.0,0.0,0.0,24.4,2.1,1.8,1024,1024,1024,1024,0,0,0,0,37,4.975,77.18,35.104988,P-GPS,,10.7
128,630300,2026-01-07 15:45:00,0.0,5,7.012,0.0,0.0,0.0,24.4,2.4,1.9,1024,1024,1024,1024,0,0,0,0,37,4.975,77.18,35.104988,P-GPS,,10.7
129,630400,2026-01-07 15:45:01,0.0,5,7.012,0.0,0.0,0.0,24.3,2.5,1.7,1024,1024,1024,1024,0,0,0,0,37,4.975,77.18,35.104988,P-GPS,,10.7
130,630500,2026-01-07 15:45:01,0.0,5,7.012,0.0,0.0,0.0,24.3,2.5,1.5,1024,1024,1024,1024,0,0,0,0,37,4.975,77.18,34.776904,P-GPS,,10.6
131,630600,2026-01-07 15:45:01,0.0,5,7.012,0.0,0.0,0.0,24.3,2.5,1.6,1024,1024,1024,1024,0,0,0,0,37,4.975,77.18,34.776904,P-GPS,,10.6
132,630700,2026-01-07 15:45:01,0.0,5,7.012,0.0,0.0,0.0,24.3,2.7,1.5,1024,1024,1024,1024,0,0,0,0,37,4.975,77.18,34.776904,P-GPS,,10.6
133,630800,2026-01-07 15:45:01,0.0,5,7.012,0.0,0.0,0.0,24.3,2.7,1.6,1024,1024,1024,1024,0,0,0,0,37,4.975,77.18,34.776904,P-GPS,,10.6
134,630900,2026-01-07 15:45:01,0.0,5,7.012,0.0,0.0,0.0,24.3,2.7,1.6,1024,1024,1024,1024,0,0,0,0,37,4.975,77.18,34.776904,P-GPS,,10.6
135,631000,2026-01-07 15:45:01,0.0,5,7.012,0.0,0.0,0.0,24.3,2.7,1.5,1024,1024,1024,1024,0,0,0,0,37,4.975,77.18,34.776904,P-GPS,,10.6
136,631100,2026-01-07 15:45:01,0.0,5,7.006,0.0,0.0,0.0,24.3,2.8,1.4,1024,1024,1024,1024,0,0,0,0,37,5.053,77.18,34.776904,P-GPS,,10.6
137,631200,2026-01-07 15:45:01,0.0,5,7.006,0.0,0.0,0.0,24.3,2.8,1.6,1024,1024,1024,1024,0,0,0,0,37,5.053,77.18,34.776904,P-GPS,,10.6
138,631300,2026-01-07 15:45:02,0.0,5,7.006,0.0,0.0,0.0,24.3,2.5,1.8,1024,1024,1024,1024,0,0,0,0,37,5.053,77.18,34.776904,P-GPS,,10.6
139,631400,2026-01-07 15:45:02,0.0,5,7.006,0.0,0.0,0.0,24.3,2.5,1.9,1024,1024,1024,1024,0,0,0,0,37,5.053,77.18,34.776904,P-GPS,,10.6
140,631500,2026-01-07 15:45:02,0.0,5,7.006,0.0,0.0,0.0,24.3,2.5,1.9,1024,1024,1024,1024,0,0,0,0,37,5.053,77.18,34.776904,P-GPS,,10.6
141,631600,2026-01-07 15:45:02,0.0,5,7.006,0.0,0.0,0.0,24.3,2.5,1.9,1024,1024,1024,1024,0,0,0,0,37,5.053,77.18,34.776904,P-GPS,,10.6
142,631700,2026-01-07 15:45:02,0.0,5,7.006,0.0,0.0,0.0,24.3,2.5,1.9,1024,1024,1024,1024,0,0,0,0,37,5.053,77.18,34.776904,P-GPS,,10.6
143,631800,2026-01-07 15:45:02,0.0,5,7.006,0.0,0.0,0.0,24.3,2.5,1.8,1024,1024,1024,1024,0,0,0,0,37,5.053,77.18,34.776904,P-GPS,,10.6
144,631900,2026-01-07 15:45:02,0.0,5,7.006,0.0,0.0,0.0,24.3,2.5,1.6,1024,1024,1024,1024,0,0,0,0,37,5.053,77.18,34.776904,P-GPS,,10.6
145,632000,2026-01-07 15:45:02,0.0,5,7.006,0.0,0.0,0.0,24.3,2.8,1.4,1024,1024,1024,1024,0,0,0,0,37,5.053,77.18,34.776904,P-GPS,,10.6
146,632100,2026-01-07 15:45:02,0.0,5,7.006,0.0,0.0,0.0,24.4,2.9,1.6,1024,1024,1024,1024,0,0,0,0,37,5.053,77.18,34.776904,P-GPS,,10.6
147,632200,2026-01-07 15:45:02,0.0,5,7.001,0.0,0.0,0.0,24.4,2.9,1.8,1024,1024,1024,1024,0,0,0,0,37,5.062,77.18,34.776904,P-GPS,,10.6
148,632300,2026-01-07 15:45:03,0.0,5,7.001,0.0,0.0,0.0,24.4,3.0,1.8,1024,1024,1024,1024,0,0,0,0,37,5.062,77.18,34.776904,P-GPS,,10.6
149,632400,2026-01-07 15:45:03,0.0,5,7.001,0.0,0.0,0.0,24.5,3.0,1.9,1024,1024,1024,1024,0,0,0,0,37,5.062,77.18,34.776904,P-GPS,,10.6
150,632500,2026-01-07 15:45:03,0.0,5,7.001,0.0,0.0,0.0,24.5,2.9,1.8,1024,1024,1024,1024,0,0,0,0,37,5.062,77.18,34.776904,P-GPS,,10.6
151,632600,2026-01-07 15:45:03,0.0,5,7.001,0.0,0.0,0.0,24.5,3.0,1.7,1024,1024,1024,1024,0,0,0,0,37,5.062,77.18,34.776904,P-GPS,,10.6
152,632700,2026-01-07 15:45:03,0.0,5,7.001,0.0,0.0,0.0,24.5,3.0,1.7,1024,1024,1024,1024,0,0,0,0,37,5.062,77.18,34.776904,P-GPS,,10.6
153,632800,2026-01-07 15:45:03,0.0,5,7.001,0.0,0.0,0.0,24.4,2.6,2.0,1024,1024,1024,1024,0,0,0,0,37,5.062,77.18,34.776904,P-GPS,,10.6
154,632900,2026-01-07 15:45:03,0.0,5,7.001,0.0,0.0,0.0,24.3,2.9,2.1,1024,1024,1024,1024,0,0,0,0,37,5.062,77.18,34.776904,P-GPS,,10.6
155,633000,2026-01-07 15:45:03,0.0,5,7.001,0.0,0.0,0.0,24.3,2.6,2.1,1024,1024,1024,1024,0,0,0,0,37,5.062,77.18,34.776904,P-GPS,,10.6
156,633100,2026-01-07 15:45:03,0.0,5,7.001,0.0,0.0,0.0,24.4,2.8,2.2,1024,1024,1024,1024,0,0,0,0,37,5.062,77.18,34.776904,P-GPS,,10.6
157,633200,2026-01-07 15:45:03,0.0,5,7.001,0.0,0.0,0.0,24.4,3.2,2.1,1024,1024,1024,1024,0,0,0,0,37,5.062,77.18,34.776904,P-GPS,,10.6
158,633300,2026-01-07 15:45:03,0.0,5,6.999,0.0,0.0,0.0,24.5,3.6,2.3,1024,1024,1024,1024,0,0,0,0,37,5.049,77.18,34.776904,P-GPS,,10.6
159,633400,2026-01-07 15:45:04,0.0,5,6.999,0.0,0.0,0.0,24.5,3.9,2.3,1024,1024,1024,1024,0,0,0,0,37,5.049,77.18,35.104988,P-GPS,,10.7
160,633500,2026-01-07 15:45:04,0.0,5,6.999,0.0,0.0,0.0,24.4,3.7,2.2,1024,1024,1024,1024,0,0,0,0,37,5.049,77.18,35.104988,P-GPS,,10.7
161,633600,2026-01-07 15:45:04,0.0,5,6.999,0.0,0.0,0.0,24.3,3.4,2.3,1024,1024,1024,1024,0,0,0,0,37,5.049,77.18,35.104988,P-GPS,,10.7
162,633700,2026-01-07 15:45:04,0.0,5,6.999,0.0,0.0,0.0,24.3,3.4,2.5,1024,1024,1024,1024,0,0,0,0,37,5.049,77.18,35.104988,P-GPS,,10.7
163,633800,2026-01-07 15:45:04,0.0,5,6.999,0.0,0.0,0.0,24.2,3.4,2.3,1024,1024,1024,1024,0,0,0,0,37,5.049,77.18,35.104988,P-GPS,,10.7
164,633900,2026-01-07 15:45:04,0.0,5,6.999,0.0,0.0,0.0,24.2,2.7,2.3,1024,1024,1024,1024,0,0,0,0,37,5.049,77.18,35.104988,P-GPS,,10.7
165,634000,2026-01-07 15:45:04,0.0,5,6.999,0.0,0.0,0.0,24.3,2.9,2.3,1024,1024,1024,1024,0,0,0,0,37,5.049,77.18,35.104988,P-GPS,,10.7
166,634100,2026-01-07 15:45:04,0.0,5,6.999,0.0,0.0,0.0,24.3,3.1,2.2,1024,1024,1024,1024,0,0,0,0,37,5.049,77.18,35.104988,P-GPS,,10.7
167,634200,2026-01-07 15:45:04,0.0,5,6.999,0.0,0.0,0.0,24.4,3.3,1.9,1024,1024,1024,1024,0,0,0,0,37,5.049,77.18,35.104988,P-GPS,,10.7
168,634300,2026-01-07 15:45:05,0.0,5,6.999,0.0,0.0,0.0,24.4,3.0,2.0,1024,1024,1024,1024,0,0,0,0,37,5.049,77.18,35.104988,P-GPS,,10.7
169,634400,2026-01-07 15:45:05,0.0,5,6.993,0.0,0.0,0.0,24.4,2.9,2.1,1024,1024,1024,1024,0,0,0,0,36,5.113,77.36,35.104988,P-GPS,,10.7
170,634500,2026-01-07 15:45:05,0.0,5,6.993,0.0,0.0,0.0,24.5,3.0,1.9,1024,1024,1024,1024,0,0,0,0,36,5.113,77.36,35.104988,P-GPS,,10.7
171,634600,2026-01-07 15:45:05,0.0,5,6.993,0.0,0.0,0.0,24.4,2.6,1.9,1024,1024,1024,1024,0,0,0,0,36,5.113,77.36,35.104988,P-GPS,,10.7
172,634700,2026-01-07 15:45:05,0.0,5,6.993,0.0,0.0,0.0,24.5,2.3,2.4,1024,1024,1024,1024,0,0,0,0,36,5.113,77.36,35.104988,P-GPS,,10.7
173,634800,2026-01-07 15:45:05,0.0,5,6.993,0.0,0.0,0.0,24.5,2.2,2.7,1024,1024,1024,1024,0,0,0,0,36,5.113,77.36,35.104988,P-GPS,,10.7
174,634900,2026-01-07 15:45:05,0.0,5,6.993,0.0,0.0,0.0,24.4,2.1,2.1,1024,1024,1024,1024,0,0,0,0,36,5.113,77.36,35.104988,P-GPS,,10.7
175,635000,2026-01-07 15:45:05,0.0,5,6.993,0.0,0.0,0.0,24.4,2.3,1.7,1024,1024,1024,1024,0,0,0,0,36,5.113,77.36,35.104988,P-GPS,,10.7
176,635100,2026-01-07 15:45:05,0.0,5,6.993,0.0,0.0,0.0,24.5,2.7,1.7,1024,1024,1024,1024,0,0,0,0,36,5.113,77.36,35.104988,P-GPS,,10.7
177,635200,2026-01-07 15:45:05,0.0,5,6.993,0.0,0.0,0.0,24.6,2.7,1.7,1024,1024,1024,1024,0,0,0,0,36,5.113,77.36,35.104988,P-GPS,,10.7
178,635300,2026-01-07 15:45:05,0.0,5,6.993,0.0,0.0,0.0,24.5,2.6,1.3,1024,1024,1024,1024,0,0,0,0,36,5.113,77.36,35.104988,P-GPS,,10.7
179,635400,2026-01-07 15:45:06,0.0,5,6.993,0.0,0.0,0.0,24.4,2.6,0.9,1024,1024,1024,1024,0,0,0,0,36,5.113,77.36,35.104988,P-GPS,,10.7
180,635500,2026-01-07 15:45:06,0.0,5,6.993,0.0,0.0,0.0,24.3,2.5,1.2,1024,1024,1024,1024,0,0,0,0,36,5.113,77.36,35.104988,P-GPS,,10.7
181,635600,2026-01-07 15:45:06,0.0,5,7.0,0.0,0.0,0.0,24.3,2.6,1.5,1024,1024,1024,1024,0,0,0,0,36,4.917,77.36,35.104988,P-GPS,,10.7
182,635700,2026-01-07 15:45:06,0.0,5,7.0,0.0,0.0,0.0,24.3,2.7,1.8,1024,1024,1024,1024,0,0,0,0,36,4.917,77.36,35.104988,P-GPS,,10.7
183,635800,2026-01-07 15:45:06,0.0,5,7.0,0.0,0.0,0.0,24.4,2.9,1.8,1024,1024,1024,1024,0,0,0,0,36,4.917,77.36,35.433072,P-GPS,,10.8
184,635900,2026-01-07 15:45:06,0.0,5,7.0,0.0,0.0,0.0,24.3,3.0,1.6,1024,1024,1024,1024,0,0,0,0,36,4.917,77.36,35.433072,P-GPS,,10.8
185,636000,2026-01-07 15:45:06,0.0,5,7.0,0.0,0.0,0.0,24.3,2.8,1.8,1024,1024,1024,1024,0,0,0,0,36,4.917,77.36,35.433072,P-GPS,,10.8
186,636100,2026-01-07 15:45:06,0.0,5,7.0,0.0,0.0,0.0,24.3,2.6,2.1,1024,1024,1024,1024,0,0,0,0,36,4.917,77.36,35.433072,P-GPS,,10.8
187,636200,2026-01-07 15:45:06,0.0,5,7.0,0.0,0.0,0.0,24.3,2.5,2.1,1024,1024,1024,1024,0,0,0,0,36,4.917,77.36,35.433072,P-GPS,,10.8
188,636300,2026-01-07 15:45:07,0.0,5,7.0,0.0,0.0,0.0,24.2,2.4,2.4,1024,1024,1024,1024,0,0,0,0,36,4.917,77.36,35.433072,P-GPS,,10.8
189,636400,2026-01-07 15:45:07,0.0,5,7.0,0.0,0.0,0.0,24.0,2.6,2.4,1024,1024,1024,1024,0,0,0,0,36,4.917,77.36,35.433072,P-GPS,,10.8
190,636500,2026-01-07 15:45:07,0.0,5,7.0,0.0,0.0,0.0,24.1,2.6,2.4,1024,1024,1024,1024,0,0,0,0,36,4.917,77.36,35.433072,P-GPS,,10.8
191,636600,2026-01-07 15:45:07,0.0,5,7.0,0.0,0.0,0.0,24.4,3.0,2.5,1024,1024,1024,1024,0,0,0,0,36,4.917,77.36,35.761156,P-GPS,,10.9
192,636700,2026-01-07 15:45:07,0.0,5,7.0,0.0,0.0,0.0,24.3,3.5,1.9,1024,1024,1024,1024,0,0,0,0,36,4.917,77.36,35.761156,P-GPS,,10.9
193,636800,2026-01-07 15:45:07,0.0,5,7.0,0.0,0.0,0.0,24.4,3.6,2.3,1024,1024,1024,1024,0,0,0,0,36,4.917,77.36,35.761156,P-GPS,,10.9
194,636900,2026-01-07 15:45:07,0.0,5,7.0,0.0,0.0,0.0,24.4,3.7,2.6,1024,1024,1024,1024,0,0,0,0,36,4.917,77.36,35.761156,P-GPS,,10.9
195,637000,2026-01-07 15:45:07,0.0,5,7.0,0.0,0.0,0.0,24.4,3.8,2.6,1024,1024,1024,1024,0,0,0,0,36,4.917,77.36,35.761156,P-GPS,,10.9
196,637100,2026-01-07 15:45:07,0.0,5,7.0,0.0,0.0,0.0,24.5,3.8,2.8,1024,1024,1024,1024,0,0,0,0,36,4.917,77.36,35.761156,P-GPS,,10.9
197,637200,2026-01-07 15:45:07,0.0,5,7.0,0.0,0.0,0.0,24.5,3.8,2.7,1024,1024,1024,1024,0,0,0,0,36,4.917,77.36,35.761156,P-GPS,,10.9
198,637300,2026-01-07 15:45:08,0.0,5,7.0,0.0,0.0,0.0,24.4,3.9,2.7,1024,1024,1024,1024,0,0,0,0,36,4.917,77.36,36.08924,P-GPS,,11.0
199,637400,2026-01-07 15:45:08,0.0,5,7.0,0.0,0.0,0.0,24.4,3.5,2.9,1024,1024,1024,1024,0,0,0,0,36,4.917,77.36,36.08924,P-GPS,,11.0
200,637500,2026-01-07 15:45:08,0.0,5,7.0,0.0,0.0,0.0,24.3,4.1,2.9,1024,1024,1024,1024,0,0,0,0,36,4.917,77.36,36.08924,P-GPS,,11.0
201,637600,2026-01-07 15:45:08,0.0,5,7.0,0.0,0.0,0.0,24.3,4.5,2.8,1024,1024,1024,1024,0,0,0,0,36,4.917,77.36,36.08924,P-GPS,,11.0
202,637700,2026-01-07 15:45:08,0.0,5,7.0,0.0,0.0,0.0,24.5,4.3,2.9,1024,1024,1024,1024,0,0,0,0,36,4.917,77.36,36.08924,P-GPS,,11.0
203,637800,2026-01-07 15:45:08,0.0,5,6.999,0.0,0.0,0.0,24.4,4.0,2.8,1024,1024,1024,1024,0,0,0,0,36,4.922,77.36,36.08924,P-GPS,,11.0
204,637900,2026-01-07 15:45:08,0.0,5,6.999,0.0,0.0,0.0,24.3,3.8,2.4,1024,1024,1024,1024,0,0,0,0,36,4.922,77.36,36.08924,P-GPS,,11.0
205,638000,2026-01-07 15:45:08,0.0,5,6.999,0.0,0.0,0.0,24.2,4.0,1.7,1024,1024,1024,1024,0,0,0,0,36,4.922,77.36,36.08924,P-GPS,,11.0
206,638100,2026-01-07 15:45:08,0.0,5,6.999,0.0,0.0,0.0,24.3,3.9,1.2,1024,1024,1024,1024,0,0,0,0,36,4.922,77.36,36.08924,P-GPS,,11.0
207,638200,2026-01-07 15:45:08,0.0,5,6.999,0.0,0.0,0.0,24.3,4.5,0.9,1024,1024,1024,1024,0,0,0,0,36,4.922,77.36,36.08924,P-GPS,,11.0
208,638300,2026-01-07 15:45:08,0.0,5,6.999,0.0,0.0,0.0,24.2,4.7,1.5,1024,1024,1024,1024,0,0,0,0,36,4.922,77.36,36.08924,P-GPS,,11.0
209,638400,2026-01-07 15:45:09,0.0,5,6.999,0.0,0.0,0.0,24.4,5.0,2.3,1024,1024,1024,1024,0,0,0,0,36,4.922,77.36,36.08924,P-GPS,,11.0
210,638500,2026-01-07 15:45:09,0.0,5,6.999,0.0,0.0,0.0,24.5,4.8,2.6,1024,1024,1024,1024,0,0,0,0,36,4.922,77.36,36.08924,P-GPS,,11.0
211,638600,2026-01-07 15:45:09,0.0,5,6.999,0.0,0.0,0.0,24.5,4.6,2.8,1024,1024,1024,1024,0,0,0,0,36,4.922,77.36,36.08924,P-GPS,,11.0
212,638700,2026-01-07 15:45:09,0.0,5,6.999,0.0,0.0,0.0,24.6,3.9,3.1,1024,1024,1024,1024,0,0,0,0,36,4.922,77.36,36.08924,P-GPS,,11.0
213,638800,2026-01-07 15:45:09,0.223694,5,6.999,-0.223694,0.0,0.0,24.6,3.4,2.8,1024,1024,1024,1024,0,0,0,0,36,4.922,77.36,35.761156,P-GPS,,10.9
214,638900,2026-01-07 15:45:09,0.223694,5,6.986,-0.223694,0.0,0.0,24.5,2.7,2.5,1024,1024,1024,1024,0,0,0,0,36,4.986,77.36,35.761156,P-GPS,,10.9
215,639000,2026-01-07 15:45:09,0.223694,5,6.986,-0.223694,0.0,0.0,24.4,2.1,2.4,1024,1024,1024,1024,0,0,0,0,36,4.986,77.36,35.761156,P-GPS,,10.9
216,639100,2026-01-07 15:45:09,0.223694,5,6.986,-0.223694,0.0,0.0,24.4,1.5,2.5,1024,1024,1024,1024,0,0,0,0,36,4.986,77.36,35.761156,P-GPS,,10.9
217,639200,2026-01-07 15:45:09,0.0,5,6.986,0.0,0.0,0.0,24.4,1.6,2.2,1024,1024,1024,1024,0,0,0,0,36,4.986,77.36,35.761156,P-GPS,,10.9
218,639300,2026-01-07 15:45:10,0.0,5,6.986,0.0,0.0,0.0,24.4,1.8,1.9,1024,1024,1024,1024,0,0,0,0,36,4.986,77.36,35.761156,P-GPS,,10.9
219,639400,2026-01-07 15:45:10,0.0,5,6.986,0.0,0.0,0.0,24.5,2.2,2.0,1024,1024,1024,1024,0,0,0,0,36,4.986,77.36,35.761156,P-GPS,,10.9
220,639500,2026-01-07 15:45:10,0.0,5,6.986,0.0,0.0,0.0,24.5,2.5,2.1,1024,1024,1024,1024,0,0,0,0,36,4.986,77.36,35.761156,P-GPS,,10.9
221,639600,2026-01-07 15:45:10,0.0,5,6.986,0.0,0.0,0.0,24.5,2.3,2.1,1024,1024,1024,1024,0,0,0,0,36,4.986,77.36,35.761156,P-GPS,,10.9
222,639700,2026-01-07 15:45:10,0.0,5,6.986,0.0,0.0,0.0,24.5,2.4,2.2,1024,1024,1024,1024,0,0,0,0,36,4.986,77.36,35.433072,P-GPS,,10.8
223,639800,2026-01-07 15:45:10,0.0,5,6.986,0.0,0.0,0.0,24.4,2.5,2.2,1024,1024,1024,1024,0,0,0,0,36,4.986,77.36,35.433072,P-GPS,,10.8
224,639900,2026-01-07 15:45:10,0.0,5,6.986,0.0,0.0,0.0,24.4,2.2,2.3,1024,1024,1024,1024,0,0,0,0,36,4.986,77.36,35.433072,P-GPS,,10.8
225,640000,2026-01-07 15:45:10,0.0,5,6.98,0.0,0.0,0.0,24.3,2.2,2.3,1024,1024,1024,1024,0,0,0,0,36,5.156,77.36,35.433072,P-GPS,,10.8
226,640100,2026-01-07 15:45:10,0.0,5,6.98,0.0,0.0,0.0,24.3,2.3,2.3,1024,1024,1024,1024,0,0,0,0,36,5.156,77.36,35.433072,P-GPS,,10.8
227,640200,2026-01-07 15:45:10,0.0,5,6.98,0.0,0.0,0.0,24.3,2.1,2.1,1024,1024,1024,1024,0,0,0,0,36,5.156,77.36,35.433072,P-GPS,,10.8
228,640300,2026-01-07 15:45:11,0.0,5,6.98,0.0,0.0,0.0,24.3,2.3,2.0,1024,1024,1024,1024,0,0,0,0,36,5.156,77.36,35.433072,P-GPS,,10.8
229,640400,2026-01-07 15:45:11,0.0,5,6.98,0.0,0.0,0.0,24.4,2.6,1.6,1024,1024,1024,1024,0,0,0,0,36,5.156,77.36,35.433072,P-GPS,,10.8
230,640500,2026-01-07 15:45:11,0.0,5,6.98,0.0,0.0,0.0,24.4,2.7,1.0,1024,1024,1024,1024,0,0,0,0,36,5.156,77.36,35.433072,P-GPS,,10.8
231,640600,2026-01-07 15:45:11,0.0,5,6.98,0.0,0.0,0.0,24.4,2.7,0.8,1024,1024,1024,1024,0,0,0,0,36,5.156,77.36,35.433072,P-GPS,,10.8
232,640700,2026-01-07 15:45:11,0.0,5,6.98,0.0,0.0,0.0,24.5,2.7,1.0,1024,1024,1024,1024,0,0,0,0,36,5.156,77.36,35.433072,P-GPS,,10.8
233,640800,2026-01-07 15:45:11,0.0,5,6.98,0.0,0.0,0.0,24.6,2.6,0.8,1024,1024,1024,1024,0,0,0,0,36,5.156,77.36,35.433072,P-GPS,,10.8
234,640900,2026-01-07 15:45:11,0.0,5,6.98,0.0,0.0,0.0,24.6,2.5,0.6,1024,1024,1024,1024,0,0,0,0,36,5.156,77.36,35.433072,P-GPS,,10.8
235,641000,2026-01-07 15:45:11,0.0,5,6.98,0.0,0.0,0.0,24.7,2.3,0.4,1024,1024,1024,1024,0,0,0,0,36,5.156,77.36,35.433072,P-GPS,,10.8
236,641100,2026-01-07 15:45:11,0.0,5,6.986,0.0,0.0,0.0,24.6,2.4,0.1,1024,1024,1024,1024,0,0,0,0,36,5.048,77.36,35.433072,P-GPS,,10.8
237,641200,2026-01-07 15:45:11,0.0,5,6.986,0.0,0.0,0.0,24.7,2.6,0.0,1024,1024,1024,1024,0,0,0,0,36,5.048,77.36,35.433072,P-GPS,,10.8
238,641300,2026-01-07 15:45:12,0.0,5,6.986,0.0,0.0,0.0,24.7,2.5,0.0,1024,1024,1024,1024,0,0,0,0,36,5.048,77.36,35.433072,P-GPS,,10.8
239,641400,2026-01-07 15:45:12,0.0,5,6.986,0.0,0.0,0.0,24.7,2.5,0.0,1024,1024,1024,1024,0,0,0,0,36,5.048,77.36,35.433072,P-GPS,,10.8
240,641500,2026-01-07 15:45:12,0.0,5,6.986,0.0,0.0,0.0,24.5,2.6,0.1,1024,1024,1024,1024,0,0,0,0,36,5.048,77.36,35.433072,P-GPS,,10.8
241,641600,2026-01-07 15:45:12,0.0,5,6.986,0.0,0.0,0.0,24.4,2.5,1.0,1024,1024,1024,1024,0,0,0,0,36,5.048,77.36,35.433072,P-GPS,,10.8
242,641700,2026-01-07 15:45:12,0.0,5,6.986,0.0,0.0,0.0,24.3,2.3,1.9,1024,1024,1024,1024,0,0,0,0,36,5.048,77.36,35.433072,P-GPS,,10.8
243,641800,2026-01-07 15:45:12,0.0,5,6.986,0.0,0.0,0.0,24.3,2.4,2.3,1024,1024,1024,1024,0,0,0,0,36,5.048,77.36,35.433072,P-GPS,,10.8
244,641900,2026-01-07 15:45:12,0.0,5,6.986,0.0,0.0,0.0,24.3,2.2,2.4,1024,1024,1024,1024,0,0,0,0,36,5.048,77.36,35.433072,P-GPS,,10.8
245,642000,2026-01-07 15:45:12,0.0,5,6.986,0.0,0.0,0.0,24.4,2.0,2.4,1024,1024,1024,1024,0,0,0,0,36,5.048,77.36,35.433072,P-GPS,,10.8
246,642100,2026-01-07 15:45:12,0.0,5,6.986,0.0,0.0,0.0,24.3,2.3,2.2,1024,1024,1024,1024,0,0,0,0,36,5.048,77.36,35.433072,P-GPS,,10.8
247,642200,2026-01-07 15:45:12,0.0,5,6.984,0.0,0.0,0.0,24.4,2.5,2.2,1024,1024,1024,1024,0,0,0,0,36,5.042,77.36,35.433072,P-GPS,,10.8
248,642300,2026-01-07 15:45:12,0.0,5,6.984,0.0,0.0,0.0,24.5,2.5,2.2,1024,1024,1024,1024,0,0,0,0,36,5.042,77.36,35.433072,P-GPS,,10.8
249,642400,2026-01-07 15:45:13,0.0,5,6.984,0.0,0.0,0.0,24.5,2.5,2.5,1024,1024,1024,1024,0,0,0,0,36,5.042,77.36,35.433072,P-GPS,,10.8
250,642500,2026-01-07 15:45:13,0.0,5,6.984,0.0,0.0,0.0,24.4,2.6,2.7,1024,1024,1024,1024,0,0,0,0,36,5.042,77.36,35.433072,P-GPS,,10.8
251,642600,2026-01-07 15:45:13,0.0,5,6.984,0.0,0.0,0.0,24.5,2.4,3.2,1024,1024,1024,1024,0,0,0,0,36,5.042,77.36,35.433072,P-GPS,,10.8
252,642700,2026-01-07 15:45:13,0.0,5,6.984,0.0,0.0,0.0,24.4,2.4,3.1,1024,1024,1024,1024,0,0,0,0,36,5.042,77.36,35.433072,P-GPS,,10.8
253,642800,2026-01-07 15:45:13,0.0,5,6.984,0.0,0.0,0.0,24.4,2.1,3.2,1024,1024,1024,1024,0,0,0,0,36,5.042,77.36,35.433072,P-GPS,,10.8
254,642900,2026-01-07 15:45:13,0.0,5,6.984,0.0,0.0,0.0,24.4,2.7,3.0,1024,1024,1024,1024,0,0,0,0,36,5.042,77.36,35.433072,P-GPS,,10.8
255,643000,2026-01-07 15:45:13,0.0,5,6.984,0.0,0.0,0.0,24.4,2.9,2.9,1024,1024,1024,1024,0,0,0,0,36,5.042,77.36,35.761156,P-GPS,,10.9
256,643100,2026-01-07 15:45:13,0.0,5,6.984,0.0,0.0,0.0,24.4,2.8,3.1,1024,1024,1024,1024,0,0,0,0,36,5.042,77.36,35.761156,P-GPS,,10.9
257,643200,2026-01-07 15:45:13,0.0,5,6.984,0.0,0.0,0.0,24.3,3.0,3.3,1024,1024,1024,1024,0,0,0,0,36,5.042,77.36,35.761156,P-GPS,,10.9
258,643300,2026-01-07 15:45:13,0.0,5,6.979,0.0,0.0,0.0,24.2,3.2,3.5,1024,1024,1024,1024,0,0,0,0,36,5.189,77.36,35.761156,P-GPS,,10.9
259,643400,2026-01-07 15:45:14,0.0,5,6.979,0.0,0.0,0.0,24.2,3.4,3.1,1024,1024,1024,1024,0,0,0,0,36,5.189,77.36,35.761156,P-GPS,,10.9
260,643500,2026-01-07 15:45:14,0.0,5,6.979,0.0,0.0,0.0,24.2,3.6,2.9,1024,1024,1024,1024,0,0,0,0,36,5.189,77.36,35.761156,P-GPS,,10.9
261,643600,2026-01-07 15:45:14,0.0,5,6.979,0.0,0.0,0.0,24.3,3.4,3.2,1024,1024,1024,1024,0,0,0,0,36,5.189,77.36,35.761156,P-GPS,,10.9
262,643700,2026-01-07 15:45:14,0.0,5,6.979,0.0,0.0,0.0,24.2,3.9,3.2,1024,1024,1024,1024,0,0,0,0,36,5.189,77.36,35.761156,P-GPS,,10.9
263,643800,2026-01-07 15:45:14,0.0,5,6.979,0.0,0.0,0.0,24.3,4.3,3.1,1024,1024,1024,1024,0,0,0,0,36,5.189,77.36,35.761156,P-GPS,,10.9
264,643900,2026-01-07 15:45:14,0.0,5,6.979,0.0,0.0,0.0,24.2,4.2,2.7,1024,1024,1024,1024,0,0,0,0,36,5.189,77.36,35.761156,P-GPS,,10.9
265,644000,2026-01-07 15:45:14,0.0,5,6.979,0.0,0.0,0.0,24.3,4.1,2.6,1024,1024,1024,1024,0,0,0,0,36,5.189,77.36,35.761156,P-GPS,,10.9
266,644100,2026-01-07 15:45:14,0.0,5,6.979,0.0,0.0,0.0,24.3,4.0,2.6,1024,1024,1024,1024,0,0,0,0,36,5.189,77.36,35.761156,P-GPS,,10.9
267,644200,2026-01-07 15:45:14,0.0,5,6.979,0.0,0.0,0.0,24.3,4.0,2.5,1024,1024,1024,1024,0,0,0,0,36,5.189,77.36,35.761156,P-GPS,,10.9
268,644300,2026-01-07 15:45:14,0.0,5,6.979,0.0,0.0,0.0,24.3,4.1,2.4,1024,1024,1024,1024,0,0,0,0,36,5.189,77.36,35.761156,P-GPS,,10.9
269,644400,2026-01-07 15:45:15,0.0,5,6.975,0.0,0.0,0.0,24.3,4.1,2.4,1024,1024,1024,1024,0,0,0,0,36,5.119,77.54,35.761156,P-GPS,,10.9
270,644500,2026-01-07 15:45:15,0.0,5,6.975,0.0,0.0,0.0,24.4,4.0,2.4,1024,1024,1024,1024,0,0,0,0,36,5.119,77.54,35.761156,P-GPS,,10.9
271,644600,2026-01-07 15:45:15,0.0,5,6.975,0.0,0.0,0.0,24.4,3.9,2.3,1024,1024,1024,1024,0,0,0,0,36,5.119,77.54,35.761156,P-GPS,,10.9
272,644700,2026-01-07 15:45:15,0.0,5,6.975,0.0,0.0,0.0,24.4,3.8,2.5,1024,1024,1024,1024,0,0,0,0,36,5.119,77.54,35.761156,P-GPS,,10.9
273,644800,2026-01-07 15:45:15,0.0,5,6.975,0.0,0.0,0.0,24.4,3.6,2.7,1024,1024,1024,1024,0,0,0,0,36,5.119,77.54,35.761156,P-GPS,,10.9
274,644900,2026-01-07 15:45:15,0.0,5,6.975,0.0,0.0,0.0,24.4,3.6,2.8,1024,1024,1024,1024,0,0,0,0,36,5.119,77.54,35.761156,P-GPS,,10.9
275,645000,2026-01-07 15:45:15,0.0,5,6.975,0.0,0.0,0.0,24.4,3.4,2.9,1024,1024,1024,1024,0,0,0,0,36,5.119,77.54,35.761156,P-GPS,,10.9
276,645100,2026-01-07 15:45:15,0.0,5,6.975,0.0,0.0,0.0,24.4,3.4,2.6,1024,1024,1024,1024,0,0,0,0,36,5.119,77.54,35.761156,P-GPS,,10.9
277,645200,2026-01-07 15:45:15,0.0,5,6.975,0.0,0.0,0.0,24.5,3.6,2.5,1024,1024,1024,1024,0,0,0,0,36,5.119,77.54,35.761156,P-GPS,,10.9
278,645300,2026-01-07 15:45:15,0.0,5,6.975,0.0,0.0,0.0,24.5,3.9,2.5,1024,1024,1024,1024,0,0,0,0,36,5.119,77.54,35.761156,P-GPS,,10.9
279,645400,2026-01-07 15:45:16,0.0,5,6.975,0.0,0.0,0.0,24.4,3.9,2.6,1024,1024,1024,1024,0,0,0,0,36,5.119,77.54,35.761156,P-GPS,,10.9
280,645500,2026-01-07 15:45:16,0.0,5,6.98,0.0,0.0,0.0,24.4,3.2,2.7,1024,1024,1024,1024,0,0,0,0,36,4.98,77.54,35.761156,P-GPS,,10.9
281,645600,2026-01-07 15:45:16,0.0,5,6.98,0.0,0.0,0.0,24.4,3.0,2.5,1024,1024,1024,1024,0,0,0,0,36,4.98,77.54,35.761156,P-GPS,,10.9
282,645700,2026-01-07 15:45:16,0.0,5,6.98,0.0,0.0,0.0,24.3,2.9,2.4,1024,1024,1024,1024,0,0,0,0,36,4.98,77.54,35.761156,P-GPS,,10.9
283,645800,2026-01-07 15:45:16,0.0,5,6.98,0.0,0.0,0.0,24.2,2.7,2.6,1024,1024,1024,1024,0,0,0,0,36,4.98,77.54,35.761156,P-GPS,,10.9
284,645900,2026-01-07 15:45:16,0.0,5,6.98,0.0,0.0,0.0,24.2,2.7,2.6,1024,1024,1024,1024,0,0,0,0,36,4.98,77.54,35.761156,P-GPS,,10.9
285,646000,2026-01-07 15:45:16,0.0,5,6.98,0.0,0.0,0.0,24.2,3.0,2.5,1024,1024,1024,1024,0,0,0,0,36,4.98,77.54,35.761156,P-GPS,,10.9
286,646100,2026-01-07 15:45:16,0.0,5,6.98,0.0,0.0,0.0,24.4,3.6,2.5,1024,1024,1024,1024,0,0,0,0,36,4.98,77.54,35.761156,P-GPS,,10.9
287,646200,2026-01-07 15:45:16,0.0,5,6.98,0.0,0.0,0.0,24.5,3.9,2.7,1024,1024,1024,1024,0,0,0,0,36,4.98,77.54,35.761156,P-GPS,,10.9
288,646300,2026-01-07 15:45:16,0.0,5,6.98,0.0,0.0,0.0,24.5,3.7,2.7,1024,1024,1024,1024,0,0,0,0,36,4.98,77.54,35.761156,P-GPS,,10.9
289,646400,2026-01-07 15:45:17,0.0,5,6.98,0.0,0.0,0.0,24.6,3.3,2.9,1024,1024,1024,1024,0,0,0,0,36,4.98,77.54,35.761156,P-GPS,,10.9
290,646500,2026-01-07 15:45:17,0.0,5,6.98,0.0,0.0,0.0,24.7,3.1,2.9,1024,1024,1024,1024,0,0,0,0,36,4.98,77.54,35.761156,P-GPS,,10.9
291,646600,2026-01-07 15:45:17,0.0,5,6.973,0.0,0.0,0.0,24.7,2.8,3.0,1024,1024,1024,1024,0,0,0,0,36,5.105,77.54,35.761156,P-GPS,,10.9
292,646700,2026-01-07 15:45:17,0.0,5,6.973,0.0,0.0,0.0,24.6,2.5,3.1,1024,1024,1024,1024,0,0,0,0,36,5.105,77.54,35.761156,P-GPS,,10.9
293,646800,2026-01-07 15:45:17,0.0,5,6.973,0.0,0.0,0.0,24.5,1.9,3.2,1024,1024,1024,1024,0,0,0,0,36,5.105,77.54,35.761156,P-GPS,,10.9
294,646900,2026-01-07 15:45:17,0.0,5,6.973,0.0,0.0,0.0,24.6,1.6,3.3,1024,1024,1024,1024,0,0,0,0,36,5.105,77.54,35.761156,P-GPS,,10.9
295,647000,2026-01-07 15:45:17,0.0,5,6.973,0.0,0.0,0.0,24.6,2.1,3.6,1024,1024,1024,1024,0,0,0,0,36,5.105,77.54,35.761156,P-GPS,,10.9
296,647100,2026-01-07 15:45:17,0.0,5,6.973,0.0,0.0,0.0,24.6,1.7,3.6,1024,1024,1024,1024,0,0,0,0,36,5.105,77.54,35.761156,P-GPS,,10.9
297,647200,2026-01-07 15:45:17,0.0,5,6.973,0.0,0.0,0.0,24.4,2.2,4.0,1024,1024,1024,1024,0,0,0,0,36,5.105,77.54,35.761156,P-GPS,,10.9
298,647300,2026-01-07 15:45:17,0.0,5,6.973,0.0,0.0,0.0,24.2,2.5,4.2,1024,1024,1024,1024,0,0,0,0,36,5.105,77.54,36.08924,P-GPS,,11.0
299,647400,2026-01-07 15:45:18,0.0,5,6.973,0.0,0.0,0.0,24.1,2.7,4.4,1024,1024,1024,1024,0,0,0,0,36,5.105,77.54,36.08924,P-GPS,,11.0
300,647500,2026-01-07 15:45:18,0.0,5,6.973,0.0,0.0,0.0,24.2,3.5,4.1,1024,1024,1024,1024,0,0,0,0,36,5.105,77.54,36.08924,P-GPS,,11.0
301,647600,2026-01-07 15:45:18,0.0,5,6.973,0.0,0.0,0.0,24.3,3.7,4.3,1024,1024,1024,1024,0,0,0,0,36,5.105,77.54,36.08924,P-GPS,,11.0
302,647700,2026-01-07 15:45:18,0.0,5,6.973,0.0,0.0,0.0,24.3,4.9,4.3,1024,1024,1024,1024,0,0,0,0,36,5.105,77.54,36.08924,P-GPS,,11.0
303,647800,2026-01-07 15:45:18,0.0,5,6.973,0.0,0.0,0.0,24.3,4.8,4.1,1024,1024,1024,1024,0,0,0,0,36,5.105,77.54,36.08924,P-GPS,,11.0
304,647900,2026-01-07 15:45:18,0.0,5,6.973,0.0,0.0,0.0,24.4,4.9,3.7,1024,1024,1024,1024,0,0,0,0,36,5.105,77.54,36.08924,P-GPS,,11.0
305,648000,2026-01-07 15:45:18,0.0,5,6.973,0.0,0.0,0.0,24.3,4.6,3.8,1024,1024,1024,1024,0,0,0,0,36,5.105,77.54,36.08924,P-GPS,,11.0
306,648100,2026-01-07 15:45:18,0.0,5,6.973,0.0,0.0,0.0,24.4,4.4,4.3,1024,1024,1024,1024,0,0,0,0,36,5.105,77.54,36.08924,P-GPS,,11.0
307,648200,2026-01-07 15:45:18,0.0,5,6.973,0.0,0.0,0.0,24.5,4.6,4.3,1024,1024,1024,1024,0,0,0,0,36,5.105,77.54,36.08924,P-GPS,,11.0
308,648300,2026-01-07 15:45:19,0.0,5,6.973,0.0,0.0,0.0,24.5,4.8,4.7,1024,1024,1024,1024,0,0,0,0,36,5.105,77.54,36.08924,P-GPS,,11.0
309,648400,2026-01-07 15:45:19,0.0,5,6.973,0.0,0.0,0.0,24.6,4.7,4.9,1024,1024,1024,1024,0,0,0,0,36,5.105,77.54,36.08924,P-GPS,,11.0
310,648500,2026-01-07 15:45:19,0.0,5,6.973,0.0,0.0,0.0,24.4,4.7,4.6,1024,1024,1024,1024,0,0,0,0,36,5.105,77.54,36.08924,P-GPS,,11.0
311,648600,2026-01-07 15:45:19,0.0,5,6.973,0.0,0.0,0.0,24.4,4.6,4.7,1024,1024,1024,1024,0,0,0,0,36,5.105,77.54,36.08924,P-GPS,,11.0
312,648700,2026-01-07 15:45:19,0.0,5,6.964,0.0,0.0,0.0,24.4,4.9,4.6,1024,1024,1024,1024,0,0,0,0,36,5.19,77.54,36.417324,P-GPS,,11.1
313,648800,2026-01-07 15:45:19,0.0,5,6.964,0.0,0.0,0.0,24.5,4.9,4.6,1024,1024,1024,1024,0,0,0,0,36,5.19,77.54,36.417324,P-GPS,,11.1
314,648900,2026-01-07 15:45:19,0.0,5,6.964,0.0,0.0,0.0,24.4,5.1,4.7,1024,1024,1024,1024,0,0,0,0,36,5.19,77.54,36.08924,P-GPS,,11.0
315,649000,2026-01-07 15:45:19,0.0,5,6.964,0.0,0.0,0.0,24.6,4.8,4.8,1024,1024,1024,1024,0,0,0,0,36,5.19,77.54,36.08924,P-GPS,,11.0
316,649100,2026-01-07 15:45:19,0.0,5,6.964,0.0,0.0,0.0,24.5,5.3,4.4,1024,1024,1024,1024,0,0,0,0,36,5.19,77.54,36.08924,P-GPS,,11.0
317,649200,2026-01-07 15:45:19,0.0,5,6.964,0.0,0.0,0.0,24.5,5.0,4.7,1024,1024,1024,1024,0,0,0,0,36,5.19,77.54,36.08924,P-GPS,,11.0
318,649300,2026-01-07 15:45:19,0.0,5,6.964,0.0,0.0,0.0,24.5,5.2,4.2,1024,1024,1024,1024,0,0,0,0,36,5.19,77.54,36.08924,P-GPS,,11.0
319,649400,2026-01-07 15:45:20,0.0,5,6.964,0.0,0.0,0.0,24.5,4.8,4.0,1024,1024,1024,1024,0,0,0,0,36,5.19,77.54,36.08924,P-GPS,,11.0
320,649500,2026-01-07 15:45:20,0.0,5,6.964,0.0,0.0,0.0,24.4,4.0,3.7,1024,1024,1024,1024,0,0,0,0,36,5.19,77.54,35.761156,P-GPS,,10.9
321,649600,2026-01-07 15:45:20,0.0,5,6.964,0.0,0.0,0.0,24.4,3.7,3.3,1024,1024,1024,1024,0,0,0,0,36,5.19,77.54,35.761156,P-GPS,,10.9
322,649700,2026-01-07 15:45:20,0.0,5,6.964,0.0,0.0,0.0,24.5,3.9,3.2,1024,1024,1024,1024,0,0,0,0,36,5.19,77.54,35.761156,P-GPS,,10.9
323,649800,2026-01-07 15:45:20,0.0,5,6.964,0.0,0.0,0.0,24.5,3.8,2.9,1024,1024,1024,1024,0,0,0,0,36,5.19,77.54,35.433072,P-GPS,,10.8
324,649900,2026-01-07 15:45:20,0.0,5,6.964,0.0,0.0,0.0,24.4,3.6,2.9,1024,1024,1024,1024,0,0,0,0,36,5.19,77.54,35.433072,P-GPS,,10.8
325,650000,2026-01-07 15:45:20,0.0,5,6.964,0.0,0.0,0.0,24.5,3.5,3.0,1024,1024,1024,1024,0,0,0,0,36,5.19,77.54,35.433072,P-GPS,,10.8
326,650100,2026-01-07 15:45:20,0.0,5,6.964,0.0,0.0,0.0,24.6,3.5,2.8,1024,1024,1024,1024,0,0,0,0,36,5.19,77.54,35.104988,P-GPS,,10.7
327,650200,2026-01-07 15:45:20,0.0,5,6.964,0.0,0.0,0.0,24.6,4.6,2.5,1024,1024,1024,1024,0,0,0,0,36,5.19,77.54,35.104988,P-GPS,,10.7
328,650300,2026-01-07 15:45:21,0.0,5,6.964,0.0,0.0,0.0,24.6,4.4,2.2,1024,1024,1024,1024,0,0,0,0,35,5.19,77.54,35.104988,P-GPS,,10.7
329,650400,2026-01-07 15:45:21,0.0,5,6.964,0.0,0.0,0.0,24.5,4.1,2.3,1024,1024,1024,1024,0,0,0,0,35,5.19,77.54,35.104988,P-GPS,,10.7
330,650500,2026-01-07 15:45:21,0.0,5,6.964,0.0,0.0,0.0,24.5,3.8,2.4,1024,1024,1024,1024,0,0,0,0,35,5.19,77.54,35.104988,P-GPS,,10.7
331,650600,2026-01-07 15:45:21,0.0,5,6.953,0.0,0.0,0.0,24.5,3.9,2.8,1024,1024,1024,1024,0,0,0,0,35,5.34,77.54,34.776904,P-GPS,,10.6
332,650700,2026-01-07 15:45:21,0.0,5,6.953,0.0,0.0,0.0,24.4,4.5,2.9,1024,1024,1024,1024,0,0,0,0,35,5.34,77.54,34.776904,P-GPS,,10.6
333,650800,2026-01-07 15:45:21,0.0,5,6.953,0.0,0.0,0.0,24.5,4.4,3.2,1024,1024,1024,1024,0,0,0,0,35,5.34,77.54,34.776904,P-GPS,,10.6
334,650900,2026-01-07 15:45:21,0.0,5,6.953,0.0,0.0,0.0,24.5,4.3,3.4,1024,1024,1024,1024,0,0,0,0,35,5.34,77.54,34.776904,P-GPS,,10.6
335,651000,2026-01-07 15:45:21,0.0,5,6.953,0.0,0.0,0.0,24.5,4.3,3.7,1024,1024,1024,1024,0,0,0,0,35,5.34,77.54,34.776904,P-GPS,,10.6
336,651100,2026-01-07 15:45:21,0.0,5,6.953,0.0,0.0,0.0,24.6,4.3,3.4,1024,1024,1024,1024,0,0,0,0,35,5.34,77.54,34.776904,P-GPS,,10.6
337,651200,2026-01-07 15:45:21,0.0,5,6.953,0.0,0.0,0.0,24.6,4.1,3.4,1024,1024,1024,1024,0,0,0,0,35,5.34,77.54,34.776904,P-GPS,,10.6
338,651300,2026-01-07 15:45:21,0.0,5,6.953,0.0,0.0,0.0,24.5,3.9,3.5,1024,1024,1024,1024,0,0,0,0,35,5.34,77.54,34.776904,P-GPS,,10.6
339,651400,2026-01-07 15:45:22,0.0,5,6.953,0.0,0.0,0.0,24.5,3.6,3.4,1024,1024,1024,1024,0,0,0,0,35,5.34,77.54,34.776904,P-GPS,,10.6
340,651500,2026-01-07 15:45:22,0.0,5,6.953,0.0,0.0,0.0,24.5,3.6,3.5,1024,1024,1024,1024,0,0,0,0,35,5.34,77.54,34.776904,P-GPS,,10.6
341,651600,2026-01-07 15:45:22,0.0,5,6.957,0.0,0.0,0.0,24.6,4.1,3.6,1024,1024,1024,1024,0,0,0,0,35,5.375,77.54,34.776904,P-GPS,,10.6
342,651700,2026-01-07 15:45:22,0.0,5,6.957,0.0,0.0,0.0,24.5,3.8,3.5,1024,1024,1024,1024,0,0,0,0,35,5.375,77.54,34.776904,P-GPS,,10.6
343,651800,2026-01-07 15:45:22,0.0,5,6.957,0.0,0.0,0.0,24.5,3.3,3.6,1024,1024,1024,1024,0,0,0,0,35,5.375,77.54,34.776904,P-GPS,,10.6
344,651900,2026-01-07 15:45:22,0.0,5,6.957,0.0,0.0,0.0,24.5,3.4,3.5,1024,1024,1024,1024,0,0,0,0,35,5.375,77.54,34.776904,P-GPS,,10.6
345,652000,2026-01-07 15:45:22,0.0,5,6.957,0.0,0.0,0.0,24.6,3.1,3.6,1024,1024,1024,1024,0,0,0,0,35,5.375,77.54,34.776904,P-GPS,,10.6
346,652100,2026-01-07 15:45:22,0.0,5,6.957,0.0,0.0,0.0,24.6,2.9,3.5,1024,1024,1024,1024,0,0,0,0,35,5.375,77.54,34.776904,P-GPS,,10.6
347,652200,2026-01-07 15:45:22,0.0,5,6.957,0.0,0.0,0.0,24.4,3.2,3.2,1024,1024,1024,1024,0,0,0,0,35,5.375,77.54,34.44882,P-GPS,,10.5
348,652300,2026-01-07 15:45:22,0.0,5,6.957,0.0,0.0,0.0,24.4,2.9,3.2,1024,1024,1024,1024,0,0,0,0,35,5.375,77.54,34.44882,P-GPS,,10.5
349,652400,2026-01-07 15:45:23,0.0,5,6.957,0.0,0.0,0.0,24.4,3.0,3.2,1024,1024,1024,1024,0,0,0,0,35,5.375,77.54,34.44882,P-GPS,,10.5
350,652500,2026-01-07 15:45:23,0.0,5,6.957,0.0,0.0,0.0,24.4,3.4,3.3,1024,1024,1024,1024,0,0,0,0,35,5.375,77.54,34.44882,P-GPS,,10.5
351,652600,2026-01-07 15:45:23,0.0,5,6.952,0.0,0.0,0.0,24.5,3.6,3.2,1024,1024,1024,1024,0,0,0,0,35,5.295,77.72,34.44882,P-GPS,,10.5
352,652700,2026-01-07 15:45:23,0.0,5,6.952,0.0,0.0,0.0,24.5,3.8,3.3,1024,1024,1024,1024,0,0,0,0,35,5.295,77.72,34.44882,P-GPS,,10.5
353,652800,2026-01-07 15:45:23,0.0,5,6.952,0.0,0.0,0.0,24.5,4.0,3.3,1024,1024,1024,1024,0,0,0,0,35,5.295,77.72,34.44882,P-GPS,,10.5
354,652900,2026-01-07 15:45:23,0.0,5,6.952,0.0,0.0,0.0,24.4,3.9,3.3,1024,1024,1024,1024,0,0,0,0,35,5.295,77.72,34.44882,P-GPS,,10.5
355,653000,2026-01-07 15:45:23,0.0,5,6.952,0.0,0.0,0.0,24.4,3.9,3.4,1024,1024,1024,1024,0,0,0,0,35,5.295,77.72,34.44882,P-GPS,,10.5
356,653100,2026-01-07 15:45:23,0.0,5,6.952,0.0,0.0,0.0,24.4,3.9,3.6,1024,1024,1024,1024,0,0,0,0,35,5.295,77.72,34.44882,P-GPS,,10.5
357,653200,2026-01-07 15:45:23,0.0,5,6.952,0.0,0.0,0.0,24.4,4.3,3.6,1024,1024,1024,1024,0,0,0,0,35,5.295,77.72,34.44882,P-GPS,,10.5
358,653300,2026-01-07 15:45:24,0.0,5,6.952,0.0,0.0,0.0,24.4,4.3,3.6,1024,1024,1024,1024,0,0,0,0,35,5.295,77.72,34.776904,P-GPS,,10.6
359,653400,2026-01-07 15:45:24,0.0,5,6.952,0.0,0.0,0.0,24.4,4.6,3.7,1024,1024,1024,1024,0,0,0,0,35,5.295,77.72,34.776904,P-GPS,,10.6
360,653500,2026-01-07 15:45:24,0.0,5,6.952,0.0,0.0,0.0,24.5,4.9,4.1,1024,1024,1024,1024,0,0,0,0,35,5.295,77.72,34.776904,P-GPS,,10.6
361,653600,2026-01-07 15:45:24,0.0,5,6.949,0.0,0.0,0.0,24.5,4.8,4.1,1024,1024,1024,1024,0,0,0,0,35,5.325,77.72,34.776904,P-GPS,,10.6
362,653700,2026-01-07 15:45:24,0.0,5,6.949,0.0,0.0,0.0,24.4,5.1,3.9,1024,1024,1024,1024,0,0,0,0,35,5.325,77.72,34.776904,P-GPS,,10.6
363,653800,2026-01-07 15:45:24,0.0,5,6.949,0.0,0.0,0.0,24.4,5.1,3.8,1024,1024,1024,1024,0,0,0,0,35,5.325,77.72,34.776904,P-GPS,,10.6
364,653900,2026-01-07 15:45:24,0.0,5,6.949,0.0,0.0,0.0,24.5,4.9,4.4,1024,1024,1024,1024,0,0,0,0,35,5.325,77.72,34.776904,P-GPS,,10.6
365,654000,2026-01-07 15:45:24,0.0,5,6.949,0.0,0.0,0.0,24.5,4.8,4.5,1024,1024,1024,1024,0,0,0,0,35,5.325,77.72,34.776904,P-GPS,,10.6
366,654100,2026-01-07 15:45:24,0.0,5,6.949,0.0,0.0,0.0,24.5,4.9,4.4,1024,1024,1024,1024,0,0,0,0,35,5.325,77.72,34.776904,P-GPS,,10.6
367,654200,2026-01-07 15:45:24,0.0,5,6.949,0.0,0.0,0.0,24.5,4.9,4.5,1024,1024,1024,1024,0,0,0,0,35,5.325,77.72,34.776904,P-GPS,,10.6
368,654300,2026-01-07 15:45:24,0.0,5,6.949,0.0,0.0,0.0,24.4,5.0,4.3,1024,1024,1024,1024,0,0,0,0,35,5.325,77.72,34.776904,P-GPS,,10.6
369,654400,2026-01-07 15:45:25,0.0,5,6.949,0.0,0.0,0.0,24.5,4.9,4.1,1024,1024,1024,1024,0,0,0,0,35,5.325,77.72,34.776904,P-GPS,,10.6
370,654500,2026-01-07 15:45:25,0.0,5,6.949,0.0,0.0,0.0,24.4,4.9,4.0,1024,1024,1024,1024,0,0,0,0,35,5.325,77.72,34.776904,P-GPS,,10.6
371,654600,2026-01-07 15:45:25,0.0,5,6.952,0.0,0.0,0.0,24.4,4.9,4.0,1024,1024,1024,1024,0,0,0,0,35,5.284,77.72,34.776904,P-GPS,,10.6
372,654700,2026-01-07 15:45:25,0.0,5,6.952,0.0,0.0,0.0,24.4,4.9,3.7,1024,1024,1024,1024,0,0,0,0,35,5.284,77.72,34.776904,P-GPS,,10.6
373,654800,2026-01-07 15:45:25,0.0,5,6.952,0.0,0.0,0.0,24.5,5.1,3.6,1024,1024,1024,1024,0,0,0,0,35,5.284,77.72,34.776904,P-GPS,,10.6
374,654900,2026-01-07 15:45:25,0.0,5,6.952,0.0,0.0,0.0,24.4,5.2,3.3,1024,1024,1024,1024,0,0,0,0,35,5.284,77.72,34.776904,P-GPS,,10.6
375,655000,2026-01-07 15:45:25,0.0,5,6.952,0.0,0.0,0.0,24.4,4.7,3.5,1024,1024,1024,1024,0,0,0,0,35,5.284,77.72,34.776904,P-GPS,,10.6
376,655100,2026-01-07 15:45:25,0.0,5,6.952,0.0,0.0,0.0,24.4,4.7,3.8,1024,1024,1024,1024,0,0,0,0,35,5.284,77.72,34.776904,P-GPS,,10.6
377,655200,2026-01-07 15:45:25,0.0,5,6.952,0.0,0.0,0.0,24.4,5.0,3.8,1024,1024,1024,1024,0,0,0,0,35,5.284,77.72,34.776904,P-GPS,,10.6
