time(millisecond),timestamp,speed(mph),gpslevel,voltage(v),xSpeed(mph),ySpeed(mph),zSpeed(mph),compass_heading(degrees),pitch(degrees),roll(degrees),rc_elevator,rc_aileron,rc_throttle,rc_rudder,rc_elevator(percent),rc_aileron(percent),rc_throttle(percent),rc_rudder(percent),battery_percent,current(A),battery_temperature(f),ascent(feet),flycState,message,height_above_takeoff(meters)
60500,2026-01-07 12:29:01,0.0,5,7.686,0.0,0.0,-4.47388,356.0,7.3,-2.2,1024,1024,1684,1024,0,0,100,0,91,5.9,67.64,158.136488,P-GPS,,48.2
60600,2026-01-07 12:29:01,0.0,5,7.686,0.0,0.0,-4.250186,355.9,7.0,-2.2,1024,1024,1684,1024,0,0,100,0,91,5.9,67.64,158.792656,P-GPS,,48.4
60700,2026-01-07 12:29:01,0.0,5,7.686,0.0,0.0,-4.250186,355.9,7.0,-1.3,1024,1024,1684,1024,0,0,100,0,91,5.9,67.64,159.448824,P-GPS,,48.6
60800,2026-01-07 12:29:01,0.0,5,7.686,0.0,0.0,-4.250186,356.0,6.3,-1.0,1024,1024,1684,1024,0,0,100,0,91,5.9,67.64,160.104992,P-GPS,,48.8
60900,2026-01-07 12:29:01,0.0,5,7.686,0.0,0.0,-4.250186,356.1,6.0,-0.5,1024,1024,1684,1024,0,0,100,0,91,5.9,67.64,160.76116,P-GPS,,49.0
61000,2026-01-07 12:29:02,0.0,5,7.686,0.0,0.0,-4.250186,356.1,6.4,-0.4,1024,1024,1684,1024,0,0,100,0,91,5.9,67.64,161.417328,P-GPS,,49.2
61100,2026-01-07 12:29:02,0.0,5,7.686,0.0,0.0,-4.250186,356.1,6.7,-0.7,1024,1024,1381,1024,0,0,54,0,91,5.9,67.64,162.073496,P-GPS,,49.4
61200,2026-01-07 12:29:02,0.0,5,7.686,0.0,0.0,-4.250186,356.1,7.3,-0.7,1024,1024,1024,1024,0,0,0,0,91,5.9,67.64,162.729664,P-GPS,,49.6
61300,2026-01-07 12:29:02,0.0,5,7.686,0.0,0.0,-4.250186,356.1,7.1,-0.9,1024,1024,1024,1024,0,0,0,0,91,5.9,67.64,163.385832,P-GPS,,49.8
61400,2026-01-07 12:29:02,0.0,5,7.686,0.0,0.0,-4.250186,356.0,6.9,-0.7,1024,1024,1024,1024,0,0,0,0,91,5.9,67.64,164.042,P-GPS,,50.0
61500,2026-01-07 12:29:02,0.0,5,7.655,0.0,0.0,-3.802798,356.1,6.8,-0.2,1024,1024,1024,1024,0,0,0,0,91,5.737,67.64,164.698168,P-GPS,,50.2
61600,2026-01-07 12:29:02,0.0,5,7.655,0.0,0.0,-3.131716,356.1,6.8,0.0,1024,1024,1024,1024,0,0,0,0,91,5.737,67.64,165.354336,P-GPS,,50.4
61700,2026-01-07 12:29:02,0.0,5,7.655,0.0,0.0,-2.460634,356.1,7.1,0.1,1024,1024,1024,1024,0,0,0,0,91,5.737,67.64,165.68242,P-GPS,,50.5
61800,2026-01-07 12:29:02,0.0,5,7.655,0.0,0.0,-1.565858,356.1,7.3,0.2,1024,1024,1024,1024,0,0,0,0,91,5.737,67.64,166.010504,P-GPS,,50.6
61900,2026-01-07 12:29:02,0.0,5,7.655,0.0,0.0,-0.894776,356.1,7.5,0.1,1024,1024,1024,1024,0,0,0,0,91,5.737,67.64,166.010504,P-GPS,,50.6
62000,2026-01-07 12:29:02,0.0,5,7.655,0.0,0.0,-0.447388,356.1,7.8,0.1,1024,1024,1024,1024,0,0,0,0,91,5.737,67.64,166.010504,P-GPS,,50.6
62100,2026-01-07 12:29:03,0.0,5,7.655,0.0,0.0,-0.223694,356.1,7.6,0.1,1024,1024,1024,1024,0,0,0,0,91,5.737,67.64,166.338588,P-GPS,,50.7
62200,2026-01-07 12:29:03,0.0,5,7.655,0.0,0.0,0.0,356.1,7.6,-0.1,1024,1024,1024,1024,0,0,0,0,91,5.737,67.64,166.338588,P-GPS,,50.7
62300,2026-01-07 12:29:03,0.0,5,7.655,0.0,0.0,0.0,356.1,7.1,-0.1,1024,1024,1024,1024,0,0,0,0,91,5.737,67.64,166.338588,P-GPS,,50.7
62400,2026-01-07 12:29:03,0.0,5,7.655,0.0,0.0,0.0,356.1,6.7,-0.1,1024,1024,1024,1024,0,0,0,0,91,5.737,67.64,166.338588,P-GPS,,50.7
62500,2026-01-07 12:29:03,0.0,5,7.655,0.0,0.0,0.0,356.1,6.4,0.0,1024,1024,1024,1024,0,0,0,0,91,5.737,67.64,166.338588,P-GPS,,50.7
62600,2026-01-07 12:29:03,0.0,5,7.753,0.0,0.0,0.0,356.1,6.3,0.0,1024,1024,1024,1024,0,0,0,0,90,4.13,67.64,166.338588,P-GPS,,50.7
62700,2026-01-07 12:29:03,0.0,5,7.753,0.0,0.0,0.0,356.1,6.2,0.2,1024,1024,1024,1024,0,0,0,0,90,4.13,67.64,166.338588,P-GPS,,50.7
62800,2026-01-07 12:29:03,0.0,5,7.753,0.0,0.0,0.0,356.1,6.2,0.4,1024,1024,1024,1024,0,0,0,0,90,4.13,67.64,166.338588,P-GPS,,50.7
62900,2026-01-07 12:29:03,0.0,5,7.753,0.0,0.0,0.0,356.1,6.2,0.3,1024,1024,1024,1024,0,0,0,0,90,4.13,67.64,166.338588,P-GPS,,50.7
63000,2026-01-07 12:29:03,0.0,5,7.753,0.0,0.0,0.0,356.1,6.4,0.1,1024,1024,1024,1024,0,0,0,0,90,4.13,67.64,166.338588,P-GPS,,50.7
63100,2026-01-07 12:29:04,0.0,5,7.753,0.0,0.0,0.0,356.1,6.6,-0.3,1024,1024,1024,1024,0,0,0,0,90,4.13,67.64,166.338588,P-GPS,,50.7
63200,2026-01-07 12:29:04,0.0,5,7.753,0.0,0.0,0.0,356.0,6.6,-0.5,1024,1024,1024,1024,0,0,0,0,90,4.13,67.64,166.338588,P-GPS,,50.7
63300,2026-01-07 12:29:04,0.0,5,7.753,0.0,0.0,0.0,356.0,6.8,-0.6,1024,1024,1024,1024,0,0,0,0,90,4.13,67.64,166.338588,P-GPS,,50.7
63400,2026-01-07 12:29:04,0.0,5,7.753,0.0,0.0,0.0,356.1,6.7,-0.4,1024,1024,1024,1024,0,0,0,0,90,4.13,67.64,166.338588,P-GPS,,50.7
63500,2026-01-07 12:29:04,0.0,5,7.753,0.0,0.0,0.0,356.1,6.9,-0.6,1024,1024,1024,1024,0,0,0,0,90,4.13,67.64,166.338588,P-GPS,,50.7
63600,2026-01-07 12:29:04,0.0,5,7.753,0.0,0.0,0.0,356.1,7.1,-0.6,1024,1024,1024,1024,0,0,0,0,90,4.13,67.64,166.338588,P-GPS,,50.7
63700,2026-01-07 12:29:04,0.0,5,7.757,0.0,0.0,0.0,356.1,7.9,-0.9,1024,1024,1024,1024,0,0,0,0,90,4.591,67.82,166.338588,P-GPS,,50.7
63800,2026-01-07 12:29:04,0.0,5,7.757,0.0,0.0,0.0,356.1,7.8,-1.1,1024,1024,1024,1024,0,0,0,0,90,4.591,67.82,166.010504,P-GPS,,50.6
63900,2026-01-07 12:29:04,0.0,5,7.757,0.0,0.0,0.0,356.1,8.0,-1.2,1024,1024,1024,1024,0,0,0,0,90,4.591,67.82,166.010504,P-GPS,,50.6
64000,2026-01-07 12:29:05,0.0,5,7.757,0.0,0.0,0.0,356.1,8.0,-1.2,1024,1024,1024,1024,0,0,0,0,90,4.591,67.82,166.010504,P-GPS,,50.6
64100,2026-01-07 12:29:05,0.0,5,7.757,0.0,0.0,0.0,356.1,8.2,-1.5,1024,1024,1024,1024,0,0,0,0,90,4.591,67.82,166.010504,P-GPS,,50.6
64200,2026-01-07 12:29:05,0.0,5,7.757,0.0,0.0,0.0,356.1,8.1,-1.3,1024,1024,1024,1024,0,0,0,0,90,4.591,67.82,166.010504,P-GPS,,50.6
64300,2026-01-07 12:29:05,0.0,5,7.757,0.0,0.0,0.0,356.0,7.8,-1.1,1024,1024,1024,1024,0,0,0,0,90,4.591,67.82,166.010504,P-GPS,,50.6
64400,2026-01-07 12:29:05,0.0,5,7.757,0.0,0.0,0.0,356.0,7.7,-0.7,1024,1024,1024,1024,0,0,0,0,90,4.591,67.82,166.010504,P-GPS,,50.6
64500,2026-01-07 12:29:05,0.0,5,7.757,0.0,0.0,0.0,356.1,7.9,0.0,1024,1024,1024,1024,0,0,0,0,90,4.591,67.82,166.010504,P-GPS,,50.6
64600,2026-01-07 12:29:05,0.0,5,7.757,0.0,0.0,0.0,356.1,7.8,-0.5,1024,1024,1024,1024,0,0,0,0,90,4.591,67.82,166.010504,P-GPS,,50.6
64700,2026-01-07 12:29:05,0.0,5,7.757,0.0,0.0,0.0,356.1,7.4,-1.0,1024,1024,1024,1024,0,0,0,0,90,4.591,67.82,166.010504,P-GPS,,50.6
64800,2026-01-07 12:29:05,0.0,5,7.752,0.0,0.0,0.0,356.1,7.1,-1.0,1024,1024,1024,1024,0,0,0,0,90,4.683,67.82,166.010504,P-GPS,,50.6
64900,2026-01-07 12:29:05,0.0,5,7.752,0.0,0.0,0.0,356.1,6.7,-0.5,1024,1024,1024,1024,0,0,0,0,90,4.683,67.82,166.010504,P-GPS,,50.6
65000,2026-01-07 12:29:05,0.0,5,7.752,0.0,0.0,0.0,356.2,6.8,-0.4,1024,1024,1024,1024,0,0,0,0,90,4.683,67.82,166.010504,P-GPS,,50.6
65100,2026-01-07 12:29:06,0.0,5,7.752,0.0,0.0,0.0,356.3,7.2,-0.5,1024,1024,1024,1024,0,0,0,0,90,4.683,67.82,166.010504,P-GPS,,50.6
65200,2026-01-07 12:29:06,0.0,5,7.752,0.0,0.0,0.0,356.3,7.1,-0.5,1024,1024,1024,1024,0,0,0,0,90,4.683,67.82,166.010504,P-GPS,,50.6
65300,2026-01-07 12:29:06,0.0,5,7.752,0.0,0.0,0.0,356.3,7.3,-1.0,1024,1024,1024,1024,0,0,0,0,90,4.683,67.82,166.010504,P-GPS,,50.6
65400,2026-01-07 12:29:06,0.0,5,7.752,0.0,0.0,0.0,356.2,7.3,-1.3,1024,1024,1024,1024,0,0,0,0,90,4.683,67.82,166.010504,P-GPS,,50.6
65500,2026-01-07 12:29:06,0.0,5,7.752,0.0,0.0,0.0,356.2,7.1,-1.5,1024,1024,1024,1024,0,0,0,0,90,4.683,67.82,166.010504,P-GPS,,50.6
65600,2026-01-07 12:29:06,0.0,5,7.752,0.0,0.0,0.0,356.3,7.6,-1.5,1024,1024,1024,1024,0,0,0,0,90,4.683,67.82,166.010504,P-GPS,,50.6
65700,2026-01-07 12:29:06,0.0,5,7.752,0.0,0.0,0.0,356.3,7.6,-1.6,1024,1024,1024,1024,0,0,0,0,90,4.683,67.82,165.68242,P-GPS,,50.5
65800,2026-01-07 12:29:06,0.0,5,7.752,0.0,0.0,0.0,356.3,7.5,-1.7,1024,1024,1024,1024,0,0,0,0,90,4.683,67.82,165.68242,P-GPS,,50.5
65900,2026-01-07 12:29:06,0.0,5,7.775,0.0,0.0,0.0,356.2,7.5,-1.9,1024,1024,1024,1024,0,0,0,0,90,4.483,67.82,165.68242,P-GPS,,50.5
66000,2026-01-07 12:29:07,0.0,5,7.775,0.0,0.0,0.0,356.2,7.5,-1.4,1024,1024,1024,1024,0,0,0,0,90,4.483,67.82,165.68242,P-GPS,,50.5
66100,2026-01-07 12:29:07,0.0,5,7.775,0.0,0.0,0.0,356.4,7.0,-1.2,1024,1024,1024,1024,0,0,0,0,90,4.483,67.82,165.68242,P-GPS,,50.5
66200,2026-01-07 12:29:07,0.0,5,7.775,0.0,0.0,0.0,356.3,6.9,-1.7,1024,1024,1024,1024,0,0,0,0,90,4.483,67.82,165.68242,P-GPS,,50.5
66300,2026-01-07 12:29:07,0.0,5,7.775,0.0,0.0,0.0,356.2,7.2,-2.4,1024,1024,1024,1024,0,0,0,0,90,4.483,67.82,165.354336,P-GPS,,50.4
66400,2026-01-07 12:29:07,0.0,5,7.775,0.0,0.0,0.0,356.2,7.3,-2.7,1024,1024,1024,1024,0,0,0,0,90,4.483,67.82,165.354336,P-GPS,,50.4
66500,2026-01-07 12:29:07,0.0,5,7.775,0.0,0.0,0.0,356.2,7.5,-2.9,1024,1024,1024,1024,0,0,0,0,90,4.483,67.82,165.354336,P-GPS,,50.4
66600,2026-01-07 12:29:07,0.0,5,7.775,0.0,0.0,0.0,356.2,7.6,-2.8,1024,1024,1024,1024,0,0,0,0,90,4.483,67.82,165.354336,P-GPS,,50.4
66700,2026-01-07 12:29:07,0.0,5,7.775,0.0,0.0,0.0,356.1,7.2,-2.7,1024,1024,1024,1024,0,0,0,0,90,4.483,67.82,165.354336,P-GPS,,50.4
66800,2026-01-07 12:29:07,0.0,5,7.775,0.0,0.0,0.0,356.1,7.3,-2.3,1024,1024,1024,1024,0,0,0,0,90,4.483,67.82,165.354336,P-GPS,,50.4
66900,2026-01-07 12:29:07,0.0,5,7.775,0.0,0.0,0.0,356.1,7.1,-2.3,1024,1024,1024,1024,0,0,0,0,90,4.483,67.82,165.354336,P-GPS,,50.4
67000,2026-01-07 12:29:07,0.0,5,7.775,0.0,0.0,0.0,356.1,7.2,-2.2,1024,1024,1024,1024,0,0,0,0,90,4.483,67.82,165.354336,P-GPS,,50.4
67100,2026-01-07 12:29:08,0.0,5,7.775,0.0,0.0,0.0,356.1,7.2,-1.7,1024,1024,1024,1024,0,0,0,0,90,4.483,67.82,165.354336,P-GPS,,50.4
67200,2026-01-07 12:29:08,0.0,5,7.775,0.0,0.0,0.0,356.1,7.3,-1.6,1024,1024,1024,1024,0,0,0,0,90,4.483,67.82,165.354336,P-GPS,,50.4
67300,2026-01-07 12:29:08,0.0,5,7.775,0.0,0.0,0.0,356.1,7.5,-1.3,1024,1024,1024,1024,0,0,0,0,90,4.483,67.82,165.354336,P-GPS,,50.4
67400,2026-01-07 12:29:08,0.0,5,7.775,0.0,0.0,0.0,356.2,7.6,-1.2,1024,1024,1024,1024,0,0,0,0,90,4.483,67.82,165.68242,P-GPS,,50.5
67500,2026-01-07 12:29:08,0.0,5,7.775,0.0,0.0,0.0,356.2,7.4,-1.3,1024,1024,1024,1024,0,0,0,0,90,4.483,67.82,165.68242,P-GPS,,50.5
67600,2026-01-07 12:29:08,0.0,5,7.775,0.0,0.0,0.0,356.1,7.3,-1.3,1024,1024,1024,1024,0,0,0,0,90,4.483,67.82,165.68242,P-GPS,,50.5
67700,2026-01-07 12:29:08,0.0,5,7.775,0.0,0.0,0.0,356.0,7.4,-1.4,1024,1024,1024,1024,0,0,0,0,90,4.483,67.82,165.68242,P-GPS,,50.5
67800,2026-01-07 12:29:08,0.0,5,7.775,0.0,0.0,0.0,356.0,7.3,-1.3,1024,1024,1024,1024,0,0,0,0,90,4.483,67.82,165.68242,P-GPS,,50.5
67900,2026-01-07 12:29:08,0.0,5,7.775,0.0,0.0,0.0,356.1,7.0,-1.4,1024,1024,1024,1024,0,0,0,0,90,4.483,67.82,165.68242,P-GPS,,50.5
68000,2026-01-07 12:29:09,0.0,5,7.775,0.0,0.0,0.0,356.1,7.3,-1.9,1024,1024,1024,1024,0,0,0,0,90,4.483,67.82,165.68242,P-GPS,,50.5
68100,2026-01-07 12:29:09,0.0,5,7.762,0.0,0.0,0.0,356.0,7.2,-2.0,1024,1024,1024,1024,0,0,0,0,90,4.347,67.82,165.68242,P-GPS,,50.5
68200,2026-01-07 12:29:09,0.0,5,7.762,0.0,0.0,0.0,356.1,7.0,-2.1,1024,1024,1024,1024,0,0,0,0,90,4.347,67.82,165.68242,P-GPS,,50.5
68300,2026-01-07 12:29:09,0.0,5,7.762,0.0,0.0,0.0,356.1,6.8,-2.4,1024,1024,1024,1024,0,0,0,0,90,4.347,67.82,165.68242,P-GPS,,50.5
68400,2026-01-07 12:29:09,0.0,5,7.762,0.0,0.0,0.0,356.1,6.2,-2.2,1024,1024,1024,1024,0,0,0,0,90,4.347,67.82,165.68242,P-GPS,,50.5
68500,2026-01-07 12:29:09,0.0,5,7.762,0.0,0.0,0.0,356.1,6.1,-2.2,1024,1024,1024,1024,0,0,0,0,90,4.347,67.82,165.68242,P-GPS,,50.5
68600,2026-01-07 12:29:09,0.0,5,7.762,0.0,0.0,0.0,356.1,6.9,-2.0,1024,1024,1024,1024,0,0,0,0,90,4.347,67.82,165.354336,P-GPS,,50.4
68700,2026-01-07 12:29:09,0.0,5,7.762,0.0,0.0,0.0,356.2,6.8,-2.4,1024,1024,1024,1024,0,0,0,0,90,4.347,67.82,165.354336,P-GPS,,50.4
68800,2026-01-07 12:29:09,0.0,5,7.762,0.0,0.0,0.0,356.1,6.9,-2.8,1024,1024,1024,1024,0,0,0,0,90,4.347,67.82,165.354336,P-GPS,,50.4
68900,2026-01-07 12:29:09,0.0,5,7.762,0.0,0.0,0.0,356.1,7.0,-2.6,1024,1024,1024,1024,0,0,0,0,90,4.347,67.82,165.354336,P-GPS,,50.4
69000,2026-01-07 12:29:09,0.0,5,7.762,0.0,0.0,0.0,356.1,7.4,-2.7,1024,1024,1024,1024,0,0,0,0,90,4.347,67.82,165.026252,P-GPS,,50.3
69100,2026-01-07 12:29:10,0.0,5,7.762,0.0,0.0,0.0,356.1,6.6,-2.5,1024,1024,1024,1024,0,0,0,0,90,4.347,67.82,165.026252,P-GPS,,50.3
69200,2026-01-07 12:29:10,0.0,5,7.762,0.0,0.0,0.0,356.0,7.3,-2.8,1024,1024,1024,1024,0,0,0,0,90,4.347,67.82,165.026252,P-GPS,,50.3
69300,2026-01-07 12:29:10,0.0,5,7.789,0.0,0.0,0.0,356.1,7.2,-2.3,1024,1024,1024,1024,0,0,0,0,90,4.054,67.82,165.026252,P-GPS,,50.3
69400,2026-01-07 12:29:10,0.0,5,7.789,0.0,0.0,0.0,356.0,7.2,-2.0,1024,1024,1024,1024,0,0,0,0,90,4.054,67.82,165.026252,P-GPS,,50.3
69500,2026-01-07 12:29:10,0.0,5,7.789,0.0,0.0,0.0,356.0,7.2,-2.1,1024,1024,1024,1024,0,0,0,0,90,4.054,67.82,165.026252,P-GPS,,50.3
69600,2026-01-07 12:29:10,0.0,5,7.789,0.0,0.0,0.0,355.9,7.3,-2.2,1024,1024,1024,1024,0,0,0,0,90,4.054,67.82,165.026252,P-GPS,,50.3
69700,2026-01-07 12:29:10,0.0,5,7.789,0.0,0.0,0.0,356.1,6.7,-1.1,1024,1024,1024,1024,0,0,0,0,90,4.054,67.82,165.026252,P-GPS,,50.3
69800,2026-01-07 12:29:10,0.0,5,7.789,0.0,0.0,0.0,356.2,7.2,-1.7,1024,1024,1024,1024,0,0,0,0,90,4.054,67.82,165.026252,P-GPS,,50.3
69900,2026-01-07 12:29:10,0.0,5,7.789,0.0,0.0,0.0,356.1,7.6,-2.4,1024,1024,1024,1024,0,0,0,0,90,4.054,67.82,165.026252,P-GPS,,50.3
70000,2026-01-07 12:29:11,0.0,5,7.789,0.0,0.0,0.0,356.1,7.7,-2.4,1024,1024,1024,1024,0,0,0,0,90,4.054,67.82,165.026252,P-GPS,,50.3
70100,2026-01-07 12:29:11,0.0,5,7.789,0.0,0.0,0.0,356.2,7.3,-2.5,1024,1024,1024,1024,0,0,0,0,90,4.054,67.82,165.026252,P-GPS,,50.3
70200,2026-01-07 12:29:11,0.0,5,7.789,0.0,0.0,0.0,356.1,7.0,-2.6,1024,1024,1024,1024,0,0,0,0,90,4.054,67.82,165.026252,P-GPS,,50.3
70300,2026-01-07 12:29:11,0.0,5,7.789,0.0,0.0,0.0,356.2,6.4,-2.6,1024,1024,1024,1024,0,0,0,0,90,4.054,67.82,165.026252,P-GPS,,50.3
70400,2026-01-07 12:29:11,0.0,5,7.794,0.0,0.0,0.0,356.1,6.3,-2.6,1024,1024,1024,1024,0,0,0,0,90,4.124,67.82,165.354336,P-GPS,,50.4
70500,2026-01-07 12:29:11,0.0,5,7.794,0.0,0.0,0.0,356.1,6.1,-2.9,1024,1024,1024,1024,0,0,0,0,90,4.124,67.82,165.354336,P-GPS,,50.4
70600,2026-01-07 12:29:11,0.0,5,7.794,0.0,0.0,0.0,356.0,6.6,-2.9,1024,1024,1024,1024,0,0,0,0,90,4.124,67.82,165.354336,P-GPS,,50.4
70700,2026-01-07 12:29:11,0.0,5,7.794,0.0,0.0,0.0,356.0,6.3,-2.6,1024,1024,1024,1024,0,0,0,0,90,4.124,67.82,165.354336,P-GPS,,50.4
70800,2026-01-07 12:29:11,0.0,5,7.794,0.0,0.0,0.0,355.9,6.2,-2.4,1024,1024,1024,1024,0,0,0,0,90,4.124,67.82,165.354336,P-GPS,,50.4
70900,2026-01-07 12:29:11,0.0,5,7.794,0.0,0.0,0.0,356.0,6.4,-1.9,1024,1024,1024,1024,0,0,0,0,90,4.124,67.82,165.026252,P-GPS,,50.3
71000,2026-01-07 12:29:12,0.0,5,7.794,0.0,0.0,0.0,356.0,5.9,-1.8,1024,1024,1024,1024,0,0,0,0,90,4.124,67.82,165.026252,P-GPS,,50.3
71100,2026-01-07 12:29:12,0.0,5,7.794,0.0,0.0,0.0,356.0,6.2,-2.0,1024,1024,1024,1024,0,0,0,0,90,4.124,67.82,165.026252,P-GPS,,50.3
71200,2026-01-07 12:29:12,0.0,5,7.794,0.0,0.0,0.0,356.0,6.6,-1.8,1024,1024,1024,1024,0,0,0,0,90,4.124,67.82,165.026252,P-GPS,,50.3
71300,2026-01-07 12:29:12,0.0,5,7.794,0.0,0.0,0.0,356.0,6.6,-1.4,1024,1024,1024,1024,0,0,0,0,90,4.124,67.82,165.026252,P-GPS,,50.3
71400,2026-01-07 12:29:12,0.0,5,7.794,0.0,0.0,0.0,356.1,6.3,-1.4,1024,1024,1024,1024,0,0,0,0,90,4.124,67.82,165.026252,P-GPS,,50.3
71500,2026-01-07 12:29:12,0.0,5,7.8,0.0,0.0,0.0,356.1,6.2,-1.8,1024,1024,1024,1024,0,0,0,0,90,3.886,67.82,165.026252,P-GPS,,50.3
71600,2026-01-07 12:29:12,0.0,5,7.8,0.0,0.0,0.0,356.0,6.3,-1.6,1024,1024,1024,1024,0,0,0,0,90,3.886,67.82,165.026252,P-GPS,,50.3
71700,2026-01-07 12:29:12,0.0,5,7.8,0.0,0.0,0.0,356.0,6.5,-1.4,1024,1024,1024,1024,0,0,0,0,90,3.886,67.82,165.026252,P-GPS,,50.3
71800,2026-01-07 12:29:12,0.0,5,7.8,0.0,0.0,0.0,356.1,6.8,-1.6,1024,1024,1024,1024,0,0,0,0,90,3.886,67.82,165.354336,P-GPS,,50.4
71900,2026-01-07 12:29:12,0.0,5,7.8,0.0,0.0,0.0,356.1,6.7,-1.5,1024,1024,1024,1024,0,0,0,0,90,3.886,67.82,165.354336,P-GPS,,50.4
72000,2026-01-07 12:29:12,0.0,5,7.8,0.0,0.0,0.0,356.0,6.8,-2.1,1024,1024,1024,1024,0,0,0,0,90,3.886,67.82,165.354336,P-GPS,,50.4
72100,2026-01-07 12:29:13,0.0,5,7.8,0.0,0.0,0.0,356.0,6.6,-2.0,1024,1024,1024,1024,0,0,0,0,90,3.886,67.82,165.354336,P-GPS,,50.4
72200,2026-01-07 12:29:13,0.0,5,7.8,0.0,0.0,0.0,356.0,6.4,-1.9,1024,1024,1024,1024,0,0,0,0,90,3.886,67.82,165.354336,P-GPS,,50.4
72300,2026-01-07 12:29:13,0.0,5,7.8,0.0,0.0,0.0,356.0,6.6,-1.8,1024,1024,1024,1024,0,0,0,0,90,3.886,67.82,165.68242,P-GPS,,50.5
72400,2026-01-07 12:29:13,0.0,5,7.8,0.0,0.0,0.0,355.9,6.2,-1.7,1024,1024,1024,1024,0,0,0,0,90,3.886,67.82,165.68242,P-GPS,,50.5
72500,2026-01-07 12:29:13,0.0,5,7.8,0.0,0.0,0.0,356.0,6.1,-1.4,1024,1024,1024,1024,0,0,0,0,90,3.886,67.82,165.68242,P-GPS,,50.5
72600,2026-01-07 12:29:13,0.0,5,7.769,0.0,0.0,0.0,355.9,6.5,-1.4,1024,1024,1024,1024,0,0,0,0,90,4.282,67.82,165.68242,P-GPS,,50.5
72700,2026-01-07 12:29:13,0.0,5,7.769,0.0,0.0,0.0,356.0,7.3,-1.1,1024,1024,1024,1024,0,0,0,0,90,4.282,67.82,165.68242,P-GPS,,50.5
72800,2026-01-07 12:29:13,0.0,5,7.769,0.0,0.0,0.0,356.1,7.5,-0.8,1024,1024,1024,1024,0,0,0,0,90,4.282,67.82,165.68242,P-GPS,,50.5
72900,2026-01-07 12:29:13,0.0,5,7.769,0.0,0.0,0.0,356.1,7.6,-1.2,1024,1024,1024,1024,0,0,0,0,90,4.282,67.82,166.010504,P-GPS,,50.6
73000,2026-01-07 12:29:14,0.0,5,7.769,0.0,0.0,0.0,356.0,7.5,-1.4,1024,1024,1024,1024,0,0,0,0,90,4.282,67.82,166.010504,P-GPS,,50.6
73100,2026-01-07 12:29:14,0.0,5,7.769,0.0,0.0,0.0,355.8,7.3,-1.4,1024,1024,1024,1024,0,0,0,0,90,4.282,67.82,166.010504,P-GPS,,50.6
73200,2026-01-07 12:29:14,0.0,5,7.769,0.0,0.0,0.0,355.8,7.0,-1.0,1024,1024,1024,1024,0,0,0,0,90,4.282,67.82,166.010504,P-GPS,,50.6
73300,2026-01-07 12:29:14,0.0,5,7.769,0.0,0.0,0.0,355.8,7.3,-0.7,1024,1024,1024,1024,0,0,0,0,90,4.282,67.82,166.010504,P-GPS,,50.6
73400,2026-01-07 12:29:14,0.0,5,7.769,0.0,0.0,0.0,355.8,7.3,-0.6,1024,1024,1024,1024,0,0,0,0,90,4.282,67.82,166.010504,P-GPS,,50.6
73500,2026-01-07 12:29:14,0.0,5,7.769,0.0,0.0,0.0,355.8,6.7,-0.3,1024,1024,1024,1024,0,0,0,0,90,4.282,67.82,166.010504,P-GPS,,50.6
73600,2026-01-07 12:29:14,0.0,5,7.769,0.0,0.0,0.0,355.8,6.9,-0.1,1024,1024,1024,1024,0,0,0,0,90,4.282,67.82,166.010504,P-GPS,,50.6
73700,2026-01-07 12:29:14,0.0,5,7.774,0.0,0.0,0.0,355.8,6.8,0.0,1024,1024,1024,1024,0,0,0,0,90,4.31,67.82,166.010504,P-GPS,,50.6
73800,2026-01-07 12:29:14,0.0,5,7.774,0.0,0.0,0.0,355.9,6.7,0.2,1024,1024,1024,1024,0,0,0,0,90,4.31,67.82,166.010504,P-GPS,,50.6
73900,2026-01-07 12:29:14,0.0,5,7.774,0.0,0.0,0.223694,355.9,6.6,0.2,1024,1024,1024,1024,0,0,0,0,90,4.31,67.82,166.010504,P-GPS,,50.6
74000,2026-01-07 12:29:14,0.0,5,7.774,0.0,0.0,0.223694,355.9,6.4,0.3,1024,1024,1024,1024,0,0,0,0,90,4.31,67.82,166.338588,P-GPS,,50.7
74100,2026-01-07 12:29:15,0.0,5,7.774,0.0,0.0,0.0,355.9,6.1,0.1,1024,1024,1024,1024,0,0,0,0,90,4.31,67.82,166.338588,P-GPS,,50.7
74200,2026-01-07 12:29:15,0.0,5,7.774,0.0,0.0,0.0,356.0,5.9,0.4,1024,1024,1024,1024,0,0,0,0,90,4.31,67.82,166.338588,P-GPS,,50.7
74300,2026-01-07 12:29:15,0.0,5,7.774,0.0,0.0,0.0,356.0,5.8,0.0,1024,1024,1024,1024,0,0,0,0,90,4.31,67.82,166.338588,P-GPS,,50.7
74400,2026-01-07 12:29:15,0.0,5,7.774,0.0,0.0,0.0,356.0,5.1,-0.1,1024,1024,1024,1024,0,0,0,0,90,4.31,67.82,166.338588,P-GPS,,50.7
74500,2026-01-07 12:29:15,0.0,5,7.774,0.0,0.0,0.0,356.1,4.7,-0.1,1024,1024,1024,1024,0,0,0,0,90,4.31,67.82,166.338588,P-GPS,,50.7
74600,2026-01-07 12:29:15,0.0,5,7.774,0.0,0.0,0.0,356.1,5.1,-0.1,1024,1024,1024,1024,0,0,0,0,90,4.31,67.82,166.338588,P-GPS,,50.7
74700,2026-01-07 12:29:15,0.0,5,7.774,0.0,0.0,0.0,356.1,5.9,-0.2,1024,1024,1024,1024,0,0,0,0,90,4.31,67.82,166.338588,P-GPS,,50.7
74800,2026-01-07 12:29:15,0.0,5,7.786,0.0,0.0,0.0,356.0,6.6,-0.2,1024,1024,1024,1024,0,0,0,0,90,4.47,67.82,166.338588,P-GPS,,50.7
74900,2026-01-07 12:29:15,0.0,5,7.786,0.0,0.0,0.223694,356.0,6.7,-0.3,1024,1024,1024,1024,0,0,0,0,90,4.47,67.82,166.338588,P-GPS,,50.7
75000,2026-01-07 12:29:16,0.0,5,7.786,0.0,0.0,0.223694,356.0,6.7,-0.3,1024,1024,1024,1024,0,0,0,0,90,4.47,67.82,166.338588,P-GPS,,50.7
75100,2026-01-07 12:29:16,0.0,5,7.786,0.0,0.0,0.223694,356.0,6.5,-0.3,1024,1024,1024,1024,0,0,0,0,90,4.47,67.82,166.338588,P-GPS,,50.7
75200,2026-01-07 12:29:16,0.0,5,7.786,0.0,0.0,0.223694,356.0,6.1,-0.6,1024,1024,1024,1024,0,0,0,0,90,4.47,67.82,166.338588,P-GPS,,50.7
75300,2026-01-07 12:29:16,0.0,5,7.786,0.0,0.0,0.0,356.0,5.9,-0.6,1024,1024,1024,1024,0,0,0,0,90,4.47,67.82,166.338588,P-GPS,,50.7
75400,2026-01-07 12:29:16,0.0,5,7.786,0.0,0.0,0.0,356.0,6.0,-0.7,1024,1024,1024,1024,0,0,0,0,90,4.47,67.82,166.338588,P-GPS,,50.7
75500,2026-01-07 12:29:16,0.0,5,7.786,0.0,0.0,0.0,356.0,6.1,-0.9,1024,1024,1024,1024,0,0,0,0,90,4.47,67.82,166.338588,P-GPS,,50.7
75600,2026-01-07 12:29:16,0.0,5,7.786,0.0,0.0,0.0,355.9,6.3,-0.9,1024,1024,1024,1024,0,0,0,0,90,4.47,67.82,166.338588,P-GPS,,50.7
75700,2026-01-07 12:29:16,0.0,5,7.786,0.0,0.0,0.223694,356.0,5.9,-0.8,1024,1024,1024,1024,0,0,0,0,90,4.47,67.82,166.666672,P-GPS,,50.8
75800,2026-01-07 12:29:16,0.0,5,7.786,0.0,0.0,0.0,356.0,5.9,-0.7,1024,1024,1024,1024,0,0,0,0,90,4.47,67.82,166.666672,P-GPS,,50.8
75900,2026-01-07 12:29:16,0.0,5,7.765,0.0,0.0,0.0,356.0,6.2,-0.6,1024,1024,1024,1024,0,0,0,0,90,4.644,67.82,166.666672,P-GPS,,50.8
76000,2026-01-07 12:29:16,0.0,5,7.765,0.0,0.0,0.0,356.0,6.6,-0.5,1024,1024,1024,1024,0,0,0,0,90,4.644,67.82,166.666672,P-GPS,,50.8
76100,2026-01-07 12:29:17,0.0,5,7.765,0.0,0.0,0.0,356.0,6.8,-0.5,1024,1024,1024,1024,0,0,0,0,90,4.644,67.82,166.666672,P-GPS,,50.8
76200,2026-01-07 12:29:17,0.0,5,7.765,0.0,0.0,0.0,356.0,7.0,-0.5,1024,1024,1024,1024,0,0,0,0,90,4.644,67.82,166.666672,P-GPS,,50.8
76300,2026-01-07 12:29:17,0.0,5,7.765,0.0,0.0,0.223694,356.1,6.9,-0.6,1024,1024,1024,1024,0,0,0,0,90,4.644,67.82,166.666672,P-GPS,,50.8
76400,2026-01-07 12:29:17,0.0,5,7.765,0.0,0.0,0.0,356.0,7.1,-0.6,1024,1024,1024,1024,0,0,0,0,90,4.644,67.82,166.666672,P-GPS,,50.8
76500,2026-01-07 12:29:17,0.0,5,7.765,0.0,0.0,0.223694,356.1,7.1,-0.7,1024,1024,1024,1024,0,0,0,0,90,4.644,67.82,166.666672,P-GPS,,50.8
76600,2026-01-07 12:29:17,0.0,5,7.765,0.0,0.0,0.0,356.1,7.1,-0.9,1024,1024,1024,1024,0,0,0,0,90,4.644,67.82,166.338588,P-GPS,,50.7
76700,2026-01-07 12:29:17,0.0,5,7.765,0.0,0.0,0.0,356.1,7.2,-1.0,1024,1024,1024,1024,0,0,0,0,90,4.644,67.82,166.338588,P-GPS,,50.7
76800,2026-01-07 12:29:17,0.0,5,7.765,0.0,0.0,0.0,356.1,7.3,-0.9,1024,1024,1024,1024,0,0,0,0,90,4.644,67.82,166.338588,P-GPS,,50.7
76900,2026-01-07 12:29:17,0.0,5,7.765,0.0,0.0,0.0,356.1,7.2,-0.9,1024,1024,1024,1024,0,0,0,0,90,4.644,67.82,166.338588,P-GPS,,50.7
77000,2026-01-07 12:29:18,0.0,5,7.76,0.0,0.0,0.0,356.1,7.3,-1.1,1024,1024,1024,1024,0,0,0,0,90,4.703,67.82,166.338588,P-GPS,,50.7
77100,2026-01-07 12:29:18,0.0,5,7.76,0.0,0.0,0.0,356.1,7.4,-1.2,1024,1024,1024,1024,0,0,0,0,90,4.703,67.82,166.338588,P-GPS,,50.7
77200,2026-01-07 12:29:18,0.0,5,7.76,0.0,0.0,0.0,356.1,7.6,-1.0,1024,1024,1024,1024,0,0,0,0,90,4.703,67.82,166.338588,P-GPS,,50.7
77300,2026-01-07 12:29:18,0.0,5,7.76,0.0,0.0,0.0,356.1,7.8,-1.1,1024,1024,1024,1024,0,0,0,0,90,4.703,67.82,166.338588,P-GPS,,50.7
77400,2026-01-07 12:29:18,0.0,5,7.76,0.0,0.0,0.0,356.1,7.9,-1.0,1024,1024,1024,1024,0,0,0,0,90,4.703,67.82,166.338588,P-GPS,,50.7
77500,2026-01-07 12:29:18,0.0,5,7.76,0.0,0.0,0.0,356.1,7.8,-1.1,1024,1024,1024,1024,0,0,0,0,90,4.703,67.82,166.338588,P-GPS,,50.7
77600,2026-01-07 12:29:18,0.0,5,7.76,0.0,0.0,0.0,356.1,7.9,-1.3,1024,1024,1024,1024,0,0,0,0,90,4.703,67.82,166.338588,P-GPS,,50.7
77700,2026-01-07 12:29:18,0.0,5,7.76,0.0,0.0,0.0,356.1,8.0,-1.2,1024,1024,1024,1024,0,0,0,0,90,4.703,67.82,166.010504,P-GPS,,50.6
77800,2026-01-07 12:29:18,0.0,5,7.76,0.0,0.0,0.0,356.1,8.1,-1.2,1024,1024,1024,1024,0,0,0,0,90,4.703,67.82,166.010504,P-GPS,,50.6
77900,2026-01-07 12:29:18,0.0,5,7.76,0.0,0.0,0.0,356.1,8.1,-1.1,1024,1024,1024,1024,0,0,0,0,90,4.703,67.82,166.010504,P-GPS,,50.6
78000,2026-01-07 12:29:19,0.0,5,7.76,0.0,0.0,0.0,356.1,7.9,-1.0,1024,1024,1024,1024,0,0,0,0,90,4.703,67.82,166.010504,P-GPS,,50.6
78100,2026-01-07 12:29:19,0.0,5,7.76,0.0,0.0,0.0,356.0,7.7,-1.1,1024,1024,1024,1024,0,0,0,0,90,4.703,67.82,166.010504,P-GPS,,50.6
78200,2026-01-07 12:29:19,0.0,5,7.76,0.0,0.0,0.0,356.0,7.6,-1.0,1024,1024,1024,1024,0,0,0,0,90,4.703,67.82,166.010504,P-GPS,,50.6
78300,2026-01-07 12:29:19,0.0,5,7.76,0.0,0.0,0.0,356.0,7.7,-0.8,1024,1024,1024,1024,0,0,0,0,90,4.703,67.82,166.010504,P-GPS,,50.6
78400,2026-01-07 12:29:19,0.0,5,7.76,0.0,0.0,0.0,356.1,7.8,-0.6,1024,1024,1024,1024,0,0,0,0,90,4.703,67.82,166.010504,P-GPS,,50.6
78500,2026-01-07 12:29:19,0.0,5,7.76,0.0,0.0,0.0,356.1,7.6,-0.6,1024,1024,1024,1024,0,0,0,0,90,4.703,67.82,166.010504,P-GPS,,50.6
78600,2026-01-07 12:29:19,0.0,5,7.76,0.0,0.0,0.0,356.2,8.0,-0.4,1024,1024,1024,1024,0,0,0,0,90,4.703,67.82,166.010504,P-GPS,,50.6
78700,2026-01-07 12:29:19,0.0,5,7.76,0.0,0.0,0.0,356.2,7.7,-0.9,1024,1024,1024,1024,0,0,0,0,90,4.703,67.82,165.68242,P-GPS,,50.5
78800,2026-01-07 12:29:19,0.0,5,7.76,0.0,0.0,0.0,356.2,7.8,-1.1,1024,1024,1024,1024,0,0,0,0,90,4.703,67.82,165.68242,P-GPS,,50.5
78900,2026-01-07 12:29:19,0.0,5,7.76,0.0,0.0,0.0,356.2,7.8,-1.1,1024,1024,1024,1024,0,0,0,0,90,4.703,67.82,165.68242,P-GPS,,50.5
79000,2026-01-07 12:29:19,0.0,5,7.76,0.0,0.0,0.0,356.2,7.9,-1.1,1024,1024,1024,1024,0,0,0,0,90,4.703,67.82,165.68242,P-GPS,,50.5
79100,2026-01-07 12:29:20,0.0,5,7.76,0.0,0.0,0.0,356.1,7.8,-1.1,1024,1024,1024,1024,0,0,0,0,90,4.703,67.82,165.68242,P-GPS,,50.5
79200,2026-01-07 12:29:20,0.0,5,7.757,0.0,0.0,0.0,356.1,7.9,-1.1,1024,1024,1024,1024,0,0,0,0,90,4.698,67.82,165.68242,P-GPS,,50.5
79300,2026-01-07 12:29:20,0.0,5,7.757,0.0,0.0,0.0,356.1,8.1,-1.0,1024,1024,1024,1024,0,0,0,0,90,4.698,67.82,165.68242,P-GPS,,50.5
79400,2026-01-07 12:29:20,0.0,5,7.757,0.0,0.0,0.0,356.1,7.9,-1.2,1024,1024,1024,1024,0,0,0,0,90,4.698,67.82,165.68242,P-GPS,,50.5
79500,2026-01-07 12:29:20,0.0,5,7.757,0.0,0.0,0.0,356.1,7.7,-1.1,1024,1024,1024,1024,0,0,0,0,90,4.698,67.82,165.354336,P-GPS,,50.4
79600,2026-01-07 12:29:20,0.0,5,7.757,0.0,0.0,0.0,356.2,7.6,-1.2,1024,1024,1024,1024,0,0,0,0,90,4.698,67.82,165.354336,P-GPS,,50.4
79700,2026-01-07 12:29:20,0.0,5,7.757,0.0,0.0,0.0,356.2,7.6,-1.3,1024,1024,1024,1024,0,0,0,0,90,4.698,67.82,165.354336,P-GPS,,50.4
79800,2026-01-07 12:29:20,0.0,5,7.757,0.0,0.0,0.0,356.2,7.6,-1.4,1024,1024,1024,1024,0,0,0,0,90,4.698,67.82,165.354336,P-GPS,,50.4
79900,2026-01-07 12:29:20,0.0,5,7.757,0.0,0.0,0.0,356.2,7.4,-1.4,1024,1024,1024,1024,0,0,0,0,90,4.698,67.82,165.354336,P-GPS,,50.4
80000,2026-01-07 12:29:21,0.0,5,7.757,0.0,0.0,0.0,356.2,7.5,-1.4,1024,1024,1024,1024,0,0,0,0,90,4.698,67.82,165.354336,P-GPS,,50.4
80100,2026-01-07 12:29:21,0.0,5,7.757,0.0,0.0,0.0,356.2,7.3,-1.3,1024,1024,1024,1024,0,0,0,0,90,4.698,67.82,165.354336,P-GPS,,50.4
80200,2026-01-07 12:29:21,0.0,5,7.757,0.0,0.0,0.0,356.2,7.2,-1.6,1024,1024,1024,1024,0,0,0,0,90,4.698,67.82,165.354336,P-GPS,,50.4
80300,2026-01-07 12:29:21,0.0,5,7.757,0.0,0.0,0.0,356.2,7.3,-1.6,1024,1024,1024,1024,0,0,0,0,90,4.698,67.82,165.354336,P-GPS,,50.4
80400,2026-01-07 12:29:21,0.0,5,7.76,0.0,0.0,0.0,356.2,7.5,-1.9,1024,1024,1024,1024,0,0,0,0,90,4.63,67.82,165.354336,P-GPS,,50.4
80500,2026-01-07 12:29:21,0.0,5,7.76,0.0,0.0,0.0,356.1,7.5,-1.9,1024,1024,1024,1024,0,0,0,0,90,4.63,67.82,165.026252,P-GPS,,50.3
80600,2026-01-07 12:29:21,0.0,5,7.76,0.0,0.0,0.0,356.1,7.7,-1.9,1024,1024,1024,1024,0,0,0,0,90,4.63,67.82,165.026252,P-GPS,,50.3
80700,2026-01-07 12:29:21,0.0,5,7.76,0.0,0.0,0.0,356.2,7.6,-1.7,1024,1024,1024,1024,0,0,0,0,90,4.63,67.82,165.026252,P-GPS,,50.3
80800,2026-01-07 12:29:21,0.0,5,7.76,0.0,0.0,0.0,356.1,7.8,-1.8,1024,1024,1024,1024,0,0,0,0,90,4.63,67.82,165.026252,P-GPS,,50.3
80900,2026-01-07 12:29:21,0.0,5,7.76,0.0,0.0,0.0,356.2,8.0,-1.8,1024,1024,1024,1024,0,0,0,0,90,4.63,67.82,165.026252,P-GPS,,50.3
81000,2026-01-07 12:29:21,0.0,5,7.76,0.0,0.0,0.0,356.1,8.0,-1.9,1024,1024,1024,1024,0,0,0,0,90,4.63,67.82,165.026252,P-GPS,,50.3
81100,2026-01-07 12:29:22,0.0,5,7.76,0.0,0.0,0.0,356.0,7.9,-1.9,1024,1024,1024,1024,0,0,0,0,90,4.63,67.82,165.026252,P-GPS,,50.3
81200,2026-01-07 12:29:22,0.0,5,7.76,0.0,0.0,0.0,356.1,7.8,-1.9,1024,1024,1024,1024,0,0,0,0,90,4.63,67.82,165.026252,P-GPS,,50.3
81300,2026-01-07 12:29:22,0.0,5,7.76,0.0,0.0,0.0,356.1,7.8,-2.0,1024,1024,1024,1024,0,0,0,0,90,4.63,67.82,165.026252,P-GPS,,50.3
81400,2026-01-07 12:29:22,0.0,5,7.76,0.0,0.0,0.0,356.1,7.9,-1.8,1024,1024,1024,1024,0,0,0,0,90,4.63,67.82,165.026252,P-GPS,,50.3
81500,2026-01-07 12:29:22,0.0,5,7.754,0.0,0.0,0.0,356.1,7.9,-2.0,1024,1024,1024,1024,0,0,0,0,89,4.552,67.82,165.026252,P-GPS,,50.3
81600,2026-01-07 12:29:22,0.0,5,7.754,0.0,0.0,0.0,356.0,8.1,-2.0,1024,1024,1024,1024,0,0,0,0,89,4.552,67.82,165.026252,P-GPS,,50.3
81700,2026-01-07 12:29:22,0.0,5,7.754,0.0,0.0,0.0,356.1,8.2,-1.7,1024,1024,1024,1024,0,0,0,0,89,4.552,67.82,165.026252,P-GPS,,50.3
81800,2026-01-07 12:29:22,0.0,5,7.754,0.0,0.0,0.0,356.1,8.2,-1.7,1024,1024,1024,1024,0,0,0,0,89,4.552,67.82,165.026252,P-GPS,,50.3
81900,2026-01-07 12:29:22,0.0,5,7.754,0.0,0.0,0.0,356.1,8.1,-1.6,1024,1024,1024,1024,0,0,0,0,89,4.552,67.82,165.026252,P-GPS,,50.3
82000,2026-01-07 12:29:23,0.0,5,7.754,0.0,0.0,0.0,356.1,8.1,-1.4,1024,1024,1024,1024,0,0,0,0,89,4.552,67.82,165.026252,P-GPS,,50.3
82100,2026-01-07 12:29:23,0.0,5,7.754,0.0,0.0,0.0,356.1,8.2,-1.4,1024,1024,1024,1024,0,0,0,0,89,4.552,67.82,165.026252,P-GPS,,50.3
82200,2026-01-07 12:29:23,0.0,5,7.754,0.0,0.0,0.0,356.0,8.2,-1.6,1024,1024,1024,1024,0,0,0,0,89,4.552,67.82,165.026252,P-GPS,,50.3
82300,2026-01-07 12:29:23,0.0,5,7.754,0.0,0.0,0.0,356.1,7.7,-1.8,1024,1024,1024,1024,0,0,0,0,89,4.552,67.82,165.026252,P-GPS,,50.3
82400,2026-01-07 12:29:23,0.0,5,7.754,0.0,0.0,0.0,356.1,7.7,-1.8,1024,1024,1024,1024,0,0,0,0,89,4.552,67.82,165.026252,P-GPS,,50.3
82500,2026-01-07 12:29:23,0.0,5,7.754,0.0,0.0,0.0,356.1,7.6,-1.9,1024,1024,1024,1024,0,0,0,0,89,4.552,67.82,165.026252,P-GPS,,50.3
82600,2026-01-07 12:29:23,0.0,5,7.757,0.0,0.0,0.0,356.0,8.0,-1.6,1024,1024,1024,1024,0,0,0,0,89,4.617,67.82,165.026252,P-GPS,,50.3
82700,2026-01-07 12:29:23,0.0,5,7.757,0.0,0.0,0.0,356.1,7.9,-1.5,1024,1024,1024,1024,0,0,0,0,89,4.617,67.82,165.026252,P-GPS,,50.3
82800,2026-01-07 12:29:23,0.0,5,7.757,0.0,0.0,0.0,356.1,7.8,-1.3,1024,1024,1024,1024,0,0,0,0,89,4.617,67.82,165.026252,P-GPS,,50.3
82900,2026-01-07 12:29:23,0.0,5,7.757,0.0,0.0,0.0,356.0,7.9,-1.4,1024,1024,1024,1024,0,0,0,0,89,4.617,67.82,165.026252,P-GPS,,50.3
83000,2026-01-07 12:29:24,0.0,5,7.757,0.0,0.0,0.0,356.1,7.9,-1.2,1024,1024,1024,1024,0,0,0,0,89,4.617,67.82,165.026252,P-GPS,,50.3
83100,2026-01-07 12:29:24,0.0,5,7.757,0.0,0.0,0.0,356.1,7.7,-1.2,1024,1024,1024,1024,0,0,0,0,89,4.617,67.82,165.026252,P-GPS,,50.3
83200,2026-01-07 12:29:24,0.0,5,7.757,0.0,0.0,0.0,356.1,7.7,-1.3,1024,1024,1024,1024,0,0,0,0,89,4.617,67.82,165.026252,AutoLanding,,50.3
83300,2026-01-07 12:29:24,0.0,5,7.757,0.0,0.0,0.0,356.1,8.1,-1.2,1024,1024,1024,1024,0,0,0,0,89,4.617,67.82,165.026252,AutoLanding,,50.3
83400,2026-01-07 12:29:24,0.0,5,7.757,0.0,0.0,0.0,356.1,8.4,-1.6,1024,1024,1024,1024,0,0,0,0,89,4.617,67.82,165.026252,AutoLanding,,50.3
83500,2026-01-07 12:29:24,0.0,5,7.757,0.0,0.0,0.0,356.1,8.5,-1.7,1024,1024,1024,1024,0,0,0,0,89,4.617,67.82,165.026252,AutoLanding,,50.3
83600,2026-01-07 12:29:24,0.0,5,7.757,0.0,0.0,0.0,356.0,8.7,-1.8,1024,1024,1024,1024,0,0,0,0,89,4.617,67.82,165.026252,AutoLanding,,50.3
83700,2026-01-07 12:29:24,0.0,5,7.767,0.0,0.0,0.0,356.0,8.7,-1.9,1024,1024,1024,1024,0,0,0,0,89,4.528,67.82,165.026252,AutoLanding,,50.3
83800,2026-01-07 12:29:24,0.0,5,7.767,0.0,0.0,0.223694,356.0,8.8,-1.9,1024,1024,1024,1024,0,0,0,0,89,4.528,67.82,164.698168,AutoLanding,,50.2
83900,2026-01-07 12:29:24,0.0,5,7.767,0.0,0.0,0.447388,356.0,8.8,-2.1,1024,1024,1024,1024,0,0,0,0,89,4.528,67.82,164.698168,AutoLanding,,50.2
84000,2026-01-07 12:29:25,0.0,5,7.767,0.0,0.0,0.671082,356.0,8.9,-2.2,1024,1024,1024,1024,0,0,0,0,89,4.528,67.82,164.698168,AutoLanding,,50.2
84100,2026-01-07 12:29:25,0.0,5,7.767,0.0,0.0,0.894776,356.0,9.1,-2.1,1024,1024,1024,1024,0,0,0,0,89,4.528,67.82,164.370084,AutoLanding,,50.1
84200,2026-01-07 12:29:25,0.0,5,7.767,0.0,0.0,1.11847,356.0,8.9,-2.1,1024,1024,1024,1024,0,0,0,0,89,4.528,67.82,164.042,AutoLanding,,50.0
84300,2026-01-07 12:29:25,0.0,5,7.767,0.0,0.0,1.342164,356.0,8.5,-2.0,1024,1024,1024,1024,0,0,0,0,89,4.528,67.82,164.042,AutoLanding,,50.0
84400,2026-01-07 12:29:25,0.0,5,7.767,0.0,0.0,1.565858,356.1,8.1,-2.2,1024,1024,1024,1024,0,0,0,0,89,4.528,67.82,163.713916,AutoLanding,,49.9
84500,2026-01-07 12:29:25,0.0,5,7.767,0.0,0.0,1.789552,356.0,7.7,-2.3,1024,1024,1024,1024,0,0,0,0,89,4.528,67.82,163.385832,AutoLanding,,49.8
84600,2026-01-07 12:29:25,0.0,5,7.767,0.0,0.0,1.789552,355.9,8.1,-3.1,1024,1024,1024,1024,0,0,0,0,89,4.528,67.82,163.057748,AutoLanding,,49.7
84700,2026-01-07 12:29:25,0.0,5,7.767,0.0,0.0,2.23694,355.9,7.9,-3.2,1024,1024,1024,1024,0,0,0,0,89,4.528,67.82,162.729664,AutoLanding,,49.6
84800,2026-01-07 12:29:25,0.0,5,7.824,0.0,0.0,2.460634,355.9,8.1,-3.6,1024,1024,1024,1024,0,0,0,0,89,3.648,67.82,162.073496,AutoLanding,,49.4
84900,2026-01-07 12:29:25,0.0,5,7.824,0.0,0.0,2.684328,355.9,7.8,-3.9,1024,1024,1024,1024,0,0,0,0,89,3.648,67.82,161.745412,AutoLanding,,49.3
85000,2026-01-07 12:29:26,0.0,5,7.824,0.0,0.0,2.908022,355.9,7.6,-4.1,1024,1024,1024,1024,0,0,0,0,89,3.648,67.82,161.089244,AutoLanding,,49.1
85100,2026-01-07 12:29:26,0.0,5,7.824,0.0,0.0,3.131716,356.0,7.3,-4.0,1024,1024,1024,1024,0,0,0,0,89,3.648,67.82,160.433076,AutoLanding,,48.9
85200,2026-01-07 12:29:26,0.0,5,7.824,0.0,0.0,3.35541,356.0,7.5,-3.8,1024,1024,1024,1024,0,0,0,0,89,3.648,67.82,160.104992,AutoLanding,,48.8
85300,2026-01-07 12:29:26,0.0,5,7.824,0.0,0.0,3.579104,355.9,7.4,-3.4,1024,1024,1024,1024,0,0,0,0,89,3.648,67.82,159.448824,AutoLanding,,48.6
85400,2026-01-07 12:29:26,0.0,5,7.824,0.0,0.0,3.802798,356.0,6.9,-3.1,1024,1024,1024,1024,0,0,0,0,89,3.648,67.82,158.792656,AutoLanding,,48.4
85500,2026-01-07 12:29:26,0.0,5,7.824,0.0,0.0,4.026492,356.1,6.7,-2.5,1024,1024,1024,1024,0,0,0,0,89,3.648,67.82,158.136488,AutoLanding,,48.2
