index,time(millisecond),timestamp,speed(mph),gpslevel,voltage(v),xSpeed(mph),ySpeed(mph),zSpeed(mph),compass_heading(degrees),pitch(degrees),roll(degrees),rc_elevator,rc_aileron,rc_throttle,rc_rudder,rc_elevator(percent),rc_aileron(percent),rc_throttle(percent),rc_rudder(percent),battery_percent,current(A),battery_temperature(f),ascent(feet),flycState,message,height_above_takeoff(meters)
872,671700,2026-01-07 12:43:56,0.0,5,7.107,0.0,0.0,0.0,26.9,6.7,2.0,1024,1024,1024,1024,0,0,0,0,51,5.829,74.66,166.666672,P-GPS,,50.8
873,671800,2026-01-07 12:43:56,0.0,5,7.107,0.0,0.0,0.0,26.9,6.7,2.1,1024,1024,1024,1024,0,0,0,0,51,5.829,74.66,166.666672,P-GPS,,50.8
874,671900,2026-01-07 12:43:56,0.0,5,7.107,0.0,0.0,0.0,26.9,6.8,2.5,1024,1024,1024,1024,0,0,0,0,51,5.829,74.66,166.666672,P-GPS,,50.8
875,672000,2026-01-07 12:43:56,0.0,5,7.168,0.0,0.0,0.0,26.9,6.8,2.8,1024,1024,1024,1024,0,0,0,0,51,4.391,74.66,166.666672,P-GPS,,50.8
876,672100,2026-01-07 12:43:57,0.0,5,7.168,0.0,0.0,0.0,26.9,6.7,2.6,1024,1024,1024,1024,0,0,0,0,51,4.391,74.66,166.666672,P-GPS,,50.8
877,672200,2026-01-07 12:43:57,0.0,5,7.168,0.0,0.0,0.0,26.9,6.7,2.6,1024,1024,1024,1024,0,0,0,0,51,4.391,74.66,166.666672,P-GPS,,50.8
878,672300,2026-01-07 12:43:57,0.0,5,7.168,0.0,0.0,0.0,26.9,6.8,2.1,1024,1024,1024,1024,0,0,0,0,51,4.391,74.66,166.666672,P-GPS,,50.8
879,672400,2026-01-07 12:43:57,0.0,5,7.168,0.0,0.0,0.0,26.9,6.6,1.9,1024,1024,1024,1024,0,0,0,0,51,4.391,74.66,166.338588,P-GPS,,50.7
880,672500,2026-01-07 12:43:57,0.0,5,7.168,0.0,0.0,0.0,26.9,6.8,1.7,1024,1024,1024,1024,0,0,0,0,51,4.391,74.66,166.338588,P-GPS,,50.7
881,672600,2026-01-07 12:43:57,0.0,5,7.168,0.0,0.0,0.0,26.8,6.8,1.5,1024,1024,1024,1024,0,0,0,0,51,4.391,74.66,166.338588,P-GPS,,50.7
882,672700,2026-01-07 12:43:57,0.0,5,7.168,0.0,0.0,0.0,26.8,6.8,1.6,1024,1024,1024,1024,0,0,0,0,51,4.391,74.66,166.338588,P-GPS,,50.7
883,672800,2026-01-07 12:43:57,0.0,5,7.168,0.0,0.0,0.0,26.8,6.8,1.9,1024,1024,1024,1024,0,0,0,0,51,4.391,74.66,166.338588,P-GPS,,50.7
884,672900,2026-01-07 12:43:57,0.0,5,7.168,0.0,0.0,0.0,26.9,7.0,2.2,1024,1024,1024,1024,0,0,0,0,51,4.391,74.66,166.338588,P-GPS,,50.7
885,673000,2026-01-07 12:43:57,0.0,5,7.168,0.0,0.0,0.0,26.9,7.4,2.1,1024,1024,1024,1024,0,0,0,0,51,4.391,74.66,166.338588,P-GPS,,50.7
886,673100,2026-01-07 12:43:57,0.0,5,7.168,0.0,0.0,0.0,27.0,8.3,2.2,1024,1024,1024,1024,0,0,0,0,51,4.391,74.66,166.338588,P-GPS,,50.7
887,673200,2026-01-07 12:43:58,0.0,5,7.156,0.0,0.0,0.0,26.9,8.3,2.2,1024,1024,1024,1024,0,0,0,0,51,5.194,74.66,166.338588,P-GPS,,50.7
888,673300,2026-01-07 12:43:58,0.0,5,7.156,0.0,0.0,0.0,26.9,8.2,2.1,1024,1024,1024,1024,0,0,0,0,51,5.194,74.66,166.338588,P-GPS,,50.7
889,673400,2026-01-07 12:43:58,0.0,5,7.156,0.0,0.0,0.0,26.9,8.0,1.9,1024,1024,1024,1024,0,0,0,0,51,5.194,74.66,166.338588,P-GPS,,50.7
890,673500,2026-01-07 12:43:58,0.0,5,7.156,0.0,0.0,0.0,26.9,7.4,1.3,1024,1024,1024,1024,0,0,0,0,51,5.194,74.66,166.338588,P-GPS,,50.7
891,673600,2026-01-07 12:43:58,0.0,5,7.156,0.0,0.0,0.0,26.9,7.4,1.3,1024,1024,1024,1024,0,0,0,0,51,5.194,74.66,166.338588,P-GPS,,50.7
892,673700,2026-01-07 12:43:58,0.0,5,7.156,0.0,0.0,0.0,26.9,7.6,1.6,1024,1024,1024,1024,0,0,0,0,51,5.194,74.66,166.338588,P-GPS,,50.7
893,673800,2026-01-07 12:43:58,0.0,5,7.156,0.0,0.0,0.0,26.9,7.4,1.6,1024,1024,1024,1024,0,0,0,0,51,5.194,74.66,166.338588,P-GPS,,50.7
894,673900,2026-01-07 12:43:58,0.0,5,7.156,0.0,0.0,0.0,27.0,7.7,1.2,1024,1024,1024,1024,0,0,0,0,51,5.194,74.66,166.338588,P-GPS,,50.7
895,674000,2026-01-07 12:43:58,0.0,5,7.156,0.0,0.0,0.0,26.9,7.8,0.8,1024,1024,1024,1024,0,0,0,0,51,5.194,74.66,166.338588,P-GPS,,50.7
896,674100,2026-01-07 12:43:58,0.0,5,7.156,0.0,0.0,0.0,26.8,7.9,1.2,1024,1024,1024,1024,0,0,0,0,51,5.194,74.66,166.338588,P-GPS,,50.7
897,674200,2026-01-07 12:43:59,0.0,5,7.156,0.0,0.0,0.0,26.8,7.3,1.8,1024,1024,1024,1024,0,0,0,0,51,5.194,74.66,166.010504,P-GPS,,50.6
898,674300,2026-01-07 12:43:59,0.0,5,7.152,0.0,0.0,0.0,26.9,6.9,1.7,1024,1024,1024,1024,0,0,0,0,51,5.309,74.66,166.010504,P-GPS,,50.6
899,674400,2026-01-07 12:43:59,0.0,5,7.152,0.0,0.0,0.0,26.9,6.6,1.4,1024,1024,1024,1024,0,0,0,0,51,5.309,74.66,166.010504,P-GPS,,50.6
900,674500,2026-01-07 12:43:59,0.0,5,7.152,0.0,0.0,0.0,26.9,6.6,1.6,1024,1024,1024,1024,0,0,0,0,51,5.309,74.66,166.010504,P-GPS,,50.6
901,674600,2026-01-07 12:43:59,0.0,5,7.152,0.0,0.0,0.0,26.8,6.5,1.7,1024,1024,1024,1024,0,0,0,0,51,5.309,74.66,166.010504,P-GPS,,50.6
902,674700,2026-01-07 12:43:59,0.0,5,7.152,0.0,0.0,0.0,26.8,6.4,1.8,1024,1024,1024,1024,0,0,0,0,51,5.309,74.66,166.010504,P-GPS,,50.6
903,674800,2026-01-07 12:43:59,0.0,5,7.152,0.0,0.0,0.0,26.8,6.2,1.8,1024,1024,1024,1024,0,0,0,0,51,5.309,74.66,166.010504,P-GPS,,50.6
904,674900,2026-01-07 12:43:59,0.0,5,7.152,0.0,0.0,0.0,26.8,5.9,2.1,1024,1024,1024,1024,0,0,0,0,51,5.309,74.66,166.010504,P-GPS,,50.6
905,675000,2026-01-07 12:43:59,0.0,5,7.152,0.0,0.0,0.0,26.9,6.2,2.4,1024,1024,1024,1024,0,0,0,0,51,5.309,74.66,166.010504,P-GPS,,50.6
906,675100,2026-01-07 12:43:59,0.0,5,7.152,0.0,0.0,0.0,26.9,6.4,2.5,1024,1024,1024,1024,0,0,0,0,51,5.309,74.66,166.010504,P-GPS,,50.6
907,675200,2026-01-07 12:44:00,0.0,5,7.152,0.0,0.0,0.0,26.9,6.7,2.5,1024,1024,1024,1024,0,0,0,0,51,5.309,74.66,166.010504,P-GPS,,50.6
908,675300,2026-01-07 12:44:00,0.0,5,7.152,0.0,0.0,0.0,26.9,6.8,2.5,1024,1024,1024,1024,0,0,0,0,51,5.309,74.66,166.010504,P-GPS,,50.6
909,675400,2026-01-07 12:44:00,0.0,5,7.156,0.0,0.0,0.0,26.8,6.8,2.5,1024,1024,1024,1024,0,0,0,0,51,5.163,74.66,166.010504,P-GPS,,50.6
910,675500,2026-01-07 12:44:00,0.0,5,7.156,0.0,0.0,0.0,26.8,7.0,2.6,1024,1024,1024,1024,0,0,0,0,51,5.163,74.66,166.010504,P-GPS,,50.6
911,675600,2026-01-07 12:44:00,0.0,5,7.156,0.0,0.0,0.0,26.8,7.1,2.7,1024,1024,1024,1024,0,0,0,0,51,5.163,74.66,166.010504,P-GPS,,50.6
912,675700,2026-01-07 12:44:00,0.0,5,7.156,0.0,0.0,0.0,26.8,7.0,2.9,1024,1024,1024,1024,0,0,0,0,51,5.163,74.66,166.010504,P-GPS,,50.6
913,675800,2026-01-07 12:44:00,0.0,5,7.156,0.0,0.0,0.0,26.9,6.9,3.0,1024,1024,1024,1024,0,0,0,0,51,5.163,74.66,166.010504,P-GPS,,50.6
914,675900,2026-01-07 12:44:00,0.0,5,7.156,0.0,0.0,0.0,26.9,7.1,2.7,1024,1024,1024,1024,0,0,0,0,51,5.163,74.66,166.010504,P-GPS,,50.6
915,676000,2026-01-07 12:44:00,0.0,5,7.156,0.0,0.0,0.0,26.8,6.6,2.8,1024,1024,1024,1024,0,0,0,0,51,5.163,74.66,166.010504,P-GPS,,50.6
916,676100,2026-01-07 12:44:00,0.0,5,7.156,0.0,0.0,0.0,26.8,6.5,2.4,1024,1024,1024,1024,0,0,0,0,51,5.163,74.66,166.010504,P-GPS,,50.6
917,676200,2026-01-07 12:44:01,0.0,5,7.156,0.0,0.0,0.0,26.8,6.5,2.0,1024,1024,1024,1024,0,0,0,0,51,5.163,74.66,166.010504,P-GPS,,50.6
918,676300,2026-01-07 12:44:01,0.0,5,7.156,0.0,0.0,0.0,26.8,6.4,1.7,1024,1024,1024,1024,0,0,0,0,51,5.163,74.66,165.68242,P-GPS,,50.5
919,676400,2026-01-07 12:44:01,0.0,5,7.156,0.0,0.0,0.0,26.8,6.2,2.1,1024,1024,1024,1024,0,0,0,0,51,5.163,74.66,165.68242,P-GPS,,50.5
920,676500,2026-01-07 12:44:01,0.0,5,7.145,0.0,0.0,0.0,26.9,6.6,2.3,1024,1024,1024,1024,0,0,0,0,51,5.367,74.84,165.68242,P-GPS,,50.5
921,676600,2026-01-07 12:44:01,0.0,5,7.145,0.0,0.0,0.0,26.9,6.8,2.2,1024,1024,1024,1024,0,0,0,0,51,5.367,74.84,165.68242,P-GPS,,50.5
922,676700,2026-01-07 12:44:01,0.0,5,7.145,0.0,0.0,0.0,26.9,6.9,2.2,1024,1024,1024,1024,0,0,0,0,51,5.367,74.84,165.68242,P-GPS,,50.5
923,676800,2026-01-07 12:44:01,0.0,5,7.145,0.0,0.0,0.0,26.9,7.3,2.5,1024,1024,1024,1024,0,0,0,0,51,5.367,74.84,165.68242,P-GPS,,50.5
924,676900,2026-01-07 12:44:01,0.0,5,7.145,0.0,0.0,0.0,26.9,6.8,2.9,1024,1024,1024,1024,0,0,0,0,51,5.367,74.84,165.68242,P-GPS,,50.5
925,677000,2026-01-07 12:44:01,0.0,5,7.145,0.0,0.0,0.0,26.9,7.0,2.9,1024,1024,1024,1024,0,0,0,0,51,5.367,74.84,165.68242,P-GPS,,50.5
926,677100,2026-01-07 12:44:02,0.0,5,7.145,0.0,0.0,0.0,26.9,7.0,2.5,1024,1024,1024,1024,0,0,0,0,51,5.367,74.84,165.68242,P-GPS,,50.5
927,677200,2026-01-07 12:44:02,0.0,5,7.145,0.0,0.0,0.0,27.0,6.9,2.4,1024,1024,1024,1024,0,0,0,0,51,5.367,74.84,165.68242,P-GPS,,50.5
928,677300,2026-01-07 12:44:02,0.0,5,7.145,0.0,0.0,0.0,27.0,7.0,2.0,1024,1024,1024,1024,0,0,0,0,51,5.367,74.84,165.68242,P-GPS,,50.5
929,677400,2026-01-07 12:44:02,0.0,5,7.145,0.0,0.0,0.0,27.0,7.1,1.7,1024,1024,1024,1024,0,0,0,0,51,5.367,74.84,165.68242,P-GPS,,50.5
930,677500,2026-01-07 12:44:02,0.0,5,7.145,0.0,0.0,0.0,26.9,7.2,1.5,1024,1024,1024,1024,0,0,0,0,51,5.367,74.84,165.68242,P-GPS,,50.5
931,677600,2026-01-07 12:44:02,0.0,5,7.145,0.0,0.0,0.0,26.9,7.1,1.4,1024,1024,1024,1024,0,0,0,0,51,5.367,74.84,165.68242,P-GPS,,50.5
932,677700,2026-01-07 12:44:02,0.0,5,7.145,0.0,0.0,0.0,27.0,7.1,1.6,1024,1024,1024,1024,0,0,0,0,51,5.367,74.84,165.68242,P-GPS,,50.5
933,677800,2026-01-07 12:44:02,0.0,5,7.145,0.0,0.0,0.0,27.0,7.3,1.6,1024,1024,1024,1024,0,0,0,0,51,5.367,74.84,165.68242,P-GPS,,50.5
934,677900,2026-01-07 12:44:02,0.0,5,7.145,0.0,0.0,0.0,27.0,7.4,1.8,1024,1024,1024,1024,0,0,0,0,51,5.367,74.84,165.68242,P-GPS,,50.5
935,678000,2026-01-07 12:44:02,0.0,5,7.145,0.0,0.0,0.0,27.0,7.5,1.7,1024,1024,1024,1024,0,0,0,0,51,5.367,74.84,165.68242,P-GPS,,50.5
936,678100,2026-01-07 12:44:02,0.0,5,7.145,0.0,0.0,0.0,26.9,7.5,1.8,1024,1024,1024,1024,0,0,0,0,51,5.367,74.84,165.68242,P-GPS,,50.5
937,678200,2026-01-07 12:44:03,0.0,5,7.145,0.0,0.0,0.0,27.0,7.2,2.1,1024,1024,1024,1024,0,0,0,0,51,5.367,74.84,165.68242,P-GPS,,50.5
938,678300,2026-01-07 12:44:03,0.0,5,7.145,0.0,0.0,0.0,27.0,7.1,2.0,1024,1024,1024,1024,0,0,0,0,51,5.367,74.84,165.68242,P-GPS,,50.5
939,678400,2026-01-07 12:44:03,0.0,5,7.145,0.0,0.0,0.0,27.0,7.0,1.7,1024,1024,1024,1024,0,0,0,0,51,5.367,74.84,165.68242,P-GPS,,50.5
940,678500,2026-01-07 12:44:03,0.0,5,7.145,0.0,0.0,0.0,27.0,6.3,1.9,1024,1024,1024,1024,0,0,0,0,51,5.367,74.84,165.68242,P-GPS,,50.5
941,678600,2026-01-07 12:44:03,0.0,5,7.145,0.0,0.0,0.0,26.9,6.0,1.1,1024,1024,1024,1024,0,0,0,0,51,5.367,74.84,165.68242,P-GPS,,50.5
942,678700,2026-01-07 12:44:03,0.0,5,7.153,0.0,0.0,0.0,27.0,5.7,0.9,1024,1024,1024,1024,0,0,0,0,51,5.105,74.84,165.68242,P-GPS,,50.5
943,678800,2026-01-07 12:44:03,0.0,5,7.153,0.0,0.0,0.0,27.0,6.0,0.9,1024,1024,1024,1024,0,0,0,0,51,5.105,74.84,165.68242,P-GPS,,50.5
944,678900,2026-01-07 12:44:03,0.0,5,7.153,0.0,0.0,0.0,27.0,6.0,0.9,1024,1024,1024,1024,0,0,0,0,51,5.105,74.84,165.68242,P-GPS,,50.5
945,679000,2026-01-07 12:44:03,0.0,5,7.153,0.0,0.0,0.0,26.9,5.8,0.8,1024,1024,1024,1024,0,0,0,0,51,5.105,74.84,165.68242,P-GPS,,50.5
946,679100,2026-01-07 12:44:04,0.0,5,7.153,0.0,0.0,0.0,26.9,6.0,0.8,1024,1024,1024,1024,0,0,0,0,51,5.105,74.84,165.68242,P-GPS,,50.5
947,679200,2026-01-07 12:44:04,0.0,5,7.153,0.0,0.0,0.0,26.9,5.9,1.0,1024,1024,1024,1024,0,0,0,0,51,5.105,74.84,165.68242,P-GPS,,50.5
948,679300,2026-01-07 12:44:04,0.0,5,7.153,0.0,0.0,0.0,26.8,5.6,0.9,1024,1024,1024,1024,0,0,0,0,51,5.105,74.84,165.68242,P-GPS,,50.5
949,679400,2026-01-07 12:44:04,0.0,5,7.153,0.0,0.0,0.0,26.8,5.6,0.9,1024,1024,1024,1024,0,0,0,0,51,5.105,74.84,165.68242,P-GPS,,50.5
950,679500,2026-01-07 12:44:04,0.0,5,7.153,0.0,0.0,0.0,26.9,5.5,1.3,1024,1024,1024,1024,0,0,0,0,51,5.105,74.84,165.68242,P-GPS,,50.5
951,679600,2026-01-07 12:44:04,0.0,5,7.153,0.0,0.0,0.0,26.9,5.5,1.7,1024,1024,1024,1024,0,0,0,0,51,5.105,74.84,165.68242,P-GPS,,50.5
952,679700,2026-01-07 12:44:04,0.0,5,7.153,0.0,0.0,0.0,26.8,5.3,1.8,1024,1024,1024,1024,0,0,0,0,51,5.105,74.84,165.68242,P-GPS,,50.5
953,679800,2026-01-07 12:44:04,0.0,5,7.153,0.0,0.0,0.0,26.9,5.6,2.0,1024,1024,1024,1024,0,0,0,0,51,5.105,74.84,165.68242,P-GPS,,50.5
954,679900,2026-01-07 12:44:04,0.0,5,7.162,0.0,0.0,0.0,26.9,6.3,1.7,1024,1024,1024,1024,0,0,0,0,51,4.939,74.84,165.68242,P-GPS,,50.5
955,680000,2026-01-07 12:44:04,0.0,5,7.162,0.0,0.0,0.0,26.9,6.7,1.6,1024,1024,1024,1024,0,0,0,0,51,4.939,74.84,165.68242,P-GPS,,50.5
956,680100,2026-01-07 12:44:04,0.0,5,7.162,0.0,0.0,0.0,26.8,6.7,2.0,1024,1024,1024,1024,0,0,0,0,51,4.939,74.84,165.68242,P-GPS,,50.5
957,680200,2026-01-07 12:44:05,0.0,5,7.162,0.0,0.0,0.0,26.9,6.5,2.0,1024,1024,1024,1024,0,0,0,0,51,4.939,74.84,166.010504,P-GPS,,50.6
958,680300,2026-01-07 12:44:05,0.0,5,7.162,0.0,0.0,0.0,26.9,6.8,2.3,1024,1024,1024,1024,0,0,0,0,51,4.939,74.84,166.010504,P-GPS,,50.6
959,680400,2026-01-07 12:44:05,0.0,5,7.162,0.0,0.0,0.0,26.9,7.0,2.1,1024,1024,1024,1024,0,0,0,0,51,4.939,74.84,166.010504,P-GPS,,50.6
960,680500,2026-01-07 12:44:05,0.0,5,7.162,0.0,0.0,0.0,26.8,6.8,2.0,1024,1024,1024,1024,0,0,0,0,51,4.939,74.84,166.010504,P-GPS,,50.6
961,680600,2026-01-07 12:44:05,0.0,5,7.162,0.0,0.0,0.0,26.8,6.2,1.6,1024,1024,1024,1024,0,0,0,0,51,4.939,74.84,166.010504,P-GPS,,50.6
962,680700,2026-01-07 12:44:05,0.0,5,7.162,0.0,0.0,0.0,26.8,6.0,1.5,1024,1024,1024,1024,0,0,0,0,51,4.939,74.84,166.010504,P-GPS,,50.6
963,680800,2026-01-07 12:44:05,0.0,5,7.162,0.0,0.0,0.0,26.9,5.8,1.6,1024,1024,1024,1024,0,0,0,0,51,4.939,74.84,166.010504,P-GPS,,50.6
964,680900,2026-01-07 12:44:05,0.0,5,7.162,0.0,0.0,0.0,26.9,5.9,1.7,1024,1024,1024,1024,0,0,0,0,51,4.939,74.84,166.010504,P-GPS,,50.6
965,681000,2026-01-07 12:44:05,0.0,5,7.147,0.0,0.0,0.0,26.9,5.8,1.8,1024,1024,1024,1024,0,0,0,0,51,5.254,74.84,166.010504,P-GPS,,50.6
966,681100,2026-01-07 12:44:06,0.0,5,7.147,0.0,0.0,0.0,26.8,5.8,1.5,1024,1024,1024,1024,0,0,0,0,51,5.254,74.84,166.010504,P-GPS,,50.6
967,681200,2026-01-07 12:44:06,0.0,5,7.147,0.0,0.0,0.0,26.9,5.6,1.1,1024,1024,1024,1024,0,0,0,0,51,5.254,74.84,166.010504,P-GPS,,50.6
968,681300,2026-01-07 12:44:06,0.0,5,7.147,0.0,0.0,0.0,26.9,6.3,0.9,1024,1024,1024,1024,0,0,0,0,51,5.254,74.84,166.010504,P-GPS,,50.6
969,681400,2026-01-07 12:44:06,0.0,5,7.147,0.0,0.0,0.0,26.9,6.7,0.5,1024,1024,1024,1024,0,0,0,0,51,5.254,74.84,166.010504,P-GPS,,50.6
970,681500,2026-01-07 12:44:06,0.0,5,7.147,0.0,0.0,0.0,26.9,6.9,0.1,1024,1024,1024,1024,0,0,0,0,51,5.254,74.84,166.010504,P-GPS,,50.6
971,681600,2026-01-07 12:44:06,0.0,5,7.147,0.0,0.0,0.0,26.9,7.1,0.1,1024,1024,1024,1024,0,0,0,0,51,5.254,74.84,166.010504,P-GPS,,50.6
972,681700,2026-01-07 12:44:06,0.0,5,7.147,0.0,0.0,0.0,26.9,7.2,0.4,1024,1024,1024,1024,0,0,0,0,51,5.254,74.84,166.010504,P-GPS,,50.6
973,681800,2026-01-07 12:44:06,0.0,5,7.147,0.0,0.0,0.0,26.9,7.4,0.8,1024,1024,1024,1024,0,0,0,0,51,5.254,74.84,166.010504,P-GPS,,50.6
974,681900,2026-01-07 12:44:06,0.0,5,7.147,0.0,0.0,0.0,26.9,7.6,0.7,1024,1024,1024,1024,0,0,0,0,51,5.254,74.84,166.010504,P-GPS,,50.6
975,682000,2026-01-07 12:44:06,0.0,5,7.147,0.0,0.0,0.0,26.9,7.4,0.8,1024,1024,1024,1024,0,0,0,0,51,5.254,74.84,166.010504,P-GPS,,50.6
976,682100,2026-01-07 12:44:06,0.0,5,7.146,0.0,0.0,0.0,26.8,7.2,1.2,1024,1024,1024,1024,0,0,0,0,50,5.089,74.84,166.010504,P-GPS,,50.6
977,682200,2026-01-07 12:44:07,0.0,5,7.146,0.0,0.0,0.0,26.9,6.9,1.0,1024,1024,1024,1024,0,0,0,0,50,5.089,74.84,166.010504,P-GPS,,50.6
978,682300,2026-01-07 12:44:07,0.0,5,7.146,0.0,0.0,0.0,26.9,6.6,1.0,1024,1024,1024,1024,0,0,0,0,50,5.089,74.84,166.010504,P-GPS,,50.6
979,682400,2026-01-07 12:44:07,0.0,5,7.146,0.0,0.0,0.0,26.8,6.5,0.8,1024,1024,1024,1024,0,0,0,0,50,5.089,74.84,166.010504,P-GPS,,50.6
980,682500,2026-01-07 12:44:07,0.0,5,7.146,0.0,0.0,0.0,26.8,6.4,0.8,1024,1024,1024,1024,0,0,0,0,50,5.089,74.84,166.010504,P-GPS,,50.6
981,682600,2026-01-07 12:44:07,0.0,5,7.146,0.0,0.0,0.0,26.9,6.6,0.8,1024,1024,1024,1024,0,0,0,0,50,5.089,74.84,166.010504,P-GPS,,50.6
982,682700,2026-01-07 12:44:07,0.0,5,7.146,0.0,0.0,0.0,26.9,6.8,0.8,1024,1024,1024,1024,0,0,0,0,50,5.089,74.84,166.010504,P-GPS,,50.6
983,682800,2026-01-07 12:44:07,0.0,5,7.146,0.0,0.0,0.0,26.8,6.9,0.7,1024,1024,1024,1024,0,0,0,0,50,5.089,74.84,166.010504,P-GPS,,50.6
984,682900,2026-01-07 12:44:07,0.0,5,7.146,0.0,0.0,0.0,26.8,6.9,0.6,1024,1024,1024,1024,0,0,0,0,50,5.089,74.84,166.010504,P-GPS,,50.6
985,683000,2026-01-07 12:44:07,0.0,5,7.146,0.0,0.0,0.0,26.8,6.8,0.7,1024,1024,1024,1024,0,0,0,0,50,5.089,74.84,166.010504,P-GPS,,50.6
986,683100,2026-01-07 12:44:07,0.0,5,7.146,0.0,0.0,0.0,26.8,6.9,1.0,1024,1024,1024,1024,0,0,0,0,50,5.089,74.84,166.010504,P-GPS,,50.6
987,683200,2026-01-07 12:44:08,0.0,5,7.144,0.0,0.0,0.0,26.8,6.6,1.0,1024,1024,1024,1024,0,0,0,0,50,5.168,74.84,166.010504,P-GPS,,50.6
988,683300,2026-01-07 12:44:08,0.0,5,7.144,0.0,0.0,0.0,26.8,6.2,0.7,1024,1024,1024,1024,0,0,0,0,50,5.168,74.84,166.010504,P-GPS,,50.6
989,683400,2026-01-07 12:44:08,0.0,5,7.144,0.0,0.0,0.0,26.8,6.4,0.9,1024,1024,1024,1024,0,0,0,0,50,5.168,74.84,166.010504,P-GPS,,50.6
990,683500,2026-01-07 12:44:08,0.0,5,7.144,0.0,0.0,0.0,26.8,6.3,0.7,1024,1024,1024,1024,0,0,0,0,50,5.168,74.84,166.010504,P-GPS,,50.6
991,683600,2026-01-07 12:44:08,0.0,5,7.144,0.0,0.0,0.0,26.8,6.2,0.9,1024,1024,1024,1024,0,0,0,0,50,5.168,74.84,166.010504,P-GPS,,50.6
992,683700,2026-01-07 12:44:08,0.0,5,7.144,0.0,0.0,0.0,26.9,6.3,0.8,1024,1024,1024,1024,0,0,0,0,50,5.168,74.84,166.010504,P-GPS,,50.6
993,683800,2026-01-07 12:44:08,0.0,5,7.144,0.0,0.0,0.0,26.9,6.7,1.1,1024,1024,1024,1024,0,0,0,0,50,5.168,74.84,166.010504,P-GPS,,50.6
994,683900,2026-01-07 12:44:08,0.0,5,7.144,0.0,0.0,0.0,26.8,7.1,1.1,1024,1024,1024,1024,0,0,0,0,50,5.168,74.84,166.010504,P-GPS,,50.6
995,684000,2026-01-07 12:44:08,0.0,5,7.144,0.0,0.0,0.0,26.9,7.5,0.7,1024,1024,1024,1024,0,0,0,0,50,5.168,74.84,166.010504,P-GPS,,50.6
996,684100,2026-01-07 12:44:08,0.0,5,7.144,0.0,0.0,0.0,26.9,7.4,0.7,1024,1024,1024,1024,0,0,0,0,50,5.168,74.84,166.010504,P-GPS,,50.6
997,684200,2026-01-07 12:44:08,0.0,5,7.144,0.0,0.0,0.0,26.9,6.9,1.0,1024,1024,1024,1024,0,0,0,0,50,5.168,74.84,166.010504,P-GPS,,50.6
998,684300,2026-01-07 12:44:09,0.0,5,7.16,0.0,0.0,0.0,26.8,6.4,1.1,1024,1024,1024,1024,0,0,0,0,50,4.982,74.84,166.010504,P-GPS,,50.6
999,684400,2026-01-07 12:44:09,0.0,5,7.16,0.0,0.0,0.0,26.8,6.6,0.7,1024,1024,1024,1024,0,0,0,0,50,4.982,74.84,166.010504,P-GPS,,50.6
1000,684500,2026-01-07 12:44:09,0.0,5,7.16,0.0,0.0,0.0,26.7,6.9,1.2,1024,1024,1024,1024,0,0,0,0,50,4.982,74.84,165.68242,P-GPS,,50.5
1001,684600,2026-01-07 12:44:09,0.0,5,7.16,0.0,0.0,0.0,26.8,7.1,1.2,1024,1024,1024,1024,0,0,0,0,50,4.982,74.84,165.68242,P-GPS,,50.5
1002,684700,2026-01-07 12:44:09,0.0,5,7.16,0.0,0.0,0.0,26.9,7.2,1.1,1024,1024,1024,1024,0,0,0,0,50,4.982,74.84,165.68242,P-GPS,,50.5
1003,684800,2026-01-07 12:44:09,0.0,5,7.16,0.0,0.0,0.0,26.9,7.4,1.3,1024,1024,1024,1024,0,0,0,0,50,4.982,74.84,165.68242,P-GPS,,50.5
1004,684900,2026-01-07 12:44:09,0.0,5,7.16,0.0,0.0,0.0,26.8,7.1,1.2,1024,1024,1024,1024,0,0,0,0,50,4.982,74.84,165.68242,P-GPS,,50.5
1005,685000,2026-01-07 12:44:09,0.0,5,7.16,0.0,0.0,0.0,26.7,6.6,0.9,1024,1024,1024,1024,0,0,0,0,50,4.982,74.84,165.68242,P-GPS,,50.5
1006,685100,2026-01-07 12:44:09,0.0,5,7.16,0.0,0.0,0.0,26.8,6.0,0.4,1024,1024,1024,1024,0,0,0,0,50,4.982,74.84,165.68242,P-GPS,,50.5
1007,685200,2026-01-07 12:44:10,0.0,5,7.16,0.0,0.0,0.0,26.8,5.8,0.4,1024,1024,1024,1024,0,0,0,0,50,4.982,74.84,165.68242,P-GPS,,50.5
1008,685300,2026-01-07 12:44:10,0.0,5,7.16,0.0,0.0,0.0,26.8,5.9,0.6,1024,1024,1024,1024,0,0,0,0,50,4.982,74.84,165.68242,P-GPS,,50.5
1009,685400,2026-01-07 12:44:10,0.0,5,7.16,0.0,0.0,0.0,26.8,6.0,1.0,1024,1024,1024,1024,0,0,0,0,50,4.982,74.84,165.68242,P-GPS,,50.5
1010,685500,2026-01-07 12:44:10,0.0,5,7.149,0.0,0.0,0.0,26.8,6.1,1.1,1024,1024,1024,1024,0,0,0,0,50,5.101,74.84,165.68242,P-GPS,,50.5
1011,685600,2026-01-07 12:44:10,0.0,5,7.149,0.0,0.0,0.0,26.8,5.8,1.1,1024,1024,1024,1024,0,0,0,0,50,5.101,74.84,165.68242,P-GPS,,50.5
1012,685700,2026-01-07 12:44:10,0.0,5,7.149,0.0,0.0,0.0,26.8,5.9,0.9,1024,1024,1024,1024,0,0,0,0,50,5.101,74.84,165.68242,P-GPS,,50.5
1013,685800,2026-01-07 12:44:10,0.0,5,7.149,0.0,0.0,0.0,26.7,6.1,1.3,1024,1024,1024,1024,0,0,0,0,50,5.101,74.84,165.68242,P-GPS,,50.5
1014,685900,2026-01-07 12:44:10,0.0,5,7.149,0.0,0.0,0.0,26.7,6.4,1.5,1024,1024,1024,1024,0,0,0,0,50,5.101,74.84,165.68242,P-GPS,,50.5
1015,686000,2026-01-07 12:44:10,0.0,5,7.149,0.0,0.0,0.0,26.8,6.7,2.0,1024,1024,1024,1024,0,0,0,0,50,5.101,74.84,165.68242,P-GPS,,50.5
1016,686100,2026-01-07 12:44:10,0.0,5,7.149,0.0,0.0,0.0,26.9,6.7,1.8,1024,1024,1024,1024,0,0,0,0,50,5.101,74.84,165.68242,P-GPS,,50.5
1017,686200,2026-01-07 12:44:10,0.0,5,7.149,0.0,0.0,0.0,26.8,6.7,1.2,1024,1024,1024,1024,0,0,0,0,50,5.101,74.84,165.68242,P-GPS,,50.5
1018,686300,2026-01-07 12:44:11,0.0,5,7.149,0.0,0.0,0.0,26.7,6.8,0.9,1024,1024,1024,1024,0,0,0,0,50,5.101,74.84,165.68242,P-GPS,,50.5
1019,686400,2026-01-07 12:44:11,0.0,5,7.149,0.0,0.0,0.0,26.7,7.0,0.8,1024,1024,1024,1024,0,0,0,0,50,5.101,74.84,165.68242,P-GPS,,50.5
1020,686500,2026-01-07 12:44:11,0.0,5,7.149,0.0,0.0,0.0,26.7,7.3,0.8,1024,1024,1024,1024,0,0,0,0,50,5.101,74.84,165.68242,P-GPS,,50.5
1021,686600,2026-01-07 12:44:11,0.0,5,7.161,0.0,0.0,0.0,26.6,7.8,0.9,1024,1024,1024,1024,0,0,0,0,50,4.81,74.84,165.68242,P-GPS,,50.5
1022,686700,2026-01-07 12:44:11,0.0,5,7.161,0.0,0.0,0.0,26.7,8.1,1.3,1024,1024,1024,1024,0,0,0,0,50,4.81,74.84,165.354336,P-GPS,,50.4
1023,686800,2026-01-07 12:44:11,0.0,5,7.161,0.0,0.0,0.0,26.7,8.1,1.6,1024,1024,1024,1024,0,0,0,0,50,4.81,74.84,165.354336,P-GPS,,50.4
1024,686900,2026-01-07 12:44:11,0.0,5,7.161,0.0,0.0,0.0,26.7,8.0,1.8,1024,1024,1024,1024,0,0,0,0,50,4.81,74.84,165.354336,P-GPS,,50.4
1025,687000,2026-01-07 12:44:11,0.0,5,7.161,0.0,0.0,0.0,26.7,7.7,1.8,1024,1024,1024,1024,0,0,0,0,50,4.81,74.84,165.354336,P-GPS,,50.4
1026,687100,2026-01-07 12:44:11,0.0,5,7.161,0.0,0.0,0.0,26.8,7.7,1.9,1024,1024,1024,1024,0,0,0,0,50,4.81,74.84,165.354336,P-GPS,,50.4
1027,687200,2026-01-07 12:44:12,0.0,5,7.161,0.0,0.0,0.0,26.9,8.1,2.2,1024,1024,1024,1024,0,0,0,0,50,4.81,74.84,165.354336,P-GPS,,50.4
1028,687300,2026-01-07 12:44:12,0.0,5,7.161,0.0,0.0,0.0,27.0,8.0,2.2,1024,1024,1024,1024,0,0,0,0,50,4.81,74.84,165.68242,P-GPS,,50.5
1029,687400,2026-01-07 12:44:12,0.0,5,7.161,0.0,0.0,0.0,27.0,7.7,1.5,1024,1024,1024,1024,0,0,0,0,50,4.81,74.84,165.68242,P-GPS,,50.5
1030,687500,2026-01-07 12:44:12,0.0,5,7.161,0.0,0.0,0.0,26.9,7.3,0.9,1024,1024,1024,1024,0,0,0,0,50,4.81,74.84,165.68242,P-GPS,,50.5
1031,687600,2026-01-07 12:44:12,0.0,5,7.161,0.0,0.0,0.0,26.9,7.1,0.6,1024,1024,1024,1024,0,0,0,0,50,4.81,74.84,165.68242,P-GPS,,50.5
1032,687700,2026-01-07 12:44:12,0.0,5,7.161,0.0,0.0,0.0,26.9,6.5,0.1,1024,1024,1024,1024,0,0,0,0,50,4.81,74.84,165.68242,P-GPS,,50.5
1033,687800,2026-01-07 12:44:12,0.0,5,7.161,0.0,0.0,0.0,26.8,6.4,0.0,1024,1024,1024,1024,0,0,0,0,50,4.81,74.84,165.68242,P-GPS,,50.5
1034,687900,2026-01-07 12:44:12,0.0,5,7.161,0.0,0.0,0.0,26.8,6.6,0.0,1024,1024,1024,1024,0,0,0,0,50,4.81,74.84,165.68242,P-GPS,,50.5
1035,688000,2026-01-07 12:44:12,0.0,5,7.161,0.0,0.0,0.0,26.9,6.8,0.0,1024,1024,1024,1024,0,0,0,0,50,4.81,74.84,165.68242,P-GPS,,50.5
1036,688100,2026-01-07 12:44:12,0.0,5,7.161,0.0,0.0,0.0,26.9,6.9,0.1,1024,1024,1024,1024,0,0,0,0,50,4.81,74.84,165.354336,P-GPS,,50.4
1037,688200,2026-01-07 12:44:13,0.0,5,7.161,0.0,0.0,0.0,26.8,6.6,0.0,1024,1024,1024,1024,0,0,0,0,50,4.81,74.84,165.354336,P-GPS,,50.4
1038,688300,2026-01-07 12:44:13,0.0,5,7.161,0.0,0.0,0.0,26.9,6.7,0.0,1024,1024,1024,1024,0,0,0,0,50,4.81,74.84,165.354336,P-GPS,,50.4
1039,688400,2026-01-07 12:44:13,0.0,5,7.161,0.0,0.0,0.0,26.9,6.5,-0.2,1024,1024,1024,1024,0,0,0,0,50,4.81,74.84,165.354336,P-GPS,,50.4
1040,688500,2026-01-07 12:44:13,0.0,5,7.161,0.0,0.0,0.0,26.8,6.7,0.0,1024,1024,1024,1024,0,0,0,0,50,4.81,74.84,165.354336,P-GPS,,50.4
1041,688600,2026-01-07 12:44:13,0.0,5,7.161,0.0,0.0,0.0,26.8,6.4,0.0,1024,1024,1024,1024,0,0,0,0,50,4.81,74.84,165.354336,P-GPS,,50.4
1042,688700,2026-01-07 12:44:13,0.0,5,7.161,0.0,0.0,0.0,26.9,6.5,0.1,1024,1024,1024,1024,0,0,0,0,50,4.81,74.84,165.354336,P-GPS,,50.4
1043,688800,2026-01-07 12:44:13,0.0,5,7.161,0.0,0.0,0.0,26.9,6.3,0.0,1024,1024,1024,1024,0,0,0,0,50,4.81,74.84,165.354336,P-GPS,,50.4
1044,688900,2026-01-07 12:44:13,0.0,5,7.145,0.0,0.0,0.0,26.9,6.2,-0.1,1024,1024,1024,1024,0,0,0,0,50,5.026,74.84,165.354336,P-GPS,,50.4
1045,689000,2026-01-07 12:44:13,0.0,5,7.145,0.0,0.0,0.0,26.9,6.3,-0.4,1024,1024,1024,1024,0,0,0,0,50,5.026,74.84,165.354336,P-GPS,,50.4
1046,689100,2026-01-07 12:44:13,0.0,5,7.145,0.0,0.0,0.0,26.8,6.1,-0.4,1024,1024,1024,1024,0,0,0,0,50,5.026,74.84,165.354336,P-GPS,,50.4
1047,689200,2026-01-07 12:44:14,0.0,5,7.145,0.0,0.0,0.0,26.8,6.2,-0.1,1024,1024,1024,1024,0,0,0,0,50,5.026,74.84,165.354336,P-GPS,,50.4
1048,689300,2026-01-07 12:44:14,0.0,5,7.145,0.0,0.0,0.0,26.8,6.4,0.1,1024,1024,1024,1024,0,0,0,0,50,5.026,74.84,165.354336,P-GPS,,50.4
1049,689400,2026-01-07 12:44:14,0.0,5,7.145,0.0,0.0,0.0,26.8,6.4,0.4,1024,1024,1024,1024,0,0,0,0,50,5.026,74.84,165.354336,P-GPS,,50.4
1050,689500,2026-01-07 12:44:14,0.0,5,7.145,0.0,0.0,0.0,26.9,6.0,0.7,1024,1024,1024,1024,0,0,0,0,50,5.026,74.84,165.354336,P-GPS,,50.4
1051,689600,2026-01-07 12:44:14,0.0,5,7.145,0.0,0.0,0.0,26.9,6.2,0.9,1024,1024,1024,1024,0,0,0,0,50,5.026,74.84,165.354336,P-GPS,,50.4
1052,689700,2026-01-07 12:44:14,0.0,5,7.145,0.0,0.0,0.0,26.8,5.9,1.1,1024,1024,1024,1024,0,0,0,0,50,5.026,74.84,165.354336,P-GPS,,50.4
1053,689800,2026-01-07 12:44:14,0.0,5,7.145,0.0,0.0,0.0,26.8,6.1,0.9,1024,1024,1024,1024,0,0,0,0,50,5.026,74.84,165.354336,P-GPS,,50.4
1054,689900,2026-01-07 12:44:14,0.0,5,7.145,0.0,0.0,0.0,26.7,6.0,1.1,1024,1024,1024,1024,0,0,0,0,50,5.026,74.84,165.354336,P-GPS,,50.4
1055,690000,2026-01-07 12:44:14,0.0,5,7.151,0.0,0.0,0.0,26.7,5.8,1.2,1024,1024,1024,1024,0,0,0,0,50,4.944,74.84,165.354336,P-GPS,,50.4
1056,690100,2026-01-07 12:44:15,0.0,5,7.151,0.0,0.0,0.0,26.7,6.1,1.5,1024,1024,1024,1024,0,0,0,0,50,4.944,74.84,165.354336,P-GPS,,50.4
1057,690200,2026-01-07 12:44:15,0.0,5,7.151,0.0,0.0,0.0,26.7,6.2,1.5,1024,1024,1024,1024,0,0,0,0,50,4.944,74.84,165.354336,P-GPS,,50.4
1058,690300,2026-01-07 12:44:15,0.0,5,7.151,0.0,0.0,0.0,26.7,5.8,2.0,1024,1024,1024,1024,0,0,0,0,50,4.944,74.84,165.354336,P-GPS,,50.4
1059,690400,2026-01-07 12:44:15,0.0,5,7.151,0.0,0.0,0.0,26.7,5.6,1.8,1024,1024,1024,1024,0,0,0,0,50,4.944,74.84,165.354336,P-GPS,,50.4
1060,690500,2026-01-07 12:44:15,0.0,5,7.151,0.0,0.0,0.0,26.8,5.7,1.6,1024,1024,1024,1024,0,0,0,0,50,4.944,74.84,165.354336,P-GPS,,50.4
1061,690600,2026-01-07 12:44:15,0.0,5,7.151,0.0,0.0,0.0,26.7,5.6,1.4,1024,1024,1024,1024,0,0,0,0,50,4.944,74.84,165.354336,P-GPS,,50.4
1062,690700,2026-01-07 12:44:15,0.0,5,7.151,0.0,0.0,0.0,26.7,6.1,1.2,1024,1024,1024,1024,0,0,0,0,50,4.944,74.84,165.354336,P-GPS,,50.4
1063,690800,2026-01-07 12:44:15,0.0,5,7.151,0.0,0.0,0.0,26.8,6.3,1.1,1024,1024,1024,1024,0,0,0,0,50,4.944,74.84,165.354336,P-GPS,,50.4
1064,690900,2026-01-07 12:44:15,0.0,5,7.151,0.0,0.0,0.0,26.8,6.5,0.8,1024,1024,1024,1024,0,0,0,0,50,4.944,74.84,165.354336,P-GPS,,50.4
1065,691000,2026-01-07 12:44:15,0.0,5,7.151,0.0,0.0,0.0,26.7,6.1,0.6,1024,1024,1024,1024,0,0,0,0,50,4.944,74.84,165.354336,P-GPS,,50.4
1066,691100,2026-01-07 12:44:15,0.0,5,7.154,0.0,0.0,0.0,26.7,6.1,0.9,1024,1024,1024,1024,0,0,0,0,50,4.989,74.84,165.354336,P-GPS,,50.4
1067,691200,2026-01-07 12:44:16,0.0,5,7.154,0.0,0.0,0.0,26.8,6.1,1.5,1024,1024,1024,1024,0,0,0,0,50,4.989,74.84,165.354336,P-GPS,,50.4
1068,691300,2026-01-07 12:44:16,0.0,5,7.154,0.0,0.0,0.0,26.8,5.9,1.5,1024,1024,1024,1024,0,0,0,0,50,4.989,74.84,165.354336,P-GPS,,50.4
1069,691400,2026-01-07 12:44:16,0.0,5,7.154,0.0,0.0,0.0,26.8,5.8,1.9,1024,1024,1024,1024,0,0,0,0,50,4.989,74.84,165.354336,P-GPS,,50.4
1070,691500,2026-01-07 12:44:16,0.0,5,7.154,0.0,0.0,0.0,26.8,5.8,2.2,1024,1024,1024,1024,0,0,0,0,50,4.989,74.84,165.354336,P-GPS,,50.4
1071,691600,2026-01-07 12:44:16,0.0,5,7.154,0.0,0.0,0.0,26.8,6.0,2.4,1024,1024,1024,1024,0,0,0,0,50,4.989,74.84,165.354336,P-GPS,,50.4
1072,691700,2026-01-07 12:44:16,0.0,5,7.154,0.0,0.0,0.0,26.9,5.8,2.4,1024,1024,1024,1024,0,0,0,0,50,4.989,74.84,165.354336,P-GPS,,50.4
1073,691800,2026-01-07 12:44:16,0.0,5,7.154,0.0,0.0,0.0,26.8,5.8,2.6,1024,1024,1024,1024,0,0,0,0,50,4.989,74.84,165.354336,P-GPS,,50.4
1074,691900,2026-01-07 12:44:16,0.0,5,7.154,0.0,0.0,0.0,26.9,5.8,2.2,1024,1024,1024,1024,0,0,0,0,50,4.989,74.84,165.354336,P-GPS,,50.4
1075,692000,2026-01-07 12:44:16,0.0,5,7.154,0.0,0.0,0.0,26.9,5.7,1.9,1024,1024,1024,1024,0,0,0,0,50,4.989,74.84,165.354336,P-GPS,,50.4
1076,692100,2026-01-07 12:44:16,0.0,5,7.154,0.0,0.0,0.0,26.9,5.6,1.4,1024,1024,1024,1024,0,0,0,0,50,4.989,74.84,165.354336,P-GPS,,50.4
1077,692200,2026-01-07 12:44:17,0.0,5,7.144,0.0,0.0,0.0,26.9,5.7,0.9,1024,1024,1024,1024,0,0,0,0,50,5.031,74.84,165.354336,P-GPS,,50.4
1078,692300,2026-01-07 12:44:17,0.0,5,7.144,0.0,0.0,0.0,26.9,5.6,0.4,1024,1024,1024,1024,0,0,0,0,50,5.031,74.84,165.354336,P-GPS,,50.4
1079,692400,2026-01-07 12:44:17,0.0,5,7.144,0.0,0.0,0.0,26.9,5.3,0.4,1024,1024,1024,1024,0,0,0,0,50,5.031,74.84,165.354336,P-GPS,,50.4
1080,692500,2026-01-07 12:44:17,0.0,5,7.144,0.0,0.0,0.0,26.9,5.3,0.1,1024,1024,1024,1024,0,0,0,0,50,5.031,74.84,165.354336,P-GPS,,50.4
1081,692600,2026-01-07 12:44:17,0.0,5,7.144,0.0,0.0,0.0,26.9,5.4,0.0,1024,1024,1024,1024,0,0,0,0,50,5.031,74.84,165.354336,P-GPS,,50.4
1082,692700,2026-01-07 12:44:17,0.0,5,7.144,0.0,0.0,0.0,26.9,5.7,0.0,1024,1024,1024,1024,0,0,0,0,50,5.031,74.84,165.354336,P-GPS,,50.4
1083,692800,2026-01-07 12:44:17,0.0,5,7.144,0.0,0.0,0.0,26.9,6.0,0.0,1024,1024,1024,1024,0,0,0,0,50,5.031,74.84,165.354336,P-GPS,,50.4
1084,692900,2026-01-07 12:44:17,0.0,5,7.144,0.0,0.0,0.0,26.9,5.9,0.0,1024,1024,1024,1024,0,0,0,0,50,5.031,74.84,165.354336,P-GPS,,50.4
1085,693000,2026-01-07 12:44:17,0.0,5,7.144,0.0,0.0,0.0,26.9,6.0,0.2,1024,1024,1024,1024,0,0,0,0,50,5.031,74.84,165.354336,P-GPS,,50.4
1086,693100,2026-01-07 12:44:17,0.0,5,7.144,0.0,0.0,0.0,26.9,6.3,0.4,1024,1024,1024,1024,0,0,0,0,50,5.031,74.84,165.354336,P-GPS,,50.4
1087,693200,2026-01-07 12:44:18,0.0,5,7.144,0.0,0.0,0.0,26.8,6.1,0.6,1024,1024,1024,1024,0,0,0,0,50,5.031,74.84,165.354336,P-GPS,,50.4
1088,693300,2026-01-07 12:44:18,0.0,5,7.144,0.0,0.0,0.0,26.8,6.1,0.8,1024,1024,1024,1024,0,0,0,0,50,5.031,74.84,165.354336,P-GPS,,50.4
1089,693400,2026-01-07 12:44:18,0.0,5,7.119,0.0,0.0,0.0,26.8,6.4,0.7,1024,1024,1024,1024,0,0,0,0,50,5.315,74.84,165.68242,P-GPS,,50.5
1090,693500,2026-01-07 12:44:18,0.0,5,7.119,0.0,0.0,0.0,26.9,6.3,0.2,1024,1024,1024,1024,0,0,0,0,50,5.315,74.84,165.68242,P-GPS,,50.5
1091,693600,2026-01-07 12:44:18,0.0,5,7.119,0.0,0.0,0.0,26.9,6.7,0.0,1024,1024,1024,1024,0,0,0,0,50,5.315,74.84,165.68242,P-GPS,,50.5
1092,693700,2026-01-07 12:44:18,0.0,5,7.119,0.0,0.0,0.0,26.9,6.8,-0.2,1024,1024,1024,1024,0,0,0,0,50,5.315,74.84,165.68242,P-GPS,,50.5
1093,693800,2026-01-07 12:44:18,0.0,5,7.119,0.0,0.0,0.0,26.8,6.7,0.0,1024,1024,1024,1024,0,0,0,0,50,5.315,74.84,165.68242,P-GPS,,50.5
1094,693900,2026-01-07 12:44:18,0.0,5,7.119,0.0,0.0,0.0,26.8,6.8,0.0,1024,1024,1024,1024,0,0,0,0,50,5.315,74.84,165.68242,P-GPS,,50.5
1095,694000,2026-01-07 12:44:18,0.0,5,7.119,0.0,0.0,0.0,26.9,6.5,0.3,1024,1024,1024,1024,0,0,0,0,50,5.315,74.84,165.68242,P-GPS,,50.5
1096,694100,2026-01-07 12:44:18,0.0,5,7.119,0.0,0.0,0.0,26.8,5.9,0.5,1024,1024,1024,1024,0,0,0,0,50,5.315,74.84,165.68242,P-GPS,,50.5
1097,694200,2026-01-07 12:44:19,0.0,5,7.119,0.0,0.0,0.0,26.8,5.5,0.5,1024,1024,1024,1024,0,0,0,0,50,5.315,74.84,165.68242,P-GPS,,50.5
1098,694300,2026-01-07 12:44:19,0.0,5,7.119,0.0,0.0,0.0,26.9,5.5,0.2,1024,1024,1024,1024,0,0,0,0,50,5.315,74.84,165.68242,P-GPS,,50.5
1099,694400,2026-01-07 12:44:19,0.0,5,7.119,0.0,0.0,0.0,26.9,5.4,-0.2,1024,1024,1024,1024,0,0,0,0,50,5.315,74.84,165.68242,P-GPS,,50.5
1100,694500,2026-01-07 12:44:19,0.0,5,7.133,0.0,0.0,0.0,26.9,5.6,-0.5,1024,1024,1024,1024,0,0,0,0,50,5.269,74.84,165.68242,P-GPS,,50.5
1101,694600,2026-01-07 12:44:19,0.0,5,7.133,0.0,0.0,0.0,26.9,5.8,-0.7,1024,1024,1024,1024,0,0,0,0,50,5.269,74.84,165.68242,P-GPS,,50.5
1102,694700,2026-01-07 12:44:19,0.0,5,7.133,0.0,0.0,0.0,26.9,6.2,-0.9,1024,1024,1024,1024,0,0,0,0,50,5.269,74.84,165.68242,P-GPS,,50.5
1103,694800,2026-01-07 12:44:19,0.0,5,7.133,0.0,0.0,0.0,26.8,6.4,-0.8,1024,1024,1024,1024,0,0,0,0,50,5.269,74.84,165.68242,P-GPS,,50.5
1104,694900,2026-01-07 12:44:19,0.0,5,7.133,0.0,0.0,0.0,26.8,6.4,-0.3,1024,1024,1024,1024,0,0,0,0,50,5.269,74.84,165.68242,P-GPS,,50.5
1105,695000,2026-01-07 12:44:19,0.0,5,7.133,0.0,0.0,0.0,26.8,6.0,0.0,1024,1024,1024,1024,0,0,0,0,50,5.269,74.84,165.354336,P-GPS,,50.4
1106,695100,2026-01-07 12:44:19,0.0,5,7.133,0.0,0.0,0.0,26.9,5.8,0.1,1024,1024,1024,1024,0,0,0,0,50,5.269,74.84,165.354336,P-GPS,,50.4
1107,695200,2026-01-07 12:44:20,0.0,5,7.133,0.0,0.0,0.0,26.8,5.8,0.1,1024,1024,1024,1024,0,0,0,0,50,5.269,74.84,165.354336,P-GPS,,50.4
1108,695300,2026-01-07 12:44:20,0.0,5,7.133,0.0,0.0,0.0,26.8,6.0,0.0,1024,1024,1024,1024,0,0,0,0,50,5.269,74.84,165.354336,P-GPS,,50.4
1109,695400,2026-01-07 12:44:20,0.0,5,7.133,0.0,0.0,0.0,26.8,6.1,0.0,1024,1024,1024,1024,0,0,0,0,50,5.269,74.84,165.354336,P-GPS,,50.4
1110,695500,2026-01-07 12:44:20,0.0,5,7.133,0.0,0.0,0.0,26.8,6.4,-0.1,1024,1024,1024,1024,0,0,0,0,50,5.269,74.84,165.354336,P-GPS,,50.4
1111,695600,2026-01-07 12:44:20,0.0,5,7.133,0.0,0.0,0.0,26.8,6.6,-0.1,1024,1024,1024,1024,0,0,0,0,50,5.269,74.84,165.354336,P-GPS,,50.4
1112,695700,2026-01-07 12:44:20,0.0,5,7.133,0.0,0.0,0.0,26.8,6.6,-0.1,1024,1024,1024,1024,0,0,0,0,49,5.269,74.84,165.354336,P-GPS,,50.4
1113,695800,2026-01-07 12:44:20,0.0,5,7.133,0.0,0.0,0.0,26.7,6.8,0.0,1024,1024,1024,1024,0,0,0,0,49,5.269,74.84,165.68242,P-GPS,,50.5
1114,695900,2026-01-07 12:44:20,0.0,5,7.133,0.0,0.0,0.0,26.7,6.6,-0.1,1024,1024,1024,1024,0,0,0,0,49,5.269,74.84,165.68242,P-GPS,,50.5
1115,696000,2026-01-07 12:44:20,0.0,5,7.133,0.0,0.0,0.0,26.8,7.1,0.0,1024,1024,1024,1024,0,0,0,0,49,5.269,74.84,165.68242,P-GPS,,50.5
1116,696100,2026-01-07 12:44:20,0.0,5,7.133,0.0,0.0,0.0,26.9,7.1,-0.1,1024,1024,1024,1024,0,0,0,0,49,5.269,74.84,165.68242,P-GPS,,50.5
1117,696200,2026-01-07 12:44:21,0.0,5,7.133,0.0,0.0,0.0,26.8,7.0,0.0,1024,1024,1024,1024,0,0,0,0,49,5.269,74.84,165.68242,P-GPS,,50.5
1118,696300,2026-01-07 12:44:21,0.0,5,7.133,0.0,0.0,0.0,26.7,7.1,0.4,1024,1024,1024,1024,0,0,0,0,49,5.269,74.84,165.354336,P-GPS,,50.4
1119,696400,2026-01-07 12:44:21,0.0,5,7.133,0.0,0.0,0.0,26.8,7.0,0.5,1024,1024,1024,1024,0,0,0,0,49,5.269,74.84,165.354336,P-GPS,,50.4
1120,696500,2026-01-07 12:44:21,0.0,5,7.133,0.0,0.0,0.0,26.7,6.9,0.5,1024,1024,1024,1024,0,0,0,0,49,5.269,74.84,165.354336,P-GPS,,50.4
1121,696600,2026-01-07 12:44:21,0.0,5,7.133,0.0,0.0,0.0,26.8,7.0,0.7,1024,1024,1024,1024,0,0,0,0,49,5.269,74.84,165.354336,P-GPS,,50.4
1122,696700,2026-01-07 12:44:21,0.0,5,7.125,0.0,0.0,0.0,26.7,6.9,0.7,1024,1024,1024,1024,0,0,0,0,49,5.389,75.02,165.354336,P-GPS,,50.4
1123,696800,2026-01-07 12:44:21,0.0,5,7.125,0.0,0.0,0.0,26.7,6.9,1.1,1024,1024,1024,1024,0,0,0,0,49,5.389,75.02,165.354336,P-GPS,,50.4
1124,696900,2026-01-07 12:44:21,0.0,5,7.125,0.0,0.0,0.0,26.7,6.3,1.1,1024,1024,1024,1024,0,0,0,0,49,5.389,75.02,165.354336,P-GPS,,50.4
1125,697000,2026-01-07 12:44:21,0.0,5,7.125,0.0,0.0,0.0,26.7,6.1,1.1,1024,1024,1024,1024,0,0,0,0,49,5.389,75.02,165.354336,P-GPS,,50.4
1126,697100,2026-01-07 12:44:21,0.0,5,7.125,0.0,0.0,0.0,26.7,6.0,1.2,1024,1024,1024,1024,0,0,0,0,49,5.389,75.02,165.354336,P-GPS,,50.4
1127,697200,2026-01-07 12:44:22,0.0,5,7.125,0.0,0.0,0.0,26.7,6.2,1.3,1024,1024,1024,1024,0,0,0,0,49,5.389,75.02,165.354336,P-GPS,,50.4
1128,697300,2026-01-07 12:44:22,0.0,5,7.125,0.0,0.0,0.0,26.7,6.4,1.3,1024,1024,1024,1024,0,0,0,0,49,5.389,75.02,165.354336,P-GPS,,50.4
1129,697400,2026-01-07 12:44:22,0.0,5,7.125,0.0,0.0,0.0,26.7,6.5,1.6,1024,1024,1024,1024,0,0,0,0,49,5.389,75.02,165.354336,P-GPS,,50.4
1130,697500,2026-01-07 12:44:22,0.0,5,7.125,0.0,0.0,0.0,26.7,6.4,1.7,1024,1024,1024,1024,0,0,0,0,49,5.389,75.02,165.354336,P-GPS,,50.4
1131,697600,2026-01-07 12:44:22,0.0,5,7.125,0.0,0.0,0.0,26.8,6.1,1.8,1024,1024,1024,1024,0,0,0,0,49,5.389,75.02,165.354336,P-GPS,,50.4
1132,697700,2026-01-07 12:44:22,0.0,5,7.125,0.0,0.0,0.0,26.8,6.2,1.6,1024,1024,1024,1024,0,0,0,0,49,5.389,75.02,165.354336,P-GPS,,50.4
1133,697800,2026-01-07 12:44:22,0.0,5,7.13,0.0,0.0,0.0,26.7,6.2,1.4,1024,1024,1024,1024,0,0,0,0,49,5.295,75.02,165.354336,P-GPS,,50.4
1134,697900,2026-01-07 12:44:22,0.0,5,7.13,0.0,0.0,0.0,26.7,6.1,1.3,1024,1024,1024,1024,0,0,0,0,49,5.295,75.02,165.354336,P-GPS,,50.4
1135,698000,2026-01-07 12:44:22,0.0,5,7.13,0.0,0.0,0.0,26.7,5.8,1.4,1024,1024,1024,1024,0,0,0,0,49,5.295,75.02,165.354336,P-GPS,,50.4
1136,698100,2026-01-07 12:44:22,0.0,5,7.13,0.0,0.0,0.0,26.7,5.6,1.5,1024,1024,1024,1024,0,0,0,0,49,5.295,75.02,165.026252,P-GPS,,50.3
1137,698200,2026-01-07 12:44:23,0.0,5,7.13,0.0,0.0,0.0,26.7,5.3,1.5,1024,1024,1024,1024,0,0,0,0,49,5.295,75.02,165.026252,P-GPS,,50.3
1138,698300,2026-01-07 12:44:23,0.0,5,7.13,0.0,0.0,0.0,26.7,5.2,1.6,1024,1024,1024,1024,0,0,0,0,49,5.295,75.02,165.026252,P-GPS,,50.3
1139,698400,2026-01-07 12:44:23,0.0,5,7.13,0.0,0.0,0.0,26.7,5.3,1.6,1024,1024,1024,1024,0,0,0,0,49,5.295,75.02,165.026252,P-GPS,,50.3
1140,698500,2026-01-07 12:44:23,0.0,5,7.13,0.0,0.0,0.0,26.7,5.2,1.7,1024,1024,1024,1024,0,0,0,0,49,5.295,75.02,165.026252,P-GPS,,50.3
1141,698600,2026-01-07 12:44:23,0.0,5,7.13,0.0,0.0,0.0,26.7,5.3,1.9,1024,1024,1024,1024,0,0,0,0,49,5.295,75.02,165.026252,P-GPS,,50.3
1142,698700,2026-01-07 12:44:23,0.0,5,7.13,0.0,0.0,0.0,26.7,5.4,2.1,1024,1024,1024,1024,0,0,0,0,49,5.295,75.02,165.026252,P-GPS,,50.3
1143,698800,2026-01-07 12:44:23,0.0,5,7.13,0.0,0.0,0.0,26.7,5.6,2.0,1024,1024,1024,1024,0,0,0,0,49,5.295,75.02,165.026252,P-GPS,,50.3
1144,698900,2026-01-07 12:44:23,0.0,5,7.13,0.0,0.0,0.0,26.7,5.6,2.1,1024,1024,1024,1024,0,0,0,0,49,5.295,75.02,165.026252,P-GPS,,50.3
1145,699000,2026-01-07 12:44:23,0.0,5,7.135,0.0,0.0,0.0,26.7,5.5,1.9,1024,1024,1024,1024,0,0,0,0,49,5.099,75.02,165.026252,P-GPS,,50.3
1146,699100,2026-01-07 12:44:23,0.0,5,7.135,0.0,0.0,0.0,26.7,5.3,1.7,1024,1024,1024,1024,0,0,0,0,49,5.099,75.02,165.026252,P-GPS,,50.3
1147,699200,2026-01-07 12:44:24,0.0,5,7.135,0.0,0.0,0.0,26.7,5.1,1.6,1024,1024,1024,1024,0,0,0,0,49,5.099,75.02,165.026252,P-GPS,,50.3
1148,699300,2026-01-07 12:44:24,0.0,5,7.135,0.0,0.0,0.0,26.7,5.0,1.5,1024,1024,1024,1024,0,0,0,0,49,5.099,75.02,165.026252,P-GPS,,50.3
1149,699400,2026-01-07 12:44:24,0.0,5,7.135,0.0,0.0,0.0,26.7,5.1,1.5,1024,1024,1024,1024,0,0,0,0,49,5.099,75.02,165.026252,P-GPS,,50.3
1150,699500,2026-01-07 12:44:24,0.0,5,7.135,0.0,0.0,0.0,26.8,5.2,1.5,1024,1024,1024,1024,0,0,0,0,49,5.099,75.02,165.026252,P-GPS,,50.3
