time(millisecond),timestamp,speed(mph),gpslevel,voltage(v),xSpeed(mph),ySpeed(mph),zSpeed(mph),compass_heading(degrees),pitch(degrees),roll(degrees),rc_elevator,rc_aileron,rc_throttle,rc_rudder,rc_elevator(percent),rc_aileron(percent),rc_throttle(percent),rc_rudder(percent),battery_percent,current(A),battery_temperature(f),ascent(feet),flycState,message,height_above_takeoff(meters)
630100,2026-01-07 12:43:14,0.0,5,7.178,0.0,0.0,-4.250186,26.8,5.8,0.8,1024,1024,1684,1024,0,0,100,0,54,6.071,74.12,92.519688,P-GPS,,28.2
630200,2026-01-07 12:43:15,0.0,5,7.178,0.0,0.0,-4.250186,26.8,5.4,0.9,1024,1024,1684,1024,0,0,100,0,54,6.071,74.12,93.175856,P-GPS,,28.4
630300,2026-01-07 12:43:15,0.0,5,7.178,0.0,0.0,-4.47388,26.7,5.4,1.0,1024,1024,1684,1024,0,0,100,0,54,6.071,74.12,93.832024,P-GPS,,28.6
630400,2026-01-07 12:43:15,0.0,5,7.178,0.0,0.0,-4.47388,26.8,5.7,0.8,1024,1024,1684,1024,0,0,100,0,54,6.071,74.12,94.488192,P-GPS,,28.8
630500,2026-01-07 12:43:15,0.0,5,7.178,0.0,0.0,-4.47388,26.8,5.4,1.1,1024,1024,1684,1024,0,0,100,0,54,6.071,74.12,95.14436,P-GPS,,29.0
630600,2026-01-07 12:43:15,0.0,5,7.178,0.0,0.0,-4.47388,26.8,4.6,1.1,1024,1024,1684,1024,0,0,100,0,54,6.071,74.12,95.800528,P-GPS,,29.2
630700,2026-01-07 12:43:15,0.0,5,7.178,0.0,0.0,-4.250186,26.7,4.8,0.9,1024,1024,1024,1024,0,0,0,0,54,6.071,74.12,96.456696,P-GPS,,29.4
630800,2026-01-07 12:43:15,0.0,5,7.178,0.0,0.0,-4.250186,26.7,4.4,1.2,1024,1024,1024,1024,0,0,0,0,54,6.071,74.12,97.112864,P-GPS,,29.6
630900,2026-01-07 12:43:15,0.0,5,7.178,0.0,0.0,-4.47388,26.8,5.1,1.3,1024,1024,1024,1024,0,0,0,0,54,6.071,74.12,97.769032,P-GPS,,29.8
631000,2026-01-07 12:43:15,0.0,5,7.178,0.0,0.0,-4.250186,26.8,5.3,1.4,1024,1024,1024,1024,0,0,0,0,54,6.071,74.12,98.4252,P-GPS,,30.0
631100,2026-01-07 12:43:15,0.0,5,7.178,0.0,0.0,-3.579104,26.9,5.7,1.4,1024,1024,1024,1024,0,0,0,0,54,6.071,74.12,99.081368,P-GPS,,30.2
631200,2026-01-07 12:43:16,0.0,5,7.178,0.0,0.0,-2.908022,26.8,5.8,1.4,1024,1024,1024,1024,0,0,0,0,54,6.071,74.12,99.409452,P-GPS,,30.3
631300,2026-01-07 12:43:16,0.0,5,7.178,0.0,0.0,-2.23694,26.8,5.7,1.0,1024,1024,1024,1024,0,0,0,0,54,6.071,74.12,99.737536,P-GPS,,30.4
631400,2026-01-07 12:43:16,0.0,5,7.178,0.0,0.0,-1.342164,26.7,5.8,1.0,1024,1024,1024,1024,0,0,0,0,54,6.071,74.12,100.06562,P-GPS,,30.5
631500,2026-01-07 12:43:16,0.0,5,7.178,0.0,0.0,-0.671082,26.6,6.3,0.8,1024,1024,1024,1024,0,0,0,0,54,6.071,74.12,100.393704,P-GPS,,30.6
631600,2026-01-07 12:43:16,0.0,5,7.178,0.0,0.0,-0.223694,26.7,6.4,1.2,1024,1024,1024,1024,0,0,0,0,54,6.071,74.12,100.393704,P-GPS,,30.6
631700,2026-01-07 12:43:16,0.0,5,7.294,0.0,0.0,0.0,26.8,6.4,1.4,1024,1024,1024,1024,0,0,0,0,54,4.464,74.12,100.393704,P-GPS,,30.6
631800,2026-01-07 12:43:16,0.0,5,7.294,0.0,0.0,0.0,26.9,6.3,1.7,1024,1024,1024,1024,0,0,0,0,54,4.464,74.12,100.393704,P-GPS,,30.6
631900,2026-01-07 12:43:16,0.0,5,7.294,0.0,0.0,0.0,26.9,6.1,1.7,1024,1024,1024,1024,0,0,0,0,54,4.464,74.12,100.393704,P-GPS,,30.6
632000,2026-01-07 12:43:16,0.0,5,7.294,0.0,0.0,0.0,26.9,6.2,1.9,1024,1024,1024,1024,0,0,0,0,54,4.464,74.12,100.393704,P-GPS,,30.6
632100,2026-01-07 12:43:16,0.0,5,7.294,0.0,0.0,0.0,26.9,6.1,1.9,1024,1024,1024,1024,0,0,0,0,54,4.464,74.12,100.393704,P-GPS,,30.6
632200,2026-01-07 12:43:17,0.0,5,7.294,0.0,0.0,0.0,26.9,5.9,2.1,1024,1024,1024,1024,0,0,0,0,54,4.464,74.12,100.393704,P-GPS,,30.6
632300,2026-01-07 12:43:17,0.0,5,7.294,0.0,0.0,0.0,26.9,5.8,2.4,1024,1024,1024,1024,0,0,0,0,54,4.464,74.12,100.393704,P-GPS,,30.6
632400,2026-01-07 12:43:17,0.0,5,7.294,0.0,0.0,0.0,26.9,5.9,2.5,1024,1024,1024,1024,0,0,0,0,54,4.464,74.12,100.393704,P-GPS,,30.6
632500,2026-01-07 12:43:17,0.0,5,7.294,0.0,0.0,0.0,26.9,6.1,2.5,1024,1024,1024,1024,0,0,0,0,54,4.464,74.12,100.393704,P-GPS,,30.6
632600,2026-01-07 12:43:17,0.0,5,7.294,0.0,0.0,0.0,26.8,5.9,2.5,1024,1024,1024,1024,0,0,0,0,54,4.464,74.12,100.393704,P-GPS,,30.6
632700,2026-01-07 12:43:17,0.0,5,7.294,0.0,0.0,0.0,26.8,5.8,2.9,1024,1024,1024,1024,0,0,0,0,54,4.464,74.12,100.393704,P-GPS,,30.6
632800,2026-01-07 12:43:17,0.0,5,7.294,0.0,0.0,0.0,26.9,5.8,2.9,1024,1024,1024,1024,0,0,0,0,54,4.464,74.12,100.393704,P-GPS,,30.6
632900,2026-01-07 12:43:17,0.0,5,7.233,0.0,0.0,0.0,26.9,6.0,2.6,1024,1024,1024,1024,0,0,0,0,54,4.718,74.12,100.393704,P-GPS,,30.6
633000,2026-01-07 12:43:17,0.0,5,7.233,0.0,0.0,0.0,26.9,6.1,2.5,1024,1024,1024,1024,0,0,0,0,54,4.718,74.12,100.06562,P-GPS,,30.5
633100,2026-01-07 12:43:17,0.0,5,7.233,0.0,0.0,0.0,26.9,6.1,2.3,1024,1024,1024,1024,0,0,0,0,54,4.718,74.12,100.06562,P-GPS,,30.5
633200,2026-01-07 12:43:18,0.0,5,7.233,0.0,0.0,0.0,26.9,6.3,2.2,1024,1024,1024,1024,0,0,0,0,54,4.718,74.12,100.06562,P-GPS,,30.5
633300,2026-01-07 12:43:18,0.0,5,7.233,0.0,0.0,0.0,26.9,6.3,2.0,1024,1024,1024,1024,0,0,0,0,54,4.718,74.12,100.06562,P-GPS,,30.5
633400,2026-01-07 12:43:18,0.0,5,7.233,0.0,0.0,0.0,26.8,6.3,1.7,1024,1024,1024,1024,0,0,0,0,54,4.718,74.12,100.06562,P-GPS,,30.5
633500,2026-01-07 12:43:18,0.0,5,7.233,0.0,0.0,0.0,26.9,6.3,1.6,1024,1024,1024,1024,0,0,0,0,54,4.718,74.12,100.06562,P-GPS,,30.5
633600,2026-01-07 12:43:18,0.0,5,7.233,0.0,0.0,0.0,26.9,6.5,1.6,1024,1024,1024,1024,0,0,0,0,54,4.718,74.12,100.06562,P-GPS,,30.5
633700,2026-01-07 12:43:18,0.0,5,7.233,0.0,0.0,0.0,26.9,6.4,1.5,1024,1024,1024,1024,0,0,0,0,54,4.718,74.12,100.06562,P-GPS,,30.5
633800,2026-01-07 12:43:18,0.0,5,7.233,0.0,0.0,0.0,26.9,6.4,1.4,1024,1024,1024,1024,0,0,0,0,54,4.718,74.12,100.06562,P-GPS,,30.5
633900,2026-01-07 12:43:18,0.0,5,7.233,0.0,0.0,0.0,26.9,6.3,1.3,1024,1024,1024,1024,0,0,0,0,54,4.718,74.12,99.737536,P-GPS,,30.4
634000,2026-01-07 12:43:18,0.0,5,7.234,0.0,0.0,0.0,26.9,6.1,1.2,1024,1024,1024,1024,0,0,0,0,54,4.681,74.3,99.737536,P-GPS,,30.4
634100,2026-01-07 12:43:19,0.0,5,7.234,0.0,0.0,0.0,26.8,6.3,0.9,1024,1024,1024,1024,0,0,0,0,54,4.681,74.3,99.737536,P-GPS,,30.4
634200,2026-01-07 12:43:19,0.0,5,7.234,0.0,0.0,0.0,26.8,6.3,0.8,1024,1024,1024,1024,0,0,0,0,54,4.681,74.3,99.737536,P-GPS,,30.4
634300,2026-01-07 12:43:19,0.0,5,7.234,0.0,0.0,0.0,26.8,6.6,0.9,1024,1024,1024,1024,0,0,0,0,54,4.681,74.3,99.737536,P-GPS,,30.4
634400,2026-01-07 12:43:19,0.0,5,7.234,0.0,0.0,0.0,26.9,6.6,0.8,1024,1024,1024,1024,0,0,0,0,54,4.681,74.3,99.737536,P-GPS,,30.4
634500,2026-01-07 12:43:19,0.0,5,7.234,0.0,0.0,0.0,26.9,7.1,0.7,1024,1024,1024,1024,0,0,0,0,54,4.681,74.3,99.737536,P-GPS,,30.4
634600,2026-01-07 12:43:19,0.0,5,7.234,0.0,0.0,0.0,27.0,6.9,0.6,1024,1024,1024,1024,0,0,0,0,54,4.681,74.3,99.737536,P-GPS,,30.4
634700,2026-01-07 12:43:19,0.0,5,7.234,0.0,0.0,0.0,26.9,7.0,0.6,1024,1024,1024,1024,0,0,0,0,54,4.681,74.3,99.737536,P-GPS,,30.4
634800,2026-01-07 12:43:19,0.0,5,7.234,0.0,0.0,0.0,26.8,6.5,0.3,1024,1024,1024,1024,0,0,0,0,54,4.681,74.3,99.737536,P-GPS,,30.4
634900,2026-01-07 12:43:19,0.0,5,7.234,0.0,0.0,0.0,26.8,6.5,0.9,1024,1024,1024,1024,0,0,0,0,54,4.681,74.3,99.737536,P-GPS,,30.4
635000,2026-01-07 12:43:19,0.0,5,7.234,0.0,0.0,0.0,26.8,6.3,1.4,1024,1024,1024,1024,0,0,0,0,54,4.681,74.3,99.737536,P-GPS,,30.4
635100,2026-01-07 12:43:19,0.0,5,7.227,0.0,0.0,0.0,26.8,5.9,1.7,1024,1024,1024,1024,0,0,0,0,54,4.841,74.12,99.737536,P-GPS,,30.4
635200,2026-01-07 12:43:20,0.0,5,7.227,0.0,0.0,0.0,26.8,5.7,1.6,1024,1024,1024,1024,0,0,0,0,54,4.841,74.12,99.737536,P-GPS,,30.4
635300,2026-01-07 12:43:20,0.0,5,7.227,0.0,0.0,0.0,26.8,5.7,2.0,1024,1024,1024,1024,0,0,0,0,54,4.841,74.12,99.737536,P-GPS,,30.4
635400,2026-01-07 12:43:20,0.0,5,7.227,0.0,0.0,0.0,26.8,5.6,2.1,1024,1024,1024,1024,0,0,0,0,54,4.841,74.12,99.737536,P-GPS,,30.4
635500,2026-01-07 12:43:20,0.0,5,7.227,0.0,0.0,0.0,26.9,5.8,2.1,1024,1024,1024,1024,0,0,0,0,54,4.841,74.12,99.737536,P-GPS,,30.4
635600,2026-01-07 12:43:20,0.0,5,7.227,0.0,0.0,0.0,26.9,5.8,1.6,1024,1024,1024,1024,0,0,0,0,54,4.841,74.12,99.737536,P-GPS,,30.4
635700,2026-01-07 12:43:20,0.0,5,7.227,0.0,0.0,0.0,26.9,5.7,1.1,1024,1024,1024,1024,0,0,0,0,54,4.841,74.12,99.737536,P-GPS,,30.4
635800,2026-01-07 12:43:20,0.0,5,7.227,0.0,0.0,0.0,26.8,5.8,1.1,1024,1024,1024,1024,0,0,0,0,54,4.841,74.12,99.737536,P-GPS,,30.4
635900,2026-01-07 12:43:20,0.0,5,7.227,0.0,0.0,0.0,26.8,5.9,1.3,1024,1024,1024,1024,0,0,0,0,54,4.841,74.12,99.737536,P-GPS,,30.4
636000,2026-01-07 12:43:20,0.0,5,7.227,0.0,0.0,0.0,26.8,5.8,1.4,1024,1024,1024,1024,0,0,0,0,54,4.841,74.12,99.737536,P-GPS,,30.4
636100,2026-01-07 12:43:20,0.0,5,7.227,0.0,0.0,0.0,26.8,5.8,1.4,1024,1024,1024,1024,0,0,0,0,54,4.841,74.12,100.06562,P-GPS,,30.5
636200,2026-01-07 12:43:21,0.0,5,7.224,0.0,0.0,0.0,26.8,5.5,1.5,1024,1024,1024,1024,0,0,0,0,54,4.828,74.12,100.06562,P-GPS,,30.5
636300,2026-01-07 12:43:21,0.0,5,7.224,0.0,0.0,0.0,26.8,5.5,1.7,1024,1024,1024,1024,0,0,0,0,54,4.828,74.12,100.06562,P-GPS,,30.5
636400,2026-01-07 12:43:21,0.0,5,7.224,0.0,0.0,0.0,26.9,5.4,1.7,1024,1024,1024,1024,0,0,0,0,54,4.828,74.12,100.06562,P-GPS,,30.5
636500,2026-01-07 12:43:21,0.0,5,7.224,0.0,0.0,0.0,26.8,5.5,1.5,1024,1024,1024,1024,0,0,0,0,54,4.828,74.12,100.06562,P-GPS,,30.5
636600,2026-01-07 12:43:21,0.0,5,7.224,0.0,0.0,0.0,26.8,5.7,1.7,1024,1024,1024,1024,0,0,0,0,54,4.828,74.12,100.06562,P-GPS,,30.5
636700,2026-01-07 12:43:21,0.0,5,7.224,0.0,0.0,0.0,26.8,5.7,2.0,1024,1024,1024,1024,0,0,0,0,54,4.828,74.12,100.06562,P-GPS,,30.5
636800,2026-01-07 12:43:21,0.0,5,7.224,0.0,0.0,0.0,26.9,6.0,2.0,1024,1024,1024,1024,0,0,0,0,54,4.828,74.12,99.737536,P-GPS,,30.4
636900,2026-01-07 12:43:21,0.0,5,7.224,0.0,0.0,0.0,26.9,6.1,1.7,1024,1024,1024,1024,0,0,0,0,54,4.828,74.12,99.737536,P-GPS,,30.4
637000,2026-01-07 12:43:21,0.0,5,7.224,0.0,0.0,0.0,26.9,6.2,1.4,1024,1024,1024,1024,0,0,0,0,54,4.828,74.12,99.737536,P-GPS,,30.4
637100,2026-01-07 12:43:21,0.0,5,7.224,0.0,0.0,0.0,26.9,6.0,1.0,1024,1024,1024,1024,0,0,0,0,54,4.828,74.12,99.737536,P-GPS,,30.4
637200,2026-01-07 12:43:21,0.0,5,7.224,0.0,0.0,0.0,26.8,6.3,1.0,1024,1024,1024,1024,0,0,0,0,54,4.828,74.12,99.737536,P-GPS,,30.4
637300,2026-01-07 12:43:22,0.0,5,7.224,0.0,0.0,0.0,26.8,6.3,1.0,1024,1024,1024,1024,0,0,0,0,54,4.828,74.12,99.737536,P-GPS,,30.4
637400,2026-01-07 12:43:22,0.0,5,7.229,0.0,0.0,0.0,26.8,6.2,1.1,1024,1024,1024,1024,0,0,0,0,54,4.769,74.12,99.737536,P-GPS,,30.4
637500,2026-01-07 12:43:22,0.0,5,7.229,0.0,0.0,0.0,26.8,6.1,1.2,1024,1024,1024,1024,0,0,0,0,54,4.769,74.12,99.737536,P-GPS,,30.4
637600,2026-01-07 12:43:22,0.0,5,7.229,0.0,0.0,0.0,26.8,6.0,1.4,1024,1024,1024,1024,0,0,0,0,54,4.769,74.12,99.737536,P-GPS,,30.4
637700,2026-01-07 12:43:22,0.0,5,7.229,0.0,0.0,0.0,26.8,6.0,1.4,1024,1024,1024,1024,0,0,0,0,54,4.769,74.12,99.737536,P-GPS,,30.4
637800,2026-01-07 12:43:22,0.0,5,7.229,0.0,0.0,0.0,26.9,5.8,1.5,1024,1024,1024,1024,0,0,0,0,54,4.769,74.12,99.737536,P-GPS,,30.4
637900,2026-01-07 12:43:22,0.0,5,7.229,0.0,0.0,0.0,26.9,5.9,1.4,1024,1024,1024,1024,0,0,0,0,54,4.769,74.12,99.737536,P-GPS,,30.4
638000,2026-01-07 12:43:22,0.0,5,7.229,0.0,0.0,0.0,26.8,5.5,1.1,1024,1024,1024,1024,0,0,0,0,54,4.769,74.12,99.409452,P-GPS,,30.3
638100,2026-01-07 12:43:22,0.0,5,7.229,0.0,0.0,0.0,26.8,5.6,1.0,1024,1024,1024,1024,0,0,0,0,54,4.769,74.12,99.409452,P-GPS,,30.3
638200,2026-01-07 12:43:23,0.0,5,7.229,0.0,0.0,0.0,26.8,5.9,1.0,1024,1024,1024,1024,0,0,0,0,54,4.769,74.12,99.409452,P-GPS,,30.3
638300,2026-01-07 12:43:23,0.0,5,7.229,0.0,0.0,0.0,26.9,5.9,1.0,1024,1024,1024,1024,0,0,0,0,54,4.769,74.12,99.409452,P-GPS,,30.3
638400,2026-01-07 12:43:23,0.0,5,7.229,0.0,0.0,0.0,27.0,5.9,0.7,1024,1024,1024,1024,0,0,0,0,54,4.769,74.12,99.409452,P-GPS,,30.3
638500,2026-01-07 12:43:23,0.0,5,7.24,0.0,0.0,0.0,27.0,6.1,0.5,1024,1024,1024,1024,0,0,0,0,54,4.678,74.12,99.409452,P-GPS,,30.3
638600,2026-01-07 12:43:23,0.0,5,7.24,0.0,0.0,0.0,26.9,5.8,0.2,1024,1024,1024,1024,0,0,0,0,54,4.678,74.12,99.409452,P-GPS,,30.3
638700,2026-01-07 12:43:23,0.0,5,7.24,0.0,0.0,0.0,26.8,5.6,0.1,1024,1024,1024,1024,0,0,0,0,54,4.678,74.12,99.409452,P-GPS,,30.3
638800,2026-01-07 12:43:23,0.0,5,7.24,0.0,0.0,0.0,26.8,5.7,0.4,1024,1024,1024,1024,0,0,0,0,54,4.678,74.12,99.409452,P-GPS,,30.3
638900,2026-01-07 12:43:23,0.0,5,7.24,0.0,0.0,0.0,26.8,5.5,0.6,1024,1024,1024,1024,0,0,0,0,54,4.678,74.12,99.409452,P-GPS,,30.3
639000,2026-01-07 12:43:23,0.0,5,7.24,0.0,0.0,0.0,26.9,5.3,0.8,1024,1024,1024,1024,0,0,0,0,54,4.678,74.12,99.409452,P-GPS,,30.3
639100,2026-01-07 12:43:23,0.0,5,7.24,0.0,0.0,0.0,26.9,5.3,0.7,1024,1024,1024,1024,0,0,0,0,54,4.678,74.12,99.409452,P-GPS,,30.3
639200,2026-01-07 12:43:23,0.0,5,7.24,0.0,0.0,0.0,26.8,5.5,0.5,1024,1024,1024,1024,0,0,0,0,54,4.678,74.12,99.409452,P-GPS,,30.3
639300,2026-01-07 12:43:24,0.0,5,7.24,0.0,0.0,0.0,26.8,5.7,0.5,1024,1024,1024,1024,0,0,0,0,54,4.678,74.12,99.409452,P-GPS,,30.3
639400,2026-01-07 12:43:24,0.0,5,7.24,0.0,0.0,0.0,26.8,5.5,0.5,1024,1024,1024,1024,0,0,0,0,54,4.678,74.12,99.409452,P-GPS,,30.3
639500,2026-01-07 12:43:24,0.0,5,7.24,0.0,0.0,0.0,26.8,5.5,0.8,1024,1024,1024,1024,0,0,0,0,54,4.678,74.12,99.737536,P-GPS,,30.4
639600,2026-01-07 12:43:24,0.0,5,7.24,0.0,0.0,0.0,26.8,5.5,0.7,1024,1024,1024,1024,0,0,0,0,54,4.678,74.12,99.737536,P-GPS,,30.4
639700,2026-01-07 12:43:24,0.0,5,7.24,0.0,0.0,0.0,26.9,5.6,0.6,1024,1024,1024,1024,0,0,0,0,53,4.678,74.12,99.737536,P-GPS,,30.4
639800,2026-01-07 12:43:24,0.0,5,7.24,0.0,0.0,0.0,26.9,5.5,0.3,1024,1024,1024,1024,0,0,0,0,53,4.678,74.12,99.737536,P-GPS,,30.4
639900,2026-01-07 12:43:24,0.0,5,7.24,0.0,0.0,0.0,26.8,5.3,0.2,1024,1024,1024,1024,0,0,0,0,53,4.678,74.12,99.737536,P-GPS,,30.4
640000,2026-01-07 12:43:24,0.0,5,7.24,0.0,0.0,0.0,26.8,5.3,0.1,1024,1024,1024,1024,0,0,0,0,53,4.678,74.12,99.737536,P-GPS,,30.4
640100,2026-01-07 12:43:24,0.0,5,7.24,0.0,0.0,0.0,26.8,6.0,0.3,1024,1024,1024,1024,0,0,0,0,53,4.678,74.12,99.737536,P-GPS,,30.4
640200,2026-01-07 12:43:25,0.0,5,7.24,0.0,0.0,0.0,26.8,6.0,0.3,1024,1024,1024,1024,0,0,0,0,53,4.678,74.12,99.737536,P-GPS,,30.4
640300,2026-01-07 12:43:25,0.0,5,7.24,0.0,0.0,0.0,26.8,5.8,0.1,1024,1024,1024,1024,0,0,0,0,53,4.678,74.12,99.737536,P-GPS,,30.4
640400,2026-01-07 12:43:25,0.0,5,7.24,0.0,0.0,0.0,26.8,5.9,0.3,1024,1024,1024,1024,0,0,0,0,53,4.678,74.12,99.737536,P-GPS,,30.4
640500,2026-01-07 12:43:25,0.0,5,7.24,0.0,0.0,0.0,26.7,5.7,0.5,1024,1024,1024,1024,0,0,0,0,53,4.678,74.12,99.737536,P-GPS,,30.4
640600,2026-01-07 12:43:25,0.0,5,7.24,0.0,0.0,0.0,26.7,6.3,0.5,1024,1024,1024,1024,0,0,0,0,53,4.678,74.12,99.737536,P-GPS,,30.4
640700,2026-01-07 12:43:25,0.0,5,7.226,0.0,0.0,0.0,26.8,6.5,0.7,1024,1024,1024,1024,0,0,0,0,53,4.72,74.12,99.737536,P-GPS,,30.4
640800,2026-01-07 12:43:25,0.0,5,7.226,0.0,0.0,0.0,26.8,6.7,1.2,1024,1024,1024,1024,0,0,0,0,53,4.72,74.12,99.737536,P-GPS,,30.4
640900,2026-01-07 12:43:25,0.0,5,7.226,0.0,0.0,0.0,26.8,6.9,1.1,1024,1024,1024,1024,0,0,0,0,53,4.72,74.12,99.737536,P-GPS,,30.4
641000,2026-01-07 12:43:25,0.0,5,7.226,0.0,0.0,0.0,26.8,6.9,1.2,1024,1024,1024,1024,0,0,0,0,53,4.72,74.12,99.737536,P-GPS,,30.4
641100,2026-01-07 12:43:25,0.0,5,7.226,0.0,0.0,0.0,26.8,7.1,1.1,1024,1024,1024,1024,0,0,0,0,53,4.72,74.12,99.737536,P-GPS,,30.4
641200,2026-01-07 12:43:26,0.0,5,7.226,0.0,0.0,0.0,26.9,6.6,1.4,1024,1024,1024,1024,0,0,0,0,53,4.72,74.12,99.737536,P-GPS,,30.4
641300,2026-01-07 12:43:26,0.0,5,7.226,0.0,0.0,0.0,26.8,6.4,1.6,1024,1024,1024,1024,0,0,0,0,53,4.72,74.12,99.737536,P-GPS,,30.4
641400,2026-01-07 12:43:26,0.0,5,7.226,0.0,0.0,0.0,26.8,6.4,1.8,1024,1024,1024,1024,0,0,0,0,53,4.72,74.12,99.737536,P-GPS,,30.4
641500,2026-01-07 12:43:26,0.0,5,7.226,0.0,0.0,0.0,26.8,6.2,2.1,1024,1024,1024,1024,0,0,0,0,53,4.72,74.12,99.737536,P-GPS,,30.4
641600,2026-01-07 12:43:26,0.0,5,7.226,0.0,0.0,0.0,26.8,6.0,2.0,1024,1024,1024,1024,0,0,0,0,53,4.72,74.12,99.737536,P-GPS,,30.4
641700,2026-01-07 12:43:26,0.0,5,7.226,0.0,0.0,0.0,26.9,6.0,2.1,1024,1024,1024,1024,0,0,0,0,53,4.72,74.12,99.737536,P-GPS,,30.4
641800,2026-01-07 12:43:26,0.0,5,7.218,0.0,0.0,0.0,26.9,6.2,1.8,1024,1024,1024,1024,0,0,0,0,53,4.9,74.12,99.737536,P-GPS,,30.4
641900,2026-01-07 12:43:26,0.0,5,7.218,0.0,0.0,0.0,26.8,6.3,1.6,1024,1024,1024,1024,0,0,0,0,53,4.9,74.12,99.737536,P-GPS,,30.4
642000,2026-01-07 12:43:26,0.0,5,7.218,0.0,0.0,0.0,26.8,6.4,1.6,1024,1024,1024,1024,0,0,0,0,53,4.9,74.12,99.737536,P-GPS,,30.4
642100,2026-01-07 12:43:26,0.0,5,7.218,0.0,0.0,0.0,26.9,6.3,1.7,1024,1024,1024,1024,0,0,0,0,53,4.9,74.12,99.737536,P-GPS,,30.4
642200,2026-01-07 12:43:27,0.0,5,7.218,0.0,0.0,0.0,26.9,6.5,1.5,1024,1024,1024,1024,0,0,0,0,53,4.9,74.12,99.737536,P-GPS,,30.4
642300,2026-01-07 12:43:27,0.0,5,7.218,0.0,0.0,0.0,26.8,6.5,1.5,1024,1024,1024,1024,0,0,0,0,53,4.9,74.12,100.06562,P-GPS,,30.5
642400,2026-01-07 12:43:27,0.0,5,7.218,0.0,0.0,0.0,26.8,6.6,1.4,1024,1024,1024,1024,0,0,0,0,53,4.9,74.12,100.06562,P-GPS,,30.5
642500,2026-01-07 12:43:27,0.0,5,7.218,0.0,0.0,0.0,26.9,6.4,1.5,1024,1024,1024,1024,0,0,0,0,53,4.9,74.12,100.06562,P-GPS,,30.5
642600,2026-01-07 12:43:27,0.0,5,7.218,0.0,0.0,0.0,26.8,6.5,1.5,1024,1024,1024,1024,0,0,0,0,53,4.9,74.12,100.06562,P-GPS,,30.5
642700,2026-01-07 12:43:27,0.0,5,7.218,0.0,0.0,0.0,26.8,6.4,1.3,1024,1024,1024,1024,0,0,0,0,53,4.9,74.12,100.06562,P-GPS,,30.5
642800,2026-01-07 12:43:27,0.0,5,7.218,0.0,0.0,0.0,26.8,6.5,1.1,1024,1024,1024,1024,0,0,0,0,53,4.9,74.12,99.737536,P-GPS,,30.4
642900,2026-01-07 12:43:27,0.0,5,7.218,0.0,0.0,0.0,26.8,6.5,1.0,1024,1024,1024,1024,0,0,0,0,53,4.9,74.12,99.737536,P-GPS,,30.4
643000,2026-01-07 12:43:27,0.0,5,7.209,0.0,0.0,0.0,26.8,6.5,1.0,1024,1024,1024,1024,0,0,0,0,53,5.028,74.3,99.737536,P-GPS,,30.4
643100,2026-01-07 12:43:27,0.0,5,7.209,0.0,0.0,0.0,26.8,6.4,1.0,1024,1024,1024,1024,0,0,0,0,53,5.028,74.3,99.737536,P-GPS,,30.4
643200,2026-01-07 12:43:28,0.0,5,7.209,0.0,0.0,0.0,26.8,6.3,1.1,1024,1024,1024,1024,0,0,0,0,53,5.028,74.3,99.737536,P-GPS,,30.4
643300,2026-01-07 12:43:28,0.0,5,7.209,0.0,0.0,0.0,26.8,6.3,1.2,1024,1024,1024,1024,0,0,0,0,53,5.028,74.3,99.737536,P-GPS,,30.4
643400,2026-01-07 12:43:28,0.0,5,7.209,0.0,0.0,0.0,26.8,6.3,1.3,1024,1024,1024,1024,0,0,0,0,53,5.028,74.3,99.737536,P-GPS,,30.4
643500,2026-01-07 12:43:28,0.0,5,7.209,0.0,0.0,0.0,26.8,6.4,1.2,1024,1024,1024,1024,0,0,0,0,53,5.028,74.3,99.737536,P-GPS,,30.4
643600,2026-01-07 12:43:28,0.0,5,7.209,0.0,0.0,0.0,26.8,6.4,1.1,1024,1024,1024,1024,0,0,0,0,53,5.028,74.3,99.737536,P-GPS,,30.4
643700,2026-01-07 12:43:28,0.0,5,7.209,0.0,0.0,0.0,26.8,6.4,1.0,1024,1024,1024,1024,0,0,0,0,53,5.028,74.3,99.737536,P-GPS,,30.4
643800,2026-01-07 12:43:28,0.0,5,7.209,0.0,0.0,0.0,26.8,6.3,1.0,1024,1024,1024,1024,0,0,0,0,53,5.028,74.3,99.737536,P-GPS,,30.4
643900,2026-01-07 12:43:28,0.0,5,7.209,0.0,0.0,0.0,26.8,6.3,1.2,1024,1024,1024,1024,0,0,0,0,53,5.028,74.3,99.737536,P-GPS,,30.4
644000,2026-01-07 12:43:28,0.0,5,7.209,0.0,0.0,0.0,26.8,6.2,1.3,1024,1024,1024,1024,0,0,0,0,53,5.028,74.3,99.737536,P-GPS,,30.4
644100,2026-01-07 12:43:28,0.0,5,7.208,0.0,0.0,0.0,26.8,6.2,1.3,1024,1024,1024,1024,0,0,0,0,53,5.07,74.12,99.737536,P-GPS,,30.4
644200,2026-01-07 12:43:29,0.0,5,7.208,0.0,0.0,0.0,26.8,6.1,1.3,1024,1024,1024,1024,0,0,0,0,53,5.07,74.12,99.737536,P-GPS,,30.4
644300,2026-01-07 12:43:29,0.0,5,7.208,0.0,0.0,0.0,26.8,6.2,1.2,1024,1024,1024,1024,0,0,0,0,53,5.07,74.12,99.737536,P-GPS,,30.4
644400,2026-01-07 12:43:29,0.0,5,7.208,0.0,0.0,0.0,26.9,6.3,1.4,1024,1024,1024,1024,0,0,0,0,53,5.07,74.12,99.737536,P-GPS,,30.4
644500,2026-01-07 12:43:29,0.0,5,7.208,0.0,0.0,0.0,26.9,6.4,1.4,1024,1024,1024,1024,0,0,0,0,53,5.07,74.12,99.737536,P-GPS,,30.4
644600,2026-01-07 12:43:29,0.0,5,7.208,0.0,0.0,0.0,26.9,6.0,1.1,1024,1024,1024,1024,0,0,0,0,53,5.07,74.12,99.737536,P-GPS,,30.4
644700,2026-01-07 12:43:29,0.0,5,7.208,0.0,0.0,0.0,26.8,5.9,1.0,1024,1024,1024,1024,0,0,0,0,53,5.07,74.12,99.737536,P-GPS,,30.4
644800,2026-01-07 12:43:29,0.0,5,7.208,0.0,0.0,0.0,26.8,5.9,1.0,1024,1024,1024,1024,0,0,0,0,53,5.07,74.12,99.737536,P-GPS,,30.4
644900,2026-01-07 12:43:29,0.0,5,7.208,0.0,0.0,0.0,26.8,5.9,1.0,1024,1024,1024,1024,0,0,0,0,53,5.07,74.12,99.737536,P-GPS,,30.4
645000,2026-01-07 12:43:29,0.0,5,7.208,0.0,0.0,0.0,26.8,5.9,1.1,1024,1024,1024,1024,0,0,0,0,53,5.07,74.12,99.737536,P-GPS,,30.4
645100,2026-01-07 12:43:29,0.0,5,7.208,0.0,0.0,0.0,26.8,5.8,1.1,1024,1024,1024,1024,0,0,0,0,53,5.07,74.12,99.737536,P-GPS,,30.4
645200,2026-01-07 12:43:30,0.0,5,7.206,0.0,0.0,0.0,26.8,5.9,1.3,1024,1024,1024,1024,0,0,0,0,53,5.083,74.12,99.737536,P-GPS,,30.4
645300,2026-01-07 12:43:30,0.0,5,7.206,0.0,0.0,0.0,26.8,5.9,1.2,1024,1024,1024,1024,0,0,0,0,53,5.083,74.12,99.737536,P-GPS,,30.4
645400,2026-01-07 12:43:30,0.0,5,7.206,0.0,0.0,0.0,26.8,5.8,1.0,1024,1024,1024,1024,0,0,0,0,53,5.083,74.12,99.737536,P-GPS,,30.4
645500,2026-01-07 12:43:30,0.0,5,7.206,0.0,0.0,0.0,26.8,5.9,0.9,1024,1024,1024,1024,0,0,0,0,53,5.083,74.12,99.737536,P-GPS,,30.4
645600,2026-01-07 12:43:30,0.0,5,7.206,0.0,0.0,0.0,26.8,5.9,0.8,1024,1024,1024,1024,0,0,0,0,53,5.083,74.12,99.737536,P-GPS,,30.4
645700,2026-01-07 12:43:30,0.0,5,7.206,0.0,0.0,0.0,26.8,6.0,0.6,1024,1024,1024,1024,0,0,0,0,53,5.083,74.12,99.737536,P-GPS,,30.4
645800,2026-01-07 12:43:30,0.0,5,7.206,0.0,0.0,0.0,26.9,6.1,0.8,1024,1024,1024,1024,0,0,0,0,53,5.083,74.12,99.737536,P-GPS,,30.4
645900,2026-01-07 12:43:30,0.0,5,7.206,0.0,0.0,0.0,26.9,6.3,0.9,1024,1024,1024,1024,0,0,0,0,53,5.083,74.12,99.737536,P-GPS,,30.4
646000,2026-01-07 12:43:30,0.0,5,7.206,0.0,0.0,0.0,26.9,6.4,0.7,1024,1024,1024,1024,0,0,0,0,53,5.083,74.12,99.737536,P-GPS,,30.4
646100,2026-01-07 12:43:30,0.0,5,7.206,0.0,0.0,0.0,26.9,6.3,0.4,1024,1024,1024,1024,0,0,0,0,53,5.083,74.12,99.737536,P-GPS,,30.4
646200,2026-01-07 12:43:31,0.0,5,7.206,0.0,0.0,0.0,26.9,6.2,0.1,1024,1024,1024,1024,0,0,0,0,53,5.083,74.12,99.737536,P-GPS,,30.4
646300,2026-01-07 12:43:31,0.0,5,7.206,0.0,0.0,0.0,26.9,6.2,0.0,1024,1024,1024,1024,0,0,0,0,53,5.035,74.3,99.737536,P-GPS,,30.4
646400,2026-01-07 12:43:31,0.0,5,7.206,0.0,0.0,0.0,26.9,6.0,0.0,1024,1024,1024,1024,0,0,0,0,53,5.035,74.3,99.737536,P-GPS,,30.4
646500,2026-01-07 12:43:31,0.0,5,7.206,0.0,0.0,0.0,26.9,6.0,0.0,1024,1024,1024,1024,0,0,0,0,53,5.035,74.3,99.737536,P-GPS,,30.4
646600,2026-01-07 12:43:31,0.0,5,7.206,0.0,0.0,0.0,26.8,6.1,0.0,1024,1024,1024,1024,0,0,0,0,53,5.035,74.3,99.737536,P-GPS,,30.4
646700,2026-01-07 12:43:31,0.0,5,7.206,0.0,0.0,0.0,26.8,5.9,0.0,1024,1024,1024,1024,0,0,0,0,53,5.035,74.3,99.737536,P-GPS,,30.4
646800,2026-01-07 12:43:31,0.0,5,7.206,0.0,0.0,0.0,26.8,5.9,0.1,1024,1024,1024,1024,0,0,0,0,53,5.035,74.3,99.737536,P-GPS,,30.4
646900,2026-01-07 12:43:31,0.0,5,7.206,0.0,0.0,0.0,26.8,5.8,0.2,1024,1024,1024,1024,0,0,0,0,53,5.035,74.3,99.737536,P-GPS,,30.4
647000,2026-01-07 12:43:31,0.0,5,7.206,0.0,0.0,0.0,26.8,6.2,0.5,1024,1024,1024,1024,0,0,0,0,53,5.035,74.3,99.737536,P-GPS,,30.4
647100,2026-01-07 12:43:31,0.0,5,7.206,0.0,0.0,0.0,26.8,6.1,0.5,1024,1024,1024,1024,0,0,0,0,53,5.035,74.3,99.737536,P-GPS,,30.4
647200,2026-01-07 12:43:31,0.0,5,7.206,0.0,0.0,0.0,26.7,5.9,0.9,1024,1024,1024,1024,0,0,0,0,53,5.035,74.3,99.737536,P-GPS,,30.4
647300,2026-01-07 12:43:32,0.0,5,7.206,0.0,0.0,0.0,26.8,5.7,1.0,1024,1024,1024,1024,0,0,0,0,53,5.035,74.3,99.737536,P-GPS,,30.4
647400,2026-01-07 12:43:32,0.0,5,7.209,0.0,0.0,0.0,26.8,5.6,1.3,1024,1024,1024,1024,0,0,0,0,53,4.948,74.3,99.737536,P-GPS,,30.4
647500,2026-01-07 12:43:32,0.0,5,7.209,0.0,0.0,0.0,26.8,5.7,1.3,1024,1024,1024,1024,0,0,0,0,53,4.948,74.3,99.737536,P-GPS,,30.4
647600,2026-01-07 12:43:32,0.0,5,7.209,0.0,0.0,0.0,26.8,5.6,1.7,1024,1024,1024,1024,0,0,0,0,53,4.948,74.3,99.737536,P-GPS,,30.4
647700,2026-01-07 12:43:32,0.0,5,7.209,0.0,0.0,0.0,26.8,5.8,1.6,1024,1024,1024,1024,0,0,0,0,53,4.948,74.3,99.737536,P-GPS,,30.4
647800,2026-01-07 12:43:32,0.0,5,7.209,0.0,0.0,0.0,26.8,6.1,1.8,1024,1024,1024,1024,0,0,0,0,53,4.948,74.3,99.737536,P-GPS,,30.4
647900,2026-01-07 12:43:32,0.0,5,7.209,0.0,0.0,0.0,26.8,6.3,1.7,1024,1024,1024,1024,0,0,0,0,53,4.948,74.3,99.737536,P-GPS,,30.4
648000,2026-01-07 12:43:32,0.0,5,7.209,0.0,0.0,0.0,26.9,6.5,1.8,1024,1024,1024,1024,0,0,0,0,53,4.948,74.3,99.737536,P-GPS,,30.4
648100,2026-01-07 12:43:32,0.0,5,7.209,0.0,0.0,0.0,26.9,6.6,1.6,1024,1024,1024,1024,0,0,0,0,53,4.948,74.3,99.737536,P-GPS,,30.4
648200,2026-01-07 12:43:33,0.0,5,7.209,0.0,0.0,0.0,26.9,6.7,1.6,1024,1024,1024,1024,0,0,0,0,53,4.948,74.3,99.737536,P-GPS,,30.4
648300,2026-01-07 12:43:33,0.0,5,7.209,0.0,0.0,0.0,26.8,6.6,1.6,1024,1024,1024,1024,0,0,0,0,53,4.948,74.3,99.737536,P-GPS,,30.4
648400,2026-01-07 12:43:33,0.0,5,7.209,0.0,0.0,0.0,26.8,6.4,1.5,1024,1024,1024,1024,0,0,0,0,53,4.948,74.3,99.737536,P-GPS,,30.4
648500,2026-01-07 12:43:33,0.0,5,7.209,0.0,0.0,0.0,26.8,6.3,1.4,1024,1024,1024,1024,0,0,0,0,53,4.948,74.3,99.737536,P-GPS,,30.4
648600,2026-01-07 12:43:33,0.0,5,7.209,0.0,0.0,0.0,26.8,6.4,1.3,1024,1024,1024,1024,0,0,0,0,53,4.948,74.3,99.737536,P-GPS,,30.4
648700,2026-01-07 12:43:33,0.0,5,7.209,0.0,0.0,0.0,26.8,6.6,1.3,1024,1024,1024,1024,0,0,0,0,53,4.948,74.3,99.737536,P-GPS,,30.4
648800,2026-01-07 12:43:33,0.0,5,7.209,0.0,0.0,0.0,26.8,6.4,1.3,1024,1024,1024,1024,0,0,0,0,53,4.948,74.3,99.737536,P-GPS,,30.4
648900,2026-01-07 12:43:33,0.0,5,7.209,0.0,0.0,0.0,26.8,6.1,1.3,1024,1024,1024,1024,0,0,0,0,53,4.948,74.3,99.737536,P-GPS,,30.4
649000,2026-01-07 12:43:33,0.0,5,7.209,0.0,0.0,0.0,26.8,6.3,1.4,1024,1024,1024,1024,0,0,0,0,53,4.948,74.3,99.737536,P-GPS,,30.4
649100,2026-01-07 12:43:33,0.0,5,7.209,0.0,0.0,0.0,26.8,6.4,1.3,1024,1024,1024,1024,0,0,0,0,53,4.948,74.3,99.737536,P-GPS,,30.4
649200,2026-01-07 12:43:34,0.0,5,7.209,0.0,0.0,0.0,26.8,6.4,1.4,1024,1024,1024,1024,0,0,0,0,53,4.948,74.3,99.737536,P-GPS,,30.4
649300,2026-01-07 12:43:34,0.0,5,7.209,0.0,0.0,0.0,26.8,6.6,1.5,1024,1024,1024,1024,0,0,0,0,53,4.948,74.3,99.737536,P-GPS,,30.4
649400,2026-01-07 12:43:34,0.0,5,7.209,0.0,0.0,0.0,26.8,6.6,1.6,1024,1024,1024,1024,0,0,0,0,53,4.948,74.3,99.737536,P-GPS,,30.4
649500,2026-01-07 12:43:34,0.0,5,7.209,0.0,0.0,0.0,26.9,6.6,1.5,1024,1024,1024,1024,0,0,0,0,53,4.948,74.3,99.737536,P-GPS,,30.4
649600,2026-01-07 12:43:34,0.0,5,7.201,0.0,0.0,0.0,26.9,6.6,1.6,1024,1024,1024,1024,0,0,0,0,53,5.051,74.3,99.737536,P-GPS,,30.4
649700,2026-01-07 12:43:34,0.0,5,7.201,0.0,0.0,0.0,26.9,6.6,1.3,1024,1024,1024,1024,0,0,0,0,53,5.051,74.3,99.737536,P-GPS,,30.4
649800,2026-01-07 12:43:34,0.0,5,7.201,0.0,0.0,0.0,26.8,6.6,1.4,1024,1024,1024,1024,0,0,0,0,53,5.051,74.3,99.737536,P-GPS,,30.4
649900,2026-01-07 12:43:34,0.0,5,7.201,0.0,0.0,0.0,26.9,6.6,1.3,1024,1024,1024,1024,0,0,0,0,53,5.051,74.3,99.737536,P-GPS,,30.4
650000,2026-01-07 12:43:34,0.0,5,7.201,0.0,0.0,0.0,26.9,6.5,1.3,1024,1024,1024,1024,0,0,0,0,53,5.051,74.3,99.737536,P-GPS,,30.4
650100,2026-01-07 12:43:34,0.0,5,7.201,0.0,0.0,0.0,26.8,6.5,1.1,1024,1024,1024,1024,0,0,0,0,53,5.051,74.3,99.737536,P-GPS,,30.4
650200,2026-01-07 12:43:35,0.0,5,7.201,0.0,0.0,0.0,26.8,6.7,1.1,1024,1024,1024,1024,0,0,0,0,53,5.051,74.3,99.737536,P-GPS,,30.4
650300,2026-01-07 12:43:35,0.0,5,7.201,0.0,0.0,0.0,26.9,6.6,1.1,1024,1024,1024,1024,0,0,0,0,53,5.051,74.3,99.737536,P-GPS,,30.4
650400,2026-01-07 12:43:35,0.0,5,7.201,0.0,0.0,0.0,26.8,6.5,1.0,1024,1024,1024,1024,0,0,0,0,53,5.051,74.3,99.737536,P-GPS,,30.4
650500,2026-01-07 12:43:35,0.0,5,7.201,0.0,0.0,0.0,26.9,6.4,0.9,1024,1024,1024,1024,0,0,0,0,53,5.051,74.3,99.737536,P-GPS,,30.4
650600,2026-01-07 12:43:35,0.0,5,7.201,0.0,0.0,0.0,26.8,6.3,0.8,1024,1024,1024,1024,0,0,0,0,53,5.051,74.3,99.737536,P-GPS,,30.4
650700,2026-01-07 12:43:35,0.0,5,7.201,0.0,0.0,0.0,26.8,6.3,0.7,1024,1024,1024,1024,0,0,0,0,53,5.051,74.3,99.737536,P-GPS,,30.4
650800,2026-01-07 12:43:35,0.0,5,7.199,0.0,0.0,0.0,26.8,6.4,0.7,1024,1024,1024,1024,0,0,0,0,53,5.087,74.3,99.737536,P-GPS,,30.4
650900,2026-01-07 12:43:35,0.0,5,7.199,0.0,0.0,0.0,26.8,6.5,0.7,1024,1024,1024,1024,0,0,0,0,53,5.087,74.3,99.737536,P-GPS,,30.4
651000,2026-01-07 12:43:35,0.0,5,7.199,0.0,0.0,0.0,26.8,6.5,1.0,1024,1024,1024,1024,0,0,0,0,53,5.087,74.3,99.737536,P-GPS,,30.4
651100,2026-01-07 12:43:35,0.0,5,7.199,0.0,0.0,0.0,26.8,6.3,1.0,1024,1024,1024,1024,0,0,0,0,53,5.087,74.3,99.737536,P-GPS,,30.4
651200,2026-01-07 12:43:36,0.0,5,7.199,0.0,0.0,0.0,26.8,6.3,1.1,1024,1024,1024,1024,0,0,0,0,53,5.087,74.3,99.737536,P-GPS,,30.4
651300,2026-01-07 12:43:36,0.0,5,7.199,0.0,0.0,0.0,26.8,6.4,1.1,1024,1024,1024,1024,0,0,0,0,53,5.087,74.3,99.737536,P-GPS,,30.4
651400,2026-01-07 12:43:36,0.0,5,7.199,0.0,0.0,0.0,26.8,6.3,1.3,1024,1024,1024,1024,0,0,0,0,53,5.087,74.3,99.737536,P-GPS,,30.4
651500,2026-01-07 12:43:36,0.0,5,7.199,0.0,0.0,0.0,26.8,6.3,1.3,1024,1024,1024,1024,0,0,0,0,53,5.087,74.3,99.737536,P-GPS,,30.4
651600,2026-01-07 12:43:36,0.0,5,7.199,0.0,0.0,0.0,26.8,6.4,1.4,1024,1024,1024,1024,0,0,0,0,53,5.087,74.3,99.737536,P-GPS,,30.4
651700,2026-01-07 12:43:36,0.0,5,7.199,0.0,0.0,0.0,26.8,6.4,1.5,1024,1024,1024,1024,0,0,0,0,53,5.087,74.3,99.737536,P-GPS,,30.4
651800,2026-01-07 12:43:36,0.0,5,7.199,0.0,0.0,0.0,26.8,6.3,1.5,1024,1024,1024,1024,0,0,0,0,53,5.087,74.3,99.737536,P-GPS,,30.4
651900,2026-01-07 12:43:36,0.0,5,7.197,0.0,0.0,0.0,26.8,6.3,1.5,1024,1024,1024,1024,0,0,0,0,53,5.065,74.3,99.737536,P-GPS,,30.4
652000,2026-01-07 12:43:36,0.0,5,7.197,0.0,0.0,0.0,26.8,6.3,1.5,1024,1024,1024,1024,0,0,0,0,53,5.065,74.3,99.737536,P-GPS,,30.4
652100,2026-01-07 12:43:36,0.0,5,7.197,0.0,0.0,0.0,26.8,6.3,1.6,1024,1024,1024,1024,0,0,0,0,53,5.065,74.3,99.737536,P-GPS,,30.4
652200,2026-01-07 12:43:37,0.0,5,7.197,0.0,0.0,0.0,26.8,6.2,1.6,1024,1024,1024,1024,0,0,0,0,53,5.065,74.3,99.737536,P-GPS,,30.4
652300,2026-01-07 12:43:37,0.0,5,7.197,0.0,0.0,0.0,26.8,5.9,1.5,1024,1024,1024,1024,0,0,0,0,53,5.065,74.3,99.737536,P-GPS,,30.4
652400,2026-01-07 12:43:37,0.0,5,7.197,0.0,0.0,0.0,26.8,6.0,1.4,1024,1024,1024,1024,0,0,0,0,53,5.065,74.3,99.737536,P-GPS,,30.4
652500,2026-01-07 12:43:37,0.0,5,7.197,0.0,0.0,0.0,26.8,6.0,1.3,1024,1024,1024,1024,0,0,0,0,53,5.065,74.3,99.737536,P-GPS,,30.4
652600,2026-01-07 12:43:37,0.0,5,7.197,0.0,0.0,0.0,26.8,6.1,1.5,1024,1024,1024,1024,0,0,0,0,53,5.065,74.3,99.737536,P-GPS,,30.4
652700,2026-01-07 12:43:37,0.0,5,7.197,0.0,0.0,0.0,26.8,6.2,1.6,1024,1024,1024,1024,0,0,0,0,53,5.065,74.3,99.737536,P-GPS,,30.4
652800,2026-01-07 12:43:37,0.0,5,7.197,0.0,0.0,0.0,26.8,6.4,1.8,1024,1024,1024,1024,0,0,0,0,53,5.065,74.3,99.737536,P-GPS,,30.4
652900,2026-01-07 12:43:37,0.0,5,7.197,0.0,0.0,0.0,26.8,6.4,1.7,1024,1024,1024,1024,0,0,0,0,53,5.065,74.3,99.737536,P-GPS,,30.4
653000,2026-01-07 12:43:37,0.0,5,7.201,0.0,0.0,0.0,26.8,6.5,1.4,1024,1024,1024,1024,0,0,0,0,53,5.007,74.3,99.737536,P-GPS,,30.4
653100,2026-01-07 12:43:37,0.0,5,7.201,0.0,0.0,0.0,26.9,6.8,1.4,1024,1024,1024,1024,0,0,0,0,53,5.007,74.3,99.737536,P-GPS,,30.4
653200,2026-01-07 12:43:38,0.0,5,7.201,0.0,0.0,0.0,26.9,6.8,1.4,1024,1024,1024,1024,0,0,0,0,53,5.007,74.3,99.409452,P-GPS,,30.3
653300,2026-01-07 12:43:38,0.0,5,7.201,0.0,0.0,0.0,26.9,6.7,1.4,1024,1024,1024,1024,0,0,0,0,53,5.007,74.3,99.409452,P-GPS,,30.3
653400,2026-01-07 12:43:38,0.0,5,7.201,0.0,0.0,0.0,26.8,6.8,1.4,1024,1024,1024,1024,0,0,0,0,53,5.007,74.3,99.409452,P-GPS,,30.3
653500,2026-01-07 12:43:38,0.0,5,7.201,0.0,0.0,0.0,26.8,6.6,1.3,1024,1024,1024,1024,0,0,0,0,53,5.007,74.3,99.409452,P-GPS,,30.3
653600,2026-01-07 12:43:38,0.0,5,7.201,0.0,0.0,0.0,26.8,6.5,1.5,1024,1024,1024,1024,0,0,0,0,53,5.007,74.3,99.409452,P-GPS,,30.3
653700,2026-01-07 12:43:38,0.0,5,7.201,0.0,0.0,0.0,26.8,6.4,1.5,1024,1024,1024,1024,0,0,0,0,53,5.007,74.3,99.409452,P-GPS,,30.3
653800,2026-01-07 12:43:38,0.0,5,7.201,0.0,0.0,0.0,26.8,6.5,1.6,1024,1024,1024,1024,0,0,0,0,53,5.007,74.3,99.409452,P-GPS,,30.3
653900,2026-01-07 12:43:38,0.0,5,7.201,0.0,0.0,0.0,26.8,6.5,1.6,1024,1024,1024,1024,0,0,0,0,53,5.007,74.3,99.409452,P-GPS,,30.3
654000,2026-01-07 12:43:38,0.0,5,7.201,0.0,0.0,0.0,26.8,6.4,1.7,1024,1024,1024,1024,0,0,0,0,53,5.007,74.3,99.409452,P-GPS,,30.3
654100,2026-01-07 12:43:38,0.0,5,7.201,0.0,0.0,0.0,26.8,6.6,1.7,1024,1024,1024,1024,0,0,0,0,53,5.007,74.3,99.409452,P-GPS,,30.3
654200,2026-01-07 12:43:39,0.0,5,7.195,0.0,0.0,0.0,26.8,6.5,1.7,1024,1024,1024,1024,0,0,0,0,53,5.074,74.3,99.409452,P-GPS,,30.3
654300,2026-01-07 12:43:39,0.0,5,7.195,0.0,0.0,0.0,26.8,6.5,1.5,1024,1024,1024,1024,0,0,0,0,53,5.074,74.3,99.409452,P-GPS,,30.3
654400,2026-01-07 12:43:39,0.0,5,7.195,0.0,0.0,0.0,26.9,6.4,1.2,1024,1024,1024,1024,0,0,0,0,53,5.074,74.3,99.409452,P-GPS,,30.3
654500,2026-01-07 12:43:39,0.0,5,7.195,0.0,0.0,0.0,26.9,6.6,1.1,1024,1024,1024,1024,0,0,0,0,53,5.074,74.3,99.409452,P-GPS,,30.3
654600,2026-01-07 12:43:39,0.0,5,7.195,0.0,0.0,0.0,26.8,6.5,1.1,1024,1024,1024,1024,0,0,0,0,53,5.074,74.3,99.409452,P-GPS,,30.3
654700,2026-01-07 12:43:39,0.0,5,7.195,0.0,0.0,0.0,26.8,6.4,1.0,1024,1024,1024,1024,0,0,0,0,53,5.074,74.3,99.409452,P-GPS,,30.3
654800,2026-01-07 12:43:39,0.0,5,7.195,0.0,0.0,0.0,26.8,6.2,1.4,1024,1024,1024,1024,0,0,0,0,53,5.074,74.3,99.409452,P-GPS,,30.3
654900,2026-01-07 12:43:39,0.0,5,7.195,0.0,0.0,0.0,26.8,6.0,1.6,1024,1024,1024,1024,0,0,0,0,53,5.074,74.3,99.409452,P-GPS,,30.3
655000,2026-01-07 12:43:39,0.0,5,7.195,0.0,0.0,0.0,26.8,6.0,1.7,1024,1024,1024,1024,0,0,0,0,53,5.074,74.3,99.409452,P-GPS,,30.3
655100,2026-01-07 12:43:39,0.0,5,7.195,0.0,0.0,0.0,26.8,6.1,1.7,1024,1024,1024,1024,0,0,0,0,53,5.074,74.3,99.409452,P-GPS,,30.3
655200,2026-01-07 12:43:40,0.0,5,7.195,0.0,0.0,0.0,26.8,6.3,1.7,1024,1024,1024,1024,0,0,0,0,53,5.074,74.3,99.409452,P-GPS,,30.3
655300,2026-01-07 12:43:40,0.0,5,7.192,0.0,0.0,0.0,26.8,6.4,1.7,1024,1024,1024,1024,0,0,0,0,52,5.085,74.3,99.409452,P-GPS,,30.3
655400,2026-01-07 12:43:40,0.0,5,7.192,0.0,0.0,0.0,26.8,6.5,1.8,1024,1024,1024,1024,0,0,0,0,52,5.085,74.3,99.409452,P-GPS,,30.3
655500,2026-01-07 12:43:40,0.0,5,7.192,0.0,0.0,0.0,26.8,6.6,1.8,1024,1024,1024,1024,0,0,0,0,52,5.085,74.3,99.409452,P-GPS,,30.3
655600,2026-01-07 12:43:40,0.0,5,7.192,0.0,0.0,0.0,26.9,6.7,1.7,1024,1024,1024,1024,0,0,0,0,52,5.085,74.3,99.409452,P-GPS,,30.3
655700,2026-01-07 12:43:40,0.0,5,7.192,0.0,0.0,0.0,26.9,6.4,1.7,1024,1024,1024,1024,0,0,0,0,52,5.085,74.3,99.409452,P-GPS,,30.3
655800,2026-01-07 12:43:40,0.0,5,7.192,0.0,0.0,0.0,26.9,6.5,1.6,1024,1024,1024,1024,0,0,0,0,52,5.085,74.3,99.409452,P-GPS,,30.3
655900,2026-01-07 12:43:40,0.0,5,7.192,0.0,0.0,0.0,26.9,6.6,1.5,1024,1024,1024,1024,0,0,0,0,52,5.085,74.3,99.409452,P-GPS,,30.3
656000,2026-01-07 12:43:40,0.0,5,7.192,0.0,0.0,0.0,26.9,6.5,1.5,1024,1024,1024,1024,0,0,0,0,52,5.085,74.3,99.409452,P-GPS,,30.3
656100,2026-01-07 12:43:40,0.0,5,7.192,0.0,0.0,0.0,26.8,6.6,1.5,1024,1024,1024,1024,0,0,0,0,52,5.085,74.3,99.409452,P-GPS,,30.3
656200,2026-01-07 12:43:41,0.0,5,7.192,0.0,0.0,0.0,26.9,6.5,1.4,1024,1024,1024,1024,0,0,0,0,52,5.085,74.3,99.409452,P-GPS,,30.3
656300,2026-01-07 12:43:41,0.0,5,7.192,0.0,0.0,0.0,26.8,6.4,1.5,1024,1024,1024,1024,0,0,0,0,52,5.085,74.3,99.409452,P-GPS,,30.3
656400,2026-01-07 12:43:41,0.0,5,7.19,0.0,0.0,0.0,26.9,6.2,1.5,1024,1024,1024,1024,0,0,0,0,52,5.109,74.3,99.409452,P-GPS,,30.3
656500,2026-01-07 12:43:41,0.0,5,7.19,0.0,0.0,0.0,26.8,6.2,1.4,1024,1024,1024,1024,0,0,0,0,52,5.109,74.3,99.409452,P-GPS,,30.3
656600,2026-01-07 12:43:41,0.0,5,7.19,0.0,0.0,0.0,26.8,6.2,1.3,1024,1024,1024,1024,0,0,0,0,52,5.109,74.3,99.409452,P-GPS,,30.3
656700,2026-01-07 12:43:41,0.0,5,7.19,0.0,0.0,0.0,26.8,6.0,1.2,1024,1024,1024,1024,0,0,0,0,52,5.109,74.3,99.409452,P-GPS,,30.3
656800,2026-01-07 12:43:41,0.0,5,7.19,0.0,0.0,0.0,26.8,6.1,1.4,1024,1024,1024,1024,0,0,0,0,52,5.109,74.3,99.409452,P-GPS,,30.3
656900,2026-01-07 12:43:41,0.0,5,7.19,0.0,0.0,0.0,26.8,6.3,1.6,1024,1024,1024,1024,0,0,0,0,52,5.109,74.3,99.409452,P-GPS,,30.3
657000,2026-01-07 12:43:41,0.0,5,7.19,0.0,0.0,0.0,26.8,5.8,1.4,1024,1024,1024,1024,0,0,0,0,52,5.109,74.3,99.409452,P-GPS,,30.3
657100,2026-01-07 12:43:41,0.0,5,7.19,0.0,0.0,0.0,26.8,5.9,1.2,1024,1024,1024,1024,0,0,0,0,52,5.109,74.3,99.409452,P-GPS,,30.3
657200,2026-01-07 12:43:42,0.0,5,7.19,0.0,0.0,0.0,26.8,5.9,1.3,1024,1024,1024,1024,0,0,0,0,52,5.109,74.3,99.409452,P-GPS,,30.3
657300,2026-01-07 12:43:42,0.0,5,7.19,0.0,0.0,0.0,26.8,5.7,1.2,1024,1024,1024,1024,0,0,0,0,52,5.109,74.3,99.409452,P-GPS,,30.3
657400,2026-01-07 12:43:42,0.0,5,7.19,0.0,0.0,0.0,26.8,5.8,1.2,1024,1024,1024,1024,0,0,0,0,52,5.109,74.3,99.409452,P-GPS,,30.3
657500,2026-01-07 12:43:42,0.0,5,7.199,0.0,0.0,0.0,26.8,6.0,1.4,1024,1024,1024,1024,0,0,0,0,52,4.945,74.3,99.409452,P-GPS,,30.3
657600,2026-01-07 12:43:42,0.0,5,7.199,0.0,0.0,0.0,26.8,6.0,1.7,1024,1024,1024,1024,0,0,0,0,52,4.945,74.3,99.409452,P-GPS,,30.3
657700,2026-01-07 12:43:42,0.0,5,7.199,0.0,0.0,0.0,26.9,6.1,1.7,1024,1024,1024,1024,0,0,0,0,52,4.945,74.3,99.409452,P-GPS,,30.3
657800,2026-01-07 12:43:42,0.0,5,7.199,0.0,0.0,0.0,26.8,5.9,1.6,1024,1024,1024,1024,0,0,0,0,52,4.945,74.3,99.409452,P-GPS,,30.3
657900,2026-01-07 12:43:42,0.0,5,7.199,0.0,0.0,0.0,26.7,6.1,1.7,1024,1024,1024,1024,0,0,0,0,52,4.945,74.3,99.409452,P-GPS,,30.3
658000,2026-01-07 12:43:42,0.0,5,7.199,0.0,0.0,0.0,26.8,6.3,2.1,1024,1024,1024,1024,0,0,0,0,52,4.945,74.3,99.409452,P-GPS,,30.3
658100,2026-01-07 12:43:42,0.0,5,7.199,0.0,0.0,0.0,26.7,6.3,2.2,1024,1024,1024,1024,0,0,0,0,52,4.945,74.3,99.409452,P-GPS,,30.3
658200,2026-01-07 12:43:43,0.0,5,7.199,0.0,0.0,0.0,26.7,6.4,2.6,1024,1024,1024,1024,0,0,0,0,52,4.945,74.3,99.409452,P-GPS,,30.3
658300,2026-01-07 12:43:43,0.0,5,7.199,0.0,0.0,0.0,26.8,6.7,2.9,1024,1024,1024,1024,0,0,0,0,52,4.945,74.3,99.409452,P-GPS,,30.3
658400,2026-01-07 12:43:43,0.0,5,7.199,0.0,0.0,0.0,26.8,7.0,3.2,1024,1024,1024,1024,0,0,0,0,52,4.945,74.3,99.409452,P-GPS,,30.3
658500,2026-01-07 12:43:43,0.0,5,7.199,0.0,0.0,0.0,26.8,6.9,3.2,1024,1024,1024,1024,0,0,0,0,52,4.945,74.3,99.409452,P-GPS,,30.3
658600,2026-01-07 12:43:43,0.0,5,7.199,0.0,0.0,0.0,26.8,6.6,3.2,1024,1024,1024,1024,0,0,0,0,52,4.945,74.3,99.409452,P-GPS,,30.3
658700,2026-01-07 12:43:43,0.0,5,7.199,0.0,0.0,0.0,26.8,6.5,3.3,1024,1024,1024,1024,0,0,0,0,52,4.945,74.3,99.409452,P-GPS,,30.3
658800,2026-01-07 12:43:43,0.0,5,7.199,0.0,0.0,0.0,26.9,6.5,3.3,1024,1024,1024,1024,0,0,0,0,52,4.945,74.3,99.409452,P-GPS,,30.3
658900,2026-01-07 12:43:43,0.0,5,7.199,0.0,0.0,0.0,26.9,6.4,3.4,1024,1024,1024,1024,0,0,0,0,52,4.945,74.3,99.409452,P-GPS,,30.3
659000,2026-01-07 12:43:43,0.0,5,7.199,0.0,0.0,0.0,26.9,6.3,3.2,1024,1024,1024,1024,0,0,0,0,52,4.945,74.3,99.409452,P-GPS,,30.3
659100,2026-01-07 12:43:43,0.0,5,7.199,0.0,0.0,0.0,26.8,6.2,2.7,1024,1024,1024,1024,0,0,0,0,52,4.945,74.3,99.409452,P-GPS,,30.3
659200,2026-01-07 12:43:44,0.0,5,7.199,0.0,0.0,0.0,26.7,6.1,2.4,1024,1024,1024,1024,0,0,0,0,52,4.945,74.3,99.409452,P-GPS,,30.3
659300,2026-01-07 12:43:44,0.0,5,7.199,0.0,0.0,0.0,26.7,6.1,2.4,1024,1024,1024,1024,0,0,0,0,52,4.945,74.3,99.409452,P-GPS,,30.3
659400,2026-01-07 12:43:44,0.0,5,7.199,0.0,0.0,0.0,26.8,5.9,2.4,1024,1024,1024,1024,0,0,0,0,52,4.945,74.3,99.409452,P-GPS,,30.3
659500,2026-01-07 12:43:44,0.0,5,7.199,0.0,0.0,0.0,26.8,6.2,2.4,1024,1024,1024,1024,0,0,0,0,52,4.945,74.3,99.409452,P-GPS,,30.3
659600,2026-01-07 12:43:44,0.0,5,7.199,0.0,0.0,0.0,26.8,6.3,2.9,1024,1024,1024,1024,0,0,0,0,52,4.945,74.3,99.409452,P-GPS,,30.3
659700,2026-01-07 12:43:44,0.0,5,7.199,0.0,0.0,0.0,26.8,6.3,3.0,1024,1024,1024,1024,0,0,0,0,52,4.945,74.3,99.409452,P-GPS,,30.3
659800,2026-01-07 12:43:44,0.0,5,7.202,0.0,0.0,0.0,26.8,6.3,3.0,1024,1024,1024,1024,0,0,0,0,52,4.839,74.3,99.409452,P-GPS,,30.3
659900,2026-01-07 12:43:44,0.0,5,7.202,0.0,0.0,0.0,26.8,6.2,3.0,1024,1024,1024,1024,0,0,0,0,52,4.839,74.3,99.409452,P-GPS,,30.3
660000,2026-01-07 12:43:44,0.0,5,7.202,0.0,0.0,0.0,26.8,6.4,3.0,1024,1024,1024,1024,0,0,0,0,52,4.839,74.3,99.409452,P-GPS,,30.3
660100,2026-01-07 12:43:44,0.0,5,7.202,0.0,0.0,0.0,26.8,6.6,2.9,1024,1024,1024,1024,0,0,0,0,52,4.839,74.3,99.409452,P-GPS,,30.3
660200,2026-01-07 12:43:45,0.0,5,7.202,0.0,0.0,0.0,26.8,6.5,2.6,1024,1024,1024,1024,0,0,0,0,52,4.839,74.3,99.409452,P-GPS,,30.3
660300,2026-01-07 12:43:45,0.0,5,7.202,0.0,0.0,0.0,26.9,6.6,2.7,1024,1024,1024,1024,0,0,0,0,52,4.839,74.3,99.409452,P-GPS,,30.3
660400,2026-01-07 12:43:45,0.0,5,7.202,0.0,0.0,0.0,26.9,6.6,2.7,1024,1024,1024,1024,0,0,0,0,52,4.839,74.3,99.409452,P-GPS,,30.3
660500,2026-01-07 12:43:45,0.0,5,7.202,0.0,0.0,0.0,26.9,6.5,2.8,1024,1024,1024,1024,0,0,0,0,52,4.839,74.3,99.409452,P-GPS,,30.3
660600,2026-01-07 12:43:45,0.0,5,7.202,0.0,0.0,0.0,26.9,6.3,2.9,1024,1024,1024,1024,0,0,0,0,52,4.839,74.3,99.409452,P-GPS,,30.3
660700,2026-01-07 12:43:45,0.0,5,7.202,0.0,0.0,0.0,26.9,6.1,3.1,1024,1024,1244,1024,0,0,33,0,52,4.839,74.3,99.409452,P-GPS,,30.3
660800,2026-01-07 12:43:45,0.0,5,7.202,0.0,0.0,0.0,26.9,6.4,3.0,1024,1024,1641,1024,0,0,93,0,52,4.839,74.3,99.409452,P-GPS,,30.3
660900,2026-01-07 12:43:45,0.0,5,7.201,0.0,0.0,0.0,26.9,6.4,2.5,1024,1024,1684,1024,0,0,100,0,52,4.789,74.3,99.409452,P-GPS,,30.3
661000,2026-01-07 12:43:45,0.0,5,7.201,0.0,0.0,0.0,26.9,5.9,2.5,1024,1024,1684,1024,0,0,100,0,52,4.789,74.3,99.409452,P-GPS,,30.3
661100,2026-01-07 12:43:45,0.0,5,7.201,0.0,0.0,-0.671082,26.9,5.5,2.1,1024,1024,1684,1024,0,0,100,0,52,4.789,74.3,99.409452,P-GPS,,30.3
661200,2026-01-07 12:43:46,0.0,5,7.201,0.0,0.0,-1.342164,27.0,5.7,1.8,1024,1024,1684,1024,0,0,100,0,52,4.789,74.3,99.737536,P-GPS,,30.4
661300,2026-01-07 12:43:46,0.0,5,7.201,0.0,0.0,-2.013246,27.0,6.1,1.5,1024,1024,1684,1024,0,0,100,0,52,4.789,74.3,100.06562,P-GPS,,30.5
661400,2026-01-07 12:43:46,0.0,5,7.201,0.0,0.0,-2.684328,27.0,5.9,1.5,1024,1024,1684,1024,0,0,100,0,52,4.789,74.3,100.393704,P-GPS,,30.6
661500,2026-01-07 12:43:46,0.0,5,7.201,0.0,0.0,-3.579104,27.0,6.3,1.4,1024,1024,1684,1024,0,0,100,0,52,4.789,74.3,101.049872,P-GPS,,30.8
661600,2026-01-07 12:43:46,0.0,5,7.201,0.0,0.0,-3.802798,27.0,6.7,1.1,1024,1024,1684,1024,0,0,100,0,52,4.789,74.3,101.377956,P-GPS,,30.9
661700,2026-01-07 12:43:46,0.0,5,7.201,0.0,0.0,-4.250186,26.9,6.6,1.1,1024,1024,1684,1024,0,0,100,0,52,4.789,74.3,102.034124,P-GPS,,31.1
661800,2026-01-07 12:43:46,0.0,5,7.201,0.0,0.0,-4.250186,26.9,6.4,1.2,1024,1024,1684,1024,0,0,100,0,52,4.789,74.3,102.690292,P-GPS,,31.3
661900,2026-01-07 12:43:46,0.0,5,7.201,0.0,0.0,-4.47388,26.8,5.9,1.2,1024,1024,1684,1024,0,0,100,0,52,4.789,74.3,103.34646,P-GPS,,31.5
662000,2026-01-07 12:43:46,0.0,5,7.094,0.0,0.0,-4.250186,26.8,6.0,1.1,1024,1024,1684,1024,0,0,100,0,52,7.187,74.48,104.002628,P-GPS,,31.7
662100,2026-01-07 12:43:46,0.0,5,7.094,0.0,0.0,-4.250186,26.8,6.4,0.9,1024,1024,1684,1024,0,0,100,0,52,7.187,74.48,104.658796,P-GPS,,31.9
710100,2026-01-07 12:44:34,0.0,5,7.181,0.0,0.0,3.802798,26.7,3.7,3.8,1024,1024,364,1024,0,0,-100,0,49,3.966,75.02,104.658796,P-GPS,,31.9
710200,2026-01-07 12:44:35,0.0,5,7.181,0.0,0.0,3.802798,26.8,4.1,3.9,1024,1024,364,1024,0,0,-100,0,49,3.966,75.02,104.002628,P-GPS,,31.7
710300,2026-01-07 12:44:35,0.0,5,7.181,0.0,0.0,3.802798,26.9,3.9,4.0,1024,1024,364,1024,0,0,-100,0,49,3.966,75.02,103.674544,P-GPS,,31.6
710400,2026-01-07 12:44:35,0.0,5,7.181,0.0,0.0,4.026492,26.7,3.4,4.0,1024,1024,364,1024,0,0,-100,0,49,3.966,75.02,103.018376,P-GPS,,31.4
710500,2026-01-07 12:44:35,0.0,5,7.181,0.0,0.0,3.802798,26.6,4.1,3.0,1024,1024,364,1024,0,0,-100,0,49,3.966,75.02,102.362208,P-GPS,,31.2
710600,2026-01-07 12:44:35,0.0,5,7.181,0.0,0.0,3.802798,26.7,4.3,3.2,1024,1024,364,1024,0,0,-100,0,49,3.966,75.02,101.70604,P-GPS,,31.0
710700,2026-01-07 12:44:35,0.0,5,7.181,0.0,0.0,3.802798,26.9,4.3,3.7,1024,1024,364,1024,0,0,-100,0,49,3.966,75.02,101.377956,P-GPS,,30.9
710800,2026-01-07 12:44:35,0.0,5,7.181,0.0,0.0,3.802798,26.9,3.9,3.9,1024,1024,364,1024,0,0,-100,0,49,3.966,75.02,100.721788,P-GPS,,30.7
710900,2026-01-07 12:44:35,0.0,5,7.181,0.0,0.0,3.802798,26.9,3.6,4.2,1024,1024,364,1024,0,0,-100,0,49,3.966,75.02,100.06562,P-GPS,,30.5
711000,2026-01-07 12:44:35,0.0,5,7.181,0.0,0.0,3.802798,27.0,3.7,4.1,1024,1024,364,1024,0,0,-100,0,49,3.966,75.02,99.409452,P-GPS,,30.3
711100,2026-01-07 12:44:35,0.0,5,7.181,0.0,0.0,4.026492,27.0,3.8,3.7,1024,1024,364,1024,0,0,-100,0,49,3.966,75.02,98.753284,P-GPS,,30.1
711200,2026-01-07 12:44:36,0.0,5,7.187,0.0,0.0,4.026492,26.9,3.8,3.6,1024,1024,364,1024,0,0,-100,0,48,3.93,75.02,98.097116,P-GPS,,29.9
711300,2026-01-07 12:44:36,0.0,5,7.187,0.0,0.0,4.026492,26.8,3.5,3.0,1024,1024,364,1024,0,0,-100,0,48,3.93,75.02,97.769032,P-GPS,,29.8
711400,2026-01-07 12:44:36,0.0,5,7.187,0.0,0.0,3.802798,26.7,4.0,2.7,1024,1024,364,1024,0,0,-100,0,48,3.93,75.02,97.112864,P-GPS,,29.6
711500,2026-01-07 12:44:36,0.0,5,7.187,0.0,0.0,3.802798,26.7,4.0,2.5,1024,1024,364,1024,0,0,-100,0,48,3.93,75.02,96.456696,P-GPS,,29.4
711600,2026-01-07 12:44:36,0.0,5,7.187,0.0,0.0,3.802798,26.7,3.8,2.5,1024,1024,364,1024,0,0,-100,0,48,3.93,75.02,95.800528,P-GPS,,29.2
711700,2026-01-07 12:44:36,0.0,5,7.187,0.0,0.0,3.802798,26.7,3.4,2.5,1024,1024,364,1024,0,0,-100,0,48,3.93,75.02,95.14436,P-GPS,,29.0
711800,2026-01-07 12:44:36,0.0,5,7.187,0.0,0.0,3.802798,26.7,3.1,2.8,1024,1024,364,1024,0,0,-100,0,48,3.93,75.02,94.488192,P-GPS,,28.8
711900,2026-01-07 12:44:36,0.0,5,7.187,0.0,0.0,4.026492,26.7,3.0,2.8,1024,1024,364,1024,0,0,-100,0,48,3.93,75.02,93.832024,P-GPS,,28.6
712000,2026-01-07 12:44:36,0.0,5,7.187,0.0,0.0,4.026492,26.6,3.5,3.2,1024,1024,364,1024,0,0,-100,0,48,3.93,75.02,93.175856,P-GPS,,28.4
712100,2026-01-07 12:44:36,0.0,5,7.187,0.0,0.0,3.802798,26.7,3.2,3.2,1024,1024,364,1024,0,0,-100,0,48,3.93,75.02,92.519688,P-GPS,,28.2
712200,2026-01-07 12:44:37,0.0,5,7.187,0.0,0.0,3.802798,26.7,3.9,2.9,1024,1024,364,1024,0,0,-100,0,48,3.93,75.02,92.191604,P-GPS,,28.1
