index,time(millisecond),timestamp,speed(mph),gpslevel,voltage(v),xSpeed(mph),ySpeed(mph),zSpeed(mph),compass_heading(degrees),pitch(degrees),roll(degrees),rc_elevator,rc_aileron,rc_throttle,rc_rudder,rc_elevator(percent),rc_aileron(percent),rc_throttle(percent),rc_rudder(percent),battery_percent,current(A),battery_temperature(f),ascent(feet),flycState,message,height_above_takeoff(meters)
78,312600,2026-01-07 15:38:28,0.0,5,7.295,0.0,0.0,-4.250186,38.1,3.4,1.7,1024,1024,1024,1024,0,0,0,0,58,5.659,72.5,33.136484,P-GPS,,10.1
79,312700,2026-01-07 15:38:28,0.0,5,7.295,0.0,0.0,-4.250186,38.2,2.7,2.4,1024,1024,1024,1024,0,0,0,0,58,5.659,72.5,33.792652,P-GPS,,10.3
80,312800,2026-01-07 15:38:28,0.0,5,7.295,0.0,0.0,-4.250186,38.1,2.9,2.3,1024,1024,1024,1024,0,0,0,0,58,5.659,72.5,34.120736,P-GPS,,10.4
81,312900,2026-01-07 15:38:28,0.0,5,7.285,0.0,0.0,-3.579104,38.0,3.4,2.3,1024,1024,1024,1024,0,0,0,0,58,5.822,72.5,34.776904,P-GPS,,10.6
82,313000,2026-01-07 15:38:28,0.0,5,7.285,0.0,0.0,-2.908022,38.1,2.9,2.6,1024,1024,1024,1024,0,0,0,0,58,5.822,72.5,35.104988,P-GPS,,10.7
83,313100,2026-01-07 15:38:28,0.0,5,7.285,0.0,0.0,-2.013246,38.1,2.8,2.9,1024,1024,1024,1024,0,0,0,0,58,5.822,72.5,35.433072,P-GPS,,10.8
84,313200,2026-01-07 15:38:28,0.0,5,7.285,0.0,0.0,-1.342164,38.0,2.8,2.6,1024,1024,1024,1024,0,0,0,0,58,5.822,72.5,35.761156,P-GPS,,10.9
85,313300,2026-01-07 15:38:28,0.0,5,7.285,0.0,0.0,-0.671082,38.0,3.3,2.4,1024,1024,1024,1024,0,0,0,0,58,5.822,72.5,35.761156,P-GPS,,10.9
86,313400,2026-01-07 15:38:28,0.0,5,7.285,0.0,0.0,-0.223694,38.1,3.7,2.3,1024,1024,1024,1024,0,0,0,0,58,5.822,72.5,35.761156,P-GPS,,10.9
87,313500,2026-01-07 15:38:29,0.0,5,7.285,0.0,0.0,0.0,38.2,4.0,2.4,1024,1024,1024,1024,0,0,0,0,58,5.822,72.5,35.761156,P-GPS,,10.9
88,313600,2026-01-07 15:38:29,0.0,5,7.285,0.0,0.0,0.0,38.1,4.2,2.4,1024,1024,1024,1024,0,0,0,0,58,5.822,72.5,35.761156,P-GPS,,10.9
89,313700,2026-01-07 15:38:29,0.0,5,7.285,0.0,0.0,0.0,38.1,3.7,2.8,1024,1024,1024,1024,0,0,0,0,58,5.822,72.5,35.761156,P-GPS,,10.9
90,313800,2026-01-07 15:38:29,0.0,5,7.285,0.0,0.0,0.0,38.1,3.4,2.9,1024,1024,1024,1024,0,0,0,0,58,5.822,72.5,35.433072,P-GPS,,10.8
91,313900,2026-01-07 15:38:29,0.0,5,7.285,0.0,0.0,0.0,38.1,3.9,2.5,1024,1024,1024,1024,0,0,0,0,58,5.822,72.5,35.433072,P-GPS,,10.8
92,314000,2026-01-07 15:38:29,0.0,5,7.329,0.0,0.0,0.0,38.2,3.8,2.3,1024,1024,1024,1024,0,0,0,0,58,4.708,72.5,35.433072,P-GPS,,10.8
93,314100,2026-01-07 15:38:29,0.0,5,7.329,0.0,0.0,0.0,38.2,3.7,2.2,1024,1024,1024,1024,0,0,0,0,58,4.708,72.5,35.433072,P-GPS,,10.8
94,314200,2026-01-07 15:38:29,0.0,5,7.329,0.0,0.0,0.0,38.2,3.6,2.2,1024,1024,1024,1024,0,0,0,0,58,4.708,72.5,35.433072,P-GPS,,10.8
95,314300,2026-01-07 15:38:29,0.0,5,7.329,0.0,0.0,0.0,38.2,3.5,2.1,1024,1024,1024,1024,0,0,0,0,58,4.708,72.5,35.433072,P-GPS,,10.8
96,314400,2026-01-07 15:38:29,0.0,5,7.329,0.0,0.0,0.0,38.1,3.0,1.1,1024,1024,1024,1024,0,0,0,0,58,4.708,72.5,35.104988,P-GPS,,10.7
97,314500,2026-01-07 15:38:29,0.0,5,7.329,0.0,0.0,0.0,38.0,2.2,1.2,1024,1024,1024,1024,0,0,0,0,58,4.708,72.5,35.104988,P-GPS,,10.7
98,314600,2026-01-07 15:38:30,0.0,5,7.329,0.0,0.0,0.0,38.1,2.2,1.3,1024,1024,1024,1024,0,0,0,0,58,4.708,72.5,35.104988,P-GPS,,10.7
99,314700,2026-01-07 15:38:30,0.0,5,7.329,0.0,0.0,0.0,38.0,2.6,1.2,1024,1024,1024,1024,0,0,0,0,58,4.708,72.5,35.104988,P-GPS,,10.7
100,314800,2026-01-07 15:38:30,0.0,5,7.329,0.0,0.0,0.0,37.9,2.7,1.2,1024,1024,1024,1024,0,0,0,0,58,4.708,72.5,35.104988,P-GPS,,10.7
101,314900,2026-01-07 15:38:30,0.0,5,7.329,0.0,0.0,0.0,38.0,3.1,1.7,1024,1024,1024,1024,0,0,0,0,58,4.708,72.5,35.104988,P-GPS,,10.7
102,315000,2026-01-07 15:38:30,0.0,5,7.329,0.0,0.0,0.0,38.0,3.8,1.9,1024,1024,1024,1024,0,0,0,0,58,4.708,72.5,35.104988,P-GPS,,10.7
103,315100,2026-01-07 15:38:30,0.0,5,7.319,0.0,0.0,0.0,38.1,4.0,2.1,1024,1024,1024,1024,0,0,0,0,58,5.098,72.5,35.104988,P-GPS,,10.7
104,315200,2026-01-07 15:38:30,0.0,5,7.319,0.0,0.0,0.0,38.2,4.2,2.1,1024,1024,1024,1024,0,0,0,0,58,5.098,72.5,35.104988,P-GPS,,10.7
105,315300,2026-01-07 15:38:30,0.0,5,7.319,0.0,0.0,0.0,38.2,4.1,2.1,1024,1024,1024,1024,0,0,0,0,58,5.098,72.5,35.104988,P-GPS,,10.7
106,315400,2026-01-07 15:38:30,0.0,5,7.319,0.0,0.0,0.0,38.2,4.2,2.1,1024,1024,1024,1024,0,0,0,0,58,5.098,72.5,35.104988,P-GPS,,10.7
107,315500,2026-01-07 15:38:30,0.0,5,7.319,0.0,0.0,0.0,38.2,3.9,2.0,1024,1024,1024,1024,0,0,0,0,58,5.098,72.5,35.104988,P-GPS,,10.7
108,315600,2026-01-07 15:38:31,0.0,5,7.319,0.0,0.0,0.0,38.3,3.8,2.1,1024,1024,1024,1024,0,0,0,0,58,5.098,72.5,35.104988,P-GPS,,10.7
109,315700,2026-01-07 15:38:31,0.0,5,7.319,0.0,0.0,0.0,38.3,3.8,2.3,1024,1024,1024,1024,0,0,0,0,58,5.098,72.5,35.104988,P-GPS,,10.7
110,315800,2026-01-07 15:38:31,0.0,5,7.319,0.0,0.0,0.0,38.2,3.7,2.4,1024,1024,1024,1024,0,0,0,0,58,5.098,72.5,35.104988,P-GPS,,10.7
111,315900,2026-01-07 15:38:31,0.0,5,7.319,0.0,0.0,0.0,38.1,3.5,2.7,1024,1024,1024,1024,0,0,0,0,58,5.098,72.5,35.104988,P-GPS,,10.7
112,316000,2026-01-07 15:38:31,0.0,5,7.319,0.0,0.0,0.0,38.1,3.2,2.5,1024,1024,1024,1024,0,0,0,0,58,5.098,72.5,35.104988,P-GPS,,10.7
113,316100,2026-01-07 15:38:31,0.0,5,7.319,0.0,0.0,0.0,38.1,3.6,2.6,1024,1024,1024,1024,0,0,0,0,58,5.098,72.5,35.104988,P-GPS,,10.7
114,316200,2026-01-07 15:38:31,0.0,5,7.327,0.0,0.0,0.0,38.2,3.6,2.9,1024,1024,1024,1024,0,0,0,0,58,4.884,72.5,35.433072,P-GPS,,10.8
115,316300,2026-01-07 15:38:31,0.0,5,7.327,0.0,0.0,0.0,38.2,3.8,3.0,1024,1024,1024,1024,0,0,0,0,58,4.884,72.5,35.433072,P-GPS,,10.8
116,316400,2026-01-07 15:38:31,0.0,5,7.327,0.0,0.0,0.0,38.1,3.7,3.0,1024,1024,1024,1024,0,0,0,0,58,4.884,72.5,35.433072,P-GPS,,10.8
117,316500,2026-01-07 15:38:31,0.0,5,7.327,0.0,0.0,0.0,38.1,3.8,2.9,1024,1024,1024,1024,0,0,0,0,58,4.884,72.5,35.433072,P-GPS,,10.8
118,316600,2026-01-07 15:38:32,0.0,5,7.327,0.0,0.0,0.0,38.1,4.0,2.7,1024,1024,1024,1024,0,0,0,0,58,4.884,72.5,35.433072,P-GPS,,10.8
119,316700,2026-01-07 15:38:32,0.0,5,7.327,0.0,0.0,0.0,38.2,3.8,2.6,1024,1024,1024,1024,0,0,0,0,58,4.884,72.5,35.433072,P-GPS,,10.8
120,316800,2026-01-07 15:38:32,0.0,5,7.327,0.0,0.0,0.0,38.2,3.8,2.5,1024,1024,1024,1024,0,0,0,0,58,4.884,72.5,35.433072,P-GPS,,10.8
121,316900,2026-01-07 15:38:32,0.0,5,7.327,0.0,0.0,0.0,38.2,4.0,2.4,1024,1024,1024,1024,0,0,0,0,58,4.884,72.5,35.433072,P-GPS,,10.8
122,317000,2026-01-07 15:38:32,0.0,5,7.327,0.0,0.0,0.0,38.2,3.9,2.5,1024,1024,1024,1024,0,0,0,0,58,4.884,72.5,35.433072,P-GPS,,10.8
123,317100,2026-01-07 15:38:32,0.0,5,7.327,0.0,0.0,0.0,38.2,3.8,2.6,1024,1024,1024,1024,0,0,0,0,58,4.884,72.5,35.433072,P-GPS,,10.8
124,317200,2026-01-07 15:38:32,0.0,5,7.327,0.0,0.0,0.0,38.2,3.9,2.4,1024,1024,1024,1024,0,0,0,0,58,4.884,72.5,35.433072,P-GPS,,10.8
125,317300,2026-01-07 15:38:32,0.0,5,7.326,0.0,0.0,0.0,38.2,3.6,2.5,1024,1024,1024,1024,0,0,0,0,58,4.778,72.5,35.433072,P-GPS,,10.8
126,317400,2026-01-07 15:38:32,0.0,5,7.326,0.0,0.0,0.0,38.2,3.6,2.3,1024,1024,1024,1024,0,0,0,0,58,4.778,72.5,35.433072,P-GPS,,10.8
127,317500,2026-01-07 15:38:32,0.0,5,7.326,0.0,0.0,0.0,38.1,3.3,2.4,1024,1024,1024,1024,0,0,0,0,58,4.778,72.5,35.433072,P-GPS,,10.8
128,317600,2026-01-07 15:38:33,0.0,5,7.326,0.0,0.0,0.0,38.1,3.7,2.2,1024,1024,1024,1024,0,0,0,0,58,4.778,72.5,35.433072,P-GPS,,10.8
129,317700,2026-01-07 15:38:33,0.0,5,7.326,0.0,0.0,0.0,38.1,3.9,2.3,1024,1024,1024,1024,0,0,0,0,58,4.778,72.5,35.433072,P-GPS,,10.8
130,317800,2026-01-07 15:38:33,0.0,5,7.326,0.0,0.0,0.0,38.1,3.8,2.5,1024,1024,1024,1024,0,0,0,0,58,4.778,72.5,35.433072,P-GPS,,10.8
131,317900,2026-01-07 15:38:33,0.0,5,7.326,0.0,0.0,0.0,38.1,3.6,2.7,1024,1024,1024,1024,0,0,0,0,58,4.778,72.5,35.433072,P-GPS,,10.8
132,318000,2026-01-07 15:38:33,0.0,5,7.326,0.0,0.0,0.0,38.1,3.7,2.8,1024,1024,1024,1024,0,0,0,0,58,4.778,72.5,35.433072,P-GPS,,10.8
133,318100,2026-01-07 15:38:33,0.0,5,7.326,0.0,0.0,0.0,38.1,3.9,2.7,1024,1024,1024,1024,0,0,0,0,58,4.778,72.5,35.433072,P-GPS,,10.8
134,318200,2026-01-07 15:38:33,0.0,5,7.326,0.0,0.0,0.0,38.1,4.4,2.6,1024,1024,1024,1024,0,0,0,0,58,4.778,72.5,35.433072,P-GPS,,10.8
135,318300,2026-01-07 15:38:33,0.0,5,7.326,0.0,0.0,0.0,38.0,3.9,1.8,1024,1024,1024,1024,0,0,0,0,58,4.778,72.5,35.433072,P-GPS,,10.8
136,318400,2026-01-07 15:38:33,0.0,5,7.322,0.0,0.0,0.0,37.8,2.7,2.1,1024,1024,1024,1024,0,0,0,0,58,4.801,72.68,35.433072,P-GPS,,10.8
137,318500,2026-01-07 15:38:34,0.0,5,7.322,0.0,0.0,0.0,37.9,3.1,2.6,1024,1024,1024,1024,0,0,0,0,58,4.801,72.68,35.433072,P-GPS,,10.8
138,318600,2026-01-07 15:38:34,0.0,5,7.322,0.0,0.0,0.0,38.2,4.5,1.8,1024,1024,1024,1024,0,0,0,0,58,4.801,72.68,35.433072,P-GPS,,10.8
139,318700,2026-01-07 15:38:34,0.0,5,7.322,0.0,0.0,0.0,38.2,4.9,1.4,1024,1024,1024,1024,0,0,0,0,58,4.801,72.68,35.433072,P-GPS,,10.8
140,318800,2026-01-07 15:38:34,0.0,5,7.322,0.0,0.0,0.0,38.2,4.6,1.8,1024,1024,1024,1024,0,0,0,0,58,4.801,72.68,35.433072,P-GPS,,10.8
141,318900,2026-01-07 15:38:34,0.0,5,7.322,0.0,0.0,0.0,38.2,4.2,2.2,1024,1024,1024,1024,0,0,0,0,58,4.801,72.68,35.104988,P-GPS,,10.7
142,319000,2026-01-07 15:38:34,0.0,5,7.322,0.0,0.0,0.0,38.2,4.1,2.2,1024,1024,1024,1024,0,0,0,0,58,4.801,72.68,35.104988,P-GPS,,10.7
143,319100,2026-01-07 15:38:34,0.0,5,7.322,0.0,0.0,0.0,38.1,3.8,2.3,1024,1024,1024,1024,0,0,0,0,58,4.801,72.68,35.104988,P-GPS,,10.7
144,319200,2026-01-07 15:38:34,0.0,5,7.322,0.0,0.0,0.0,38.1,3.5,2.5,1024,1024,1024,1024,0,0,0,0,58,4.801,72.68,35.104988,P-GPS,,10.7
145,319300,2026-01-07 15:38:34,0.0,5,7.322,0.0,0.0,0.0,38.1,3.6,2.6,1024,1024,1024,1024,0,0,0,0,58,4.801,72.68,35.104988,P-GPS,,10.7
146,319400,2026-01-07 15:38:34,0.0,5,7.322,0.0,0.0,0.0,38.2,3.9,2.7,1024,1024,1024,1024,0,0,0,0,58,4.801,72.68,35.104988,P-GPS,,10.7
147,319500,2026-01-07 15:38:34,0.0,5,7.305,0.0,0.0,0.0,38.3,4.5,2.4,1024,1024,1024,1024,0,0,0,0,58,5.139,72.68,35.104988,P-GPS,,10.7
148,319600,2026-01-07 15:38:35,0.0,5,7.305,0.0,0.0,0.0,38.2,4.5,2.3,1024,1024,1024,1024,0,0,0,0,58,5.139,72.68,35.104988,P-GPS,,10.7
149,319700,2026-01-07 15:38:35,0.0,5,7.305,0.0,0.0,0.0,38.2,4.1,2.4,1024,1024,1024,1024,0,0,0,0,58,5.139,72.68,35.104988,P-GPS,,10.7
150,319800,2026-01-07 15:38:35,0.0,5,7.305,0.0,0.0,0.0,38.3,4.4,2.4,1024,1024,1024,1024,0,0,0,0,58,5.139,72.68,35.104988,P-GPS,,10.7
151,319900,2026-01-07 15:38:35,0.0,5,7.305,0.0,0.0,0.0,38.3,4.5,2.3,1024,1024,1024,1024,0,0,0,0,58,5.139,72.68,35.104988,P-GPS,,10.7
152,320000,2026-01-07 15:38:35,0.0,5,7.305,0.0,0.0,0.0,38.3,4.9,1.8,1024,1024,1024,1024,0,0,0,0,58,5.139,72.68,35.104988,P-GPS,,10.7
153,320100,2026-01-07 15:38:35,0.0,5,7.305,0.0,0.0,0.0,38.2,4.8,1.5,1024,1024,1024,1024,0,0,0,0,58,5.139,72.68,35.104988,P-GPS,,10.7
154,320200,2026-01-07 15:38:35,0.0,5,7.305,0.0,0.0,0.0,38.2,4.6,1.5,1024,1024,1024,1024,0,0,0,0,58,5.139,72.68,35.104988,P-GPS,,10.7
155,320300,2026-01-07 15:38:35,0.0,5,7.305,0.0,0.0,0.0,38.2,4.4,1.7,1024,1024,1024,1024,0,0,0,0,58,5.139,72.68,35.104988,P-GPS,,10.7
156,320400,2026-01-07 15:38:35,0.0,5,7.305,0.0,0.0,0.0,38.2,4.5,1.8,1024,1024,1024,1024,0,0,0,0,58,5.139,72.68,35.104988,P-GPS,,10.7
157,320500,2026-01-07 15:38:36,0.0,5,7.305,0.0,0.0,0.0,38.3,4.3,1.6,1024,1024,1024,1024,0,0,0,0,58,5.139,72.68,35.104988,P-GPS,,10.7
158,320600,2026-01-07 15:38:36,0.0,5,7.306,0.0,0.0,0.0,38.3,4.0,1.7,1024,1024,1024,1024,0,0,0,0,58,5.102,72.68,35.104988,P-GPS,,10.7
159,320700,2026-01-07 15:38:36,0.0,5,7.306,0.0,0.0,0.0,38.3,3.7,1.8,1024,1024,1024,1024,0,0,0,0,58,5.102,72.68,35.104988,P-GPS,,10.7
160,320800,2026-01-07 15:38:36,0.0,5,7.306,0.0,0.0,0.0,38.3,3.5,1.5,1024,1024,1024,1024,0,0,0,0,58,5.102,72.68,35.104988,P-GPS,,10.7
161,320900,2026-01-07 15:38:36,0.0,5,7.306,0.0,0.0,0.0,38.3,3.3,1.2,1024,1024,1024,1024,0,0,0,0,58,5.102,72.68,35.104988,P-GPS,,10.7
162,321000,2026-01-07 15:38:36,0.0,5,7.306,0.0,0.0,0.0,38.2,3.3,0.6,1024,1024,1024,1024,0,0,0,0,58,5.102,72.68,35.104988,P-GPS,,10.7
163,321100,2026-01-07 15:38:36,0.0,5,7.306,0.0,0.0,0.0,38.1,3.0,0.6,1024,1024,1024,1024,0,0,0,0,58,5.102,72.68,35.104988,P-GPS,,10.7
164,321200,2026-01-07 15:38:36,0.0,5,7.306,0.0,0.0,0.0,38.0,2.7,1.3,1024,1024,1024,1024,0,0,0,0,58,5.102,72.68,35.104988,P-GPS,,10.7
165,321300,2026-01-07 15:38:36,0.0,5,7.306,0.0,0.0,0.0,37.8,2.3,2.2,1024,1024,1024,1024,0,0,0,0,58,5.102,72.68,35.104988,P-GPS,,10.7
166,321400,2026-01-07 15:38:36,0.0,5,7.306,0.0,0.0,0.0,37.7,1.9,2.8,1024,1024,1024,1024,0,0,0,0,58,5.102,72.68,35.104988,P-GPS,,10.7
167,321500,2026-01-07 15:38:36,0.0,5,7.306,0.0,0.0,0.0,37.7,2.3,2.6,1024,1024,1024,1024,0,0,0,0,58,5.102,72.68,35.104988,P-GPS,,10.7
168,321600,2026-01-07 15:38:37,0.0,5,7.306,0.0,0.0,0.0,37.8,2.9,2.0,1024,1024,1024,1024,0,0,0,0,58,5.102,72.68,35.104988,P-GPS,,10.7
169,321700,2026-01-07 15:38:37,0.0,5,7.302,0.0,0.0,0.0,37.8,3.5,1.8,1024,1024,1024,1024,0,0,0,0,57,5.039,72.68,35.104988,P-GPS,,10.7
170,321800,2026-01-07 15:38:37,0.0,5,7.302,0.0,0.0,0.0,38.0,3.7,2.2,1024,1024,1024,1024,0,0,0,0,57,5.039,72.68,35.104988,P-GPS,,10.7
171,321900,2026-01-07 15:38:37,0.0,5,7.302,0.0,0.0,0.0,38.2,4.5,2.4,1024,1024,1024,1024,0,0,0,0,57,5.039,72.68,35.104988,P-GPS,,10.7
172,322000,2026-01-07 15:38:37,0.0,5,7.302,0.0,0.0,0.0,38.4,4.9,2.0,1024,1024,1024,1024,0,0,0,0,57,5.039,72.68,35.104988,P-GPS,,10.7
173,322100,2026-01-07 15:38:37,0.0,5,7.302,0.0,0.0,0.0,38.5,5.0,1.6,1024,1024,1024,1024,0,0,0,0,57,5.039,72.68,35.104988,P-GPS,,10.7
174,322200,2026-01-07 15:38:37,0.0,5,7.302,0.0,0.0,0.0,38.5,4.8,1.0,1024,1024,1024,1024,0,0,0,0,57,5.039,72.68,35.104988,P-GPS,,10.7
175,322300,2026-01-07 15:38:37,0.0,5,7.302,0.0,0.0,0.0,38.2,4.3,0.3,1024,1024,1024,1024,0,0,0,0,57,5.039,72.68,35.104988,P-GPS,,10.7
176,322400,2026-01-07 15:38:37,0.0,5,7.302,0.0,0.0,0.0,38.1,4.0,0.5,1024,1024,1024,1024,0,0,0,0,57,5.039,72.68,35.104988,P-GPS,,10.7
177,322500,2026-01-07 15:38:37,0.0,5,7.302,0.0,0.0,0.0,38.3,3.8,0.7,1024,1024,1024,1024,0,0,0,0,57,5.039,72.68,35.104988,P-GPS,,10.7
178,322600,2026-01-07 15:38:38,0.0,5,7.302,0.0,0.0,0.0,38.2,3.6,0.4,1024,1024,1024,1024,0,0,0,0,57,5.039,72.68,35.104988,P-GPS,,10.7
179,322700,2026-01-07 15:38:38,0.0,5,7.302,0.0,0.0,0.0,38.1,3.5,0.8,1024,1024,1024,1024,0,0,0,0,57,5.039,72.68,35.104988,P-GPS,,10.7
180,322800,2026-01-07 15:38:38,0.0,5,7.302,0.0,0.0,0.0,38.1,2.9,1.6,1024,1024,1024,1024,0,0,0,0,57,5.039,72.68,35.104988,P-GPS,,10.7
181,322900,2026-01-07 15:38:38,0.0,5,7.302,0.0,0.0,0.0,38.1,2.6,2.0,1024,1024,1024,1024,0,0,0,0,57,5.039,72.68,35.104988,P-GPS,,10.7
182,323000,2026-01-07 15:38:38,0.0,5,7.302,0.0,0.0,0.0,38.1,2.7,2.1,1024,1024,1024,1024,0,0,0,0,57,5.039,72.68,35.104988,P-GPS,,10.7
183,323100,2026-01-07 15:38:38,0.0,5,7.302,0.0,0.0,0.0,38.1,2.5,2.2,1024,1024,1024,1024,0,0,0,0,57,5.039,72.68,35.104988,P-GPS,,10.7
184,323200,2026-01-07 15:38:38,0.0,5,7.302,0.0,0.0,0.0,38.1,2.4,2.2,1024,1024,1024,1024,0,0,0,0,57,5.039,72.68,35.433072,P-GPS,,10.8
185,323300,2026-01-07 15:38:38,0.0,5,7.302,0.0,0.0,0.0,38.1,2.5,2.0,1024,1024,1024,1024,0,0,0,0,57,5.039,72.68,35.433072,P-GPS,,10.8
186,323400,2026-01-07 15:38:38,0.0,5,7.302,0.0,0.0,0.0,38.2,2.6,2.1,1024,1024,1024,1024,0,0,0,0,57,5.039,72.68,35.433072,P-GPS,,10.8
187,323500,2026-01-07 15:38:38,0.0,5,7.302,0.0,0.0,0.0,38.3,2.4,2.0,1024,1024,1024,1024,0,0,0,0,57,5.039,72.68,35.433072,P-GPS,,10.8
188,323600,2026-01-07 15:38:39,0.0,5,7.302,0.0,0.0,0.0,38.2,2.5,2.1,1024,1024,1024,1024,0,0,0,0,57,5.039,72.68,35.433072,P-GPS,,10.8
189,323700,2026-01-07 15:38:39,0.0,5,7.302,0.0,0.0,0.0,38.1,2.5,2.2,1024,1024,1024,1024,0,0,0,0,57,5.039,72.68,35.433072,P-GPS,,10.8
190,323800,2026-01-07 15:38:39,0.0,5,7.302,0.0,0.0,0.0,38.2,2.3,2.3,1024,1024,1024,1024,0,0,0,0,57,5.039,72.68,35.433072,P-GPS,,10.8
191,323900,2026-01-07 15:38:39,0.0,5,7.312,0.0,0.0,0.0,38.2,2.2,2.2,1024,1024,1024,1024,0,0,0,0,57,4.826,72.68,35.433072,P-GPS,,10.8
192,324000,2026-01-07 15:38:39,0.0,5,7.312,0.0,0.0,0.0,38.1,2.1,2.0,1024,1024,1024,1024,0,0,0,0,57,4.826,72.68,35.433072,P-GPS,,10.8
193,324100,2026-01-07 15:38:39,0.0,5,7.312,0.0,0.0,0.0,38.1,2.2,1.9,1024,1024,1024,1024,0,0,0,0,57,4.826,72.68,35.433072,P-GPS,,10.8
194,324200,2026-01-07 15:38:39,0.0,5,7.312,0.0,0.0,0.0,38.2,2.2,1.7,1024,1024,1024,1024,0,0,0,0,57,4.826,72.68,35.433072,P-GPS,,10.8
195,324300,2026-01-07 15:38:39,0.0,5,7.312,0.0,0.0,0.0,38.1,2.3,1.7,1024,1024,1024,1024,0,0,0,0,57,4.826,72.68,35.433072,P-GPS,,10.8
196,324400,2026-01-07 15:38:39,0.0,5,7.312,0.0,0.0,0.0,38.2,2.1,1.8,1024,1024,1024,1024,0,0,0,0,57,4.826,72.68,35.433072,P-GPS,,10.8
197,324500,2026-01-07 15:38:39,0.0,5,7.312,0.0,0.0,0.0,38.1,1.9,1.9,1024,1024,1024,1024,0,0,0,0,57,4.826,72.68,35.433072,P-GPS,,10.8
198,324600,2026-01-07 15:38:40,0.0,5,7.312,0.0,0.0,0.0,38.2,1.9,1.9,1024,1024,1024,1024,0,0,0,0,57,4.826,72.68,35.433072,P-GPS,,10.8
199,324700,2026-01-07 15:38:40,0.0,5,7.312,0.0,0.0,0.0,38.2,1.8,1.9,1024,1024,1024,1024,0,0,0,0,57,4.826,72.68,35.433072,P-GPS,,10.8
200,324800,2026-01-07 15:38:40,0.0,5,7.312,0.0,0.0,0.0,38.1,1.7,1.8,1024,1024,1024,1024,0,0,0,0,57,4.826,72.68,35.433072,P-GPS,,10.8
201,324900,2026-01-07 15:38:40,0.0,5,7.312,0.0,0.0,0.0,38.1,1.7,1.8,1024,1024,1024,1024,0,0,0,0,57,4.826,72.68,35.433072,P-GPS,,10.8
202,325000,2026-01-07 15:38:40,0.0,5,7.307,0.0,0.0,0.0,38.1,1.8,1.9,1024,1024,1024,1024,0,0,0,0,57,4.848,72.68,35.433072,P-GPS,,10.8
203,325100,2026-01-07 15:38:40,0.0,5,7.307,0.0,0.0,0.0,38.1,1.9,1.9,1024,1024,1024,1024,0,0,0,0,57,4.848,72.68,35.433072,P-GPS,,10.8
204,325200,2026-01-07 15:38:40,0.0,5,7.307,0.0,0.0,0.0,38.1,1.9,1.7,1024,1024,1024,1024,0,0,0,0,57,4.848,72.68,35.433072,P-GPS,,10.8
205,325300,2026-01-07 15:38:40,0.0,5,7.307,0.0,0.0,0.0,38.2,2.1,1.6,1024,1024,1024,1024,0,0,0,0,57,4.848,72.68,35.433072,P-GPS,,10.8
206,325400,2026-01-07 15:38:40,0.0,5,7.307,0.0,0.0,0.0,38.2,2.2,1.4,1024,1024,1024,1024,0,0,0,0,57,4.848,72.68,35.433072,P-GPS,,10.8
207,325500,2026-01-07 15:38:40,0.0,5,7.307,0.0,0.0,0.0,38.2,2.2,1.2,1024,1024,1024,1024,0,0,0,0,57,4.848,72.68,35.433072,P-GPS,,10.8
208,325600,2026-01-07 15:38:41,0.0,5,7.307,0.0,0.0,0.0,38.2,2.4,1.0,1024,1024,1024,1024,0,0,0,0,57,4.848,72.68,35.433072,P-GPS,,10.8
209,325700,2026-01-07 15:38:41,0.0,5,7.307,0.0,0.0,0.0,38.2,2.3,1.0,1024,1024,1024,1024,0,0,0,0,57,4.848,72.68,35.433072,P-GPS,,10.8
210,325800,2026-01-07 15:38:41,0.0,5,7.307,0.0,0.0,0.0,38.2,2.3,1.1,1024,1024,1024,1024,0,0,0,0,57,4.848,72.68,35.433072,P-GPS,,10.8
211,325900,2026-01-07 15:38:41,0.0,5,7.307,0.0,0.0,0.0,38.1,2.2,1.3,1024,1024,1024,1024,0,0,0,0,57,4.848,72.68,35.433072,P-GPS,,10.8
212,326000,2026-01-07 15:38:41,0.0,5,7.307,0.0,0.0,0.0,38.0,2.1,1.4,1024,1024,1024,1024,0,0,0,0,57,4.848,72.68,35.433072,P-GPS,,10.8
213,326100,2026-01-07 15:38:41,0.0,5,7.306,0.0,0.0,0.0,38.0,2.0,1.5,1024,1024,1024,1024,0,0,0,0,57,4.86,72.68,35.433072,P-GPS,,10.8
214,326200,2026-01-07 15:38:41,0.0,5,7.306,0.0,0.0,0.0,38.1,2.0,1.6,1024,1024,1024,1024,0,0,0,0,57,4.86,72.68,35.433072,P-GPS,,10.8
215,326300,2026-01-07 15:38:41,0.0,5,7.306,0.0,0.0,0.0,38.2,2.0,1.6,1024,1024,1024,1024,0,0,0,0,57,4.86,72.68,35.433072,P-GPS,,10.8
216,326400,2026-01-07 15:38:41,0.0,5,7.306,0.0,0.0,0.0,38.2,2.0,1.4,1024,1024,1024,1024,0,0,0,0,57,4.86,72.68,35.433072,P-GPS,,10.8
217,326500,2026-01-07 15:38:41,0.0,5,7.306,0.0,0.0,0.0,38.2,2.1,1.2,1024,1024,1024,1024,0,0,0,0,57,4.86,72.68,35.433072,P-GPS,,10.8
218,326600,2026-01-07 15:38:42,0.0,5,7.306,0.0,0.0,0.0,38.1,2.2,1.1,1024,1024,1024,1024,0,0,0,0,57,4.86,72.68,35.433072,P-GPS,,10.8
219,326700,2026-01-07 15:38:42,0.0,5,7.306,0.0,0.0,0.0,38.1,2.3,0.9,1024,1024,1024,1024,0,0,0,0,57,4.86,72.68,35.433072,P-GPS,,10.8
220,326800,2026-01-07 15:38:42,0.0,5,7.306,0.0,0.0,0.0,38.1,2.3,0.8,1024,1024,1024,1024,0,0,0,0,57,4.86,72.68,35.433072,P-GPS,,10.8
221,326900,2026-01-07 15:38:42,0.0,5,7.306,0.0,0.0,0.0,38.1,2.1,0.7,1024,1024,1024,1024,0,0,0,0,57,4.86,72.68,35.433072,P-GPS,,10.8
222,327000,2026-01-07 15:38:42,0.0,5,7.306,0.0,0.0,0.0,38.1,2.1,0.9,1024,1024,1024,1024,0,0,0,0,57,4.86,72.68,35.433072,P-GPS,,10.8
223,327100,2026-01-07 15:38:42,0.0,5,7.306,0.0,0.0,0.0,38.0,2.1,1.2,1024,1024,1024,1024,0,0,0,0,57,4.86,72.68,35.433072,P-GPS,,10.8
224,327200,2026-01-07 15:38:42,0.0,5,7.308,0.0,0.0,0.0,38.1,2.2,1.5,1024,1024,1024,1024,0,0,0,0,57,4.772,72.86,35.433072,P-GPS,,10.8
225,327300,2026-01-07 15:38:42,0.0,5,7.308,0.0,0.0,0.0,38.1,2.3,1.6,1024,1024,1024,1024,0,0,0,0,57,4.772,72.86,35.433072,P-GPS,,10.8
226,327400,2026-01-07 15:38:42,0.0,5,7.308,0.0,0.0,0.0,38.2,2.5,1.3,1024,1024,1024,1024,0,0,0,0,57,4.772,72.86,35.433072,P-GPS,,10.8
227,327500,2026-01-07 15:38:42,0.0,5,7.308,0.0,0.0,0.0,38.2,2.7,1.0,1024,1024,1024,1024,0,0,0,0,57,4.772,72.86,35.433072,P-GPS,,10.8
228,327600,2026-01-07 15:38:43,0.0,5,7.308,0.0,0.0,0.0,38.2,3.0,0.8,1024,1024,1024,1024,0,0,0,0,57,4.772,72.86,35.433072,P-GPS,,10.8
229,327700,2026-01-07 15:38:43,0.0,5,7.308,0.0,0.0,0.0,38.3,2.9,0.7,1024,1024,1024,1024,0,0,0,0,57,4.772,72.86,35.433072,P-GPS,,10.8
230,327800,2026-01-07 15:38:43,0.0,5,7.308,0.0,0.0,0.0,38.2,2.7,0.4,1024,1024,1024,1024,0,0,0,0,57,4.772,72.86,35.761156,P-GPS,,10.9
231,327900,2026-01-07 15:38:43,0.0,5,7.308,0.0,0.0,0.0,38.3,2.6,0.5,1024,1024,1024,1024,0,0,0,0,57,4.772,72.86,35.761156,P-GPS,,10.9
232,328000,2026-01-07 15:38:43,0.0,5,7.308,0.0,0.0,0.0,38.3,2.6,0.5,1024,1024,1024,1024,0,0,0,0,57,4.772,72.86,35.761156,P-GPS,,10.9
233,328100,2026-01-07 15:38:43,0.0,5,7.308,0.0,0.0,0.0,38.2,2.7,0.3,1024,1024,1024,1024,0,0,0,0,57,4.772,72.86,35.761156,P-GPS,,10.9
234,328200,2026-01-07 15:38:43,0.0,5,7.308,0.0,0.0,0.0,38.1,2.6,0.4,1024,1024,1024,1024,0,0,0,0,57,4.772,72.86,35.761156,P-GPS,,10.9
235,328300,2026-01-07 15:38:43,0.0,5,7.303,0.0,0.0,0.0,38.0,2.2,0.7,1024,1024,1024,1024,0,0,0,0,57,4.805,72.86,35.761156,P-GPS,,10.9
236,328400,2026-01-07 15:38:43,0.0,5,7.303,0.0,0.0,0.0,38.0,2.0,1.1,1024,1024,1024,1024,0,0,0,0,57,4.805,72.86,35.761156,P-GPS,,10.9
237,328500,2026-01-07 15:38:43,0.0,5,7.303,0.0,0.0,0.0,38.0,2.0,1.3,1024,1024,1024,1024,0,0,0,0,57,4.805,72.86,35.761156,P-GPS,,10.9
238,328600,2026-01-07 15:38:44,0.0,5,7.303,0.0,0.0,0.0,38.0,1.9,1.4,1024,1024,1024,1024,0,0,0,0,57,4.805,72.86,35.761156,P-GPS,,10.9
239,328700,2026-01-07 15:38:44,0.0,5,7.303,0.0,0.0,0.0,38.1,1.9,1.2,1024,1024,1024,1024,0,0,0,0,57,4.805,72.86,35.761156,P-GPS,,10.9
240,328800,2026-01-07 15:38:44,0.0,5,7.303,0.0,0.0,0.0,38.1,1.7,1.1,1024,1024,1024,1024,0,0,0,0,57,4.805,72.86,35.761156,P-GPS,,10.9
241,328900,2026-01-07 15:38:44,0.0,5,7.303,0.0,0.0,0.0,38.2,1.7,0.9,1024,1024,1024,1024,0,0,0,0,57,4.805,72.86,35.761156,P-GPS,,10.9
242,329000,2026-01-07 15:38:44,0.0,5,7.303,0.0,0.0,0.0,38.2,1.8,0.7,1024,1024,1024,1024,0,0,0,0,57,4.805,72.86,35.761156,P-GPS,,10.9
243,329100,2026-01-07 15:38:44,0.0,5,7.303,0.0,0.0,0.0,38.3,1.8,0.8,1024,1024,1024,1024,0,0,0,0,57,4.805,72.86,35.761156,P-GPS,,10.9
244,329200,2026-01-07 15:38:44,0.0,5,7.303,0.0,0.0,0.0,38.2,1.8,0.6,1024,1024,1024,1024,0,0,0,0,57,4.805,72.86,35.761156,P-GPS,,10.9
245,329300,2026-01-07 15:38:44,0.0,5,7.303,0.0,0.0,0.0,38.2,1.9,0.4,1024,1024,1024,1024,0,0,0,0,57,4.805,72.86,35.761156,P-GPS,,10.9
246,329400,2026-01-07 15:38:44,0.0,5,7.305,0.0,0.0,0.0,38.2,1.9,0.7,1024,1024,1024,1024,0,0,0,0,57,4.831,72.86,35.761156,P-GPS,,10.9
247,329500,2026-01-07 15:38:44,0.0,5,7.305,0.0,0.0,0.0,38.2,1.9,0.9,1024,1024,1024,1024,0,0,0,0,57,4.831,72.86,35.761156,P-GPS,,10.9
248,329600,2026-01-07 15:38:45,0.0,5,7.305,0.0,0.0,0.0,38.2,2.0,0.8,1024,1024,1024,1024,0,0,0,0,57,4.831,72.86,35.761156,P-GPS,,10.9
249,329700,2026-01-07 15:38:45,0.0,5,7.305,0.0,0.0,0.0,38.2,2.2,0.8,1024,1024,1024,1024,0,0,0,0,57,4.831,72.86,35.761156,P-GPS,,10.9
250,329800,2026-01-07 15:38:45,0.0,5,7.305,0.0,0.0,0.0,38.1,2.3,0.8,1024,1024,1024,1024,0,0,0,0,57,4.831,72.86,35.761156,P-GPS,,10.9
251,329900,2026-01-07 15:38:45,0.0,5,7.305,0.0,0.0,0.0,38.1,2.3,1.0,1024,1024,1024,1024,0,0,0,0,57,4.831,72.86,35.761156,P-GPS,,10.9
252,330000,2026-01-07 15:38:45,0.0,5,7.305,0.0,0.0,0.0,38.1,2.1,1.2,1024,1024,1024,1024,0,0,0,0,57,4.831,72.86,35.761156,P-GPS,,10.9
253,330100,2026-01-07 15:38:45,0.0,5,7.305,0.0,0.0,0.0,38.1,2.0,1.5,1024,1024,1024,1024,0,0,0,0,57,4.831,72.86,35.761156,P-GPS,,10.9
254,330200,2026-01-07 15:38:45,0.0,5,7.305,0.0,0.0,0.0,38.1,1.9,1.6,1024,1024,1024,1024,0,0,0,0,57,4.831,72.86,35.761156,P-GPS,,10.9
255,330300,2026-01-07 15:38:45,0.0,5,7.305,0.0,0.0,0.0,38.1,2.0,1.6,1024,1024,1024,1024,0,0,0,0,57,4.831,72.86,35.761156,P-GPS,,10.9
256,330400,2026-01-07 15:38:45,0.0,5,7.305,0.0,0.0,0.0,38.1,2.1,1.4,1024,1024,1024,1024,0,0,0,0,57,4.831,72.86,35.761156,P-GPS,,10.9
257,330500,2026-01-07 15:38:45,0.0,5,7.302,0.0,0.0,0.0,38.1,2.3,1.1,1024,1024,1024,1024,0,0,0,0,57,4.858,72.86,35.761156,P-GPS,,10.9
258,330600,2026-01-07 15:38:46,0.0,5,7.302,0.0,0.0,0.0,38.2,2.4,0.9,1024,1024,1024,1024,0,0,0,0,57,4.858,72.86,35.761156,P-GPS,,10.9
259,330700,2026-01-07 15:38:46,0.0,5,7.302,0.0,0.0,0.0,38.2,2.2,0.7,1024,1024,1024,1024,0,0,0,0,57,4.858,72.86,35.761156,P-GPS,,10.9
260,330800,2026-01-07 15:38:46,0.0,5,7.302,0.0,0.0,0.0,38.1,2.1,0.6,1024,1024,1024,1024,0,0,0,0,57,4.858,72.86,35.761156,P-GPS,,10.9
261,330900,2026-01-07 15:38:46,0.0,5,7.302,0.0,0.0,0.0,38.1,2.1,0.6,1024,1024,1024,1024,0,0,0,0,57,4.858,72.86,35.761156,P-GPS,,10.9
262,331000,2026-01-07 15:38:46,0.0,5,7.302,0.0,0.0,0.0,38.1,2.0,0.8,1024,1024,1024,1024,0,0,0,0,57,4.858,72.86,35.761156,P-GPS,,10.9
263,331100,2026-01-07 15:38:46,0.0,5,7.302,0.0,0.0,0.0,38.2,1.9,0.7,1024,1024,1024,1024,0,0,0,0,57,4.858,72.86,35.761156,P-GPS,,10.9
264,331200,2026-01-07 15:38:46,0.0,5,7.302,0.0,0.0,0.0,38.2,1.9,0.7,1024,1024,1024,1024,0,0,0,0,57,4.858,72.86,35.761156,P-GPS,,10.9
265,331300,2026-01-07 15:38:46,0.0,5,7.302,0.0,0.0,0.0,38.2,1.8,0.7,1024,1024,1024,1024,0,0,0,0,57,4.858,72.86,35.761156,P-GPS,,10.9
266,331400,2026-01-07 15:38:46,0.0,5,7.302,0.0,0.0,0.0,38.2,1.9,0.7,1024,1024,1024,1024,0,0,0,0,57,4.858,72.86,35.761156,P-GPS,,10.9
267,331500,2026-01-07 15:38:47,0.0,5,7.302,0.0,0.0,0.0,38.1,1.9,0.6,1024,1024,1024,1024,0,0,0,0,57,4.858,72.86,35.761156,P-GPS,,10.9
268,331600,2026-01-07 15:38:47,0.0,5,7.297,0.0,0.0,0.0,38.1,1.9,0.5,1024,1024,1024,1024,0,0,0,0,57,4.884,72.86,35.761156,P-GPS,,10.9
269,331700,2026-01-07 15:38:47,0.0,5,7.297,0.0,0.0,0.0,38.0,1.8,0.6,1024,1024,1024,1024,0,0,0,0,57,4.884,72.86,35.761156,P-GPS,,10.9
270,331800,2026-01-07 15:38:47,0.0,5,7.297,0.0,0.0,0.0,38.0,1.9,0.8,1024,1024,1024,1024,0,0,0,0,57,4.884,72.86,35.761156,P-GPS,,10.9
271,331900,2026-01-07 15:38:47,0.0,5,7.297,0.0,0.0,0.0,38.0,1.8,1.0,1024,1024,1024,1024,0,0,0,0,57,4.884,72.86,35.761156,P-GPS,,10.9
272,332000,2026-01-07 15:38:47,0.0,5,7.297,0.0,0.0,0.0,38.1,1.9,0.9,1024,1024,1024,1024,0,0,0,0,57,4.884,72.86,35.761156,P-GPS,,10.9
273,332100,2026-01-07 15:38:47,0.0,5,7.297,0.0,0.0,0.0,38.1,1.9,0.9,1024,1024,1024,1024,0,0,0,0,57,4.884,72.86,35.761156,P-GPS,,10.9
274,332200,2026-01-07 15:38:47,0.0,5,7.297,0.0,0.0,0.0,38.1,2.0,0.7,1024,1024,1024,1024,0,0,0,0,57,4.884,72.86,35.761156,P-GPS,,10.9
275,332300,2026-01-07 15:38:47,0.0,5,7.297,0.0,0.0,0.0,38.1,2.1,0.5,1024,1024,1024,1024,0,0,0,0,57,4.884,72.86,35.761156,P-GPS,,10.9
276,332400,2026-01-07 15:38:47,0.0,5,7.297,0.0,0.0,0.0,38.1,2.0,0.7,1024,1024,1024,1024,0,0,0,0,57,4.884,72.86,35.761156,P-GPS,,10.9
277,332500,2026-01-07 15:38:47,0.0,5,7.297,0.0,0.0,0.0,38.1,2.0,1.4,1024,1024,1024,1024,0,0,0,0,57,4.884,72.86,35.761156,P-GPS,,10.9
278,332600,2026-01-07 15:38:48,0.0,5,7.297,0.0,0.0,0.0,38.0,2.2,1.4,1024,1024,1024,1024,0,0,0,0,57,4.884,72.86,35.761156,P-GPS,,10.9
279,332700,2026-01-07 15:38:48,0.0,5,7.3,0.0,0.0,0.0,37.9,2.6,1.0,1024,1024,1024,1024,0,0,0,0,57,4.864,72.86,35.761156,P-GPS,,10.9
280,332800,2026-01-07 15:38:48,0.0,5,7.3,0.0,0.0,0.0,37.9,2.6,1.2,1024,1024,1024,1024,0,0,0,0,57,4.864,72.86,35.761156,P-GPS,,10.9
281,332900,2026-01-07 15:38:48,0.0,5,7.3,0.0,0.0,0.0,37.9,2.5,1.7,1024,1024,1024,1024,0,0,0,0,57,4.864,72.86,35.761156,P-GPS,,10.9
282,333000,2026-01-07 15:38:48,0.0,5,7.3,0.0,0.0,0.0,38.0,2.3,2.1,1024,1024,1024,1024,0,0,0,0,57,4.864,72.86,35.761156,P-GPS,,10.9
283,333100,2026-01-07 15:38:48,0.0,5,7.3,0.0,0.0,0.0,38.0,2.5,2.0,1024,1024,1024,1024,0,0,0,0,57,4.864,72.86,36.08924,P-GPS,,11.0
284,333200,2026-01-07 15:38:48,0.0,5,7.3,0.0,0.0,0.0,38.1,2.7,2.0,1024,1024,1024,1024,0,0,0,0,57,4.864,72.86,36.08924,P-GPS,,11.0
285,333300,2026-01-07 15:38:48,0.0,5,7.3,0.0,0.0,0.0,38.0,3.0,2.1,1024,1024,1024,1024,0,0,0,0,57,4.864,72.86,36.08924,P-GPS,,11.0
286,333400,2026-01-07 15:38:48,0.0,5,7.3,0.0,0.0,0.0,38.1,3.3,1.9,1024,1024,1024,1024,0,0,0,0,57,4.864,72.86,36.08924,P-GPS,,11.0
287,333500,2026-01-07 15:38:48,0.0,5,7.3,0.0,0.0,0.0,38.1,3.4,1.9,1024,1024,1024,1024,0,0,0,0,57,4.864,72.86,36.08924,P-GPS,,11.0
288,333600,2026-01-07 15:38:49,0.0,5,7.3,0.0,0.0,0.0,38.1,3.3,1.8,1024,1024,1024,1024,0,0,0,0,57,4.864,72.86,36.08924,P-GPS,,11.0
289,333700,2026-01-07 15:38:49,0.0,5,7.3,0.0,0.0,0.0,38.1,3.1,1.7,1024,1024,1024,1024,0,0,0,0,57,4.864,72.86,36.08924,P-GPS,,11.0
290,333800,2026-01-07 15:38:49,0.0,5,7.3,0.0,0.0,0.0,38.1,2.9,1.6,1024,1024,1024,1024,0,0,0,0,57,4.864,72.86,36.08924,P-GPS,,11.0
291,333900,2026-01-07 15:38:49,0.0,5,7.3,0.0,0.0,0.0,38.1,2.9,1.6,1024,1024,1024,1024,0,0,0,0,57,4.864,72.86,36.08924,P-GPS,,11.0
292,334000,2026-01-07 15:38:49,0.0,5,7.3,0.0,0.0,0.0,38.1,2.8,1.8,1024,1024,1024,1024,0,0,0,0,57,4.864,72.86,36.08924,P-GPS,,11.0
293,334100,2026-01-07 15:38:49,0.0,5,7.3,0.0,0.0,0.0,38.1,2.6,2.0,1024,1024,1024,1024,0,0,0,0,57,4.864,72.86,36.08924,P-GPS,,11.0
294,334200,2026-01-07 15:38:49,0.0,5,7.3,0.0,0.0,0.0,38.1,2.6,2.0,1024,1024,1024,1024,0,0,0,0,57,4.864,72.86,35.761156,P-GPS,,10.9
295,334300,2026-01-07 15:38:49,0.0,5,7.3,0.0,0.0,0.0,38.1,2.6,1.8,1024,1024,1024,1024,0,0,0,0,57,4.864,72.86,35.761156,P-GPS,,10.9
296,334400,2026-01-07 15:38:49,0.0,5,7.3,0.0,0.0,0.0,38.1,2.6,1.9,1024,1024,1024,1024,0,0,0,0,57,4.864,72.86,35.761156,P-GPS,,10.9
297,334500,2026-01-07 15:38:49,0.0,5,7.3,0.0,0.0,0.0,38.1,2.6,1.9,1024,1024,1024,1024,0,0,0,0,57,4.864,72.86,35.761156,P-GPS,,10.9
298,334600,2026-01-07 15:38:50,0.0,5,7.3,0.0,0.0,0.0,38.1,2.7,2.1,1024,1024,1024,1024,0,0,0,0,57,4.864,72.86,35.761156,P-GPS,,10.9
299,334700,2026-01-07 15:38:50,0.0,5,7.3,0.0,0.0,0.0,38.1,2.7,2.3,1024,1024,1024,1024,0,0,0,0,57,4.864,72.86,35.761156,P-GPS,,10.9
300,334800,2026-01-07 15:38:50,0.0,5,7.3,0.0,0.0,0.0,38.1,2.8,2.3,1024,1024,1024,1024,0,0,0,0,57,4.864,72.86,35.761156,P-GPS,,10.9
301,334900,2026-01-07 15:38:50,0.0,5,7.294,0.0,0.0,0.0,38.0,2.7,2.2,1024,1024,1024,1024,0,0,0,0,57,4.863,72.86,35.761156,P-GPS,,10.9
302,335000,2026-01-07 15:38:50,0.0,5,7.294,0.0,0.0,0.0,38.0,2.7,2.2,1024,1024,1024,1024,0,0,0,0,57,4.863,72.86,35.761156,P-GPS,,10.9
303,335100,2026-01-07 15:38:50,0.0,5,7.294,0.0,0.0,0.0,38.0,2.7,2.2,1024,1024,1024,1024,0,0,0,0,57,4.863,72.86,35.761156,P-GPS,,10.9
304,335200,2026-01-07 15:38:50,0.0,5,7.294,0.0,0.0,0.0,38.0,2.8,2.2,1024,1024,1024,1024,0,0,0,0,57,4.863,72.86,35.761156,P-GPS,,10.9
305,335300,2026-01-07 15:38:50,0.0,5,7.294,0.0,0.0,0.0,38.1,2.8,2.0,1024,1024,1024,1024,0,0,0,0,57,4.863,72.86,35.761156,P-GPS,,10.9
306,335400,2026-01-07 15:38:50,0.0,5,7.294,0.0,0.0,0.0,38.1,3.0,2.0,1024,1024,1024,1024,0,0,0,0,57,4.863,72.86,36.08924,P-GPS,,11.0
307,335500,2026-01-07 15:38:50,0.0,5,7.294,0.0,0.0,0.0,38.1,3.0,1.9,1024,1024,1024,1024,0,0,0,0,57,4.863,72.86,36.08924,P-GPS,,11.0
308,335600,2026-01-07 15:38:51,0.0,5,7.294,0.0,0.0,0.0,38.2,2.9,1.9,1024,1024,1024,1024,0,0,0,0,57,4.863,72.86,36.08924,P-GPS,,11.0
309,335700,2026-01-07 15:38:51,0.0,5,7.294,0.0,0.0,0.0,38.2,2.8,1.9,1024,1024,1024,1024,0,0,0,0,57,4.863,72.86,36.08924,P-GPS,,11.0
310,335800,2026-01-07 15:38:51,0.0,5,7.294,0.0,0.0,0.0,38.1,2.8,1.8,1024,1024,1024,1024,0,0,0,0,57,4.863,72.86,36.08924,P-GPS,,11.0
311,335900,2026-01-07 15:38:51,0.0,5,7.294,0.0,0.0,0.0,38.1,2.7,1.8,1024,1024,1024,1024,0,0,0,0,57,4.863,72.86,36.08924,P-GPS,,11.0
312,336000,2026-01-07 15:38:51,0.0,5,7.294,0.0,0.0,0.0,38.0,2.8,1.8,1024,1024,1024,1024,0,0,0,0,57,4.876,73.04,36.08924,P-GPS,,11.0
313,336100,2026-01-07 15:38:51,0.0,5,7.294,0.0,0.0,0.0,38.0,2.8,1.9,1024,1024,1024,1024,0,0,0,0,57,4.876,73.04,36.08924,P-GPS,,11.0
314,336200,2026-01-07 15:38:51,0.0,5,7.294,0.0,0.0,0.0,38.1,2.6,1.9,1024,1024,1024,1024,0,0,0,0,57,4.876,73.04,36.08924,P-GPS,,11.0
315,336300,2026-01-07 15:38:51,0.0,5,7.294,0.0,0.0,0.0,38.1,2.6,1.9,1024,1024,1024,1024,0,0,0,0,57,4.876,73.04,36.08924,P-GPS,,11.0
316,336400,2026-01-07 15:38:51,0.0,5,7.294,0.0,0.0,0.0,38.1,2.4,1.9,1024,1024,1024,1024,0,0,0,0,57,4.876,73.04,36.08924,P-GPS,,11.0
317,336500,2026-01-07 15:38:52,0.0,5,7.294,0.0,0.0,0.0,38.1,2.3,2.0,1024,1024,1024,1024,0,0,0,0,57,4.876,73.04,36.08924,P-GPS,,11.0
318,336600,2026-01-07 15:38:52,0.0,5,7.294,0.0,0.0,0.0,38.0,2.4,1.9,1024,1024,1024,1024,0,0,0,0,57,4.876,73.04,36.08924,P-GPS,,11.0
319,336700,2026-01-07 15:38:52,0.0,5,7.294,0.0,0.0,0.0,38.0,2.5,1.8,1024,1024,1024,1024,0,0,0,0,57,4.876,73.04,36.08924,P-GPS,,11.0
320,336800,2026-01-07 15:38:52,0.0,5,7.294,0.0,0.0,0.0,38.0,2.7,1.5,1024,1024,1024,1024,0,0,0,0,57,4.876,73.04,36.08924,P-GPS,,11.0
321,336900,2026-01-07 15:38:52,0.0,5,7.294,0.0,0.0,0.0,38.1,2.8,1.4,1024,1024,1024,1024,0,0,0,0,57,4.876,73.04,36.08924,P-GPS,,11.0
322,337000,2026-01-07 15:38:52,0.0,5,7.294,0.0,0.0,0.0,38.1,2.8,1.4,1024,1024,1024,1024,0,0,0,0,57,4.876,73.04,36.08924,P-GPS,,11.0
323,337100,2026-01-07 15:38:52,0.0,5,7.295,0.0,0.0,0.0,38.1,2.6,1.3,1024,1024,1024,1024,0,0,0,0,57,4.796,73.04,36.08924,P-GPS,,11.0
324,337200,2026-01-07 15:38:52,0.0,5,7.295,0.0,0.0,0.0,38.1,2.6,1.4,1024,1024,1024,1024,0,0,0,0,57,4.796,73.04,36.08924,P-GPS,,11.0
325,337300,2026-01-07 15:38:52,0.0,5,7.295,0.0,0.0,0.0,38.1,2.9,1.6,1024,1024,1024,1024,0,0,0,0,57,4.796,73.04,36.08924,P-GPS,,11.0
326,337400,2026-01-07 15:38:52,0.0,5,7.295,0.0,0.0,0.0,38.1,2.8,1.6,1024,1024,1024,1024,0,0,0,0,57,4.796,73.04,36.08924,P-GPS,,11.0
327,337500,2026-01-07 15:38:52,0.0,5,7.295,0.0,0.0,0.0,38.1,3.4,1.8,1024,1024,1024,1024,0,0,0,0,57,4.796,73.04,36.08924,P-GPS,,11.0
328,337600,2026-01-07 15:38:53,0.0,5,7.295,0.0,0.0,0.0,38.0,3.8,1.8,1024,1024,1024,1024,0,0,0,0,57,4.796,73.04,36.08924,P-GPS,,11.0
329,337700,2026-01-07 15:38:53,0.0,5,7.295,0.0,0.0,0.0,38.0,3.7,1.9,1024,1024,1024,1024,0,0,0,0,57,4.796,73.04,36.08924,P-GPS,,11.0
330,337800,2026-01-07 15:38:53,0.0,5,7.295,0.0,0.0,0.0,38.1,3.6,2.1,1024,1024,1024,1024,0,0,0,0,57,4.796,73.04,36.08924,P-GPS,,11.0
331,337900,2026-01-07 15:38:53,0.0,5,7.295,0.0,0.0,0.0,38.2,3.1,2.2,1024,1024,1024,1024,0,0,0,0,57,4.796,73.04,36.08924,P-GPS,,11.0
332,338000,2026-01-07 15:38:53,0.0,5,7.295,0.0,0.0,0.0,38.2,3.0,2.2,1024,1024,1024,1024,0,0,0,0,57,4.796,73.04,36.08924,P-GPS,,11.0
333,338100,2026-01-07 15:38:53,0.0,5,7.295,0.0,0.0,0.0,38.2,3.2,2.2,1024,1024,1024,1024,0,0,0,0,57,4.796,73.04,36.08924,P-GPS,,11.0
334,338200,2026-01-07 15:38:53,0.0,5,7.285,0.0,0.0,0.0,38.2,3.3,2.2,1024,1024,1024,1024,0,0,0,0,56,4.814,73.04,36.08924,P-GPS,,11.0
335,338300,2026-01-07 15:38:53,0.0,5,7.285,0.0,0.0,0.0,38.2,3.3,2.4,1024,1024,1024,1024,0,0,0,0,56,4.814,73.04,36.417324,P-GPS,,11.1
336,338400,2026-01-07 15:38:53,0.0,5,7.285,0.0,0.0,0.0,38.2,3.2,2.4,1024,1024,1024,1024,0,0,0,0,56,4.814,73.04,36.417324,P-GPS,,11.1
337,338500,2026-01-07 15:38:54,0.0,5,7.285,0.0,0.0,0.0,38.2,3.1,2.6,1024,1024,1024,1024,0,0,0,0,56,4.814,73.04,36.417324,P-GPS,,11.1
338,338600,2026-01-07 15:38:54,0.0,5,7.285,0.0,0.0,0.0,38.1,2.9,2.5,1024,1024,1024,1024,0,0,0,0,56,4.814,73.04,36.417324,P-GPS,,11.1
339,338700,2026-01-07 15:38:54,0.0,5,7.285,0.0,0.0,0.0,38.0,2.8,2.9,1024,1024,1024,1024,0,0,0,0,56,4.814,73.04,36.417324,P-GPS,,11.1
340,338800,2026-01-07 15:38:54,0.0,5,7.285,0.0,0.0,0.0,37.9,3.0,3.1,1024,1024,1024,1024,0,0,0,0,56,4.814,73.04,36.417324,P-GPS,,11.1
341,338900,2026-01-07 15:38:54,0.0,5,7.285,0.0,0.0,0.0,38.0,3.6,3.1,1024,1024,1024,1024,0,0,0,0,56,4.814,73.04,36.417324,P-GPS,,11.1
342,339000,2026-01-07 15:38:54,0.0,5,7.285,0.0,0.0,0.0,38.1,3.8,3.1,1024,1024,1024,1024,0,0,0,0,56,4.814,73.04,36.417324,P-GPS,,11.1
343,339100,2026-01-07 15:38:54,0.0,5,7.285,0.0,0.0,0.0,38.0,4.1,3.2,1024,1024,1024,1024,0,0,0,0,56,4.814,73.04,36.417324,P-GPS,,11.1
344,339200,2026-01-07 15:38:54,0.0,5,7.285,0.0,0.0,0.0,38.1,4.0,3.5,1024,1024,1024,1024,0,0,0,0,56,4.814,73.04,36.417324,P-GPS,,11.1
345,339300,2026-01-07 15:38:54,0.0,5,7.289,0.0,0.0,0.0,38.1,4.3,3.4,1024,1024,1024,1024,0,0,0,0,56,4.898,73.04,36.417324,P-GPS,,11.1
346,339400,2026-01-07 15:38:54,0.0,5,7.289,0.0,0.0,0.0,38.1,4.3,3.3,1024,1024,1024,1024,0,0,0,0,56,4.898,73.04,36.417324,P-GPS,,11.1
347,339500,2026-01-07 15:38:54,0.0,5,7.289,0.0,0.0,0.0,38.0,4.3,3.0,1024,1024,1024,1024,0,0,0,0,56,4.898,73.04,36.417324,P-GPS,,11.1
348,339600,2026-01-07 15:38:55,0.0,5,7.289,0.0,0.0,0.0,38.0,4.2,3.0,1024,1024,1024,1024,0,0,0,0,56,4.898,73.04,36.745408,P-GPS,,11.2
349,339700,2026-01-07 15:38:55,0.0,5,7.289,0.0,0.0,0.0,38.0,4.1,3.0,1024,1024,1024,1024,0,0,0,0,56,4.898,73.04,36.745408,P-GPS,,11.2
350,339800,2026-01-07 15:38:55,0.0,5,7.289,0.0,0.0,0.0,38.1,4.2,2.8,1024,1024,1024,1024,0,0,0,0,56,4.898,73.04,36.745408,P-GPS,,11.2
351,339900,2026-01-07 15:38:55,0.0,5,7.289,0.0,0.0,0.0,38.2,4.2,2.6,1024,1024,1024,1024,0,0,0,0,56,4.898,73.04,36.745408,P-GPS,,11.2
352,340000,2026-01-07 15:38:55,0.0,5,7.289,0.0,0.0,0.0,38.2,4.0,2.6,1024,1024,1024,1024,0,0,0,0,56,4.898,73.04,36.745408,P-GPS,,11.2
353,340100,2026-01-07 15:38:55,0.0,5,7.289,0.0,0.0,0.0,38.1,3.8,2.6,1024,1024,1024,1024,0,0,0,0,56,4.898,73.04,36.417324,P-GPS,,11.1
354,340200,2026-01-07 15:38:55,0.0,5,7.289,0.0,0.0,0.0,38.1,3.6,2.6,1024,1024,1024,1024,0,0,0,0,56,4.898,73.04,36.417324,P-GPS,,11.1
355,340300,2026-01-07 15:38:55,0.0,5,7.289,0.0,0.0,0.0,38.2,3.5,2.3,1024,1024,1024,1024,0,0,0,0,56,4.898,73.04,36.417324,P-GPS,,11.1
356,340400,2026-01-07 15:38:55,0.0,5,7.285,0.0,0.0,0.0,38.2,3.6,2.2,1024,1024,1024,1024,0,0,0,0,56,4.927,73.04,36.417324,P-GPS,,11.1
357,340500,2026-01-07 15:38:55,0.0,5,7.285,0.0,0.0,0.0,38.3,3.4,2.2,1024,1024,1024,1024,0,0,0,0,56,4.927,73.04,36.417324,P-GPS,,11.1
358,340600,2026-01-07 15:38:56,0.0,5,7.285,0.0,0.0,0.0,38.3,3.4,2.1,1024,1024,1024,1024,0,0,0,0,56,4.927,73.04,36.417324,P-GPS,,11.1
359,340700,2026-01-07 15:38:56,0.0,5,7.285,0.0,0.0,0.0,38.3,3.6,2.1,1024,1024,1024,1024,0,0,0,0,56,4.927,73.04,36.417324,P-GPS,,11.1
360,340800,2026-01-07 15:38:56,0.0,5,7.285,0.0,0.0,0.0,38.3,4.2,2.2,1024,1024,1024,1024,0,0,0,0,56,4.927,73.04,36.417324,P-GPS,,11.1
361,340900,2026-01-07 15:38:56,0.0,5,7.285,0.0,0.0,0.0,38.3,4.5,2.2,1024,1024,1024,1024,0,0,0,0,56,4.927,73.04,36.417324,P-GPS,,11.1
362,341000,2026-01-07 15:38:56,0.0,5,7.285,0.0,0.0,0.0,38.2,4.4,2.2,1024,1024,1024,1024,0,0,0,0,56,4.927,73.04,36.745408,P-GPS,,11.2
363,341100,2026-01-07 15:38:56,0.0,5,7.285,0.0,0.0,0.0,38.2,4.4,2.7,1024,1024,1024,1024,0,0,0,0,56,4.927,73.04,36.745408,P-GPS,,11.2
