time(millisecond),timestamp,speed(mph),gpslevel,voltage(v),xSpeed(mph),ySpeed(mph),zSpeed(mph),compass_heading(degrees),pitch(degrees),roll(degrees),rc_elevator,rc_aileron,rc_throttle,rc_rudder,rc_elevator(percent),rc_aileron(percent),rc_throttle(percent),rc_rudder(percent),battery_percent,current(A),battery_temperature(f),ascent(feet),flycState,message,height_above_takeoff(meters)
9100,2026-01-08 12:27:54,0.0,5,7.927,0.0,0.0,0.0,209.8,7.1,4.3,1024,1024,1024,1024,0,0,0,0,98,4.467,62.06,36.745408,P-GPS,,11.2
9200,2026-01-08 12:27:54,0.0,5,7.927,0.0,0.0,0.0,209.6,7.4,4.8,1024,1024,1024,1024,0,0,0,0,98,4.467,62.06,36.745408,P-GPS,,11.2
9300,2026-01-08 12:27:54,0.0,5,7.927,0.0,0.0,0.0,209.3,6.5,4.9,1024,1024,1024,1024,0,0,0,0,98,4.467,62.06,36.745408,P-GPS,,11.2
9400,2026-01-08 12:27:54,0.0,5,7.927,0.0,0.0,0.0,209.1,6.8,4.6,1024,1024,1024,1024,0,0,0,0,98,4.467,62.06,36.745408,P-GPS,,11.2
9500,2026-01-08 12:27:55,0.0,5,7.927,0.0,0.0,0.0,209.2,6.9,4.3,1024,1024,1024,1024,0,0,0,0,98,4.467,62.06,36.417324,P-GPS,,11.1
9600,2026-01-08 12:27:55,0.0,5,7.927,0.0,0.0,0.0,209.2,6.7,4.5,1024,1024,1024,1024,0,0,0,0,98,4.467,62.06,36.417324,P-GPS,,11.1
9700,2026-01-08 12:27:55,0.0,5,7.927,0.0,0.0,0.0,209.1,6.3,4.3,1024,1024,1024,1024,0,0,0,0,98,4.467,62.06,36.417324,P-GPS,,11.1
9800,2026-01-08 12:27:55,0.223694,5,7.927,0.223694,0.0,0.0,209.1,5.9,3.9,1024,1024,1024,1024,0,0,0,0,98,4.467,62.06,36.417324,P-GPS,,11.1
9900,2026-01-08 12:27:55,0.223694,5,7.927,0.223694,0.0,0.0,209.1,5.6,3.8,1024,1024,1024,1024,0,0,0,0,98,4.467,62.06,36.417324,P-GPS,,11.1
10000,2026-01-08 12:27:55,0.223694,5,7.836,0.223694,0.0,0.0,209.2,4.8,3.5,1024,1024,1024,1024,0,0,0,0,98,4.72,62.06,36.417324,P-GPS,,11.1
10100,2026-01-08 12:27:55,0.223694,5,7.836,0.223694,0.0,0.0,209.1,4.3,3.6,1024,1024,1024,1024,0,0,0,0,98,4.72,62.06,36.417324,P-GPS,,11.1
10200,2026-01-08 12:27:55,0.223694,5,7.836,0.223694,0.0,0.0,209.1,4.7,3.8,1024,1024,1024,1024,0,0,0,0,98,4.72,62.06,36.08924,P-GPS,,11.0
10300,2026-01-08 12:27:55,0.0,5,7.836,0.0,0.0,0.0,209.1,4.6,3.8,1024,1024,1024,1024,0,0,0,0,98,4.72,62.06,36.08924,P-GPS,,11.0
10400,2026-01-08 12:27:55,0.0,5,7.836,0.0,0.0,0.0,209.0,4.4,3.8,1024,1024,1024,1024,0,0,0,0,98,4.72,62.06,36.08924,P-GPS,,11.0
10500,2026-01-08 12:27:55,0.0,5,7.836,0.0,0.0,0.0,209.2,4.8,3.9,1024,1024,1024,1024,0,0,0,0,98,4.72,62.06,36.08924,P-GPS,,11.0
10600,2026-01-08 12:27:56,0.0,5,7.836,0.0,0.0,0.0,209.4,5.3,4.1,1024,1024,1024,1024,0,0,0,0,98,4.72,62.06,36.08924,P-GPS,,11.0
10700,2026-01-08 12:27:56,0.0,5,7.836,0.0,0.0,0.0,209.5,7.6,4.4,1024,1024,1024,1024,0,0,0,0,98,4.72,62.06,36.08924,P-GPS,,11.0
10800,2026-01-08 12:27:56,0.0,5,7.836,0.0,0.0,0.0,209.2,6.8,4.1,1024,1024,1024,1024,0,0,0,0,98,4.72,62.06,36.08924,P-GPS,,11.0
10900,2026-01-08 12:27:56,0.0,5,7.836,0.0,0.0,0.0,209.2,5.5,4.5,1024,1024,1024,1024,0,0,0,0,98,4.72,62.06,36.08924,P-GPS,SD card speed low. Normal use may be affected. Replace SD card (Code: 10028). Gimbal stuck. Make sure gimbal cover is removed and manually check whether gimbal can rotate freely (Code: 40002),11.0
11000,2026-01-08 12:27:56,0.0,5,7.836,0.0,0.0,0.0,209.3,5.3,4.9,1024,1024,1024,1024,0,0,0,0,98,4.72,62.06,36.08924,P-GPS,,11.0
11100,2026-01-08 12:27:56,0.0,5,7.861,0.0,0.0,0.0,209.3,5.2,5.4,1024,1024,1024,1024,0,0,0,0,98,4.797,62.06,36.08924,P-GPS,,11.0
11200,2026-01-08 12:27:56,0.0,5,7.861,0.0,0.0,0.0,209.2,5.3,5.1,1024,1024,1024,1024,0,0,0,0,98,4.797,62.06,36.08924,P-GPS,,11.0
11300,2026-01-08 12:27:56,0.0,5,7.861,0.0,0.0,0.0,209.2,6.0,5.7,1024,1024,1024,1024,0,0,0,0,98,4.797,62.06,36.08924,P-GPS,,11.0
11400,2026-01-08 12:27:56,0.0,5,7.861,0.0,0.0,0.0,209.2,7.1,5.8,1024,1024,1024,1024,0,0,0,0,98,4.797,62.06,36.08924,P-GPS,,11.0
11500,2026-01-08 12:27:56,0.0,5,7.861,0.0,0.0,0.0,209.2,7.0,5.9,1024,1024,1024,1024,0,0,0,0,98,4.797,62.06,36.08924,P-GPS,,11.0
11600,2026-01-08 12:27:57,0.0,5,7.861,0.0,0.0,0.0,209.3,7.3,5.9,1024,1024,1024,1024,0,0,0,0,98,4.797,62.06,36.08924,P-GPS,,11.0
11700,2026-01-08 12:27:57,0.0,5,7.861,0.0,0.0,0.0,209.3,7.4,6.1,1024,1024,1024,1024,0,0,0,0,98,4.797,62.06,36.08924,P-GPS,,11.0
11800,2026-01-08 12:27:57,0.0,5,7.861,0.0,0.0,0.0,209.1,6.7,6.2,1024,1024,1024,1024,0,0,0,0,98,4.797,62.06,36.08924,P-GPS,,11.0
11900,2026-01-08 12:27:57,0.0,5,7.861,0.0,0.0,0.0,209.1,6.2,6.1,1024,1024,1024,1024,0,0,0,0,98,4.797,62.06,36.08924,P-GPS,,11.0
12000,2026-01-08 12:27:57,0.0,5,7.861,0.0,0.0,0.0,209.1,6.5,6.4,1024,1024,1024,1024,0,0,0,0,98,4.797,62.06,36.08924,P-GPS,,11.0
12100,2026-01-08 12:27:57,0.0,5,7.861,0.0,0.0,0.0,208.9,5.6,6.4,1024,1024,1024,1024,0,0,0,0,98,4.797,62.06,36.08924,P-GPS,,11.0
12300,2026-01-08 12:27:57,0.0,5,7.833,0.0,0.0,0.0,209.0,6.6,5.8,1024,1024,1024,1024,0,0,0,0,98,4.771,62.06,36.08924,P-GPS,,11.0
12400,2026-01-08 12:27:57,0.0,5,7.833,0.0,0.0,0.0,209.1,6.6,6.2,1024,1024,1024,1024,0,0,0,0,98,4.771,62.06,36.08924,P-GPS,,11.0
12500,2026-01-08 12:27:57,0.0,5,7.833,0.0,0.0,0.0,209.0,6.2,6.3,1024,1024,1024,1024,0,0,0,0,98,4.771,62.06,36.08924,P-GPS,,11.0
12600,2026-01-08 12:27:58,0.0,5,7.833,0.0,0.0,0.0,208.9,6.1,6.5,1024,1024,1024,1024,0,0,0,0,98,4.771,62.06,36.08924,P-GPS,,11.0
12700,2026-01-08 12:27:58,0.0,5,7.833,0.0,0.0,0.0,209.0,7.2,6.2,1024,1024,1024,1024,0,0,0,0,98,4.771,62.06,36.08924,P-GPS,,11.0
12800,2026-01-08 12:27:58,0.0,5,7.833,0.0,0.0,0.0,209.2,7.5,6.5,1024,1024,1024,1024,0,0,0,0,98,4.771,62.06,35.761156,P-GPS,,10.9
12900,2026-01-08 12:27:58,0.0,5,7.833,0.0,0.0,0.0,209.2,8.2,6.6,1024,1024,1024,1024,0,0,0,0,98,4.771,62.06,35.761156,P-GPS,,10.9
13000,2026-01-08 12:27:58,0.0,5,7.833,0.0,0.0,0.0,208.9,7.3,5.2,1024,1024,1024,1024,0,0,0,0,98,4.771,62.06,35.761156,P-GPS,,10.9
13100,2026-01-08 12:27:58,0.0,5,7.833,0.0,0.0,0.0,208.7,5.9,5.3,1024,1024,1024,1024,0,0,0,0,98,4.771,62.06,35.433072,P-GPS,,10.8
13200,2026-01-08 12:27:58,0.0,5,7.833,0.0,0.0,0.0,208.6,6.3,6.3,1024,1024,1024,1024,0,0,0,0,98,4.771,62.06,35.433072,P-GPS,,10.8
13300,2026-01-08 12:27:58,0.0,5,7.779,0.0,0.0,0.0,208.6,6.4,5.3,1024,1024,1024,1024,0,0,0,0,98,4.742,62.06,35.433072,P-GPS,,10.8
13400,2026-01-08 12:27:58,0.0,5,7.779,0.0,0.0,0.0,208.6,4.9,4.6,1024,1024,1024,1024,0,0,0,0,98,4.742,62.06,35.104988,P-GPS,,10.7
13800,2026-01-08 12:27:59,0.0,5,7.779,0.0,0.0,0.0,209.0,6.9,4.7,1024,1024,1024,1024,0,0,0,0,98,4.742,62.06,34.776904,P-GPS,,10.6
13900,2026-01-08 12:27:59,0.0,5,7.779,0.0,0.0,0.0,209.0,6.4,4.7,1024,1024,1024,1024,0,0,0,0,98,4.742,62.06,34.776904,P-GPS,,10.6
14000,2026-01-08 12:27:59,0.0,5,7.779,0.0,0.0,0.0,209.0,6.7,4.3,1024,1024,1024,1024,0,0,0,0,98,4.742,62.06,34.776904,P-GPS,,10.6
14100,2026-01-08 12:27:59,0.0,5,7.779,0.0,0.0,0.0,209.0,5.9,4.4,1024,1024,1024,1024,0,0,0,0,98,4.742,62.06,34.776904,P-GPS,,10.6
14200,2026-01-08 12:27:59,0.0,5,7.779,0.0,0.0,0.0,209.0,5.9,5.0,1024,1024,1024,1024,0,0,0,0,98,4.742,62.06,34.776904,P-GPS,,10.6
14300,2026-01-08 12:27:59,0.0,5,7.779,0.0,0.0,0.0,209.0,7.4,5.0,1024,1024,1024,1024,0,0,0,0,98,4.742,62.06,34.776904,P-GPS,,10.6
14400,2026-01-08 12:27:59,0.0,5,7.859,0.0,0.0,0.0,208.8,7.4,4.2,1024,1024,1024,1024,0,0,0,0,98,4.496,62.24,34.776904,P-GPS,,10.6
14500,2026-01-08 12:28:00,0.0,5,7.859,0.0,0.0,0.0,208.6,6.6,3.9,1024,1024,1024,1024,0,0,0,0,98,4.496,62.24,34.44882,P-GPS,,10.5
14600,2026-01-08 12:28:00,0.0,5,7.859,0.0,0.0,0.0,208.5,5.5,3.7,1024,1024,1024,1024,0,0,0,0,98,4.496,62.24,34.44882,P-GPS,,10.5
14700,2026-01-08 12:28:00,0.0,5,7.859,0.0,0.0,0.0,208.6,4.9,3.7,1024,1024,1024,1024,0,0,0,0,98,4.496,62.24,34.44882,P-GPS,,10.5
14800,2026-01-08 12:28:00,0.0,5,7.859,0.0,0.0,0.0,208.9,6.2,4.3,1024,1024,1024,1024,0,0,0,0,98,4.496,62.24,34.44882,P-GPS,,10.5
14900,2026-01-08 12:28:00,0.0,5,7.859,0.0,0.0,0.0,208.9,7.5,4.2,1024,1024,1024,1024,0,0,0,0,98,4.496,62.24,34.44882,P-GPS,,10.5
15000,2026-01-08 12:28:00,0.0,5,7.859,0.0,0.0,0.0,208.7,6.9,3.8,1024,1024,1024,1024,0,0,0,0,98,4.496,62.24,34.44882,P-GPS,,10.5
15100,2026-01-08 12:28:00,0.0,5,7.859,0.0,0.0,0.0,208.7,6.3,4.3,1024,1024,1024,1024,0,0,0,0,98,4.496,62.24,34.44882,P-GPS,,10.5
15200,2026-01-08 12:28:00,0.0,5,7.859,0.0,0.0,0.0,208.8,6.9,4.4,1024,1024,1024,1024,0,0,0,0,98,4.496,62.24,34.120736,P-GPS,,10.4
15300,2026-01-08 12:28:00,0.0,5,7.859,0.0,0.0,0.0,208.9,7.0,4.6,1024,1024,1024,1024,0,0,0,0,98,4.496,62.24,34.120736,P-GPS,,10.4
15400,2026-01-08 12:28:00,0.0,5,7.859,0.0,0.0,0.0,208.9,6.6,4.6,1024,1024,1024,1024,0,0,0,0,98,4.496,62.24,34.120736,P-GPS,,10.4
15500,2026-01-08 12:28:00,0.0,5,7.859,0.0,0.0,0.0,208.9,6.3,4.7,1024,1024,1024,1024,0,0,0,0,98,4.496,62.24,34.120736,P-GPS,,10.4
15600,2026-01-08 12:28:01,0.0,5,7.859,0.0,0.0,0.0,208.8,6.1,4.8,1024,1024,1024,1024,0,0,0,0,98,4.496,62.24,34.120736,P-GPS,,10.4
15700,2026-01-08 12:28:01,0.0,5,7.859,0.0,0.0,0.0,208.6,4.9,4.6,1024,1024,1024,1024,0,0,0,0,98,4.496,62.24,34.120736,P-GPS,,10.4
15800,2026-01-08 12:28:01,0.0,5,7.859,0.0,0.0,0.0,208.7,4.1,4.5,1024,1024,1024,1024,0,0,0,0,98,4.496,62.24,34.120736,P-GPS,,10.4
15900,2026-01-08 12:28:01,0.0,5,7.859,0.0,0.0,0.0,208.9,4.6,4.3,1024,1024,1024,1024,0,0,0,0,98,4.496,62.24,34.120736,P-GPS,,10.4
16000,2026-01-08 12:28:01,0.0,5,7.859,0.0,0.0,0.0,209.0,4.9,4.9,1024,1024,1024,1024,0,0,0,0,98,4.496,62.24,34.120736,P-GPS,,10.4
16100,2026-01-08 12:28:01,0.0,5,7.859,0.0,0.0,0.0,209.0,4.3,5.0,1024,1024,1024,1024,0,0,0,0,98,4.496,62.24,34.120736,P-GPS,,10.4
16200,2026-01-08 12:28:01,0.0,5,7.859,0.0,0.0,0.0,208.7,5.0,4.4,1024,1024,1024,1024,0,0,0,0,98,4.496,62.24,33.792652,P-GPS,,10.3
16300,2026-01-08 12:28:01,0.0,5,7.859,0.0,0.0,0.0,208.8,6.2,3.8,1024,1024,1024,1024,0,0,0,0,98,4.496,62.24,33.792652,P-GPS,,10.3
16400,2026-01-08 12:28:01,0.0,5,7.859,0.0,0.0,0.0,208.9,6.1,4.3,1024,1024,1024,1024,0,0,0,0,98,4.496,62.24,33.464568,P-GPS,,10.2
16500,2026-01-08 12:28:01,0.0,5,7.859,0.0,0.0,0.0,208.9,6.1,4.1,1024,1024,1024,1024,0,0,0,0,98,4.496,62.24,33.464568,P-GPS,,10.2
16600,2026-01-08 12:28:02,0.0,5,7.839,0.0,0.0,0.0,209.0,5.8,4.4,1024,1024,1024,1024,0,0,0,0,98,4.614,62.42,33.136484,P-GPS,,10.1
16700,2026-01-08 12:28:02,0.0,5,7.839,0.0,0.0,0.0,208.9,5.9,4.5,1024,1024,1024,1024,0,0,0,0,98,4.614,62.42,33.136484,P-GPS,,10.1
16800,2026-01-08 12:28:02,0.0,5,7.839,0.0,0.0,0.0,208.8,6.0,4.4,1024,1024,1024,1024,0,0,0,0,98,4.614,62.42,33.136484,P-GPS,,10.1
16900,2026-01-08 12:28:02,0.0,5,7.839,0.0,0.0,0.0,208.6,5.7,4.4,1024,1024,1024,1024,0,0,0,0,98,4.614,62.42,33.136484,P-GPS,,10.1
17000,2026-01-08 12:28:02,0.0,5,7.839,0.0,0.0,0.0,208.6,6.0,4.7,1024,1024,1024,1024,0,0,0,0,98,4.614,62.42,33.136484,P-GPS,,10.1
17100,2026-01-08 12:28:02,0.0,5,7.839,0.0,0.0,0.0,208.6,5.7,4.5,1024,1024,1024,1024,0,0,0,0,98,4.614,62.42,33.136484,P-GPS,,10.1
17200,2026-01-08 12:28:02,0.0,5,7.839,0.0,0.0,0.0,208.7,6.1,4.7,1024,1024,1024,1024,0,0,0,0,98,4.614,62.42,33.136484,P-GPS,,10.1
17300,2026-01-08 12:28:02,0.0,5,7.839,0.0,0.0,0.0,208.7,6.8,4.7,1024,1024,1024,1024,0,0,0,0,98,4.614,62.42,32.8084,P-GPS,,10.0
17400,2026-01-08 12:28:02,0.0,5,7.839,0.0,0.0,0.0,208.6,6.8,4.6,1024,1024,1024,1024,0,0,0,0,98,4.614,62.42,32.8084,P-GPS,,10.0
17500,2026-01-08 12:28:03,0.0,5,7.839,0.0,0.0,0.0,208.7,7.5,4.6,1024,1024,1024,1024,0,0,0,0,98,4.614,62.42,32.8084,P-GPS,,10.0
17600,2026-01-08 12:28:03,0.0,5,7.839,0.0,0.0,0.0,208.7,7.6,4.3,1024,1024,1024,1024,0,0,0,0,98,4.614,62.42,32.8084,P-GPS,,10.0
17700,2026-01-08 12:28:03,0.0,5,7.839,0.0,0.0,0.0,208.7,7.2,3.8,1024,1024,1024,1024,0,0,0,0,98,4.614,62.42,32.8084,P-GPS,,10.0
17800,2026-01-08 12:28:03,0.0,5,7.856,0.0,0.0,0.0,208.6,7.0,3.5,1024,1024,1024,1024,0,0,0,0,98,4.27,62.42,32.8084,P-GPS,,10.0
17900,2026-01-08 12:28:03,0.0,5,7.856,0.0,0.0,0.0,208.6,7.2,3.1,1024,1024,1024,1024,0,0,0,0,98,4.27,62.42,32.8084,P-GPS,,10.0
18000,2026-01-08 12:28:03,0.0,5,7.856,0.0,0.0,0.0,208.6,6.8,3.0,1024,1024,1024,1024,0,0,0,0,98,4.27,62.42,32.8084,P-GPS,,10.0
18100,2026-01-08 12:28:03,0.0,5,7.856,0.0,0.0,0.0,208.7,7.9,2.4,1024,1024,1024,1024,0,0,0,0,98,4.27,62.42,32.8084,P-GPS,,10.0
18200,2026-01-08 12:28:03,0.0,5,7.856,0.0,0.0,0.0,208.7,8.3,2.2,1024,1024,1024,1024,0,0,0,0,98,4.27,62.42,32.8084,P-GPS,,10.0
18300,2026-01-08 12:28:03,0.0,5,7.856,0.0,0.0,0.0,208.7,8.1,2.2,1024,1024,1024,1024,0,0,0,0,98,4.27,62.42,32.8084,P-GPS,,10.0
18400,2026-01-08 12:28:03,0.0,5,7.856,0.0,0.0,0.0,208.7,7.7,2.7,1024,1024,1024,1024,0,0,0,0,98,4.27,62.42,32.8084,P-GPS,,10.0
18500,2026-01-08 12:28:03,0.0,5,7.856,0.0,0.0,0.0,208.7,7.8,3.1,1024,1024,1024,1024,0,0,0,0,98,4.27,62.42,33.136484,P-GPS,,10.1
18600,2026-01-08 12:28:04,0.0,5,7.856,0.0,0.0,0.0,208.7,8.3,3.7,1024,1024,1024,1024,0,0,0,0,98,4.27,62.42,33.136484,P-GPS,,10.1
18700,2026-01-08 12:28:04,0.0,5,7.856,0.0,0.0,0.0,208.7,8.3,3.7,1024,1024,1024,1024,0,0,0,0,98,4.27,62.42,33.136484,P-GPS,,10.1
18800,2026-01-08 12:28:04,0.0,5,7.856,0.0,0.0,0.0,208.8,7.8,4.2,1024,1024,1024,1024,0,0,0,0,98,4.27,62.42,33.136484,P-GPS,,10.1
18900,2026-01-08 12:28:04,0.0,5,7.842,0.0,0.0,0.0,208.7,7.6,4.0,1024,1024,1024,1024,0,0,0,0,98,4.6,62.42,33.136484,P-GPS,,10.1
19000,2026-01-08 12:28:04,0.0,5,7.842,0.0,0.0,0.0,208.7,7.6,4.0,1024,1024,1024,1024,0,0,0,0,98,4.6,62.42,33.136484,P-GPS,,10.1
19100,2026-01-08 12:28:04,0.0,5,7.842,0.0,0.0,0.0,208.8,7.8,3.8,1024,1024,1024,1024,0,0,0,0,98,4.6,62.42,33.136484,P-GPS,,10.1
19200,2026-01-08 12:28:04,0.0,5,7.842,0.0,0.0,0.0,208.9,8.1,3.8,1024,1024,1024,1024,0,0,0,0,98,4.6,62.42,33.136484,P-GPS,,10.1
19300,2026-01-08 12:28:04,0.0,5,7.842,0.0,0.0,0.0,208.9,8.1,4.1,1024,1024,1024,1024,0,0,0,0,98,4.6,62.42,33.464568,P-GPS,,10.2
19400,2026-01-08 12:28:04,0.0,5,7.842,0.0,0.0,0.0,208.8,7.9,3.8,1024,1024,1024,1024,0,0,0,0,98,4.6,62.42,33.464568,P-GPS,,10.2
19500,2026-01-08 12:28:05,0.0,5,7.842,0.0,0.0,0.0,208.9,7.9,4.0,1024,1024,1024,1024,0,0,0,0,98,4.6,62.42,33.464568,P-GPS,,10.2
19600,2026-01-08 12:28:05,0.0,5,7.842,0.0,0.0,0.0,208.9,7.8,4.1,1024,1024,1024,1024,0,0,0,0,98,4.6,62.42,33.464568,P-GPS,,10.2
19700,2026-01-08 12:28:05,0.0,5,7.842,0.0,0.0,0.0,208.9,7.8,4.2,1024,1024,1024,1024,0,0,0,0,98,4.6,62.42,33.464568,P-GPS,,10.2
19800,2026-01-08 12:28:05,0.0,5,7.842,0.0,0.0,0.0,208.8,8.0,4.5,1024,1024,1024,1024,0,0,0,0,98,4.6,62.42,33.464568,P-GPS,,10.2
19900,2026-01-08 12:28:05,0.0,5,7.842,0.0,0.0,0.0,208.7,7.4,4.0,1024,1024,1024,1024,0,0,0,0,98,4.6,62.42,33.464568,P-GPS,,10.2
20000,2026-01-08 12:28:05,0.0,5,7.843,0.0,0.0,0.0,208.7,7.5,4.0,1024,1024,1024,1024,0,0,0,0,98,4.445,62.6,33.464568,P-GPS,,10.2
20100,2026-01-08 12:28:05,0.0,5,7.843,0.0,0.0,0.0,208.8,7.6,4.0,1024,1024,1024,1024,0,0,0,0,98,4.445,62.6,33.464568,P-GPS,,10.2
20200,2026-01-08 12:28:05,0.0,5,7.843,0.0,0.0,0.0,208.8,7.4,3.9,1024,1024,1024,1024,0,0,0,0,98,4.445,62.6,33.464568,P-GPS,,10.2
20300,2026-01-08 12:28:05,0.0,5,7.843,0.0,0.0,0.0,208.7,7.2,3.8,1024,1024,1024,1024,0,0,0,0,98,4.445,62.6,33.464568,P-GPS,,10.2
20400,2026-01-08 12:28:05,0.0,5,7.843,0.0,0.0,0.0,208.7,7.3,3.5,1024,1024,1024,1024,0,0,0,0,98,4.445,62.6,33.464568,P-GPS,,10.2
20500,2026-01-08 12:28:05,0.0,5,7.843,0.0,0.0,0.0,208.7,7.4,3.4,1024,1024,1024,1024,0,0,0,0,98,4.445,62.6,33.464568,P-GPS,,10.2
20600,2026-01-08 12:28:06,0.0,5,7.843,0.0,0.0,0.0,208.8,7.4,3.1,1024,1024,1024,1024,0,0,0,0,98,4.445,62.6,33.464568,P-GPS,,10.2
20700,2026-01-08 12:28:06,0.0,5,7.843,0.0,0.0,0.0,208.8,6.8,3.7,1024,1024,1024,1024,0,0,0,0,98,4.445,62.6,33.464568,P-GPS,,10.2
20800,2026-01-08 12:28:06,0.0,5,7.843,0.0,0.0,0.0,208.7,7.5,3.2,1024,1024,1024,1024,0,0,0,0,98,4.445,62.6,33.464568,P-GPS,,10.2
20900,2026-01-08 12:28:06,0.0,5,7.843,0.0,0.0,0.0,208.8,7.5,2.9,1024,1024,1024,1024,0,0,0,0,98,4.445,62.6,33.464568,P-GPS,,10.2
21000,2026-01-08 12:28:06,0.0,5,7.843,0.0,0.0,0.0,208.8,7.4,3.0,1024,1024,1024,1024,0,0,0,0,98,4.445,62.6,33.464568,P-GPS,,10.2
21100,2026-01-08 12:28:06,0.0,5,7.824,0.0,0.0,0.0,208.8,7.6,2.9,1024,1024,1024,1024,0,0,0,0,97,4.639,62.6,33.464568,P-GPS,,10.2
21200,2026-01-08 12:28:06,0.0,5,7.824,0.0,0.0,0.0,208.7,7.6,3.1,1024,1024,1024,1024,0,0,0,0,97,4.639,62.6,33.464568,P-GPS,,10.2
21300,2026-01-08 12:28:06,0.0,5,7.824,0.0,0.0,0.0,208.7,7.1,3.5,1024,1024,1024,1024,0,0,0,0,97,4.639,62.6,33.464568,P-GPS,,10.2
21400,2026-01-08 12:28:06,0.0,5,7.824,0.0,0.0,0.0,208.7,7.5,3.0,1024,1024,1024,1024,0,0,0,0,97,4.639,62.6,33.136484,P-GPS,,10.1
21500,2026-01-08 12:28:07,0.0,5,7.824,0.0,0.0,0.0,208.8,7.8,2.5,1024,1024,1024,1024,0,0,0,0,97,4.639,62.6,33.136484,P-GPS,,10.1
21600,2026-01-08 12:28:07,0.0,5,7.824,0.0,0.0,0.0,208.8,7.6,2.2,1024,1024,1024,1024,0,0,0,0,97,4.639,62.6,33.136484,P-GPS,,10.1
21700,2026-01-08 12:28:07,0.0,5,7.824,0.0,0.0,0.0,208.7,7.6,2.3,1024,1024,1024,1024,0,0,0,0,97,4.639,62.6,33.136484,P-GPS,,10.1
21800,2026-01-08 12:28:07,0.0,5,7.824,0.0,0.0,0.0,208.8,8.1,2.8,1024,1024,1024,1024,0,0,0,0,97,4.639,62.6,33.136484,P-GPS,,10.1
21900,2026-01-08 12:28:07,0.0,5,7.824,0.0,0.0,0.0,208.9,7.7,2.9,1024,1024,1024,1024,0,0,0,0,97,4.639,62.6,33.464568,P-GPS,,10.2
22000,2026-01-08 12:28:07,0.0,5,7.824,0.0,0.0,0.0,208.9,7.3,3.8,1024,1024,1024,1024,0,0,0,0,97,4.639,62.6,33.464568,P-GPS,,10.2
22100,2026-01-08 12:28:07,0.0,5,7.824,0.0,0.0,0.0,208.8,7.1,3.9,1024,1024,1024,1024,0,0,0,0,97,4.639,62.6,33.464568,P-GPS,,10.2
22200,2026-01-08 12:28:07,0.0,5,7.813,0.0,0.0,0.0,208.7,6.9,3.8,1024,1024,1024,1024,0,0,0,0,97,4.707,62.6,33.464568,P-GPS,,10.2
22300,2026-01-08 12:28:07,0.0,5,7.813,0.0,0.0,0.0,208.7,6.3,4.1,1024,1024,1024,1024,0,0,0,0,97,4.707,62.6,33.464568,P-GPS,,10.2
22400,2026-01-08 12:28:07,0.0,5,7.813,0.0,0.0,0.0,208.8,6.3,4.1,1024,1024,1024,1024,0,0,0,0,97,4.707,62.6,33.464568,P-GPS,,10.2
22500,2026-01-08 12:28:07,0.0,5,7.813,0.0,0.0,0.0,208.8,7.1,4.3,1024,1024,1024,1024,0,0,0,0,97,4.707,62.6,33.792652,P-GPS,,10.3
22600,2026-01-08 12:28:08,0.0,5,7.813,0.0,0.0,0.0,208.8,7.0,4.2,1024,1024,1024,1024,0,0,0,0,97,4.707,62.6,33.792652,P-GPS,,10.3
22700,2026-01-08 12:28:08,0.0,5,7.813,0.0,0.0,0.0,208.8,7.0,4.5,1024,1024,1024,1024,0,0,0,0,97,4.707,62.6,33.792652,P-GPS,,10.3
22800,2026-01-08 12:28:08,0.0,5,7.813,0.0,0.0,0.0,208.7,5.9,4.5,1024,1024,1024,1024,0,0,0,0,97,4.707,62.6,33.792652,P-GPS,,10.3
22900,2026-01-08 12:28:08,0.0,5,7.813,0.0,0.0,0.0,208.7,5.6,4.5,1024,1024,1024,1024,0,0,0,0,97,4.707,62.6,33.792652,P-GPS,,10.3
23000,2026-01-08 12:28:08,0.0,5,7.813,0.0,0.0,0.0,208.8,6.3,4.1,1024,1024,1024,1024,0,0,0,0,97,4.707,62.6,33.792652,P-GPS,,10.3
23100,2026-01-08 12:28:08,0.0,5,7.813,0.0,0.0,0.0,208.9,5.9,4.3,1024,1024,1024,1024,0,0,0,0,97,4.707,62.6,34.120736,P-GPS,,10.4
23200,2026-01-08 12:28:08,0.0,5,7.813,0.0,0.0,0.0,208.9,6.1,4.4,1024,1024,1024,1024,0,0,0,0,97,4.707,62.6,34.120736,P-GPS,,10.4
23300,2026-01-08 12:28:08,0.0,5,7.828,0.0,0.0,0.0,208.9,6.3,4.6,1024,1024,1024,1024,0,0,0,0,97,4.623,62.6,34.120736,P-GPS,,10.4
23400,2026-01-08 12:28:08,0.0,5,7.828,0.0,0.0,0.0,208.7,5.8,4.5,1024,1024,1024,1024,0,0,0,0,97,4.623,62.6,34.120736,P-GPS,,10.4
23500,2026-01-08 12:28:08,0.0,5,7.828,0.0,0.0,0.0,208.8,6.0,4.6,1024,1024,1024,1024,0,0,0,0,97,4.623,62.6,34.120736,P-GPS,,10.4
23600,2026-01-08 12:28:09,0.0,5,7.828,0.0,0.0,0.0,208.9,6.8,4.7,1024,1024,1024,1024,0,0,0,0,97,4.623,62.6,34.120736,P-GPS,,10.4
23700,2026-01-08 12:28:09,0.0,5,7.828,0.0,0.0,0.0,209.0,7.4,4.5,1024,1024,1024,1024,0,0,0,0,97,4.623,62.6,34.120736,P-GPS,,10.4
23800,2026-01-08 12:28:09,0.0,5,7.828,0.0,0.0,0.0,208.9,7.3,4.6,1024,1024,1024,1024,0,0,0,0,97,4.623,62.6,34.44882,P-GPS,,10.5
23900,2026-01-08 12:28:09,0.0,5,7.828,0.0,0.0,0.0,208.9,6.4,4.8,1024,1024,1024,1024,0,0,0,0,97,4.623,62.6,34.44882,P-GPS,,10.5
24000,2026-01-08 12:28:09,0.0,5,7.828,0.0,0.0,0.0,209.0,6.4,4.5,1024,1024,1024,1024,0,0,0,0,97,4.623,62.6,34.44882,P-GPS,,10.5
24100,2026-01-08 12:28:09,0.0,5,7.828,0.0,0.0,0.0,209.1,6.6,4.7,1024,1024,1024,1024,0,0,0,0,97,4.623,62.6,34.44882,P-GPS,,10.5
24200,2026-01-08 12:28:09,0.0,5,7.828,0.0,0.0,0.0,209.0,6.4,4.5,1024,1024,1024,1024,0,0,0,0,97,4.623,62.6,34.44882,P-GPS,,10.5
24300,2026-01-08 12:28:09,0.0,5,7.828,0.0,0.0,0.0,209.0,6.1,4.7,1024,1024,1024,1024,0,0,0,0,97,4.623,62.6,34.776904,P-GPS,,10.6
24400,2026-01-08 12:28:09,0.0,5,7.832,0.0,0.0,0.0,209.2,7.0,5.0,1024,1024,1024,1024,0,0,0,0,97,4.416,62.78,34.776904,P-GPS,,10.6
24500,2026-01-08 12:28:09,0.0,5,7.832,0.0,0.0,0.0,209.2,7.2,4.9,1024,1024,1024,1024,0,0,0,0,97,4.416,62.78,34.776904,P-GPS,,10.6
24600,2026-01-08 12:28:10,0.0,5,7.832,0.0,0.0,0.0,209.1,5.9,5.3,1024,1024,1024,1024,0,0,0,0,97,4.416,62.78,34.776904,P-GPS,,10.6
24700,2026-01-08 12:28:10,0.0,5,7.832,0.0,0.0,0.0,209.1,6.2,5.2,1024,1024,1024,1024,0,0,0,0,97,4.416,62.78,34.776904,P-GPS,,10.6
24800,2026-01-08 12:28:10,0.0,5,7.832,0.0,0.0,0.0,209.0,6.0,5.1,1024,1024,1024,1024,0,0,0,0,97,4.416,62.78,34.776904,P-GPS,,10.6
24900,2026-01-08 12:28:10,0.0,5,7.832,0.0,0.0,0.0,209.0,5.8,5.4,1024,1024,1024,1024,0,0,0,0,97,4.416,62.78,34.776904,P-GPS,,10.6
25000,2026-01-08 12:28:10,0.0,5,7.832,0.0,0.0,0.0,209.0,5.9,5.1,1024,1024,1024,1024,0,0,0,0,97,4.416,62.78,34.776904,P-GPS,,10.6
25100,2026-01-08 12:28:10,0.0,5,7.832,0.0,0.0,0.0,209.0,5.2,5.1,1024,1024,1024,1024,0,0,0,0,97,4.416,62.78,34.776904,P-GPS,,10.6
25200,2026-01-08 12:28:10,0.0,5,7.832,0.0,0.0,0.0,209.0,5.5,5.0,1024,1024,1024,1024,0,0,0,0,97,4.416,62.78,34.776904,P-GPS,,10.6
25300,2026-01-08 12:28:10,0.0,5,7.832,0.0,0.0,0.0,209.0,5.7,4.7,1024,1024,1024,1024,0,0,0,0,97,4.416,62.78,34.776904,P-GPS,,10.6
25400,2026-01-08 12:28:10,0.0,5,7.832,0.0,0.0,0.0,208.8,4.9,4.9,1024,1024,1024,1024,0,0,0,0,97,4.416,62.78,34.776904,P-GPS,,10.6
25500,2026-01-08 12:28:10,0.0,5,7.832,0.0,0.0,0.0,208.9,5.9,4.7,1024,1024,1024,1024,0,0,0,0,97,4.416,62.78,34.776904,P-GPS,,10.6
25600,2026-01-08 12:28:11,0.0,5,7.832,0.0,0.0,0.0,208.9,6.1,4.9,1024,1024,1024,1024,0,0,0,0,97,4.416,62.78,34.776904,P-GPS,,10.6
25700,2026-01-08 12:28:11,0.0,5,7.832,0.0,0.0,0.0,209.1,5.8,4.8,1024,1024,1024,1024,0,0,0,0,97,4.416,62.78,34.776904,P-GPS,,10.6
25800,2026-01-08 12:28:11,0.0,5,7.832,0.0,0.0,0.0,209.1,5.8,4.8,1024,1024,1024,1024,0,0,0,0,97,4.416,62.78,34.776904,P-GPS,,10.6
25900,2026-01-08 12:28:11,0.0,5,7.832,0.0,0.0,0.0,209.0,5.9,5.1,1024,1024,1024,1024,0,0,0,0,97,4.416,62.78,34.776904,P-GPS,,10.6
26000,2026-01-08 12:28:11,0.0,5,7.832,0.0,0.0,0.0,208.9,5.9,4.8,1024,1024,1024,1024,0,0,0,0,97,4.416,62.78,34.776904,P-GPS,,10.6
26100,2026-01-08 12:28:11,0.0,5,7.832,0.0,0.0,0.0,208.6,5.8,4.6,1024,1024,1024,1024,0,0,0,0,97,4.416,62.78,34.776904,P-GPS,,10.6
26200,2026-01-08 12:28:11,0.0,5,7.832,0.0,0.0,0.0,208.5,4.5,4.4,1024,1024,1024,1024,0,0,0,0,97,4.416,62.78,34.44882,P-GPS,,10.5
26300,2026-01-08 12:28:11,0.0,5,7.832,0.0,0.0,0.0,208.6,5.0,3.5,1024,1024,1024,1024,0,0,0,0,97,4.416,62.78,34.44882,P-GPS,,10.5
26400,2026-01-08 12:28:11,0.0,5,7.832,0.0,0.0,0.0,208.7,5.5,3.6,1024,1024,1024,1024,0,0,0,0,97,4.416,62.78,34.44882,P-GPS,,10.5
26500,2026-01-08 12:28:11,0.0,5,7.832,0.0,0.0,0.0,208.7,5.3,3.7,1024,1024,1024,1024,0,0,0,0,97,4.416,62.78,34.44882,P-GPS,,10.5
26600,2026-01-08 12:28:12,0.0,5,7.831,0.0,0.0,0.0,208.9,5.8,3.7,1024,1024,1024,1024,0,0,0,0,97,4.61,62.78,34.44882,P-GPS,,10.5
26700,2026-01-08 12:28:12,0.0,5,7.831,0.0,0.0,0.0,209.0,6.3,4.1,1024,1024,1024,1024,0,0,0,0,97,4.61,62.78,34.44882,P-GPS,,10.5
26800,2026-01-08 12:28:12,0.0,5,7.831,0.0,0.0,0.0,209.0,6.7,4.0,1024,1024,1024,1024,0,0,0,0,97,4.61,62.78,34.44882,P-GPS,,10.5
26900,2026-01-08 12:28:12,0.0,5,7.831,0.0,0.0,0.0,208.8,6.3,3.9,1024,1024,1024,1024,0,0,0,0,97,4.61,62.78,34.44882,P-GPS,,10.5
27000,2026-01-08 12:28:12,0.0,5,7.831,0.0,0.0,0.0,208.8,6.3,3.5,1024,1024,1024,1024,0,0,0,0,97,4.61,62.78,34.44882,P-GPS,,10.5
27100,2026-01-08 12:28:12,0.0,5,7.831,0.0,0.0,0.0,208.9,5.7,3.7,1024,1024,1024,1024,0,0,0,0,97,4.61,62.78,34.44882,P-GPS,,10.5
27200,2026-01-08 12:28:12,0.0,5,7.831,0.0,0.0,0.0,209.0,5.8,3.5,1024,1024,1024,1024,0,0,0,0,97,4.61,62.78,34.44882,P-GPS,,10.5
27300,2026-01-08 12:28:12,0.0,5,7.831,0.0,0.0,0.0,208.9,5.2,3.3,1024,1024,1024,1024,0,0,0,0,97,4.61,62.78,34.44882,P-GPS,,10.5
27400,2026-01-08 12:28:12,0.0,5,7.831,0.0,0.0,0.0,208.8,4.7,3.2,1024,1024,1024,1024,0,0,0,0,97,4.61,62.78,34.44882,P-GPS,,10.5
27500,2026-01-08 12:28:12,0.0,5,7.831,0.0,0.0,0.0,209.0,5.1,3.8,1024,1024,1024,1024,0,0,0,0,97,4.61,62.78,34.44882,P-GPS,,10.5
27600,2026-01-08 12:28:13,0.0,5,7.831,0.0,0.0,0.0,209.0,5.9,3.8,1024,1024,1024,1024,0,0,0,0,97,4.61,62.78,34.776904,P-GPS,,10.6
27700,2026-01-08 12:28:13,0.0,5,7.831,0.0,0.0,0.0,209.0,5.7,4.1,1024,1024,1024,1024,0,0,0,0,97,4.61,62.78,34.776904,P-GPS,,10.6
27800,2026-01-08 12:28:13,0.0,5,7.838,0.0,0.0,0.0,208.9,6.0,4.2,1024,1024,1024,1024,0,0,0,0,97,4.321,62.96,34.776904,P-GPS,,10.6
27900,2026-01-08 12:28:13,0.0,5,7.838,0.0,0.0,0.0,208.8,5.3,4.6,1024,1024,1024,1024,0,0,0,0,97,4.321,62.96,34.776904,P-GPS,,10.6
28000,2026-01-08 12:28:13,0.0,5,7.838,0.0,0.0,0.0,208.7,4.6,4.5,1024,1024,1024,1024,0,0,0,0,97,4.321,62.96,34.776904,P-GPS,,10.6
28100,2026-01-08 12:28:13,0.0,5,7.838,0.0,0.0,0.0,208.7,4.6,4.4,1024,1024,1024,1024,0,0,0,0,97,4.321,62.96,34.776904,P-GPS,,10.6
28200,2026-01-08 12:28:13,0.0,5,7.838,0.0,0.0,0.0,208.6,4.6,4.2,1024,1024,1024,1024,0,0,0,0,97,4.321,62.96,34.776904,P-GPS,,10.6
28300,2026-01-08 12:28:13,0.0,5,7.838,0.0,0.0,0.0,208.5,4.6,4.1,1024,1024,1024,1024,0,0,0,0,97,4.321,62.96,34.776904,P-GPS,,10.6
28400,2026-01-08 12:28:13,0.0,5,7.838,0.0,0.0,0.0,208.5,4.0,4.2,1024,1024,1024,1024,0,0,0,0,97,4.321,62.96,34.776904,P-GPS,,10.6
28500,2026-01-08 12:28:14,0.0,5,7.838,0.0,0.0,0.0,208.5,4.5,3.6,1024,1024,1024,1024,0,0,0,0,97,4.321,62.96,35.104988,P-GPS,,10.7
28600,2026-01-08 12:28:14,0.0,5,7.838,0.0,0.0,0.0,208.5,4.3,3.5,1024,1024,1024,1024,0,0,0,0,97,4.321,62.96,35.104988,P-GPS,,10.7
28700,2026-01-08 12:28:14,0.0,5,7.838,0.0,0.0,0.0,208.6,4.8,3.7,1024,1024,1024,1024,0,0,0,0,97,4.321,62.96,35.104988,P-GPS,,10.7
28800,2026-01-08 12:28:14,0.0,5,7.838,0.0,0.0,0.0,208.7,4.9,3.6,1024,1024,1024,1024,0,0,0,0,97,4.321,62.96,35.104988,P-GPS,,10.7
28900,2026-01-08 12:28:14,0.0,5,7.83,0.0,0.0,0.0,208.8,5.1,4.2,1024,1024,1024,1024,0,0,0,0,97,4.57,62.96,35.104988,P-GPS,,10.7
29000,2026-01-08 12:28:14,0.0,5,7.83,0.0,0.0,0.0,208.9,5.5,4.0,1024,1024,1024,1024,0,0,0,0,97,4.57,62.96,35.433072,P-GPS,,10.8
29100,2026-01-08 12:28:14,0.0,5,7.83,0.0,0.0,0.0,208.8,5.9,4.2,1024,1024,1024,1024,0,0,0,0,97,4.57,62.96,35.433072,P-GPS,,10.8
29200,2026-01-08 12:28:14,0.0,5,7.83,0.0,0.0,0.0,208.7,5.3,4.2,1024,1024,1024,1024,0,0,0,0,97,4.57,62.96,35.433072,P-GPS,,10.8
29300,2026-01-08 12:28:14,0.0,5,7.83,0.0,0.0,0.0,208.7,5.4,4.3,1024,1024,1024,1024,0,0,0,0,97,4.57,62.96,35.433072,P-GPS,,10.8
29400,2026-01-08 12:28:14,0.0,5,7.83,0.0,0.0,0.0,208.8,4.9,4.4,1024,1024,1024,1024,0,0,0,0,97,4.57,62.96,35.433072,P-GPS,,10.8
29500,2026-01-08 12:28:14,0.0,5,7.83,0.0,0.0,0.0,208.8,4.9,4.5,1024,1024,1024,1024,0,0,0,0,97,4.57,62.96,35.433072,P-GPS,,10.8
29600,2026-01-08 12:28:15,0.0,5,7.83,0.0,0.0,0.0,208.8,5.1,4.4,1024,1024,1024,1024,0,0,0,0,97,4.57,62.96,35.433072,P-GPS,,10.8
29700,2026-01-08 12:28:15,0.0,5,7.83,0.0,0.0,0.0,208.8,5.1,4.4,1024,1024,1024,1024,0,0,0,0,97,4.57,62.96,35.433072,P-GPS,,10.8
29800,2026-01-08 12:28:15,0.0,5,7.83,0.0,0.0,0.0,208.8,5.7,4.0,1024,1024,1024,1024,0,0,0,0,97,4.57,62.96,35.433072,P-GPS,,10.8
29900,2026-01-08 12:28:15,0.0,5,7.83,0.0,0.0,0.0,208.7,5.0,4.5,1024,1024,1024,1024,0,0,0,0,97,4.57,62.96,35.433072,P-GPS,,10.8
30000,2026-01-08 12:28:15,0.0,5,7.823,0.0,0.0,0.0,208.7,4.4,4.3,1024,1024,1024,1024,0,0,0,0,97,4.507,62.96,35.761156,P-GPS,,10.9
30100,2026-01-08 12:28:15,0.0,5,7.823,0.0,0.0,0.0,208.8,4.0,4.5,1024,1024,1024,1024,0,0,0,0,97,4.507,62.96,35.761156,P-GPS,,10.9
30200,2026-01-08 12:28:15,0.0,5,7.823,0.0,0.0,0.0,208.7,3.6,4.5,1024,1024,1024,1024,0,0,0,0,97,4.507,62.96,35.761156,P-GPS,,10.9
30300,2026-01-08 12:28:15,0.0,5,7.823,0.0,0.0,0.0,208.7,4.1,3.9,1024,1024,1024,1024,0,0,0,0,97,4.507,62.96,35.761156,P-GPS,,10.9
30400,2026-01-08 12:28:15,0.0,5,7.823,0.0,0.0,0.0,208.7,4.3,4.2,1024,1024,1024,1024,0,0,0,0,97,4.507,62.96,35.761156,P-GPS,,10.9
30500,2026-01-08 12:28:16,0.0,5,7.823,0.0,0.0,0.0,208.7,4.0,3.9,1024,1024,1024,1024,0,0,0,0,97,4.507,62.96,35.761156,P-GPS,,10.9
30600,2026-01-08 12:28:16,0.0,5,7.823,0.0,0.0,0.0,208.7,3.8,4.2,1024,1024,1024,1024,0,0,0,0,97,4.507,62.96,35.761156,P-GPS,,10.9
30700,2026-01-08 12:28:16,0.0,5,7.823,0.0,0.0,0.0,208.7,4.3,4.1,1024,1024,1024,1024,0,0,0,0,97,4.507,62.96,35.761156,P-GPS,,10.9
30800,2026-01-08 12:28:16,0.0,5,7.823,0.0,0.0,0.0,208.7,4.8,3.4,1024,1024,1024,1024,0,0,0,0,97,4.507,62.96,35.433072,P-GPS,,10.8
30900,2026-01-08 12:28:16,0.0,5,7.823,0.0,0.0,0.0,208.5,4.3,3.5,1024,1024,1024,1024,0,0,0,0,97,4.507,62.96,35.433072,P-GPS,,10.8
31000,2026-01-08 12:28:16,0.0,5,7.823,0.0,0.0,0.0,208.4,3.8,3.3,1024,1024,1024,1024,0,0,0,0,97,4.507,62.96,35.433072,P-GPS,,10.8
31100,2026-01-08 12:28:16,0.0,5,7.828,0.0,0.0,0.0,208.5,4.2,3.2,1024,1024,1024,1024,0,0,0,0,97,4.388,62.96,35.433072,P-GPS,,10.8
31200,2026-01-08 12:28:16,0.0,5,7.828,0.0,0.0,0.0,208.5,4.3,2.5,1024,1024,1024,1024,0,0,0,0,97,4.388,62.96,35.433072,P-GPS,,10.8
31300,2026-01-08 12:28:16,0.0,5,7.828,0.0,0.0,0.0,208.5,4.7,2.9,1024,1024,1024,1024,0,0,0,0,97,4.388,62.96,35.433072,P-GPS,,10.8
31400,2026-01-08 12:28:16,0.0,5,7.828,0.0,0.0,0.0,208.6,4.6,2.5,1024,1024,1024,1024,0,0,0,0,97,4.388,62.96,35.433072,P-GPS,,10.8
31500,2026-01-08 12:28:16,0.0,5,7.828,0.0,0.0,0.0,208.5,4.6,2.2,1024,1024,1024,1024,0,0,0,0,97,4.388,62.96,35.433072,P-GPS,,10.8
31600,2026-01-08 12:28:17,0.0,5,7.828,0.0,0.0,0.0,208.6,4.1,2.0,1024,1024,1024,1024,0,0,0,0,97,4.388,62.96,35.104988,P-GPS,,10.7
31700,2026-01-08 12:28:17,0.0,5,7.828,0.0,0.0,0.0,208.7,3.4,2.3,1024,1024,1024,1024,0,0,0,0,97,4.388,62.96,35.104988,P-GPS,,10.7
31800,2026-01-08 12:28:17,0.0,5,7.828,0.0,0.0,0.0,208.6,3.2,2.6,1024,1024,1024,1024,0,0,0,0,97,4.388,62.96,35.104988,P-GPS,,10.7
31900,2026-01-08 12:28:17,0.0,5,7.828,0.0,0.0,0.0,208.6,2.8,2.4,1024,1024,1024,1024,0,0,0,0,97,4.388,62.96,35.104988,P-GPS,,10.7
32000,2026-01-08 12:28:17,0.0,5,7.828,0.0,0.0,0.0,208.7,2.8,2.6,1024,1024,1024,1024,0,0,0,0,97,4.388,62.96,35.104988,P-GPS,,10.7
32100,2026-01-08 12:28:17,0.0,5,7.828,0.0,0.0,0.0,208.6,3.2,2.4,1024,1024,1024,1024,0,0,0,0,97,4.388,62.96,35.104988,P-GPS,,10.7
32200,2026-01-08 12:28:17,0.0,5,7.838,0.0,0.0,0.0,208.7,3.1,2.5,1024,1024,1024,1024,0,0,0,0,97,4.349,63.14,35.104988,P-GPS,,10.7
32300,2026-01-08 12:28:17,0.0,5,7.838,0.0,0.0,0.0,208.7,3.0,2.3,1024,1024,1024,1024,0,0,0,0,97,4.349,63.14,35.104988,P-GPS,,10.7
32400,2026-01-08 12:28:17,0.0,5,7.838,0.0,0.0,0.0,208.6,2.9,1.5,1024,1024,1024,1024,0,0,0,0,97,4.349,63.14,35.104988,P-GPS,,10.7
32500,2026-01-08 12:28:18,0.0,5,7.838,0.0,0.0,0.0,208.8,3.4,0.7,1024,1024,1024,1024,0,0,0,0,97,4.349,63.14,35.104988,P-GPS,,10.7
32600,2026-01-08 12:28:18,0.0,5,7.838,0.0,0.0,0.0,208.8,4.0,0.5,1024,1024,1024,1024,0,0,0,0,97,4.349,63.14,35.104988,P-GPS,,10.7
32700,2026-01-08 12:28:18,0.0,5,7.838,0.0,0.0,0.0,208.6,3.4,0.7,1024,1024,1024,1024,0,0,0,0,97,4.349,63.14,35.104988,P-GPS,,10.7
32800,2026-01-08 12:28:18,0.0,5,7.838,0.0,0.0,0.0,208.5,3.1,0.9,1024,1024,1024,1024,0,0,0,0,97,4.349,63.14,35.104988,P-GPS,,10.7
32900,2026-01-08 12:28:18,0.0,5,7.838,0.0,0.0,0.0,208.6,3.4,1.0,1024,1024,1024,1024,0,0,0,0,97,4.349,63.14,35.104988,P-GPS,,10.7
33000,2026-01-08 12:28:18,0.0,5,7.838,0.0,0.0,0.0,208.6,4.5,0.8,1024,1024,1024,1024,0,0,0,0,97,4.349,63.14,35.104988,P-GPS,,10.7
33100,2026-01-08 12:28:18,0.0,5,7.838,0.0,0.0,0.0,208.6,5.2,1.2,1024,1024,1024,1024,0,0,0,0,97,4.349,63.14,35.104988,P-GPS,,10.7
33200,2026-01-08 12:28:18,0.0,5,7.838,0.0,0.0,0.0,208.7,5.7,1.6,1024,1024,1024,1024,0,0,0,0,97,4.349,63.14,35.104988,P-GPS,,10.7
33300,2026-01-08 12:28:18,0.0,5,7.841,0.0,0.0,0.0,208.8,6.1,2.3,1024,1024,1024,1024,0,0,0,0,97,4.336,63.14,35.104988,P-GPS,,10.7
33400,2026-01-08 12:28:18,0.0,5,7.841,0.0,0.0,0.0,208.9,5.9,2.1,1024,1024,1024,1024,0,0,0,0,97,4.336,63.14,35.104988,P-GPS,,10.7
33500,2026-01-08 12:28:18,0.0,5,7.841,0.0,0.0,0.0,209.0,5.9,1.9,1024,1024,1024,1024,0,0,0,0,97,4.336,63.14,35.104988,P-GPS,,10.7
33600,2026-01-08 12:28:19,0.0,5,7.841,0.0,0.0,0.0,208.9,6.0,1.5,1024,1024,1024,1024,0,0,0,0,97,4.336,63.14,35.104988,P-GPS,,10.7
33700,2026-01-08 12:28:19,0.0,5,7.841,0.0,0.0,0.0,208.8,6.0,1.3,1024,1024,1024,1024,0,0,0,0,97,4.336,63.14,35.104988,P-GPS,,10.7
33800,2026-01-08 12:28:19,0.0,5,7.841,0.0,0.0,0.0,208.8,6.0,1.0,1024,1024,1024,1024,0,0,0,0,97,4.336,63.14,35.104988,P-GPS,,10.7
33900,2026-01-08 12:28:19,0.0,5,7.841,0.0,0.0,0.0,208.9,5.7,1.0,1024,1024,1024,1024,0,0,0,0,97,4.336,63.14,35.433072,P-GPS,,10.8
34000,2026-01-08 12:28:19,0.0,5,7.841,0.0,0.0,0.0,208.7,5.5,0.6,1024,1024,1024,1024,0,0,0,0,97,4.336,63.14,35.433072,P-GPS,,10.8
34100,2026-01-08 12:28:19,0.0,5,7.841,0.0,0.0,0.0,208.6,5.4,1.1,1024,1024,1024,1024,0,0,0,0,97,4.336,63.14,35.433072,P-GPS,,10.8
34200,2026-01-08 12:28:19,0.0,5,7.841,0.0,0.0,0.0,208.6,5.3,1.7,1024,1024,1024,1024,0,0,0,0,97,4.336,63.14,35.433072,P-GPS,,10.8
34300,2026-01-08 12:28:19,0.0,5,7.841,0.0,0.0,0.0,208.7,5.1,2.2,1024,1024,1024,1024,0,0,0,0,97,4.336,63.14,35.433072,P-GPS,,10.8
34400,2026-01-08 12:28:19,0.0,5,7.822,0.0,0.0,0.0,208.6,5.1,2.5,1024,1024,1024,1024,0,0,0,0,97,4.471,63.14,35.761156,P-GPS,,10.9
34500,2026-01-08 12:28:19,0.0,5,7.822,0.0,0.0,0.0,208.7,4.7,2.6,1024,1024,1024,1024,0,0,0,0,97,4.471,63.14,35.761156,P-GPS,,10.9
34600,2026-01-08 12:28:20,0.0,5,7.822,0.0,0.0,0.0,208.6,5.1,2.5,1024,1024,1024,1024,0,0,0,0,97,4.471,63.14,35.761156,P-GPS,,10.9
34700,2026-01-08 12:28:20,0.0,5,7.822,0.0,0.0,0.0,208.6,5.4,2.8,1024,1024,1024,1024,0,0,0,0,97,4.471,63.14,35.761156,P-GPS,,10.9
34800,2026-01-08 12:28:20,0.0,5,7.822,0.0,0.0,0.0,208.6,5.4,2.6,1024,1024,1024,1024,0,0,0,0,97,4.471,63.14,35.761156,P-GPS,,10.9
34900,2026-01-08 12:28:20,0.0,5,7.822,0.0,0.0,0.0,208.8,5.7,3.0,1024,1024,1024,1024,0,0,0,0,97,4.471,63.14,36.08924,P-GPS,,11.0
35000,2026-01-08 12:28:20,0.0,5,7.822,0.0,0.0,0.0,208.8,5.7,2.8,1024,1024,1024,1024,0,0,0,0,97,4.471,63.14,36.08924,P-GPS,,11.0
35100,2026-01-08 12:28:20,0.0,5,7.822,0.0,0.0,0.0,208.8,5.9,2.5,1024,1024,1024,1024,0,0,0,0,97,4.471,63.14,36.08924,P-GPS,,11.0
35200,2026-01-08 12:28:20,0.0,5,7.822,0.0,0.0,0.0,208.7,6.0,2.2,1024,1024,1024,1024,0,0,0,0,97,4.471,63.14,36.08924,P-GPS,,11.0
35300,2026-01-08 12:28:20,0.0,5,7.822,0.0,0.0,0.0,208.8,5.4,3.1,1024,1024,1024,1024,0,0,0,0,97,4.471,63.14,36.08924,P-GPS,,11.0
35400,2026-01-08 12:28:20,0.0,5,7.822,0.0,0.0,0.0,208.8,5.3,2.8,1024,1024,1024,1024,0,0,0,0,97,4.471,63.14,36.08924,P-GPS,,11.0
35500,2026-01-08 12:28:20,0.0,5,7.822,0.0,0.0,0.0,208.7,6.2,2.4,1024,1024,1024,1024,0,0,0,0,97,4.471,63.14,36.08924,P-GPS,,11.0
35600,2026-01-08 12:28:21,0.0,5,7.822,0.0,0.0,0.0,208.7,5.8,1.7,1024,1024,1024,1024,0,0,0,0,97,4.471,63.14,36.08924,P-GPS,,11.0
35700,2026-01-08 12:28:21,0.0,5,7.822,0.0,0.0,0.0,208.6,4.9,1.3,1024,1024,1024,1024,0,0,0,0,97,4.471,63.14,36.08924,P-GPS,,11.0
35800,2026-01-08 12:28:21,0.0,5,7.822,0.0,0.0,0.0,208.7,4.9,1.8,1024,1024,1024,1024,0,0,0,0,97,4.471,63.14,36.08924,P-GPS,,11.0
35900,2026-01-08 12:28:21,0.0,5,7.822,0.0,0.0,0.0,208.7,5.4,1.4,1024,1024,1024,1024,0,0,0,0,97,4.471,63.14,36.08924,P-GPS,,11.0
36000,2026-01-08 12:28:21,0.0,5,7.822,0.0,0.0,0.0,208.7,5.9,1.9,1024,1024,1024,1024,0,0,0,0,97,4.471,63.14,36.08924,P-GPS,,11.0
36100,2026-01-08 12:28:21,0.0,5,7.822,0.0,0.0,0.0,208.7,5.2,2.2,1024,1024,1024,1024,0,0,0,0,97,4.471,63.14,36.08924,P-GPS,,11.0
36200,2026-01-08 12:28:21,0.0,5,7.822,0.0,0.0,0.0,208.7,4.4,2.3,1024,1024,1024,1024,0,0,0,0,97,4.471,63.14,36.08924,P-GPS,,11.0
36300,2026-01-08 12:28:21,0.0,5,7.822,0.0,0.0,0.0,208.6,4.3,2.0,1024,1024,1024,1024,0,0,0,0,97,4.471,63.14,36.08924,P-GPS,,11.0
36400,2026-01-08 12:28:21,0.0,5,7.822,0.0,0.0,0.0,208.6,3.9,1.7,1024,1024,1024,1024,0,0,0,0,97,4.471,63.14,36.417324,P-GPS,,11.1
36500,2026-01-08 12:28:22,0.0,5,7.822,0.0,0.0,0.0,208.7,3.4,2.1,1024,1024,1024,1024,0,0,0,0,97,4.471,63.14,36.417324,P-GPS,,11.1
36600,2026-01-08 12:28:22,0.0,5,7.824,0.0,0.0,0.0,208.7,3.3,2.6,1024,1024,1024,1024,0,0,0,0,97,4.546,63.14,36.417324,P-GPS,,11.1
36700,2026-01-08 12:28:22,0.0,5,7.824,0.0,0.0,0.0,208.6,3.4,2.9,1024,1024,1024,1024,0,0,0,0,97,4.546,63.14,36.417324,P-GPS,,11.1
36800,2026-01-08 12:28:22,0.0,5,7.824,0.0,0.0,0.0,208.6,4.2,2.7,1024,1024,1024,1024,0,0,0,0,96,4.546,63.14,36.417324,P-GPS,,11.1
36900,2026-01-08 12:28:22,0.0,5,7.824,0.0,0.0,0.0,208.6,4.2,3.1,1024,1024,1024,1024,0,0,0,0,96,4.546,63.14,36.417324,P-GPS,,11.1
37000,2026-01-08 12:28:22,0.0,5,7.824,0.0,0.0,0.0,208.6,4.2,3.0,1024,1024,1024,1024,0,0,0,0,96,4.546,63.14,36.417324,P-GPS,,11.1
37100,2026-01-08 12:28:22,0.0,5,7.824,0.0,0.0,0.0,208.6,4.4,2.9,1024,1024,1024,1024,0,0,0,0,96,4.546,63.14,36.417324,P-GPS,,11.1
37200,2026-01-08 12:28:22,0.0,5,7.824,0.0,0.0,0.0,208.7,5.0,2.2,1024,1024,1024,1024,0,0,0,0,96,4.546,63.14,36.417324,P-GPS,,11.1
37300,2026-01-08 12:28:22,0.0,5,7.824,0.0,0.0,0.0,208.7,5.3,2.1,1024,1024,1024,1024,0,0,0,0,96,4.546,63.14,36.417324,P-GPS,,11.1
37400,2026-01-08 12:28:22,0.0,5,7.824,0.0,0.0,0.0,208.6,4.7,1.7,1024,1024,1024,1024,0,0,0,0,96,4.546,63.14,36.417324,P-GPS,,11.1
37500,2026-01-08 12:28:22,0.0,5,7.824,0.0,0.0,0.0,208.6,4.3,2.4,1024,1024,1024,1024,0,0,0,0,96,4.546,63.14,36.417324,P-GPS,,11.1
37600,2026-01-08 12:28:23,0.0,5,7.824,0.0,0.0,0.0,208.5,4.3,2.5,1024,1024,1024,1024,0,0,0,0,96,4.546,63.14,36.417324,P-GPS,,11.1
37700,2026-01-08 12:28:23,0.0,5,7.824,0.0,0.0,0.0,208.5,4.3,3.1,1024,1024,1024,1024,0,0,0,0,96,4.546,63.14,36.417324,P-GPS,,11.1
37800,2026-01-08 12:28:23,0.0,5,7.803,0.0,0.0,0.0,208.9,4.6,2.0,1024,1024,1024,1024,0,0,0,0,96,4.631,63.32,36.417324,P-GPS,,11.1
37900,2026-01-08 12:28:23,0.0,5,7.803,0.0,0.0,0.0,208.9,4.8,1.1,1024,1024,1024,1024,0,0,0,0,96,4.631,63.32,36.417324,P-GPS,,11.1
38000,2026-01-08 12:28:23,0.0,5,7.803,0.0,0.0,0.0,209.0,4.9,0.7,1024,1024,1024,1024,0,0,0,0,96,4.631,63.32,36.417324,P-GPS,,11.1
38100,2026-01-08 12:28:23,0.223694,5,7.803,0.0,-0.223694,0.0,209.0,4.9,0.2,1024,1024,1024,1024,0,0,0,0,96,4.631,63.32,36.417324,P-GPS,,11.1
38200,2026-01-08 12:28:23,0.223694,5,7.803,0.0,-0.223694,0.0,208.9,5.6,-0.6,1024,1024,1024,1024,0,0,0,0,96,4.631,63.32,36.417324,P-GPS,,11.1
38300,2026-01-08 12:28:23,0.0,5,7.803,0.0,0.0,0.0,208.7,5.1,-0.3,1024,1024,1024,1024,0,0,0,0,96,4.631,63.32,36.417324,P-GPS,,11.1
38400,2026-01-08 12:28:23,0.0,5,7.803,0.0,0.0,0.0,208.6,5.0,-0.5,1024,1024,1024,1024,0,0,0,0,96,4.631,63.32,36.417324,P-GPS,,11.1
38500,2026-01-08 12:28:24,0.0,5,7.803,0.0,0.0,0.0,208.7,5.2,0.1,1024,1024,1024,1024,0,0,0,0,96,4.631,63.32,36.417324,P-GPS,,11.1
38600,2026-01-08 12:28:24,0.0,5,7.803,0.0,0.0,0.0,208.7,4.4,0.2,1024,1024,1684,1024,0,0,100,0,96,4.631,63.32,36.417324,P-GPS,,11.1
38700,2026-01-08 12:28:24,0.0,5,7.803,0.0,0.0,0.0,208.7,5.1,0.5,1024,1024,1684,1024,0,0,100,0,96,4.631,63.32,36.417324,P-GPS,,11.1
38800,2026-01-08 12:28:24,0.0,5,7.803,0.0,0.0,0.0,208.7,6.1,0.1,1024,1024,1684,1024,0,0,100,0,96,4.631,63.32,36.417324,P-GPS,,11.1
