time(millisecond),timestamp,speed(mph),gpslevel,voltage(v),xSpeed(mph),ySpeed(mph),zSpeed(mph),compass_heading(degrees),pitch(degrees),roll(degrees),rc_elevator,rc_aileron,rc_throttle,rc_rudder,rc_elevator(percent),rc_aileron(percent),rc_throttle(percent),rc_rudder(percent),battery_percent,current(A),battery_temperature(f),ascent(feet),flycState,message,height_above_takeoff(meters)
524100,2026-01-08 12:37:11,0.223694,5,7.386,0.223694,0.0,0.0,23.2,16.3,4.5,1024,1024,1024,1024,0,0,0,0,66,5.664,78.62,100.393704,P-GPS,,30.6
524200,2026-01-08 12:37:12,0.223694,5,7.386,0.223694,0.0,0.0,23.2,16.0,4.9,1024,1024,1024,1024,0,0,0,0,66,5.664,78.62,100.393704,P-GPS,,30.6
524300,2026-01-08 12:37:12,0.223694,5,7.386,0.223694,0.0,0.0,23.3,16.3,5.1,1024,1024,1024,1024,0,0,0,0,66,5.664,78.62,100.393704,P-GPS,,30.6
524400,2026-01-08 12:37:12,0.0,5,7.386,0.0,0.0,0.0,23.1,15.0,5.2,1024,1024,1024,1024,0,0,0,0,66,5.664,78.62,100.393704,P-GPS,,30.6
524500,2026-01-08 12:37:12,0.0,5,7.386,0.0,0.0,0.0,23.1,14.3,5.5,1024,1024,1024,1024,0,0,0,0,66,5.664,78.62,100.393704,P-GPS,,30.6
524600,2026-01-08 12:37:12,0.0,5,7.454,0.0,0.0,0.0,23.2,14.2,5.2,1024,1024,1024,1024,0,0,0,0,66,4.262,78.62,100.393704,P-GPS,,30.6
524700,2026-01-08 12:37:12,0.0,5,7.454,0.0,0.0,0.0,23.3,14.3,5.5,1024,1024,1024,1024,0,0,0,0,66,4.262,78.62,100.393704,P-GPS,,30.6
524800,2026-01-08 12:37:12,0.0,5,7.454,0.0,0.0,0.0,23.3,12.9,5.6,1024,1024,1024,1024,0,0,0,0,66,4.262,78.62,100.393704,P-GPS,,30.6
524900,2026-01-08 12:37:12,0.0,5,7.454,0.0,0.0,0.0,23.3,12.3,5.3,1024,1024,1024,1024,0,0,0,0,66,4.262,78.62,100.393704,P-GPS,,30.6
525000,2026-01-08 12:37:12,0.0,5,7.454,0.0,0.0,0.0,23.1,12.8,4.7,1024,1024,1024,1024,0,0,0,0,66,4.262,78.62,100.393704,P-GPS,,30.6
525100,2026-01-08 12:37:12,0.0,5,7.454,0.0,0.0,0.0,23.2,12.6,3.9,1024,1024,1024,1024,0,0,0,0,66,4.262,78.62,100.393704,P-GPS,,30.6
525200,2026-01-08 12:37:13,0.0,5,7.454,0.0,0.0,0.0,23.0,12.9,3.1,1024,1024,1024,1024,0,0,0,0,66,4.262,78.62,100.06562,P-GPS,,30.5
525300,2026-01-08 12:37:13,0.0,5,7.454,0.0,0.0,0.0,22.8,12.9,2.7,1024,1024,1024,1024,0,0,0,0,66,4.262,78.62,100.06562,P-GPS,,30.5
525400,2026-01-08 12:37:13,0.0,5,7.454,0.0,0.0,0.0,22.9,13.7,2.8,1024,1024,1024,1024,0,0,0,0,66,4.262,78.62,100.06562,P-GPS,,30.5
525500,2026-01-08 12:37:13,0.0,5,7.454,0.0,0.0,0.0,23.0,14.3,3.6,1024,1024,1024,1024,0,0,0,0,66,4.262,78.62,100.06562,P-GPS,,30.5
525600,2026-01-08 12:37:13,0.0,5,7.454,0.0,0.0,0.0,23.1,14.2,3.7,1024,1024,1024,1024,0,0,0,0,66,4.262,78.62,100.06562,P-GPS,,30.5
525700,2026-01-08 12:37:13,0.0,5,7.461,0.0,0.0,0.0,23.0,14.3,3.4,1024,1024,1024,1024,0,0,0,0,66,5.101,78.62,100.06562,P-GPS,,30.5
525800,2026-01-08 12:37:13,0.0,5,7.461,0.0,0.0,0.0,23.1,15.1,3.4,1024,1024,1024,1024,0,0,0,0,66,5.101,78.62,100.06562,P-GPS,,30.5
525900,2026-01-08 12:37:13,0.0,5,7.461,0.0,0.0,0.0,23.1,15.6,3.6,1024,1024,1024,1024,0,0,0,0,66,5.101,78.62,100.06562,P-GPS,,30.5
526000,2026-01-08 12:37:13,0.0,5,7.461,0.0,0.0,0.0,23.1,15.7,3.7,1024,1024,1024,1024,0,0,0,0,66,5.101,78.62,100.06562,P-GPS,,30.5
526100,2026-01-08 12:37:13,0.0,5,7.461,0.0,0.0,0.0,23.2,16.4,3.8,1024,1024,1024,1024,0,0,0,0,66,5.101,78.62,100.06562,P-GPS,,30.5
526200,2026-01-08 12:37:14,0.0,5,7.461,0.0,0.0,0.0,23.3,16.6,3.4,1024,1024,1024,1024,0,0,0,0,66,5.101,78.62,100.06562,P-GPS,,30.5
526300,2026-01-08 12:37:14,0.0,5,7.461,0.0,0.0,0.0,23.3,16.8,3.6,1024,1024,1024,1024,0,0,0,0,66,5.101,78.62,100.06562,P-GPS,,30.5
526400,2026-01-08 12:37:14,0.0,5,7.461,0.0,0.0,0.0,23.2,16.0,3.8,1024,1024,1024,1024,0,0,0,0,66,5.101,78.62,100.06562,P-GPS,,30.5
526500,2026-01-08 12:37:14,0.0,5,7.461,0.0,0.0,0.0,23.2,16.9,3.9,1024,1024,1024,1024,0,0,0,0,66,5.101,78.62,100.06562,P-GPS,,30.5
526600,2026-01-08 12:37:14,0.0,5,7.461,0.0,0.0,0.0,23.1,16.9,3.9,1024,1024,1024,1024,0,0,0,0,66,5.101,78.62,100.393704,P-GPS,,30.6
526700,2026-01-08 12:37:14,0.0,5,7.461,0.0,0.0,0.0,23.1,17.1,3.3,1024,1024,1024,1024,0,0,0,0,66,5.101,78.62,100.393704,P-GPS,,30.6
526800,2026-01-08 12:37:14,0.0,5,7.426,0.0,0.0,0.0,23.1,16.9,3.2,1024,1024,1024,1024,0,0,0,0,66,5.375,78.62,100.393704,P-GPS,,30.6
526900,2026-01-08 12:37:14,0.0,5,7.426,0.0,0.0,0.0,23.1,17.2,2.8,1024,1024,1024,1024,0,0,0,0,66,5.375,78.62,100.393704,P-GPS,,30.6
527000,2026-01-08 12:37:14,0.0,5,7.426,0.0,0.0,0.0,23.1,17.1,2.5,1024,1024,1024,1024,0,0,0,0,66,5.375,78.62,100.393704,P-GPS,,30.6
527100,2026-01-08 12:37:14,0.0,5,7.426,0.0,0.0,0.0,23.0,16.3,2.3,1024,1024,1024,1024,0,0,0,0,66,5.375,78.62,100.393704,P-GPS,,30.6
527200,2026-01-08 12:37:15,0.0,5,7.426,0.0,0.0,0.0,23.0,16.6,2.7,1024,1024,1024,1024,0,0,0,0,66,5.375,78.62,100.393704,P-GPS,,30.6
527300,2026-01-08 12:37:15,0.0,5,7.426,0.0,0.0,0.0,23.1,16.3,2.5,1024,1024,1024,1024,0,0,0,0,66,5.375,78.62,100.06562,P-GPS,,30.5
527400,2026-01-08 12:37:15,0.0,5,7.426,0.0,0.0,0.0,22.9,15.7,1.8,1024,1024,1024,1024,0,0,0,0,66,5.375,78.62,100.06562,P-GPS,,30.5
527600,2026-01-08 12:37:15,0.0,5,7.426,0.0,0.0,0.0,22.8,16.3,2.0,1024,1024,1024,1024,0,0,0,0,66,5.375,78.62,100.06562,P-GPS,,30.5
527700,2026-01-08 12:37:15,0.0,5,7.426,0.0,0.0,0.0,22.9,15.6,2.1,1024,1024,1024,1024,0,0,0,0,66,5.375,78.62,100.06562,P-GPS,,30.5
527800,2026-01-08 12:37:15,0.0,5,7.426,0.0,0.0,0.0,22.9,14.6,2.0,1024,1024,1024,1024,0,0,0,0,66,5.375,78.62,100.06562,P-GPS,,30.5
527900,2026-01-08 12:37:15,0.0,5,7.419,0.0,0.0,0.0,22.9,14.3,2.0,1024,1024,1024,1024,0,0,0,0,65,5.332,78.62,100.06562,P-GPS,,30.5
528000,2026-01-08 12:37:15,0.0,5,7.419,0.0,0.0,0.0,22.8,14.5,1.8,1024,1024,1024,1024,0,0,0,0,65,5.332,78.62,100.06562,P-GPS,,30.5
528100,2026-01-08 12:37:15,0.0,5,7.419,0.0,0.0,0.0,22.8,15.0,2.3,1024,1024,1024,1024,0,0,0,0,65,5.332,78.62,100.06562,P-GPS,,30.5
528200,2026-01-08 12:37:16,0.0,5,7.419,0.0,0.0,0.0,22.8,14.7,2.1,1024,1024,1024,1024,0,0,0,0,65,5.332,78.62,100.06562,P-GPS,,30.5
528300,2026-01-08 12:37:16,0.0,5,7.419,0.0,0.0,0.0,22.8,14.7,1.8,1024,1024,1024,1024,0,0,0,0,65,5.332,78.62,99.737536,P-GPS,,30.4
528400,2026-01-08 12:37:16,0.0,5,7.419,0.0,0.0,0.0,22.8,14.6,1.9,1024,1024,1024,1024,0,0,0,0,65,5.332,78.62,99.737536,P-GPS,,30.4
528500,2026-01-08 12:37:16,0.0,5,7.419,0.0,0.0,0.0,22.8,14.6,2.0,1024,1024,1024,1024,0,0,0,0,65,5.332,78.62,99.737536,P-GPS,,30.4
528600,2026-01-08 12:37:16,0.0,5,7.419,0.0,0.0,0.0,22.8,14.1,1.7,1024,1024,1024,1024,0,0,0,0,65,5.332,78.62,100.06562,P-GPS,,30.5
528700,2026-01-08 12:37:16,0.0,5,7.419,0.0,0.0,0.0,22.8,13.9,2.2,1024,1024,1024,1024,0,0,0,0,65,5.332,78.62,100.06562,P-GPS,,30.5
528800,2026-01-08 12:37:16,0.0,5,7.419,0.0,0.0,0.0,22.8,13.4,2.1,1024,1024,1024,1024,0,0,0,0,65,5.332,78.62,100.06562,P-GPS,,30.5
528900,2026-01-08 12:37:16,0.3131716,5,7.419,-0.223694,-0.223694,0.0,22.8,13.1,2.7,1024,1024,1024,1024,0,0,0,0,65,5.332,78.62,100.06562,P-GPS,,30.5
529000,2026-01-08 12:37:16,0.3131716,5,7.435,-0.223694,-0.223694,0.0,22.9,12.7,3.3,1024,1024,1024,1024,0,0,0,0,65,4.93,78.62,100.06562,P-GPS,,30.5
529100,2026-01-08 12:37:16,0.223694,5,7.435,0.0,-0.223694,0.0,23.0,12.9,3.3,1024,1024,1024,1024,0,0,0,0,65,4.93,78.62,100.06562,P-GPS,,30.5
529200,2026-01-08 12:37:17,0.0,5,7.435,0.0,0.0,0.0,22.9,13.2,3.3,1024,1024,1024,1024,0,0,0,0,65,4.93,78.62,100.06562,P-GPS,,30.5
529300,2026-01-08 12:37:17,0.0,5,7.435,0.0,0.0,0.0,22.9,13.4,3.0,1024,1024,1024,1024,0,0,0,0,65,4.93,78.62,100.393704,P-GPS,,30.6
529400,2026-01-08 12:37:17,0.0,5,7.435,0.0,0.0,0.0,23.0,13.5,3.1,1024,1024,1024,1024,0,0,0,0,65,4.93,78.62,100.393704,P-GPS,,30.6
529500,2026-01-08 12:37:17,0.0,5,7.435,0.0,0.0,0.0,23.0,13.6,3.3,1024,1024,1024,1024,0,0,0,0,65,4.93,78.62,100.393704,P-GPS,,30.6
529600,2026-01-08 12:37:17,0.223694,5,7.435,0.0,-0.223694,0.0,23.0,13.0,3.7,1024,1024,1024,1024,0,0,0,0,65,4.93,78.62,100.393704,P-GPS,,30.6
529700,2026-01-08 12:37:17,0.223694,5,7.435,0.0,-0.223694,0.0,22.9,12.4,4.6,1024,1024,1024,1024,0,0,0,0,65,4.93,78.62,100.393704,P-GPS,,30.6
529800,2026-01-08 12:37:17,0.223694,5,7.435,0.0,-0.223694,0.0,22.9,12.3,5.0,1024,1024,1024,1024,0,0,0,0,65,4.93,78.62,100.393704,P-GPS,,30.6
529900,2026-01-08 12:37:17,0.223694,5,7.435,0.0,-0.223694,0.0,23.0,12.5,5.3,1024,1024,1024,1024,0,0,0,0,65,4.93,78.62,100.393704,P-GPS,,30.6
530000,2026-01-08 12:37:17,0.223694,5,7.435,0.0,-0.223694,0.0,23.0,11.8,5.9,1024,1024,1024,1024,0,0,0,0,65,4.93,78.62,100.721788,P-GPS,,30.7
530100,2026-01-08 12:37:17,0.223694,5,7.433,0.0,-0.223694,0.0,22.9,11.4,5.9,1024,1024,1024,1024,0,0,0,0,65,4.955,78.62,100.721788,P-GPS,,30.7
530200,2026-01-08 12:37:18,0.223694,5,7.433,0.0,-0.223694,0.0,22.9,11.6,5.4,1024,1024,1024,1024,0,0,0,0,65,4.955,78.62,100.721788,P-GPS,,30.7
530300,2026-01-08 12:37:18,0.223694,5,7.433,0.0,-0.223694,0.0,23.0,11.5,6.7,1024,1024,1024,1024,0,0,0,0,65,4.955,78.62,100.721788,P-GPS,,30.7
530400,2026-01-08 12:37:18,0.447388,5,7.433,0.0,-0.447388,0.0,23.1,10.8,7.6,1024,1024,1024,1024,0,0,0,0,65,4.955,78.62,100.721788,P-GPS,,30.7
530500,2026-01-08 12:37:18,0.223694,5,7.433,0.0,-0.223694,0.0,23.1,10.6,8.1,1024,1024,1024,1024,0,0,0,0,65,4.955,78.62,100.393704,P-GPS,,30.6
530600,2026-01-08 12:37:18,0.223694,5,7.433,0.0,-0.223694,0.0,23.1,10.6,8.1,1024,1024,1024,1024,0,0,0,0,65,4.955,78.62,100.393704,P-GPS,,30.6
530700,2026-01-08 12:37:18,0.223694,5,7.433,0.0,-0.223694,0.0,23.2,10.7,8.3,1024,1024,1024,1024,0,0,0,0,65,4.955,78.62,100.393704,P-GPS,Strong wind warning Strong wind warning. Aircraft unable to return to home automatically. Lower altitude immediately and return to home manually (Code: 30149). SD card speed low. Normal use may be affected. Replace SD card (Code: 10028). Gimbal stuck. Make sure gimbal c,30.6
530800,2026-01-08 12:37:18,0.223694,5,7.433,0.0,-0.223694,0.0,23.2,10.4,8.5,1024,1024,1024,1024,0,0,0,0,65,4.955,78.62,100.393704,P-GPS,,30.6
530900,2026-01-08 12:37:18,0.223694,5,7.433,0.0,-0.223694,0.0,23.1,10.2,8.1,1024,1024,1024,1024,0,0,0,0,65,4.955,78.62,100.393704,P-GPS,,30.6
531000,2026-01-08 12:37:18,0.223694,5,7.433,0.0,-0.223694,0.0,22.8,9.0,7.8,1024,1024,1024,1024,0,0,0,0,65,4.955,78.62,100.393704,P-GPS,,30.6
531100,2026-01-08 12:37:18,0.0,5,7.433,0.0,0.0,0.0,22.9,9.7,8.4,1024,1024,1024,1024,0,0,0,0,65,4.955,78.62,100.393704,P-GPS,,30.6
531200,2026-01-08 12:37:19,0.0,5,7.433,0.0,0.0,0.0,23.0,9.9,7.8,1024,1024,1024,1024,0,0,0,0,65,4.955,78.62,100.393704,P-GPS,,30.6
531300,2026-01-08 12:37:19,0.0,5,7.433,0.0,0.0,0.0,23.0,9.7,7.7,1024,1024,1024,1024,0,0,0,0,65,4.955,78.62,100.393704,P-GPS,,30.6
531400,2026-01-08 12:37:19,0.0,5,7.433,0.0,0.0,0.0,22.9,9.4,7.4,1024,1024,1024,1024,0,0,0,0,65,4.955,78.62,100.393704,P-GPS,,30.6
531500,2026-01-08 12:37:19,0.0,5,7.433,0.0,0.0,0.0,22.9,9.2,7.1,1024,1024,1024,1024,0,0,0,0,65,4.955,78.62,100.393704,P-GPS,,30.6
531600,2026-01-08 12:37:19,0.0,5,7.433,0.0,0.0,0.0,22.9,8.1,7.3,1024,1024,1024,1024,0,0,0,0,65,4.955,78.62,100.393704,P-GPS,,30.6
531800,2026-01-08 12:37:19,0.0,5,7.433,0.0,0.0,0.0,23.2,9.5,7.7,1024,1024,1024,1024,0,0,0,0,65,4.955,78.62,100.393704,P-GPS,,30.6
531900,2026-01-08 12:37:19,0.0,5,7.433,0.0,0.0,0.0,23.3,9.6,7.2,1024,1024,1024,1024,0,0,0,0,65,4.955,78.62,100.06562,P-GPS,,30.5
532000,2026-01-08 12:37:19,0.0,5,7.433,0.0,0.0,0.0,23.2,10.0,7.3,1024,1024,1024,1024,0,0,0,0,65,4.955,78.62,100.393704,P-GPS,,30.6
532100,2026-01-08 12:37:19,0.0,5,7.433,0.0,0.0,0.0,23.1,9.7,7.5,1024,1024,1024,1024,0,0,0,0,65,4.955,78.62,100.393704,P-GPS,,30.6
532300,2026-01-08 12:37:20,0.0,5,7.46,0.0,0.0,0.0,23.0,10.2,6.3,1024,1024,1024,1024,0,0,0,0,65,4.174,78.8,100.393704,P-GPS,,30.6
532400,2026-01-08 12:37:20,0.0,5,7.46,0.0,0.0,0.0,23.1,10.0,6.4,1024,1024,1024,1024,0,0,0,0,65,4.174,78.8,100.393704,P-GPS,,30.6
532500,2026-01-08 12:37:20,0.0,5,7.46,0.0,0.0,0.0,23.1,10.8,6.7,1024,1024,1024,1024,0,0,0,0,65,4.174,78.8,100.393704,P-GPS,,30.6
532600,2026-01-08 12:37:20,0.0,5,7.46,0.0,0.0,0.0,23.1,11.2,6.7,1024,1024,1024,1024,0,0,0,0,65,4.174,78.8,100.393704,P-GPS,,30.6
532700,2026-01-08 12:37:20,0.0,5,7.46,0.0,0.0,0.0,23.1,10.9,6.6,1024,1024,1024,1024,0,0,0,0,65,4.174,78.8,100.393704,P-GPS,,30.6
533000,2026-01-08 12:37:20,0.223694,5,7.46,0.223694,0.0,0.0,23.2,12.0,7.9,1024,1024,1024,1024,0,0,0,0,65,4.174,78.8,100.393704,P-GPS,,30.6
533100,2026-01-08 12:37:20,0.223694,5,7.46,0.223694,0.0,0.0,23.4,12.3,7.8,1024,1024,1024,1024,0,0,0,0,65,4.174,78.8,100.393704,P-GPS,,30.6
533200,2026-01-08 12:37:21,0.223694,5,7.46,0.223694,0.0,0.0,23.5,12.9,7.8,1024,1024,1024,1024,0,0,0,0,65,4.174,78.8,100.06562,P-GPS,,30.5
533300,2026-01-08 12:37:21,0.223694,5,7.46,0.223694,0.0,0.0,23.5,13.4,7.8,1024,1024,1024,1024,0,0,0,0,65,4.174,78.8,100.06562,P-GPS,,30.5
533400,2026-01-08 12:37:21,0.223694,5,7.452,0.223694,0.0,0.0,23.5,13.4,8.0,1024,1024,1024,1024,0,0,0,0,65,4.959,78.8,100.06562,P-GPS,,30.5
533500,2026-01-08 12:37:21,0.223694,5,7.452,0.0,0.0,0.0,23.5,13.8,7.7,1024,1024,1024,1024,0,0,0,0,65,4.959,78.8,100.06562,P-GPS,,30.5
533600,2026-01-08 12:37:21,0.0,5,7.452,0.0,0.0,0.0,23.5,13.6,7.6,1024,1024,1024,1024,0,0,0,0,65,4.959,78.8,100.06562,P-GPS,,30.5
533700,2026-01-08 12:37:21,0.0,5,7.452,0.0,0.0,0.0,23.5,13.7,7.2,1024,1024,1024,1024,0,0,0,0,65,4.959,78.8,100.06562,P-GPS,,30.5
533800,2026-01-08 12:37:21,0.0,5,7.452,0.0,0.0,0.0,23.6,13.9,6.7,1024,1024,1024,1024,0,0,0,0,65,4.959,78.8,100.06562,P-GPS,,30.5
533900,2026-01-08 12:37:21,0.0,5,7.452,0.0,0.0,0.0,23.7,14.3,6.7,1024,1024,1024,1024,0,0,0,0,65,4.959,78.8,100.06562,P-GPS,,30.5
534000,2026-01-08 12:37:21,0.0,5,7.452,0.0,0.0,0.0,23.7,14.6,6.9,1024,1024,1024,1024,0,0,0,0,65,4.959,78.8,100.06562,P-GPS,,30.5
534100,2026-01-08 12:37:21,0.0,5,7.452,0.0,0.0,0.0,23.7,14.9,7.3,1024,1024,1024,1024,0,0,0,0,65,4.959,78.8,100.06562,P-GPS,,30.5
534200,2026-01-08 12:37:22,0.0,5,7.452,0.0,0.0,0.0,23.6,15.1,7.1,1024,1024,1024,1024,0,0,0,0,65,4.959,78.8,100.393704,P-GPS,,30.6
534300,2026-01-08 12:37:22,0.0,5,7.452,0.0,0.0,0.0,23.5,14.7,6.8,1024,1024,1024,1024,0,0,0,0,65,4.959,78.8,100.393704,P-GPS,,30.6
534400,2026-01-08 12:37:22,0.0,5,7.452,0.0,0.0,0.0,23.5,14.2,7.1,1024,1024,1024,1024,0,0,0,0,65,4.959,78.8,100.393704,P-GPS,,30.6
534500,2026-01-08 12:37:22,0.0,5,7.38,0.0,0.0,0.0,23.5,14.6,7.2,1024,1024,1024,1024,0,0,0,0,65,6.09,78.8,100.721788,P-GPS,,30.7
534600,2026-01-08 12:37:22,0.0,5,7.38,0.0,0.0,0.0,23.4,14.3,7.3,1024,1024,1024,1024,0,0,0,0,65,6.09,78.8,100.721788,P-GPS,,30.7
534700,2026-01-08 12:37:22,0.0,5,7.38,0.0,0.0,0.0,23.5,14.2,6.7,1024,1024,1024,1024,0,0,0,0,65,6.09,78.8,100.721788,P-GPS,,30.7
534800,2026-01-08 12:37:22,0.0,5,7.38,0.0,0.0,0.0,23.5,14.5,7.2,1024,1024,1024,1024,0,0,0,0,65,6.09,78.8,100.721788,P-GPS,,30.7
534900,2026-01-08 12:37:22,0.0,5,7.38,0.0,0.0,0.0,23.5,13.2,7.0,1024,1024,1024,1024,0,0,0,0,65,6.09,78.8,101.049872,P-GPS,,30.8
535000,2026-01-08 12:37:22,0.0,5,7.38,0.0,0.0,0.0,23.5,13.3,6.7,1024,1024,1024,1024,0,0,0,0,65,6.09,78.8,101.049872,P-GPS,,30.8
535200,2026-01-08 12:37:22,0.0,5,7.38,0.0,0.0,0.0,23.5,14.3,6.4,1024,1024,1024,1024,0,0,0,0,65,6.09,78.8,101.049872,P-GPS,,30.8
535300,2026-01-08 12:37:23,0.0,5,7.38,0.0,0.0,0.0,23.5,14.2,6.5,1024,1024,1024,1024,0,0,0,0,65,6.09,78.8,100.721788,P-GPS,,30.7
535400,2026-01-08 12:37:23,0.0,5,7.38,0.0,0.0,0.0,23.5,14.7,6.5,1024,1024,1024,1024,0,0,0,0,65,6.09,78.8,100.721788,P-GPS,,30.7
535500,2026-01-08 12:37:23,0.0,5,7.38,0.0,0.0,0.0,23.6,14.8,6.4,1024,1024,1024,1024,0,0,0,0,65,6.09,78.8,100.721788,P-GPS,,30.7
535600,2026-01-08 12:37:23,0.0,5,7.394,0.0,0.0,0.0,23.5,14.4,6.3,1024,1024,1024,1024,0,0,0,0,65,6.1,78.8,100.721788,P-GPS,,30.7
535700,2026-01-08 12:37:23,0.0,5,7.394,0.0,0.0,0.0,23.5,14.3,6.3,1024,1024,1024,1024,0,0,0,0,65,6.1,78.8,100.721788,P-GPS,,30.7
535800,2026-01-08 12:37:23,0.0,5,7.394,0.0,0.0,0.0,23.6,14.2,6.0,1024,1024,1024,1024,0,0,0,0,65,6.1,78.8,100.721788,P-GPS,,30.7
535900,2026-01-08 12:37:23,0.0,5,7.394,0.0,0.0,0.0,23.4,13.5,6.7,1024,1024,1024,1024,0,0,0,0,65,6.1,78.8,100.393704,P-GPS,,30.6
536000,2026-01-08 12:37:23,0.0,5,7.394,0.0,0.0,0.0,23.4,14.3,6.7,1024,1024,1024,1024,0,0,0,0,65,6.1,78.8,100.393704,P-GPS,,30.6
536300,2026-01-08 12:37:24,0.0,5,7.394,0.0,0.0,0.0,23.5,15.6,7.0,1024,1024,1024,1024,0,0,0,0,65,6.1,78.8,100.393704,P-GPS,,30.6
536400,2026-01-08 12:37:24,0.0,5,7.394,0.0,0.0,0.0,23.7,16.3,7.4,1024,1024,1024,1024,0,0,0,0,65,6.1,78.8,100.06562,P-GPS,,30.5
536500,2026-01-08 12:37:24,0.0,5,7.394,0.0,0.0,0.0,23.7,16.6,7.2,1024,1024,1024,1024,0,0,0,0,65,6.1,78.8,100.06562,P-GPS,,30.5
536600,2026-01-08 12:37:24,0.0,5,7.394,0.0,0.0,0.0,23.7,16.3,7.1,1024,1024,1024,1024,0,0,0,0,65,6.1,78.8,100.06562,P-GPS,,30.5
536700,2026-01-08 12:37:24,0.0,5,7.409,0.0,0.0,0.0,23.8,16.0,7.7,1024,1024,1024,1024,0,0,0,0,65,5.333,78.98,100.06562,P-GPS,,30.5
536800,2026-01-08 12:37:24,0.0,5,7.409,0.0,0.0,0.0,23.5,15.6,6.7,1024,1024,1024,1024,0,0,0,0,65,5.333,78.98,100.06562,P-GPS,,30.5
537000,2026-01-08 12:37:24,0.0,5,7.409,0.0,0.0,0.0,23.6,16.6,8.0,1024,1024,1024,1024,0,0,0,0,65,5.333,78.98,100.06562,P-GPS,,30.5
537100,2026-01-08 12:37:24,0.0,5,7.409,0.0,0.0,0.0,23.8,16.7,7.7,1024,1024,1024,1024,0,0,0,0,65,5.333,78.98,100.06562,P-GPS,,30.5
537200,2026-01-08 12:37:24,0.0,5,7.409,0.0,0.0,0.0,23.7,16.5,7.5,1024,1024,1024,1024,0,0,0,0,65,5.333,78.98,100.06562,P-GPS,,30.5
537300,2026-01-08 12:37:25,0.0,5,7.409,0.0,0.0,0.0,23.6,15.9,6.9,1024,1024,1024,1024,0,0,0,0,65,5.333,78.98,100.06562,P-GPS,,30.5
537600,2026-01-08 12:37:25,0.0,5,7.409,0.0,0.0,0.0,23.6,16.0,7.8,1024,1024,1024,1024,0,0,0,0,65,5.333,78.98,100.06562,P-GPS,,30.5
537700,2026-01-08 12:37:25,0.0,5,7.409,0.0,0.0,0.0,23.6,15.8,7.9,1024,1024,1024,1024,0,0,0,0,65,5.333,78.98,100.06562,P-GPS,,30.5
537800,2026-01-08 12:37:25,0.0,5,7.434,0.0,0.0,0.0,23.7,16.1,8.0,1024,1024,1024,1024,0,0,0,0,65,5.265,78.98,100.06562,P-GPS,,30.5
538200,2026-01-08 12:37:26,0.0,5,7.434,0.0,0.0,0.0,23.8,16.5,7.7,1024,1024,1024,1024,0,0,0,0,65,5.265,78.98,100.06562,P-GPS,,30.5
538300,2026-01-08 12:37:26,0.0,5,7.434,0.0,0.0,0.0,23.8,17.3,7.5,1024,1024,1024,1024,0,0,0,0,65,5.265,78.98,100.393704,P-GPS,,30.6
538400,2026-01-08 12:37:26,0.0,5,7.434,0.0,0.0,0.0,23.6,17.9,6.7,1024,1024,1024,1024,0,0,0,0,65,5.265,78.98,100.393704,P-GPS,,30.6
538500,2026-01-08 12:37:26,0.0,5,7.434,0.0,0.0,0.0,23.6,18.6,6.5,1024,1024,1024,1024,0,0,0,0,65,5.265,78.98,100.721788,P-GPS,,30.7
538600,2026-01-08 12:37:26,0.0,5,7.434,0.0,0.0,0.0,23.6,19.1,6.6,1024,1024,1024,1024,0,0,0,0,65,5.265,78.98,100.721788,P-GPS,,30.7
538700,2026-01-08 12:37:26,0.0,5,7.434,0.0,0.0,0.0,23.6,18.2,6.9,1024,1024,1024,1024,0,0,0,0,65,5.265,78.98,101.049872,P-GPS,,30.8
538800,2026-01-08 12:37:26,0.0,5,7.434,0.0,0.0,0.0,23.5,17.3,7.3,1024,1024,1024,1024,0,0,0,0,65,5.265,78.98,101.049872,P-GPS,,30.8
539000,2026-01-08 12:37:26,0.0,5,7.289,0.0,0.0,0.0,23.7,18.6,7.5,1024,1024,1024,1024,0,0,0,0,65,7.611,78.98,101.377956,P-GPS,,30.9
539100,2026-01-08 12:37:26,0.0,5,7.289,0.0,0.0,0.0,23.6,19.2,6.6,1024,1024,1024,1024,0,0,0,0,65,7.611,78.98,101.377956,P-GPS,,30.9
539200,2026-01-08 12:37:27,0.0,5,7.289,0.0,0.0,0.0,23.4,18.4,5.6,1024,1024,1024,1024,0,0,0,0,65,7.611,78.98,101.377956,P-GPS,,30.9
539300,2026-01-08 12:37:27,0.0,5,7.289,0.0,0.0,0.0,23.3,17.3,5.5,1024,1024,1024,1024,0,0,0,0,65,7.611,78.98,101.377956,P-GPS,,30.9
539400,2026-01-08 12:37:27,0.0,5,7.289,0.0,0.0,0.0,23.3,16.9,6.0,1024,1024,1024,1024,0,0,0,0,65,7.611,78.98,101.377956,P-GPS,,30.9
539500,2026-01-08 12:37:27,0.0,5,7.289,0.0,0.0,0.0,23.3,16.5,6.1,1024,1024,1024,1024,0,0,0,0,65,7.611,78.98,101.377956,P-GPS,,30.9
539600,2026-01-08 12:37:27,0.0,5,7.289,0.0,0.0,0.0,23.4,16.5,6.1,1024,1024,1024,1024,0,0,0,0,65,7.611,78.98,101.377956,P-GPS,,30.9
539700,2026-01-08 12:37:27,0.223694,5,7.289,-0.223694,0.0,0.0,23.2,15.8,5.7,1024,1024,1024,1024,0,0,0,0,65,7.611,78.98,101.377956,P-GPS,,30.9
539800,2026-01-08 12:37:27,0.223694,5,7.289,-0.223694,0.0,0.0,23.2,15.0,4.9,1024,1024,1024,1024,0,0,0,0,65,7.611,78.98,101.049872,P-GPS,,30.8
539900,2026-01-08 12:37:27,0.223694,5,7.289,-0.223694,0.0,0.0,23.3,14.4,4.7,1024,1024,1024,1024,0,0,0,0,65,7.611,78.98,101.049872,P-GPS,,30.8
540000,2026-01-08 12:37:27,0.223694,5,7.289,-0.223694,0.0,0.0,23.2,15.2,4.3,1024,1024,1024,1024,0,0,0,0,65,7.611,78.98,101.049872,P-GPS,,30.8
540100,2026-01-08 12:37:27,0.223694,5,7.327,-0.223694,0.0,0.0,23.2,14.6,4.0,1024,1024,1024,1024,0,0,0,0,64,7.001,78.8,100.721788,P-GPS,,30.7
540200,2026-01-08 12:37:28,0.223694,5,7.327,-0.223694,0.0,0.0,23.2,13.8,3.6,1024,1024,1024,1024,0,0,0,0,64,7.001,78.8,100.721788,P-GPS,,30.7
540300,2026-01-08 12:37:28,0.223694,5,7.327,-0.223694,0.0,0.0,23.2,13.9,3.6,1024,1024,1024,1024,0,0,0,0,64,7.001,78.8,100.393704,P-GPS,,30.6
540400,2026-01-08 12:37:28,0.223694,5,7.327,-0.223694,0.0,0.0,23.2,14.1,3.7,1024,1024,1024,1024,0,0,0,0,64,7.001,78.8,100.393704,P-GPS,,30.6
540500,2026-01-08 12:37:28,0.223694,5,7.327,-0.223694,0.0,0.0,23.2,13.9,3.7,1024,1024,1024,1024,0,0,0,0,64,7.001,78.8,100.393704,P-GPS,,30.6
540600,2026-01-08 12:37:28,0.223694,5,7.327,-0.223694,0.0,0.0,23.2,13.9,3.7,1024,1024,1024,1024,0,0,0,0,64,7.001,78.8,100.06562,P-GPS,,30.5
540700,2026-01-08 12:37:28,0.223694,5,7.327,-0.223694,0.0,0.0,23.1,13.1,3.4,1024,1024,1024,1024,0,0,0,0,64,7.001,78.8,100.06562,P-GPS,,30.5
540800,2026-01-08 12:37:28,0.223694,5,7.327,-0.223694,0.0,0.0,23.1,12.9,3.5,1024,1024,1024,1024,0,0,0,0,64,7.001,78.8,100.06562,P-GPS,,30.5
540900,2026-01-08 12:37:28,0.0,5,7.327,0.0,0.0,0.0,23.1,12.9,3.8,1024,1024,1024,1024,0,0,0,0,64,7.001,78.8,100.06562,P-GPS,,30.5
541000,2026-01-08 12:37:28,0.0,5,7.327,0.0,0.0,0.0,23.0,12.8,3.8,1024,1024,1024,1024,0,0,0,0,64,7.001,78.8,100.06562,P-GPS,,30.5
541100,2026-01-08 12:37:28,0.0,5,7.327,0.0,0.0,0.0,23.1,13.3,4.0,1024,1024,1024,1024,0,0,0,0,64,7.001,78.8,100.06562,P-GPS,,30.5
541200,2026-01-08 12:37:29,0.0,5,7.389,0.0,0.0,0.0,23.1,13.6,4.1,1024,1024,1024,1024,0,0,0,0,64,5.613,78.8,100.06562,P-GPS,,30.5
541300,2026-01-08 12:37:29,0.0,5,7.389,0.0,0.0,0.0,23.1,13.4,4.0,1024,1024,1024,1024,0,0,0,0,64,5.613,78.8,100.06562,P-GPS,,30.5
541400,2026-01-08 12:37:29,0.0,5,7.389,0.0,0.0,0.0,23.1,13.7,3.9,1024,1024,1024,1024,0,0,0,0,64,5.613,78.8,100.06562,P-GPS,,30.5
541500,2026-01-08 12:37:29,0.0,5,7.389,0.0,0.0,0.0,23.1,13.3,3.9,1024,1024,1024,1024,0,0,0,0,64,5.613,78.8,100.06562,P-GPS,,30.5
541600,2026-01-08 12:37:29,0.0,5,7.389,0.0,0.0,0.0,23.1,13.9,4.3,1024,1024,1024,1024,0,0,0,0,64,5.613,78.8,100.06562,P-GPS,,30.5
541700,2026-01-08 12:37:29,0.0,5,7.389,0.0,0.0,0.0,23.2,13.2,4.3,1024,1024,1024,1024,0,0,0,0,64,5.613,78.8,100.06562,P-GPS,,30.5
541800,2026-01-08 12:37:29,0.0,5,7.389,0.0,0.0,0.0,23.1,13.7,4.7,1024,1024,1024,1024,0,0,0,0,64,5.613,78.8,100.393704,P-GPS,,30.6
541900,2026-01-08 12:37:29,0.0,5,7.389,0.0,0.0,0.0,23.2,13.9,4.9,1024,1024,1024,1024,0,0,0,0,64,5.613,78.8,100.393704,P-GPS,,30.6
542000,2026-01-08 12:37:29,0.0,5,7.389,0.0,0.0,0.0,23.2,14.5,4.7,1024,1024,1024,1024,0,0,0,0,64,5.613,78.8,100.393704,P-GPS,,30.6
542100,2026-01-08 12:37:29,0.0,5,7.389,0.0,0.0,0.0,23.2,14.7,4.1,1024,1024,1024,1024,0,0,0,0,64,5.613,78.8,100.393704,P-GPS,,30.6
542200,2026-01-08 12:37:29,0.0,5,7.389,0.0,0.0,0.0,23.3,14.8,5.1,1024,1024,1024,1024,0,0,0,0,64,5.613,78.8,100.721788,P-GPS,,30.7
542300,2026-01-08 12:37:30,0.0,5,7.389,0.0,0.0,0.0,23.4,15.5,5.0,1024,1024,1024,1024,0,0,0,0,64,5.613,78.8,100.721788,P-GPS,,30.7
542400,2026-01-08 12:37:30,0.0,5,7.389,0.0,0.0,0.0,23.4,15.8,4.8,1024,1024,1024,1024,0,0,0,0,64,5.613,78.8,100.721788,P-GPS,,30.7
542500,2026-01-08 12:37:30,0.0,5,7.389,0.0,0.0,0.0,23.2,15.8,4.4,1024,1024,1024,1024,0,0,0,0,64,5.613,78.8,100.721788,P-GPS,,30.7
542600,2026-01-08 12:37:30,0.0,5,7.389,0.0,0.0,0.0,23.2,15.8,4.1,1024,1024,1024,1024,0,0,0,0,64,5.613,78.8,101.049872,P-GPS,,30.8
542700,2026-01-08 12:37:30,0.0,5,7.389,0.0,0.0,0.0,23.2,15.3,4.1,1024,1024,1024,1024,0,0,0,0,64,5.613,78.8,101.049872,P-GPS,,30.8
542800,2026-01-08 12:37:30,0.0,5,7.389,0.0,0.0,0.0,23.1,15.4,4.0,1024,1024,1024,1024,0,0,0,0,64,5.613,78.8,101.049872,P-GPS,,30.8
542900,2026-01-08 12:37:30,0.0,5,7.389,0.0,0.0,0.0,23.2,15.5,4.2,1024,1024,1024,1024,0,0,0,0,64,5.613,78.8,101.049872,P-GPS,,30.8
543000,2026-01-08 12:37:30,0.0,5,7.389,0.0,0.0,0.0,23.2,16.0,4.0,1024,1024,1024,1024,0,0,0,0,64,5.613,78.8,101.049872,P-GPS,,30.8
543100,2026-01-08 12:37:30,0.0,5,7.389,0.0,0.0,0.0,23.3,16.1,4.0,1024,1024,1024,1024,0,0,0,0,64,5.613,78.8,101.049872,P-GPS,,30.8
543200,2026-01-08 12:37:31,0.0,5,7.389,0.0,0.0,0.0,23.3,15.9,4.0,1024,1024,1024,1024,0,0,0,0,64,5.613,78.8,101.049872,P-GPS,,30.8
543300,2026-01-08 12:37:31,0.0,5,7.389,0.0,0.0,0.0,23.2,16.1,3.7,1024,1024,1024,1024,0,0,0,0,64,5.613,78.8,101.377956,P-GPS,,30.9
543400,2026-01-08 12:37:31,0.0,5,7.357,0.0,0.0,0.0,23.1,16.4,3.8,1024,1024,1024,1024,0,0,0,0,64,6.176,78.8,101.377956,P-GPS,,30.9
543500,2026-01-08 12:37:31,0.0,5,7.357,0.0,0.0,0.0,23.1,17.0,3.5,1024,1024,1024,1024,0,0,0,0,64,6.176,78.8,101.377956,P-GPS,,30.9
543600,2026-01-08 12:37:31,0.0,5,7.357,0.0,0.0,0.0,23.1,16.9,3.4,1024,1024,1024,1024,0,0,0,0,64,6.176,78.8,101.377956,P-GPS,,30.9
543700,2026-01-08 12:37:31,0.0,5,7.357,0.0,0.0,0.0,23.2,17.4,3.8,1024,1024,1024,1024,0,0,0,0,64,6.176,78.8,101.70604,P-GPS,,31.0
543800,2026-01-08 12:37:31,0.0,5,7.357,0.0,0.0,0.0,23.3,16.9,3.9,1024,1024,1024,1024,0,0,0,0,64,6.176,78.8,101.70604,P-GPS,,31.0
543900,2026-01-08 12:37:31,0.0,5,7.357,0.0,0.0,0.0,23.3,16.8,4.2,1024,1024,1024,1024,0,0,0,0,64,6.176,78.8,101.70604,P-GPS,,31.0
544000,2026-01-08 12:37:31,0.0,5,7.357,0.0,0.0,0.0,23.1,16.6,4.0,1024,1024,1024,1024,0,0,0,0,64,6.176,78.8,101.70604,P-GPS,,31.0
544100,2026-01-08 12:37:31,0.0,5,7.357,0.0,0.0,0.0,23.1,16.6,4.7,1024,1024,1024,1024,0,0,0,0,64,6.176,78.8,101.70604,P-GPS,,31.0
544200,2026-01-08 12:37:31,0.0,5,7.357,0.0,0.0,0.0,23.1,15.7,4.8,1024,1024,1024,1024,0,0,0,0,64,6.176,78.8,102.034124,P-GPS,,31.1
544300,2026-01-08 12:37:32,0.0,5,7.357,0.0,0.0,0.0,23.2,15.4,5.1,1024,1024,1024,1024,0,0,0,0,64,6.176,78.8,102.034124,P-GPS,,31.1
544400,2026-01-08 12:37:32,0.0,5,7.357,0.0,0.0,0.0,23.2,15.3,4.7,1024,1024,1024,1024,0,0,0,0,64,6.176,78.8,102.034124,P-GPS,,31.1
544500,2026-01-08 12:37:32,0.0,5,7.344,0.0,0.0,0.0,23.2,16.0,4.0,1024,1024,1024,1024,0,0,0,0,64,6.52,78.98,101.70604,P-GPS,,31.0
544600,2026-01-08 12:37:32,0.0,5,7.344,0.0,0.0,0.0,23.2,16.0,3.9,1024,1024,1024,1024,0,0,0,0,64,6.52,78.98,101.70604,P-GPS,,31.0
544700,2026-01-08 12:37:32,0.0,5,7.344,0.0,0.0,0.0,23.2,15.7,3.4,1024,1024,1024,1024,0,0,0,0,64,6.52,78.98,101.70604,P-GPS,,31.0
544800,2026-01-08 12:37:32,0.0,5,7.344,0.0,0.0,0.0,23.1,15.4,3.5,1024,1024,1024,1024,0,0,0,0,64,6.52,78.98,101.70604,P-GPS,,31.0
544900,2026-01-08 12:37:32,0.0,5,7.344,0.0,0.0,0.0,23.1,15.4,3.5,1024,1024,1024,1024,0,0,0,0,64,6.52,78.98,101.70604,P-GPS,,31.0
545000,2026-01-08 12:37:32,0.0,5,7.344,0.0,0.0,0.0,23.0,15.4,3.3,1024,1024,1024,1024,0,0,0,0,64,6.52,78.98,101.70604,P-GPS,,31.0
545100,2026-01-08 12:37:32,0.0,5,7.344,0.0,0.0,0.0,23.0,15.2,3.1,1024,1024,1024,1024,0,0,0,0,64,6.52,78.98,101.377956,P-GPS,,30.9
545200,2026-01-08 12:37:33,0.0,5,7.344,0.0,0.0,0.0,23.0,15.4,2.8,1024,1024,1024,1024,0,0,0,0,64,6.52,78.98,101.377956,P-GPS,,30.9
545300,2026-01-08 12:37:33,0.0,5,7.344,0.0,0.0,0.0,22.9,15.1,2.6,1024,1024,1024,1024,0,0,0,0,64,6.52,78.98,101.377956,P-GPS,,30.9
545400,2026-01-08 12:37:33,0.0,5,7.344,0.0,0.0,0.0,22.9,14.0,2.2,1024,1024,1024,1024,0,0,0,0,64,6.52,78.98,101.377956,P-GPS,,30.9
545500,2026-01-08 12:37:33,0.0,5,7.344,0.0,0.0,0.0,22.8,13.7,3.7,1024,1024,1024,1024,0,0,0,0,64,6.52,78.98,101.377956,P-GPS,,30.9
545600,2026-01-08 12:37:33,0.0,5,7.372,0.0,0.0,0.0,22.9,14.1,4.0,1024,1024,1024,1024,0,0,0,0,64,5.991,78.98,101.377956,P-GPS,,30.9
545700,2026-01-08 12:37:33,0.0,5,7.372,0.0,0.0,0.0,23.0,15.3,3.3,1024,1024,1024,1024,0,0,0,0,64,5.991,78.98,101.377956,P-GPS,,30.9
545800,2026-01-08 12:37:33,0.0,5,7.372,0.0,0.0,0.0,23.0,14.5,3.7,1024,1024,1024,1024,0,0,0,0,64,5.991,78.98,101.049872,P-GPS,,30.8
545900,2026-01-08 12:37:33,0.0,5,7.372,0.0,0.0,0.0,22.9,13.9,3.7,1024,1024,1024,1024,0,0,0,0,64,5.991,78.98,101.049872,P-GPS,,30.8
546000,2026-01-08 12:37:33,0.0,5,7.372,0.0,0.0,0.0,23.0,14.5,4.2,1024,1024,1024,1024,0,0,0,0,64,5.991,78.98,101.049872,P-GPS,,30.8
546100,2026-01-08 12:37:33,0.0,5,7.372,0.0,0.0,0.0,23.0,15.7,4.3,1024,1024,1024,1024,0,0,0,0,64,5.991,78.98,101.049872,P-GPS,,30.8
546200,2026-01-08 12:37:33,0.0,5,7.372,0.0,0.0,0.0,23.1,15.5,4.1,1024,1024,1024,1024,0,0,0,0,64,5.991,78.98,101.049872,P-GPS,,30.8
546300,2026-01-08 12:37:34,0.0,5,7.372,0.0,0.0,0.0,23.1,16.1,4.4,1024,1024,1024,1024,0,0,0,0,64,5.991,78.98,101.049872,P-GPS,,30.8
546400,2026-01-08 12:37:34,0.0,5,7.372,0.0,0.0,0.0,23.0,15.2,4.7,1024,1024,1024,1024,0,0,0,0,64,5.991,78.98,101.049872,P-GPS,,30.8
546500,2026-01-08 12:37:34,0.223694,5,7.372,0.0,-0.223694,0.0,22.9,14.6,5.4,1024,1024,1024,1024,0,0,0,0,64,5.991,78.98,101.049872,P-GPS,,30.8
546600,2026-01-08 12:37:34,0.223694,5,7.372,0.0,-0.223694,0.0,23.1,14.1,6.0,1024,1024,1024,1024,0,0,0,0,64,5.991,78.98,101.049872,P-GPS,,30.8
546700,2026-01-08 12:37:34,0.223694,5,7.4,0.0,-0.223694,0.0,23.1,13.5,6.4,1024,1024,1024,1024,0,0,0,0,64,5.104,78.98,101.049872,P-GPS,,30.8
546800,2026-01-08 12:37:34,0.0,5,7.4,0.0,0.0,0.0,23.1,13.7,6.4,1024,1024,1024,1024,0,0,0,0,64,5.104,78.98,101.049872,P-GPS,,30.8
546900,2026-01-08 12:37:34,0.0,5,7.4,0.0,0.0,0.0,23.2,13.8,6.0,1024,1024,1024,1024,0,0,0,0,64,5.104,78.98,101.049872,P-GPS,,30.8
547000,2026-01-08 12:37:34,0.0,5,7.4,0.0,0.0,0.0,23.2,13.9,5.4,1024,1024,1024,1024,0,0,0,0,64,5.104,78.98,101.049872,P-GPS,,30.8
547100,2026-01-08 12:37:34,0.0,5,7.4,0.0,0.0,0.0,23.1,13.9,5.3,1024,1024,1024,1024,0,0,0,0,64,5.104,78.98,100.721788,P-GPS,,30.7
547200,2026-01-08 12:37:35,0.0,5,7.4,0.0,0.0,0.0,23.1,13.8,4.8,1024,1024,1024,1024,0,0,0,0,64,5.104,78.98,100.721788,P-GPS,,30.7
547300,2026-01-08 12:37:35,0.0,5,7.4,0.0,0.0,0.0,23.1,13.8,4.3,1024,1024,1024,1024,0,0,0,0,64,5.104,78.98,100.721788,P-GPS,,30.7
547400,2026-01-08 12:37:35,0.0,5,7.4,0.0,0.0,0.0,23.1,13.1,4.5,1024,1024,1024,1024,0,0,0,0,64,5.104,78.98,100.721788,P-GPS,,30.7
547500,2026-01-08 12:37:35,0.0,5,7.4,0.0,0.0,0.0,23.0,12.7,5.1,1024,1024,1024,1024,0,0,0,0,64,5.104,78.98,100.721788,P-GPS,,30.7
547600,2026-01-08 12:37:35,0.0,5,7.4,0.0,0.0,0.0,22.9,12.2,5.7,1024,1024,1024,1024,0,0,0,0,64,5.104,78.98,100.721788,P-GPS,,30.7
547700,2026-01-08 12:37:35,0.0,5,7.4,0.0,0.0,0.0,22.9,12.4,6.3,1024,1024,1024,1024,0,0,0,0,64,5.104,78.98,100.721788,P-GPS,,30.7
547800,2026-01-08 12:37:35,0.0,5,7.402,0.0,0.0,0.0,23.1,12.6,6.7,1024,1024,1024,1024,0,0,0,0,64,5.038,78.98,100.721788,P-GPS,,30.7
547900,2026-01-08 12:37:35,0.0,5,7.402,0.0,0.0,0.0,23.2,12.8,6.4,1024,1024,1024,1024,0,0,0,0,64,5.038,78.98,100.721788,P-GPS,,30.7
548000,2026-01-08 12:37:35,0.0,5,7.402,0.0,0.0,0.0,23.3,12.7,6.4,1024,1024,1024,1024,0,0,0,0,64,5.038,78.98,100.721788,P-GPS,,30.7
548100,2026-01-08 12:37:35,0.0,5,7.402,0.0,0.0,0.0,23.2,12.7,5.9,1024,1024,1024,1024,0,0,0,0,64,5.038,78.98,100.721788,P-GPS,,30.7
548200,2026-01-08 12:37:36,0.0,5,7.402,0.0,0.0,0.0,23.2,12.7,5.1,1024,1024,1024,1024,0,0,0,0,64,5.038,78.98,100.393704,P-GPS,,30.6
548300,2026-01-08 12:37:36,0.0,5,7.402,0.0,0.0,0.0,23.0,12.8,4.6,1024,1024,1024,1024,0,0,0,0,64,5.038,78.98,100.393704,P-GPS,,30.6
548400,2026-01-08 12:37:36,0.0,5,7.402,0.0,0.0,0.0,23.0,13.7,4.6,1024,1024,1024,1024,0,0,0,0,64,5.038,78.98,100.393704,P-GPS,,30.6
548500,2026-01-08 12:37:36,0.0,5,7.402,0.0,0.0,0.0,23.1,14.3,5.0,1024,1024,1024,1024,0,0,0,0,64,5.038,78.98,100.393704,P-GPS,,30.6
548600,2026-01-08 12:37:36,0.0,5,7.402,0.0,0.0,0.0,23.2,14.5,4.8,1024,1024,1024,1024,0,0,0,0,64,5.038,78.98,100.393704,P-GPS,,30.6
548700,2026-01-08 12:37:36,0.0,5,7.402,0.0,0.0,0.0,23.2,14.5,4.9,1024,1024,1024,1024,0,0,0,0,64,5.038,78.98,100.393704,P-GPS,,30.6
548800,2026-01-08 12:37:36,0.0,5,7.402,0.0,0.0,0.0,23.3,14.8,4.8,1024,1024,1024,1024,0,0,0,0,64,5.038,78.98,100.393704,P-GPS,,30.6
548900,2026-01-08 12:37:36,0.0,5,7.4,0.0,0.0,0.0,23.2,15.0,4.4,1024,1024,1024,1024,0,0,0,0,64,5.236,78.98,100.393704,P-GPS,,30.6
549000,2026-01-08 12:37:36,0.0,5,7.4,0.0,0.0,0.0,23.3,15.1,3.8,1024,1024,1024,1024,0,0,0,0,64,5.236,78.98,100.393704,P-GPS,,30.6
549100,2026-01-08 12:37:36,0.0,5,7.4,0.0,0.0,0.0,23.2,14.6,4.1,1024,1024,1024,1024,0,0,0,0,64,5.236,78.98,100.393704,P-GPS,,30.6
549200,2026-01-08 12:37:37,0.0,5,7.4,0.0,0.0,0.0,23.2,14.3,4.1,1024,1024,1024,1024,0,0,0,0,64,5.236,78.98,100.393704,P-GPS,,30.6
549300,2026-01-08 12:37:37,0.0,5,7.4,0.0,0.0,0.0,23.2,14.5,3.9,1024,1024,1024,1024,0,0,0,0,64,5.236,78.98,100.393704,P-GPS,,30.6
549400,2026-01-08 12:37:37,0.0,5,7.4,0.0,0.0,0.0,23.1,14.1,3.5,1024,1024,1024,1024,0,0,0,0,64,5.236,78.98,100.393704,P-GPS,,30.6
549500,2026-01-08 12:37:37,0.0,5,7.4,0.0,0.0,0.0,23.1,13.5,3.5,1024,1024,1024,1024,0,0,0,0,64,5.236,78.98,100.393704,P-GPS,,30.6
549600,2026-01-08 12:37:37,0.0,5,7.4,0.0,0.0,0.0,23.1,13.5,3.4,1024,1024,1024,1024,0,0,0,0,64,5.236,78.98,100.393704,P-GPS,,30.6
549700,2026-01-08 12:37:37,0.0,5,7.4,0.0,0.0,0.0,23.1,13.3,3.6,1024,1024,1024,1024,0,0,0,0,64,5.236,78.98,100.393704,P-GPS,,30.6
549800,2026-01-08 12:37:37,0.0,5,7.4,0.0,0.0,0.0,23.0,13.7,3.6,1024,1024,1024,1024,0,0,0,0,64,5.236,78.98,100.393704,P-GPS,,30.6
549900,2026-01-08 12:37:37,0.0,5,7.4,0.0,0.0,0.0,23.0,14.1,3.6,1024,1024,1024,1024,0,0,0,0,64,5.236,78.98,100.393704,P-GPS,,30.6
550000,2026-01-08 12:37:37,0.0,5,7.394,0.0,0.0,0.0,23.0,14.4,2.7,1024,1024,1024,1024,0,0,0,0,64,5.61,78.98,100.393704,P-GPS,,30.6
550100,2026-01-08 12:37:37,0.0,5,7.394,0.0,0.0,0.0,23.0,13.7,3.0,1024,1024,1024,1024,0,0,0,0,64,5.61,78.98,100.393704,P-GPS,,30.6
550200,2026-01-08 12:37:38,0.0,5,7.394,0.0,0.0,0.0,22.9,13.1,3.6,1024,1024,1024,1024,0,0,0,0,64,5.61,78.98,100.393704,P-GPS,,30.6
550300,2026-01-08 12:37:38,0.0,5,7.394,0.0,0.0,0.0,22.9,13.1,4.5,1024,1024,1024,1024,0,0,0,0,64,5.61,78.98,100.393704,P-GPS,,30.6
550400,2026-01-08 12:37:38,0.223694,5,7.394,0.0,-0.223694,0.0,23.1,12.9,5.4,1024,1024,1024,1024,0,0,0,0,64,5.61,78.98,100.393704,P-GPS,,30.6
550500,2026-01-08 12:37:38,0.223694,5,7.394,0.0,-0.223694,0.0,23.2,13.1,6.0,1024,1024,1024,1024,0,0,0,0,64,5.61,78.98,100.393704,P-GPS,,30.6
550600,2026-01-08 12:37:38,0.223694,5,7.394,0.0,-0.223694,0.0,23.2,12.8,6.4,1024,1024,1024,1024,0,0,0,0,64,5.61,78.98,100.721788,P-GPS,,30.7
550700,2026-01-08 12:37:38,0.0,5,7.394,0.0,0.0,0.0,23.2,12.7,6.4,1024,1024,1623,1024,0,0,91,0,64,5.61,78.98,100.721788,P-GPS,,30.7
550800,2026-01-08 12:37:38,0.0,5,7.394,0.0,0.0,0.0,23.2,12.5,5.9,1024,1024,1684,1024,0,0,100,0,64,5.61,78.98,100.721788,P-GPS,,30.7
550900,2026-01-08 12:37:38,0.0,5,7.394,0.0,0.0,0.0,23.1,12.8,5.5,1024,1024,1684,1024,0,0,100,0,64,5.61,78.98,100.721788,P-GPS,,30.7
