index,time(millisecond),timestamp,speed(mph),gpslevel,voltage(v),xSpeed(mph),ySpeed(mph),zSpeed(mph),compass_heading(degrees),pitch(degrees),roll(degrees),rc_elevator,rc_aileron,rc_throttle,rc_rudder,rc_elevator(percent),rc_aileron(percent),rc_throttle(percent),rc_rudder(percent),battery_percent,current(A),battery_temperature(f),ascent(feet),flycState,message,height_above_takeoff(meters)
81,8100,2026-01-08 12:27:53,0.0,5,7.744,0.0,0.0,-4.47388,209.6,5.3,3.7,1024,1024,1024,1024,0,0,0,0,98,6.223,61.88,33.792652,P-GPS,,10.3
82,8200,2026-01-08 12:27:53,0.0,5,7.744,0.0,0.0,-4.250186,209.6,5.5,4.3,1024,1024,1024,1024,0,0,0,0,98,6.223,61.88,34.44882,P-GPS,,10.5
83,8300,2026-01-08 12:27:53,0.0,5,7.744,0.0,0.0,-4.250186,209.5,4.7,4.7,1024,1024,1024,1024,0,0,0,0,98,6.223,61.88,34.776904,P-GPS,,10.6
84,8400,2026-01-08 12:27:53,0.0,5,7.744,0.0,0.0,-3.802798,209.7,5.4,4.6,1024,1024,1024,1024,0,0,0,0,98,6.223,61.88,35.433072,P-GPS,,10.8
85,8500,2026-01-08 12:27:53,0.0,5,7.744,0.0,0.0,-3.35541,209.7,6.3,4.4,1024,1024,1024,1024,0,0,0,0,98,6.223,61.88,35.761156,P-GPS,,10.9
86,8600,2026-01-08 12:27:54,0.223694,5,7.744,-0.223694,0.0,-2.684328,209.7,6.9,5.0,1024,1024,1024,1024,0,0,0,0,98,6.223,61.88,36.08924,P-GPS,,11.0
87,8700,2026-01-08 12:27:54,0.223694,5,7.744,-0.223694,0.0,-1.789552,209.7,7.7,5.0,1024,1024,1024,1024,0,0,0,0,98,6.223,61.88,36.417324,P-GPS,,11.1
88,8800,2026-01-08 12:27:54,0.223694,5,7.744,-0.223694,0.0,-0.894776,209.8,8.0,4.7,1024,1024,1024,1024,0,0,0,0,98,6.223,61.88,36.417324,P-GPS,,11.1
89,8900,2026-01-08 12:27:54,0.0,5,7.927,0.0,0.0,-0.447388,209.8,7.5,4.2,1024,1024,1024,1024,0,0,0,0,98,4.467,62.06,36.417324,P-GPS,,11.1
90,9000,2026-01-08 12:27:54,0.0,5,7.927,0.0,0.0,-0.223694,209.8,6.8,4.5,1024,1024,1024,1024,0,0,0,0,98,4.467,62.06,36.745408,P-GPS,,11.2
91,9100,2026-01-08 12:27:54,0.0,5,7.927,0.0,0.0,0.0,209.8,7.1,4.3,1024,1024,1024,1024,0,0,0,0,98,4.467,62.06,36.745408,P-GPS,,11.2
92,9200,2026-01-08 12:27:54,0.0,5,7.927,0.0,0.0,0.0,209.6,7.4,4.8,1024,1024,1024,1024,0,0,0,0,98,4.467,62.06,36.745408,P-GPS,,11.2
93,9300,2026-01-08 12:27:54,0.0,5,7.927,0.0,0.0,0.0,209.3,6.5,4.9,1024,1024,1024,1024,0,0,0,0,98,4.467,62.06,36.745408,P-GPS,,11.2
94,9400,2026-01-08 12:27:54,0.0,5,7.927,0.0,0.0,0.0,209.1,6.8,4.6,1024,1024,1024,1024,0,0,0,0,98,4.467,62.06,36.745408,P-GPS,,11.2
95,9500,2026-01-08 12:27:55,0.0,5,7.927,0.0,0.0,0.0,209.2,6.9,4.3,1024,1024,1024,1024,0,0,0,0,98,4.467,62.06,36.417324,P-GPS,,11.1
96,9600,2026-01-08 12:27:55,0.0,5,7.927,0.0,0.0,0.0,209.2,6.7,4.5,1024,1024,1024,1024,0,0,0,0,98,4.467,62.06,36.417324,P-GPS,,11.1
97,9700,2026-01-08 12:27:55,0.0,5,7.927,0.0,0.0,0.0,209.1,6.3,4.3,1024,1024,1024,1024,0,0,0,0,98,4.467,62.06,36.417324,P-GPS,,11.1
98,9800,2026-01-08 12:27:55,0.223694,5,7.927,0.223694,0.0,0.0,209.1,5.9,3.9,1024,1024,1024,1024,0,0,0,0,98,4.467,62.06,36.417324,P-GPS,,11.1
99,9900,2026-01-08 12:27:55,0.223694,5,7.927,0.223694,0.0,0.0,209.1,5.6,3.8,1024,1024,1024,1024,0,0,0,0,98,4.467,62.06,36.417324,P-GPS,,11.1
100,10000,2026-01-08 12:27:55,0.223694,5,7.836,0.223694,0.0,0.0,209.2,4.8,3.5,1024,1024,1024,1024,0,0,0,0,98,4.72,62.06,36.417324,P-GPS,,11.1
101,10100,2026-01-08 12:27:55,0.223694,5,7.836,0.223694,0.0,0.0,209.1,4.3,3.6,1024,1024,1024,1024,0,0,0,0,98,4.72,62.06,36.417324,P-GPS,,11.1
102,10200,2026-01-08 12:27:55,0.223694,5,7.836,0.223694,0.0,0.0,209.1,4.7,3.8,1024,1024,1024,1024,0,0,0,0,98,4.72,62.06,36.08924,P-GPS,,11.0
103,10300,2026-01-08 12:27:55,0.0,5,7.836,0.0,0.0,0.0,209.1,4.6,3.8,1024,1024,1024,1024,0,0,0,0,98,4.72,62.06,36.08924,P-GPS,,11.0
104,10400,2026-01-08 12:27:55,0.0,5,7.836,0.0,0.0,0.0,209.0,4.4,3.8,1024,1024,1024,1024,0,0,0,0,98,4.72,62.06,36.08924,P-GPS,,11.0
105,10500,2026-01-08 12:27:55,0.0,5,7.836,0.0,0.0,0.0,209.2,4.8,3.9,1024,1024,1024,1024,0,0,0,0,98,4.72,62.06,36.08924,P-GPS,,11.0
106,10600,2026-01-08 12:27:56,0.0,5,7.836,0.0,0.0,0.0,209.4,5.3,4.1,1024,1024,1024,1024,0,0,0,0,98,4.72,62.06,36.08924,P-GPS,,11.0
107,10700,2026-01-08 12:27:56,0.0,5,7.836,0.0,0.0,0.0,209.5,7.6,4.4,1024,1024,1024,1024,0,0,0,0,98,4.72,62.06,36.08924,P-GPS,,11.0
108,10800,2026-01-08 12:27:56,0.0,5,7.836,0.0,0.0,0.0,209.2,6.8,4.1,1024,1024,1024,1024,0,0,0,0,98,4.72,62.06,36.08924,P-GPS,,11.0
109,10900,2026-01-08 12:27:56,0.0,5,7.836,0.0,0.0,0.0,209.2,5.5,4.5,1024,1024,1024,1024,0,0,0,0,98,4.72,62.06,36.08924,P-GPS,SD card speed low. Normal use may be affected. Replace SD card (Code: 10028). Gimbal stuck. Make sure gimbal cover is removed and manually check whether gimbal can rotate freely (Code: 40002),11.0
110,11000,2026-01-08 12:27:56,0.0,5,7.836,0.0,0.0,0.0,209.3,5.3,4.9,1024,1024,1024,1024,0,0,0,0,98,4.72,62.06,36.08924,P-GPS,,11.0
111,11100,2026-01-08 12:27:56,0.0,5,7.861,0.0,0.0,0.0,209.3,5.2,5.4,1024,1024,1024,1024,0,0,0,0,98,4.797,62.06,36.08924,P-GPS,,11.0
112,11200,2026-01-08 12:27:56,0.0,5,7.861,0.0,0.0,0.0,209.2,5.3,5.1,1024,1024,1024,1024,0,0,0,0,98,4.797,62.06,36.08924,P-GPS,,11.0
113,11300,2026-01-08 12:27:56,0.0,5,7.861,0.0,0.0,0.0,209.2,6.0,5.7,1024,1024,1024,1024,0,0,0,0,98,4.797,62.06,36.08924,P-GPS,,11.0
114,11400,2026-01-08 12:27:56,0.0,5,7.861,0.0,0.0,0.0,209.2,7.1,5.8,1024,1024,1024,1024,0,0,0,0,98,4.797,62.06,36.08924,P-GPS,,11.0
115,11500,2026-01-08 12:27:56,0.0,5,7.861,0.0,0.0,0.0,209.2,7.0,5.9,1024,1024,1024,1024,0,0,0,0,98,4.797,62.06,36.08924,P-GPS,,11.0
116,11600,2026-01-08 12:27:57,0.0,5,7.861,0.0,0.0,0.0,209.3,7.3,5.9,1024,1024,1024,1024,0,0,0,0,98,4.797,62.06,36.08924,P-GPS,,11.0
117,11700,2026-01-08 12:27:57,0.0,5,7.861,0.0,0.0,0.0,209.3,7.4,6.1,1024,1024,1024,1024,0,0,0,0,98,4.797,62.06,36.08924,P-GPS,,11.0
118,11800,2026-01-08 12:27:57,0.0,5,7.861,0.0,0.0,0.0,209.1,6.7,6.2,1024,1024,1024,1024,0,0,0,0,98,4.797,62.06,36.08924,P-GPS,,11.0
119,11900,2026-01-08 12:27:57,0.0,5,7.861,0.0,0.0,0.0,209.1,6.2,6.1,1024,1024,1024,1024,0,0,0,0,98,4.797,62.06,36.08924,P-GPS,,11.0
120,12000,2026-01-08 12:27:57,0.0,5,7.861,0.0,0.0,0.0,209.1,6.5,6.4,1024,1024,1024,1024,0,0,0,0,98,4.797,62.06,36.08924,P-GPS,,11.0
121,12100,2026-01-08 12:27:57,0.0,5,7.861,0.0,0.0,0.0,208.9,5.6,6.4,1024,1024,1024,1024,0,0,0,0,98,4.797,62.06,36.08924,P-GPS,,11.0
122,12200,2026-01-08 12:27:57,0.0,5,7.833,0.0,0.0,-0.223694,209.0,5.9,6.5,1024,1024,1024,1024,0,0,0,0,98,4.771,62.06,36.08924,P-GPS,,11.0
123,12300,2026-01-08 12:27:57,0.0,5,7.833,0.0,0.0,0.0,209.0,6.6,5.8,1024,1024,1024,1024,0,0,0,0,98,4.771,62.06,36.08924,P-GPS,,11.0
124,12400,2026-01-08 12:27:57,0.0,5,7.833,0.0,0.0,0.0,209.1,6.6,6.2,1024,1024,1024,1024,0,0,0,0,98,4.771,62.06,36.08924,P-GPS,,11.0
125,12500,2026-01-08 12:27:57,0.0,5,7.833,0.0,0.0,0.0,209.0,6.2,6.3,1024,1024,1024,1024,0,0,0,0,98,4.771,62.06,36.08924,P-GPS,,11.0
126,12600,2026-01-08 12:27:58,0.0,5,7.833,0.0,0.0,0.0,208.9,6.1,6.5,1024,1024,1024,1024,0,0,0,0,98,4.771,62.06,36.08924,P-GPS,,11.0
127,12700,2026-01-08 12:27:58,0.0,5,7.833,0.0,0.0,0.0,209.0,7.2,6.2,1024,1024,1024,1024,0,0,0,0,98,4.771,62.06,36.08924,P-GPS,,11.0
128,12800,2026-01-08 12:27:58,0.0,5,7.833,0.0,0.0,0.0,209.2,7.5,6.5,1024,1024,1024,1024,0,0,0,0,98,4.771,62.06,35.761156,P-GPS,,10.9
129,12900,2026-01-08 12:27:58,0.0,5,7.833,0.0,0.0,0.0,209.2,8.2,6.6,1024,1024,1024,1024,0,0,0,0,98,4.771,62.06,35.761156,P-GPS,,10.9
130,13000,2026-01-08 12:27:58,0.0,5,7.833,0.0,0.0,0.0,208.9,7.3,5.2,1024,1024,1024,1024,0,0,0,0,98,4.771,62.06,35.761156,P-GPS,,10.9
131,13100,2026-01-08 12:27:58,0.0,5,7.833,0.0,0.0,0.0,208.7,5.9,5.3,1024,1024,1024,1024,0,0,0,0,98,4.771,62.06,35.433072,P-GPS,,10.8
132,13200,2026-01-08 12:27:58,0.0,5,7.833,0.0,0.0,0.0,208.6,6.3,6.3,1024,1024,1024,1024,0,0,0,0,98,4.771,62.06,35.433072,P-GPS,,10.8
133,13300,2026-01-08 12:27:58,0.0,5,7.779,0.0,0.0,0.0,208.6,6.4,5.3,1024,1024,1024,1024,0,0,0,0,98,4.742,62.06,35.433072,P-GPS,,10.8
134,13400,2026-01-08 12:27:58,0.0,5,7.779,0.0,0.0,0.0,208.6,4.9,4.6,1024,1024,1024,1024,0,0,0,0,98,4.742,62.06,35.104988,P-GPS,,10.7
135,13500,2026-01-08 12:27:58,0.0,5,7.779,0.0,0.0,-0.223694,208.8,5.9,4.3,1024,1024,1024,1024,0,0,0,0,98,4.742,62.06,35.104988,P-GPS,,10.7
136,13600,2026-01-08 12:27:59,0.0,5,7.779,0.0,0.0,-0.223694,208.9,5.6,4.8,1024,1024,1024,1024,0,0,0,0,98,4.742,62.06,35.104988,P-GPS,,10.7
137,13700,2026-01-08 12:27:59,0.0,5,7.779,0.0,0.0,-0.223694,209.0,6.9,4.6,1024,1024,1024,1024,0,0,0,0,98,4.742,62.06,35.104988,P-GPS,,10.7
138,13800,2026-01-08 12:27:59,0.0,5,7.779,0.0,0.0,0.0,209.0,6.9,4.7,1024,1024,1024,1024,0,0,0,0,98,4.742,62.06,34.776904,P-GPS,,10.6
139,13900,2026-01-08 12:27:59,0.0,5,7.779,0.0,0.0,0.0,209.0,6.4,4.7,1024,1024,1024,1024,0,0,0,0,98,4.742,62.06,34.776904,P-GPS,,10.6
140,14000,2026-01-08 12:27:59,0.0,5,7.779,0.0,0.0,0.0,209.0,6.7,4.3,1024,1024,1024,1024,0,0,0,0,98,4.742,62.06,34.776904,P-GPS,,10.6
141,14100,2026-01-08 12:27:59,0.0,5,7.779,0.0,0.0,0.0,209.0,5.9,4.4,1024,1024,1024,1024,0,0,0,0,98,4.742,62.06,34.776904,P-GPS,,10.6
142,14200,2026-01-08 12:27:59,0.0,5,7.779,0.0,0.0,0.0,209.0,5.9,5.0,1024,1024,1024,1024,0,0,0,0,98,4.742,62.06,34.776904,P-GPS,,10.6
143,14300,2026-01-08 12:27:59,0.0,5,7.779,0.0,0.0,0.0,209.0,7.4,5.0,1024,1024,1024,1024,0,0,0,0,98,4.742,62.06,34.776904,P-GPS,,10.6
144,14400,2026-01-08 12:27:59,0.0,5,7.859,0.0,0.0,0.0,208.8,7.4,4.2,1024,1024,1024,1024,0,0,0,0,98,4.496,62.24,34.776904,P-GPS,,10.6
145,14500,2026-01-08 12:28:00,0.0,5,7.859,0.0,0.0,0.0,208.6,6.6,3.9,1024,1024,1024,1024,0,0,0,0,98,4.496,62.24,34.44882,P-GPS,,10.5
146,14600,2026-01-08 12:28:00,0.0,5,7.859,0.0,0.0,0.0,208.5,5.5,3.7,1024,1024,1024,1024,0,0,0,0,98,4.496,62.24,34.44882,P-GPS,,10.5
147,14700,2026-01-08 12:28:00,0.0,5,7.859,0.0,0.0,0.0,208.6,4.9,3.7,1024,1024,1024,1024,0,0,0,0,98,4.496,62.24,34.44882,P-GPS,,10.5
148,14800,2026-01-08 12:28:00,0.0,5,7.859,0.0,0.0,0.0,208.9,6.2,4.3,1024,1024,1024,1024,0,0,0,0,98,4.496,62.24,34.44882,P-GPS,,10.5
149,14900,2026-01-08 12:28:00,0.0,5,7.859,0.0,0.0,0.0,208.9,7.5,4.2,1024,1024,1024,1024,0,0,0,0,98,4.496,62.24,34.44882,P-GPS,,10.5
150,15000,2026-01-08 12:28:00,0.0,5,7.859,0.0,0.0,0.0,208.7,6.9,3.8,1024,1024,1024,1024,0,0,0,0,98,4.496,62.24,34.44882,P-GPS,,10.5
151,15100,2026-01-08 12:28:00,0.0,5,7.859,0.0,0.0,0.0,208.7,6.3,4.3,1024,1024,1024,1024,0,0,0,0,98,4.496,62.24,34.44882,P-GPS,,10.5
152,15200,2026-01-08 12:28:00,0.0,5,7.859,0.0,0.0,0.0,208.8,6.9,4.4,1024,1024,1024,1024,0,0,0,0,98,4.496,62.24,34.120736,P-GPS,,10.4
153,15300,2026-01-08 12:28:00,0.0,5,7.859,0.0,0.0,0.0,208.9,7.0,4.6,1024,1024,1024,1024,0,0,0,0,98,4.496,62.24,34.120736,P-GPS,,10.4
154,15400,2026-01-08 12:28:00,0.0,5,7.859,0.0,0.0,0.0,208.9,6.6,4.6,1024,1024,1024,1024,0,0,0,0,98,4.496,62.24,34.120736,P-GPS,,10.4
155,15500,2026-01-08 12:28:00,0.0,5,7.859,0.0,0.0,0.0,208.9,6.3,4.7,1024,1024,1024,1024,0,0,0,0,98,4.496,62.24,34.120736,P-GPS,,10.4
156,15600,2026-01-08 12:28:01,0.0,5,7.859,0.0,0.0,0.0,208.8,6.1,4.8,1024,1024,1024,1024,0,0,0,0,98,4.496,62.24,34.120736,P-GPS,,10.4
157,15700,2026-01-08 12:28:01,0.0,5,7.859,0.0,0.0,0.0,208.6,4.9,4.6,1024,1024,1024,1024,0,0,0,0,98,4.496,62.24,34.120736,P-GPS,,10.4
158,15800,2026-01-08 12:28:01,0.0,5,7.859,0.0,0.0,0.0,208.7,4.1,4.5,1024,1024,1024,1024,0,0,0,0,98,4.496,62.24,34.120736,P-GPS,,10.4
159,15900,2026-01-08 12:28:01,0.0,5,7.859,0.0,0.0,0.0,208.9,4.6,4.3,1024,1024,1024,1024,0,0,0,0,98,4.496,62.24,34.120736,P-GPS,,10.4
160,16000,2026-01-08 12:28:01,0.0,5,7.859,0.0,0.0,0.0,209.0,4.9,4.9,1024,1024,1024,1024,0,0,0,0,98,4.496,62.24,34.120736,P-GPS,,10.4
161,16100,2026-01-08 12:28:01,0.0,5,7.859,0.0,0.0,0.0,209.0,4.3,5.0,1024,1024,1024,1024,0,0,0,0,98,4.496,62.24,34.120736,P-GPS,,10.4
162,16200,2026-01-08 12:28:01,0.0,5,7.859,0.0,0.0,0.0,208.7,5.0,4.4,1024,1024,1024,1024,0,0,0,0,98,4.496,62.24,33.792652,P-GPS,,10.3
163,16300,2026-01-08 12:28:01,0.0,5,7.859,0.0,0.0,0.0,208.8,6.2,3.8,1024,1024,1024,1024,0,0,0,0,98,4.496,62.24,33.792652,P-GPS,,10.3
164,16400,2026-01-08 12:28:01,0.0,5,7.859,0.0,0.0,0.0,208.9,6.1,4.3,1024,1024,1024,1024,0,0,0,0,98,4.496,62.24,33.464568,P-GPS,,10.2
165,16500,2026-01-08 12:28:01,0.0,5,7.859,0.0,0.0,0.0,208.9,6.1,4.1,1024,1024,1024,1024,0,0,0,0,98,4.496,62.24,33.464568,P-GPS,,10.2
166,16600,2026-01-08 12:28:02,0.0,5,7.839,0.0,0.0,0.0,209.0,5.8,4.4,1024,1024,1024,1024,0,0,0,0,98,4.614,62.42,33.136484,P-GPS,,10.1
167,16700,2026-01-08 12:28:02,0.0,5,7.839,0.0,0.0,0.0,208.9,5.9,4.5,1024,1024,1024,1024,0,0,0,0,98,4.614,62.42,33.136484,P-GPS,,10.1
168,16800,2026-01-08 12:28:02,0.0,5,7.839,0.0,0.0,0.0,208.8,6.0,4.4,1024,1024,1024,1024,0,0,0,0,98,4.614,62.42,33.136484,P-GPS,,10.1
169,16900,2026-01-08 12:28:02,0.0,5,7.839,0.0,0.0,0.0,208.6,5.7,4.4,1024,1024,1024,1024,0,0,0,0,98,4.614,62.42,33.136484,P-GPS,,10.1
170,17000,2026-01-08 12:28:02,0.0,5,7.839,0.0,0.0,0.0,208.6,6.0,4.7,1024,1024,1024,1024,0,0,0,0,98,4.614,62.42,33.136484,P-GPS,,10.1
171,17100,2026-01-08 12:28:02,0.0,5,7.839,0.0,0.0,0.0,208.6,5.7,4.5,1024,1024,1024,1024,0,0,0,0,98,4.614,62.42,33.136484,P-GPS,,10.1
172,17200,2026-01-08 12:28:02,0.0,5,7.839,0.0,0.0,0.0,208.7,6.1,4.7,1024,1024,1024,1024,0,0,0,0,98,4.614,62.42,33.136484,P-GPS,,10.1
173,17300,2026-01-08 12:28:02,0.0,5,7.839,0.0,0.0,0.0,208.7,6.8,4.7,1024,1024,1024,1024,0,0,0,0,98,4.614,62.42,32.8084,P-GPS,,10.0
174,17400,2026-01-08 12:28:02,0.0,5,7.839,0.0,0.0,0.0,208.6,6.8,4.6,1024,1024,1024,1024,0,0,0,0,98,4.614,62.42,32.8084,P-GPS,,10.0
175,17500,2026-01-08 12:28:03,0.0,5,7.839,0.0,0.0,0.0,208.7,7.5,4.6,1024,1024,1024,1024,0,0,0,0,98,4.614,62.42,32.8084,P-GPS,,10.0
176,17600,2026-01-08 12:28:03,0.0,5,7.839,0.0,0.0,0.0,208.7,7.6,4.3,1024,1024,1024,1024,0,0,0,0,98,4.614,62.42,32.8084,P-GPS,,10.0
177,17700,2026-01-08 12:28:03,0.0,5,7.839,0.0,0.0,0.0,208.7,7.2,3.8,1024,1024,1024,1024,0,0,0,0,98,4.614,62.42,32.8084,P-GPS,,10.0
178,17800,2026-01-08 12:28:03,0.0,5,7.856,0.0,0.0,0.0,208.6,7.0,3.5,1024,1024,1024,1024,0,0,0,0,98,4.27,62.42,32.8084,P-GPS,,10.0
179,17900,2026-01-08 12:28:03,0.0,5,7.856,0.0,0.0,0.0,208.6,7.2,3.1,1024,1024,1024,1024,0,0,0,0,98,4.27,62.42,32.8084,P-GPS,,10.0
180,18000,2026-01-08 12:28:03,0.0,5,7.856,0.0,0.0,0.0,208.6,6.8,3.0,1024,1024,1024,1024,0,0,0,0,98,4.27,62.42,32.8084,P-GPS,,10.0
181,18100,2026-01-08 12:28:03,0.0,5,7.856,0.0,0.0,0.0,208.7,7.9,2.4,1024,1024,1024,1024,0,0,0,0,98,4.27,62.42,32.8084,P-GPS,,10.0
182,18200,2026-01-08 12:28:03,0.0,5,7.856,0.0,0.0,0.0,208.7,8.3,2.2,1024,1024,1024,1024,0,0,0,0,98,4.27,62.42,32.8084,P-GPS,,10.0
183,18300,2026-01-08 12:28:03,0.0,5,7.856,0.0,0.0,0.0,208.7,8.1,2.2,1024,1024,1024,1024,0,0,0,0,98,4.27,62.42,32.8084,P-GPS,,10.0
184,18400,2026-01-08 12:28:03,0.0,5,7.856,0.0,0.0,0.0,208.7,7.7,2.7,1024,1024,1024,1024,0,0,0,0,98,4.27,62.42,32.8084,P-GPS,,10.0
185,18500,2026-01-08 12:28:03,0.0,5,7.856,0.0,0.0,0.0,208.7,7.8,3.1,1024,1024,1024,1024,0,0,0,0,98,4.27,62.42,33.136484,P-GPS,,10.1
186,18600,2026-01-08 12:28:04,0.0,5,7.856,0.0,0.0,0.0,208.7,8.3,3.7,1024,1024,1024,1024,0,0,0,0,98,4.27,62.42,33.136484,P-GPS,,10.1
187,18700,2026-01-08 12:28:04,0.0,5,7.856,0.0,0.0,0.0,208.7,8.3,3.7,1024,1024,1024,1024,0,0,0,0,98,4.27,62.42,33.136484,P-GPS,,10.1
188,18800,2026-01-08 12:28:04,0.0,5,7.856,0.0,0.0,0.0,208.8,7.8,4.2,1024,1024,1024,1024,0,0,0,0,98,4.27,62.42,33.136484,P-GPS,,10.1
189,18900,2026-01-08 12:28:04,0.0,5,7.842,0.0,0.0,0.0,208.7,7.6,4.0,1024,1024,1024,1024,0,0,0,0,98,4.6,62.42,33.136484,P-GPS,,10.1
190,19000,2026-01-08 12:28:04,0.0,5,7.842,0.0,0.0,0.0,208.7,7.6,4.0,1024,1024,1024,1024,0,0,0,0,98,4.6,62.42,33.136484,P-GPS,,10.1
191,19100,2026-01-08 12:28:04,0.0,5,7.842,0.0,0.0,0.0,208.8,7.8,3.8,1024,1024,1024,1024,0,0,0,0,98,4.6,62.42,33.136484,P-GPS,,10.1
192,19200,2026-01-08 12:28:04,0.0,5,7.842,0.0,0.0,0.0,208.9,8.1,3.8,1024,1024,1024,1024,0,0,0,0,98,4.6,62.42,33.136484,P-GPS,,10.1
193,19300,2026-01-08 12:28:04,0.0,5,7.842,0.0,0.0,0.0,208.9,8.1,4.1,1024,1024,1024,1024,0,0,0,0,98,4.6,62.42,33.464568,P-GPS,,10.2
194,19400,2026-01-08 12:28:04,0.0,5,7.842,0.0,0.0,0.0,208.8,7.9,3.8,1024,1024,1024,1024,0,0,0,0,98,4.6,62.42,33.464568,P-GPS,,10.2
195,19500,2026-01-08 12:28:05,0.0,5,7.842,0.0,0.0,0.0,208.9,7.9,4.0,1024,1024,1024,1024,0,0,0,0,98,4.6,62.42,33.464568,P-GPS,,10.2
196,19600,2026-01-08 12:28:05,0.0,5,7.842,0.0,0.0,0.0,208.9,7.8,4.1,1024,1024,1024,1024,0,0,0,0,98,4.6,62.42,33.464568,P-GPS,,10.2
197,19700,2026-01-08 12:28:05,0.0,5,7.842,0.0,0.0,0.0,208.9,7.8,4.2,1024,1024,1024,1024,0,0,0,0,98,4.6,62.42,33.464568,P-GPS,,10.2
198,19800,2026-01-08 12:28:05,0.0,5,7.842,0.0,0.0,0.0,208.8,8.0,4.5,1024,1024,1024,1024,0,0,0,0,98,4.6,62.42,33.464568,P-GPS,,10.2
199,19900,2026-01-08 12:28:05,0.0,5,7.842,0.0,0.0,0.0,208.7,7.4,4.0,1024,1024,1024,1024,0,0,0,0,98,4.6,62.42,33.464568,P-GPS,,10.2
200,20000,2026-01-08 12:28:05,0.0,5,7.843,0.0,0.0,0.0,208.7,7.5,4.0,1024,1024,1024,1024,0,0,0,0,98,4.445,62.6,33.464568,P-GPS,,10.2
201,20100,2026-01-08 12:28:05,0.0,5,7.843,0.0,0.0,0.0,208.8,7.6,4.0,1024,1024,1024,1024,0,0,0,0,98,4.445,62.6,33.464568,P-GPS,,10.2
202,20200,2026-01-08 12:28:05,0.0,5,7.843,0.0,0.0,0.0,208.8,7.4,3.9,1024,1024,1024,1024,0,0,0,0,98,4.445,62.6,33.464568,P-GPS,,10.2
203,20300,2026-01-08 12:28:05,0.0,5,7.843,0.0,0.0,0.0,208.7,7.2,3.8,1024,1024,1024,1024,0,0,0,0,98,4.445,62.6,33.464568,P-GPS,,10.2
204,20400,2026-01-08 12:28:05,0.0,5,7.843,0.0,0.0,0.0,208.7,7.3,3.5,1024,1024,1024,1024,0,0,0,0,98,4.445,62.6,33.464568,P-GPS,,10.2
205,20500,2026-01-08 12:28:05,0.0,5,7.843,0.0,0.0,0.0,208.7,7.4,3.4,1024,1024,1024,1024,0,0,0,0,98,4.445,62.6,33.464568,P-GPS,,10.2
206,20600,2026-01-08 12:28:06,0.0,5,7.843,0.0,0.0,0.0,208.8,7.4,3.1,1024,1024,1024,1024,0,0,0,0,98,4.445,62.6,33.464568,P-GPS,,10.2
207,20700,2026-01-08 12:28:06,0.0,5,7.843,0.0,0.0,0.0,208.8,6.8,3.7,1024,1024,1024,1024,0,0,0,0,98,4.445,62.6,33.464568,P-GPS,,10.2
208,20800,2026-01-08 12:28:06,0.0,5,7.843,0.0,0.0,0.0,208.7,7.5,3.2,1024,1024,1024,1024,0,0,0,0,98,4.445,62.6,33.464568,P-GPS,,10.2
209,20900,2026-01-08 12:28:06,0.0,5,7.843,0.0,0.0,0.0,208.8,7.5,2.9,1024,1024,1024,1024,0,0,0,0,98,4.445,62.6,33.464568,P-GPS,,10.2
210,21000,2026-01-08 12:28:06,0.0,5,7.843,0.0,0.0,0.0,208.8,7.4,3.0,1024,1024,1024,1024,0,0,0,0,98,4.445,62.6,33.464568,P-GPS,,10.2
211,21100,2026-01-08 12:28:06,0.0,5,7.824,0.0,0.0,0.0,208.8,7.6,2.9,1024,1024,1024,1024,0,0,0,0,97,4.639,62.6,33.464568,P-GPS,,10.2
212,21200,2026-01-08 12:28:06,0.0,5,7.824,0.0,0.0,0.0,208.7,7.6,3.1,1024,1024,1024,1024,0,0,0,0,97,4.639,62.6,33.464568,P-GPS,,10.2
213,21300,2026-01-08 12:28:06,0.0,5,7.824,0.0,0.0,0.0,208.7,7.1,3.5,1024,1024,1024,1024,0,0,0,0,97,4.639,62.6,33.464568,P-GPS,,10.2
214,21400,2026-01-08 12:28:06,0.0,5,7.824,0.0,0.0,0.0,208.7,7.5,3.0,1024,1024,1024,1024,0,0,0,0,97,4.639,62.6,33.136484,P-GPS,,10.1
215,21500,2026-01-08 12:28:07,0.0,5,7.824,0.0,0.0,0.0,208.8,7.8,2.5,1024,1024,1024,1024,0,0,0,0,97,4.639,62.6,33.136484,P-GPS,,10.1
216,21600,2026-01-08 12:28:07,0.0,5,7.824,0.0,0.0,0.0,208.8,7.6,2.2,1024,1024,1024,1024,0,0,0,0,97,4.639,62.6,33.136484,P-GPS,,10.1
217,21700,2026-01-08 12:28:07,0.0,5,7.824,0.0,0.0,0.0,208.7,7.6,2.3,1024,1024,1024,1024,0,0,0,0,97,4.639,62.6,33.136484,P-GPS,,10.1
218,21800,2026-01-08 12:28:07,0.0,5,7.824,0.0,0.0,0.0,208.8,8.1,2.8,1024,1024,1024,1024,0,0,0,0,97,4.639,62.6,33.136484,P-GPS,,10.1
219,21900,2026-01-08 12:28:07,0.0,5,7.824,0.0,0.0,0.0,208.9,7.7,2.9,1024,1024,1024,1024,0,0,0,0,97,4.639,62.6,33.464568,P-GPS,,10.2
220,22000,2026-01-08 12:28:07,0.0,5,7.824,0.0,0.0,0.0,208.9,7.3,3.8,1024,1024,1024,1024,0,0,0,0,97,4.639,62.6,33.464568,P-GPS,,10.2
221,22100,2026-01-08 12:28:07,0.0,5,7.824,0.0,0.0,0.0,208.8,7.1,3.9,1024,1024,1024,1024,0,0,0,0,97,4.639,62.6,33.464568,P-GPS,,10.2
222,22200,2026-01-08 12:28:07,0.0,5,7.813,0.0,0.0,0.0,208.7,6.9,3.8,1024,1024,1024,1024,0,0,0,0,97,4.707,62.6,33.464568,P-GPS,,10.2
223,22300,2026-01-08 12:28:07,0.0,5,7.813,0.0,0.0,0.0,208.7,6.3,4.1,1024,1024,1024,1024,0,0,0,0,97,4.707,62.6,33.464568,P-GPS,,10.2
224,22400,2026-01-08 12:28:07,0.0,5,7.813,0.0,0.0,0.0,208.8,6.3,4.1,1024,1024,1024,1024,0,0,0,0,97,4.707,62.6,33.464568,P-GPS,,10.2
225,22500,2026-01-08 12:28:07,0.0,5,7.813,0.0,0.0,0.0,208.8,7.1,4.3,1024,1024,1024,1024,0,0,0,0,97,4.707,62.6,33.792652,P-GPS,,10.3
226,22600,2026-01-08 12:28:08,0.0,5,7.813,0.0,0.0,0.0,208.8,7.0,4.2,1024,1024,1024,1024,0,0,0,0,97,4.707,62.6,33.792652,P-GPS,,10.3
227,22700,2026-01-08 12:28:08,0.0,5,7.813,0.0,0.0,0.0,208.8,7.0,4.5,1024,1024,1024,1024,0,0,0,0,97,4.707,62.6,33.792652,P-GPS,,10.3
228,22800,2026-01-08 12:28:08,0.0,5,7.813,0.0,0.0,0.0,208.7,5.9,4.5,1024,1024,1024,1024,0,0,0,0,97,4.707,62.6,33.792652,P-GPS,,10.3
229,22900,2026-01-08 12:28:08,0.0,5,7.813,0.0,0.0,0.0,208.7,5.6,4.5,1024,1024,1024,1024,0,0,0,0,97,4.707,62.6,33.792652,P-GPS,,10.3
230,23000,2026-01-08 12:28:08,0.0,5,7.813,0.0,0.0,0.0,208.8,6.3,4.1,1024,1024,1024,1024,0,0,0,0,97,4.707,62.6,33.792652,P-GPS,,10.3
231,23100,2026-01-08 12:28:08,0.0,5,7.813,0.0,0.0,0.0,208.9,5.9,4.3,1024,1024,1024,1024,0,0,0,0,97,4.707,62.6,34.120736,P-GPS,,10.4
232,23200,2026-01-08 12:28:08,0.0,5,7.813,0.0,0.0,0.0,208.9,6.1,4.4,1024,1024,1024,1024,0,0,0,0,97,4.707,62.6,34.120736,P-GPS,,10.4
233,23300,2026-01-08 12:28:08,0.0,5,7.828,0.0,0.0,0.0,208.9,6.3,4.6,1024,1024,1024,1024,0,0,0,0,97,4.623,62.6,34.120736,P-GPS,,10.4
234,23400,2026-01-08 12:28:08,0.0,5,7.828,0.0,0.0,0.0,208.7,5.8,4.5,1024,1024,1024,1024,0,0,0,0,97,4.623,62.6,34.120736,P-GPS,,10.4
235,23500,2026-01-08 12:28:08,0.0,5,7.828,0.0,0.0,0.0,208.8,6.0,4.6,1024,1024,1024,1024,0,0,0,0,97,4.623,62.6,34.120736,P-GPS,,10.4
236,23600,2026-01-08 12:28:09,0.0,5,7.828,0.0,0.0,0.0,208.9,6.8,4.7,1024,1024,1024,1024,0,0,0,0,97,4.623,62.6,34.120736,P-GPS,,10.4
237,23700,2026-01-08 12:28:09,0.0,5,7.828,0.0,0.0,0.0,209.0,7.4,4.5,1024,1024,1024,1024,0,0,0,0,97,4.623,62.6,34.120736,P-GPS,,10.4
238,23800,2026-01-08 12:28:09,0.0,5,7.828,0.0,0.0,0.0,208.9,7.3,4.6,1024,1024,1024,1024,0,0,0,0,97,4.623,62.6,34.44882,P-GPS,,10.5
239,23900,2026-01-08 12:28:09,0.0,5,7.828,0.0,0.0,0.0,208.9,6.4,4.8,1024,1024,1024,1024,0,0,0,0,97,4.623,62.6,34.44882,P-GPS,,10.5
240,24000,2026-01-08 12:28:09,0.0,5,7.828,0.0,0.0,0.0,209.0,6.4,4.5,1024,1024,1024,1024,0,0,0,0,97,4.623,62.6,34.44882,P-GPS,,10.5
241,24100,2026-01-08 12:28:09,0.0,5,7.828,0.0,0.0,0.0,209.1,6.6,4.7,1024,1024,1024,1024,0,0,0,0,97,4.623,62.6,34.44882,P-GPS,,10.5
242,24200,2026-01-08 12:28:09,0.0,5,7.828,0.0,0.0,0.0,209.0,6.4,4.5,1024,1024,1024,1024,0,0,0,0,97,4.623,62.6,34.44882,P-GPS,,10.5
243,24300,2026-01-08 12:28:09,0.0,5,7.828,0.0,0.0,0.0,209.0,6.1,4.7,1024,1024,1024,1024,0,0,0,0,97,4.623,62.6,34.776904,P-GPS,,10.6
244,24400,2026-01-08 12:28:09,0.0,5,7.832,0.0,0.0,0.0,209.2,7.0,5.0,1024,1024,1024,1024,0,0,0,0,97,4.416,62.78,34.776904,P-GPS,,10.6
245,24500,2026-01-08 12:28:09,0.0,5,7.832,0.0,0.0,0.0,209.2,7.2,4.9,1024,1024,1024,1024,0,0,0,0,97,4.416,62.78,34.776904,P-GPS,,10.6
246,24600,2026-01-08 12:28:10,0.0,5,7.832,0.0,0.0,0.0,209.1,5.9,5.3,1024,1024,1024,1024,0,0,0,0,97,4.416,62.78,34.776904,P-GPS,,10.6
247,24700,2026-01-08 12:28:10,0.0,5,7.832,0.0,0.0,0.0,209.1,6.2,5.2,1024,1024,1024,1024,0,0,0,0,97,4.416,62.78,34.776904,P-GPS,,10.6
248,24800,2026-01-08 12:28:10,0.0,5,7.832,0.0,0.0,0.0,209.0,6.0,5.1,1024,1024,1024,1024,0,0,0,0,97,4.416,62.78,34.776904,P-GPS,,10.6
249,24900,2026-01-08 12:28:10,0.0,5,7.832,0.0,0.0,0.0,209.0,5.8,5.4,1024,1024,1024,1024,0,0,0,0,97,4.416,62.78,34.776904,P-GPS,,10.6
250,25000,2026-01-08 12:28:10,0.0,5,7.832,0.0,0.0,0.0,209.0,5.9,5.1,1024,1024,1024,1024,0,0,0,0,97,4.416,62.78,34.776904,P-GPS,,10.6
251,25100,2026-01-08 12:28:10,0.0,5,7.832,0.0,0.0,0.0,209.0,5.2,5.1,1024,1024,1024,1024,0,0,0,0,97,4.416,62.78,34.776904,P-GPS,,10.6
252,25200,2026-01-08 12:28:10,0.0,5,7.832,0.0,0.0,0.0,209.0,5.5,5.0,1024,1024,1024,1024,0,0,0,0,97,4.416,62.78,34.776904,P-GPS,,10.6
253,25300,2026-01-08 12:28:10,0.0,5,7.832,0.0,0.0,0.0,209.0,5.7,4.7,1024,1024,1024,1024,0,0,0,0,97,4.416,62.78,34.776904,P-GPS,,10.6
254,25400,2026-01-08 12:28:10,0.0,5,7.832,0.0,0.0,0.0,208.8,4.9,4.9,1024,1024,1024,1024,0,0,0,0,97,4.416,62.78,34.776904,P-GPS,,10.6
255,25500,2026-01-08 12:28:10,0.0,5,7.832,0.0,0.0,0.0,208.9,5.9,4.7,1024,1024,1024,1024,0,0,0,0,97,4.416,62.78,34.776904,P-GPS,,10.6
256,25600,2026-01-08 12:28:11,0.0,5,7.832,0.0,0.0,0.0,208.9,6.1,4.9,1024,1024,1024,1024,0,0,0,0,97,4.416,62.78,34.776904,P-GPS,,10.6
257,25700,2026-01-08 12:28:11,0.0,5,7.832,0.0,0.0,0.0,209.1,5.8,4.8,1024,1024,1024,1024,0,0,0,0,97,4.416,62.78,34.776904,P-GPS,,10.6
258,25800,2026-01-08 12:28:11,0.0,5,7.832,0.0,0.0,0.0,209.1,5.8,4.8,1024,1024,1024,1024,0,0,0,0,97,4.416,62.78,34.776904,P-GPS,,10.6
259,25900,2026-01-08 12:28:11,0.0,5,7.832,0.0,0.0,0.0,209.0,5.9,5.1,1024,1024,1024,1024,0,0,0,0,97,4.416,62.78,34.776904,P-GPS,,10.6
260,26000,2026-01-08 12:28:11,0.0,5,7.832,0.0,0.0,0.0,208.9,5.9,4.8,1024,1024,1024,1024,0,0,0,0,97,4.416,62.78,34.776904,P-GPS,,10.6
261,26100,2026-01-08 12:28:11,0.0,5,7.832,0.0,0.0,0.0,208.6,5.8,4.6,1024,1024,1024,1024,0,0,0,0,97,4.416,62.78,34.776904,P-GPS,,10.6
262,26200,2026-01-08 12:28:11,0.0,5,7.832,0.0,0.0,0.0,208.5,4.5,4.4,1024,1024,1024,1024,0,0,0,0,97,4.416,62.78,34.44882,P-GPS,,10.5
263,26300,2026-01-08 12:28:11,0.0,5,7.832,0.0,0.0,0.0,208.6,5.0,3.5,1024,1024,1024,1024,0,0,0,0,97,4.416,62.78,34.44882,P-GPS,,10.5
264,26400,2026-01-08 12:28:11,0.0,5,7.832,0.0,0.0,0.0,208.7,5.5,3.6,1024,1024,1024,1024,0,0,0,0,97,4.416,62.78,34.44882,P-GPS,,10.5
265,26500,2026-01-08 12:28:11,0.0,5,7.832,0.0,0.0,0.0,208.7,5.3,3.7,1024,1024,1024,1024,0,0,0,0,97,4.416,62.78,34.44882,P-GPS,,10.5
266,26600,2026-01-08 12:28:12,0.0,5,7.831,0.0,0.0,0.0,208.9,5.8,3.7,1024,1024,1024,1024,0,0,0,0,97,4.61,62.78,34.44882,P-GPS,,10.5
267,26700,2026-01-08 12:28:12,0.0,5,7.831,0.0,0.0,0.0,209.0,6.3,4.1,1024,1024,1024,1024,0,0,0,0,97,4.61,62.78,34.44882,P-GPS,,10.5
268,26800,2026-01-08 12:28:12,0.0,5,7.831,0.0,0.0,0.0,209.0,6.7,4.0,1024,1024,1024,1024,0,0,0,0,97,4.61,62.78,34.44882,P-GPS,,10.5
269,26900,2026-01-08 12:28:12,0.0,5,7.831,0.0,0.0,0.0,208.8,6.3,3.9,1024,1024,1024,1024,0,0,0,0,97,4.61,62.78,34.44882,P-GPS,,10.5
270,27000,2026-01-08 12:28:12,0.0,5,7.831,0.0,0.0,0.0,208.8,6.3,3.5,1024,1024,1024,1024,0,0,0,0,97,4.61,62.78,34.44882,P-GPS,,10.5
271,27100,2026-01-08 12:28:12,0.0,5,7.831,0.0,0.0,0.0,208.9,5.7,3.7,1024,1024,1024,1024,0,0,0,0,97,4.61,62.78,34.44882,P-GPS,,10.5
272,27200,2026-01-08 12:28:12,0.0,5,7.831,0.0,0.0,0.0,209.0,5.8,3.5,1024,1024,1024,1024,0,0,0,0,97,4.61,62.78,34.44882,P-GPS,,10.5
273,27300,2026-01-08 12:28:12,0.0,5,7.831,0.0,0.0,0.0,208.9,5.2,3.3,1024,1024,1024,1024,0,0,0,0,97,4.61,62.78,34.44882,P-GPS,,10.5
274,27400,2026-01-08 12:28:12,0.0,5,7.831,0.0,0.0,0.0,208.8,4.7,3.2,1024,1024,1024,1024,0,0,0,0,97,4.61,62.78,34.44882,P-GPS,,10.5
275,27500,2026-01-08 12:28:12,0.0,5,7.831,0.0,0.0,0.0,209.0,5.1,3.8,1024,1024,1024,1024,0,0,0,0,97,4.61,62.78,34.44882,P-GPS,,10.5
276,27600,2026-01-08 12:28:13,0.0,5,7.831,0.0,0.0,0.0,209.0,5.9,3.8,1024,1024,1024,1024,0,0,0,0,97,4.61,62.78,34.776904,P-GPS,,10.6
277,27700,2026-01-08 12:28:13,0.0,5,7.831,0.0,0.0,0.0,209.0,5.7,4.1,1024,1024,1024,1024,0,0,0,0,97,4.61,62.78,34.776904,P-GPS,,10.6
278,27800,2026-01-08 12:28:13,0.0,5,7.838,0.0,0.0,0.0,208.9,6.0,4.2,1024,1024,1024,1024,0,0,0,0,97,4.321,62.96,34.776904,P-GPS,,10.6
279,27900,2026-01-08 12:28:13,0.0,5,7.838,0.0,0.0,0.0,208.8,5.3,4.6,1024,1024,1024,1024,0,0,0,0,97,4.321,62.96,34.776904,P-GPS,,10.6
280,28000,2026-01-08 12:28:13,0.0,5,7.838,0.0,0.0,0.0,208.7,4.6,4.5,1024,1024,1024,1024,0,0,0,0,97,4.321,62.96,34.776904,P-GPS,,10.6
281,28100,2026-01-08 12:28:13,0.0,5,7.838,0.0,0.0,0.0,208.7,4.6,4.4,1024,1024,1024,1024,0,0,0,0,97,4.321,62.96,34.776904,P-GPS,,10.6
282,28200,2026-01-08 12:28:13,0.0,5,7.838,0.0,0.0,0.0,208.6,4.6,4.2,1024,1024,1024,1024,0,0,0,0,97,4.321,62.96,34.776904,P-GPS,,10.6
283,28300,2026-01-08 12:28:13,0.0,5,7.838,0.0,0.0,0.0,208.5,4.6,4.1,1024,1024,1024,1024,0,0,0,0,97,4.321,62.96,34.776904,P-GPS,,10.6
284,28400,2026-01-08 12:28:13,0.0,5,7.838,0.0,0.0,0.0,208.5,4.0,4.2,1024,1024,1024,1024,0,0,0,0,97,4.321,62.96,34.776904,P-GPS,,10.6
285,28500,2026-01-08 12:28:14,0.0,5,7.838,0.0,0.0,0.0,208.5,4.5,3.6,1024,1024,1024,1024,0,0,0,0,97,4.321,62.96,35.104988,P-GPS,,10.7
286,28600,2026-01-08 12:28:14,0.0,5,7.838,0.0,0.0,0.0,208.5,4.3,3.5,1024,1024,1024,1024,0,0,0,0,97,4.321,62.96,35.104988,P-GPS,,10.7
287,28700,2026-01-08 12:28:14,0.0,5,7.838,0.0,0.0,0.0,208.6,4.8,3.7,1024,1024,1024,1024,0,0,0,0,97,4.321,62.96,35.104988,P-GPS,,10.7
288,28800,2026-01-08 12:28:14,0.0,5,7.838,0.0,0.0,0.0,208.7,4.9,3.6,1024,1024,1024,1024,0,0,0,0,97,4.321,62.96,35.104988,P-GPS,,10.7
289,28900,2026-01-08 12:28:14,0.0,5,7.83,0.0,0.0,0.0,208.8,5.1,4.2,1024,1024,1024,1024,0,0,0,0,97,4.57,62.96,35.104988,P-GPS,,10.7
290,29000,2026-01-08 12:28:14,0.0,5,7.83,0.0,0.0,0.0,208.9,5.5,4.0,1024,1024,1024,1024,0,0,0,0,97,4.57,62.96,35.433072,P-GPS,,10.8
291,29100,2026-01-08 12:28:14,0.0,5,7.83,0.0,0.0,0.0,208.8,5.9,4.2,1024,1024,1024,1024,0,0,0,0,97,4.57,62.96,35.433072,P-GPS,,10.8
292,29200,2026-01-08 12:28:14,0.0,5,7.83,0.0,0.0,0.0,208.7,5.3,4.2,1024,1024,1024,1024,0,0,0,0,97,4.57,62.96,35.433072,P-GPS,,10.8
293,29300,2026-01-08 12:28:14,0.0,5,7.83,0.0,0.0,0.0,208.7,5.4,4.3,1024,1024,1024,1024,0,0,0,0,97,4.57,62.96,35.433072,P-GPS,,10.8
294,29400,2026-01-08 12:28:14,0.0,5,7.83,0.0,0.0,0.0,208.8,4.9,4.4,1024,1024,1024,1024,0,0,0,0,97,4.57,62.96,35.433072,P-GPS,,10.8
295,29500,2026-01-08 12:28:14,0.0,5,7.83,0.0,0.0,0.0,208.8,4.9,4.5,1024,1024,1024,1024,0,0,0,0,97,4.57,62.96,35.433072,P-GPS,,10.8
296,29600,2026-01-08 12:28:15,0.0,5,7.83,0.0,0.0,0.0,208.8,5.1,4.4,1024,1024,1024,1024,0,0,0,0,97,4.57,62.96,35.433072,P-GPS,,10.8
297,29700,2026-01-08 12:28:15,0.0,5,7.83,0.0,0.0,0.0,208.8,5.1,4.4,1024,1024,1024,1024,0,0,0,0,97,4.57,62.96,35.433072,P-GPS,,10.8
298,29800,2026-01-08 12:28:15,0.0,5,7.83,0.0,0.0,0.0,208.8,5.7,4.0,1024,1024,1024,1024,0,0,0,0,97,4.57,62.96,35.433072,P-GPS,,10.8
299,29900,2026-01-08 12:28:15,0.0,5,7.83,0.0,0.0,0.0,208.7,5.0,4.5,1024,1024,1024,1024,0,0,0,0,97,4.57,62.96,35.433072,P-GPS,,10.8
300,30000,2026-01-08 12:28:15,0.0,5,7.823,0.0,0.0,0.0,208.7,4.4,4.3,1024,1024,1024,1024,0,0,0,0,97,4.507,62.96,35.761156,P-GPS,,10.9
301,30100,2026-01-08 12:28:15,0.0,5,7.823,0.0,0.0,0.0,208.8,4.0,4.5,1024,1024,1024,1024,0,0,0,0,97,4.507,62.96,35.761156,P-GPS,,10.9
302,30200,2026-01-08 12:28:15,0.0,5,7.823,0.0,0.0,0.0,208.7,3.6,4.5,1024,1024,1024,1024,0,0,0,0,97,4.507,62.96,35.761156,P-GPS,,10.9
303,30300,2026-01-08 12:28:15,0.0,5,7.823,0.0,0.0,0.0,208.7,4.1,3.9,1024,1024,1024,1024,0,0,0,0,97,4.507,62.96,35.761156,P-GPS,,10.9
304,30400,2026-01-08 12:28:15,0.0,5,7.823,0.0,0.0,0.0,208.7,4.3,4.2,1024,1024,1024,1024,0,0,0,0,97,4.507,62.96,35.761156,P-GPS,,10.9
305,30500,2026-01-08 12:28:16,0.0,5,7.823,0.0,0.0,0.0,208.7,4.0,3.9,1024,1024,1024,1024,0,0,0,0,97,4.507,62.96,35.761156,P-GPS,,10.9
306,30600,2026-01-08 12:28:16,0.0,5,7.823,0.0,0.0,0.0,208.7,3.8,4.2,1024,1024,1024,1024,0,0,0,0,97,4.507,62.96,35.761156,P-GPS,,10.9
307,30700,2026-01-08 12:28:16,0.0,5,7.823,0.0,0.0,0.0,208.7,4.3,4.1,1024,1024,1024,1024,0,0,0,0,97,4.507,62.96,35.761156,P-GPS,,10.9
308,30800,2026-01-08 12:28:16,0.0,5,7.823,0.0,0.0,0.0,208.7,4.8,3.4,1024,1024,1024,1024,0,0,0,0,97,4.507,62.96,35.433072,P-GPS,,10.8
309,30900,2026-01-08 12:28:16,0.0,5,7.823,0.0,0.0,0.0,208.5,4.3,3.5,1024,1024,1024,1024,0,0,0,0,97,4.507,62.96,35.433072,P-GPS,,10.8
310,31000,2026-01-08 12:28:16,0.0,5,7.823,0.0,0.0,0.0,208.4,3.8,3.3,1024,1024,1024,1024,0,0,0,0,97,4.507,62.96,35.433072,P-GPS,,10.8
311,31100,2026-01-08 12:28:16,0.0,5,7.828,0.0,0.0,0.0,208.5,4.2,3.2,1024,1024,1024,1024,0,0,0,0,97,4.388,62.96,35.433072,P-GPS,,10.8
312,31200,2026-01-08 12:28:16,0.0,5,7.828,0.0,0.0,0.0,208.5,4.3,2.5,1024,1024,1024,1024,0,0,0,0,97,4.388,62.96,35.433072,P-GPS,,10.8
313,31300,2026-01-08 12:28:16,0.0,5,7.828,0.0,0.0,0.0,208.5,4.7,2.9,1024,1024,1024,1024,0,0,0,0,97,4.388,62.96,35.433072,P-GPS,,10.8
314,31400,2026-01-08 12:28:16,0.0,5,7.828,0.0,0.0,0.0,208.6,4.6,2.5,1024,1024,1024,1024,0,0,0,0,97,4.388,62.96,35.433072,P-GPS,,10.8
315,31500,2026-01-08 12:28:16,0.0,5,7.828,0.0,0.0,0.0,208.5,4.6,2.2,1024,1024,1024,1024,0,0,0,0,97,4.388,62.96,35.433072,P-GPS,,10.8
316,31600,2026-01-08 12:28:17,0.0,5,7.828,0.0,0.0,0.0,208.6,4.1,2.0,1024,1024,1024,1024,0,0,0,0,97,4.388,62.96,35.104988,P-GPS,,10.7
317,31700,2026-01-08 12:28:17,0.0,5,7.828,0.0,0.0,0.0,208.7,3.4,2.3,1024,1024,1024,1024,0,0,0,0,97,4.388,62.96,35.104988,P-GPS,,10.7
318,31800,2026-01-08 12:28:17,0.0,5,7.828,0.0,0.0,0.0,208.6,3.2,2.6,1024,1024,1024,1024,0,0,0,0,97,4.388,62.96,35.104988,P-GPS,,10.7
319,31900,2026-01-08 12:28:17,0.0,5,7.828,0.0,0.0,0.0,208.6,2.8,2.4,1024,1024,1024,1024,0,0,0,0,97,4.388,62.96,35.104988,P-GPS,,10.7
320,32000,2026-01-08 12:28:17,0.0,5,7.828,0.0,0.0,0.0,208.7,2.8,2.6,1024,1024,1024,1024,0,0,0,0,97,4.388,62.96,35.104988,P-GPS,,10.7
321,32100,2026-01-08 12:28:17,0.0,5,7.828,0.0,0.0,0.0,208.6,3.2,2.4,1024,1024,1024,1024,0,0,0,0,97,4.388,62.96,35.104988,P-GPS,,10.7
322,32200,2026-01-08 12:28:17,0.0,5,7.838,0.0,0.0,0.0,208.7,3.1,2.5,1024,1024,1024,1024,0,0,0,0,97,4.349,63.14,35.104988,P-GPS,,10.7
323,32300,2026-01-08 12:28:17,0.0,5,7.838,0.0,0.0,0.0,208.7,3.0,2.3,1024,1024,1024,1024,0,0,0,0,97,4.349,63.14,35.104988,P-GPS,,10.7
324,32400,2026-01-08 12:28:17,0.0,5,7.838,0.0,0.0,0.0,208.6,2.9,1.5,1024,1024,1024,1024,0,0,0,0,97,4.349,63.14,35.104988,P-GPS,,10.7
325,32500,2026-01-08 12:28:18,0.0,5,7.838,0.0,0.0,0.0,208.8,3.4,0.7,1024,1024,1024,1024,0,0,0,0,97,4.349,63.14,35.104988,P-GPS,,10.7
326,32600,2026-01-08 12:28:18,0.0,5,7.838,0.0,0.0,0.0,208.8,4.0,0.5,1024,1024,1024,1024,0,0,0,0,97,4.349,63.14,35.104988,P-GPS,,10.7
327,32700,2026-01-08 12:28:18,0.0,5,7.838,0.0,0.0,0.0,208.6,3.4,0.7,1024,1024,1024,1024,0,0,0,0,97,4.349,63.14,35.104988,P-GPS,,10.7
328,32800,2026-01-08 12:28:18,0.0,5,7.838,0.0,0.0,0.0,208.5,3.1,0.9,1024,1024,1024,1024,0,0,0,0,97,4.349,63.14,35.104988,P-GPS,,10.7
329,32900,2026-01-08 12:28:18,0.0,5,7.838,0.0,0.0,0.0,208.6,3.4,1.0,1024,1024,1024,1024,0,0,0,0,97,4.349,63.14,35.104988,P-GPS,,10.7
330,33000,2026-01-08 12:28:18,0.0,5,7.838,0.0,0.0,0.0,208.6,4.5,0.8,1024,1024,1024,1024,0,0,0,0,97,4.349,63.14,35.104988,P-GPS,,10.7
331,33100,2026-01-08 12:28:18,0.0,5,7.838,0.0,0.0,0.0,208.6,5.2,1.2,1024,1024,1024,1024,0,0,0,0,97,4.349,63.14,35.104988,P-GPS,,10.7
332,33200,2026-01-08 12:28:18,0.0,5,7.838,0.0,0.0,0.0,208.7,5.7,1.6,1024,1024,1024,1024,0,0,0,0,97,4.349,63.14,35.104988,P-GPS,,10.7
333,33300,2026-01-08 12:28:18,0.0,5,7.841,0.0,0.0,0.0,208.8,6.1,2.3,1024,1024,1024,1024,0,0,0,0,97,4.336,63.14,35.104988,P-GPS,,10.7
334,33400,2026-01-08 12:28:18,0.0,5,7.841,0.0,0.0,0.0,208.9,5.9,2.1,1024,1024,1024,1024,0,0,0,0,97,4.336,63.14,35.104988,P-GPS,,10.7
335,33500,2026-01-08 12:28:18,0.0,5,7.841,0.0,0.0,0.0,209.0,5.9,1.9,1024,1024,1024,1024,0,0,0,0,97,4.336,63.14,35.104988,P-GPS,,10.7
336,33600,2026-01-08 12:28:19,0.0,5,7.841,0.0,0.0,0.0,208.9,6.0,1.5,1024,1024,1024,1024,0,0,0,0,97,4.336,63.14,35.104988,P-GPS,,10.7
337,33700,2026-01-08 12:28:19,0.0,5,7.841,0.0,0.0,0.0,208.8,6.0,1.3,1024,1024,1024,1024,0,0,0,0,97,4.336,63.14,35.104988,P-GPS,,10.7
338,33800,2026-01-08 12:28:19,0.0,5,7.841,0.0,0.0,0.0,208.8,6.0,1.0,1024,1024,1024,1024,0,0,0,0,97,4.336,63.14,35.104988,P-GPS,,10.7
339,33900,2026-01-08 12:28:19,0.0,5,7.841,0.0,0.0,0.0,208.9,5.7,1.0,1024,1024,1024,1024,0,0,0,0,97,4.336,63.14,35.433072,P-GPS,,10.8
340,34000,2026-01-08 12:28:19,0.0,5,7.841,0.0,0.0,0.0,208.7,5.5,0.6,1024,1024,1024,1024,0,0,0,0,97,4.336,63.14,35.433072,P-GPS,,10.8
341,34100,2026-01-08 12:28:19,0.0,5,7.841,0.0,0.0,0.0,208.6,5.4,1.1,1024,1024,1024,1024,0,0,0,0,97,4.336,63.14,35.433072,P-GPS,,10.8
342,34200,2026-01-08 12:28:19,0.0,5,7.841,0.0,0.0,0.0,208.6,5.3,1.7,1024,1024,1024,1024,0,0,0,0,97,4.336,63.14,35.433072,P-GPS,,10.8
343,34300,2026-01-08 12:28:19,0.0,5,7.841,0.0,0.0,0.0,208.7,5.1,2.2,1024,1024,1024,1024,0,0,0,0,97,4.336,63.14,35.433072,P-GPS,,10.8
344,34400,2026-01-08 12:28:19,0.0,5,7.822,0.0,0.0,0.0,208.6,5.1,2.5,1024,1024,1024,1024,0,0,0,0,97,4.471,63.14,35.761156,P-GPS,,10.9
345,34500,2026-01-08 12:28:19,0.0,5,7.822,0.0,0.0,0.0,208.7,4.7,2.6,1024,1024,1024,1024,0,0,0,0,97,4.471,63.14,35.761156,P-GPS,,10.9
346,34600,2026-01-08 12:28:20,0.0,5,7.822,0.0,0.0,0.0,208.6,5.1,2.5,1024,1024,1024,1024,0,0,0,0,97,4.471,63.14,35.761156,P-GPS,,10.9
347,34700,2026-01-08 12:28:20,0.0,5,7.822,0.0,0.0,0.0,208.6,5.4,2.8,1024,1024,1024,1024,0,0,0,0,97,4.471,63.14,35.761156,P-GPS,,10.9
348,34800,2026-01-08 12:28:20,0.0,5,7.822,0.0,0.0,0.0,208.6,5.4,2.6,1024,1024,1024,1024,0,0,0,0,97,4.471,63.14,35.761156,P-GPS,,10.9
349,34900,2026-01-08 12:28:20,0.0,5,7.822,0.0,0.0,0.0,208.8,5.7,3.0,1024,1024,1024,1024,0,0,0,0,97,4.471,63.14,36.08924,P-GPS,,11.0
350,35000,2026-01-08 12:28:20,0.0,5,7.822,0.0,0.0,0.0,208.8,5.7,2.8,1024,1024,1024,1024,0,0,0,0,97,4.471,63.14,36.08924,P-GPS,,11.0
351,35100,2026-01-08 12:28:20,0.0,5,7.822,0.0,0.0,0.0,208.8,5.9,2.5,1024,1024,1024,1024,0,0,0,0,97,4.471,63.14,36.08924,P-GPS,,11.0
352,35200,2026-01-08 12:28:20,0.0,5,7.822,0.0,0.0,0.0,208.7,6.0,2.2,1024,1024,1024,1024,0,0,0,0,97,4.471,63.14,36.08924,P-GPS,,11.0
353,35300,2026-01-08 12:28:20,0.0,5,7.822,0.0,0.0,0.0,208.8,5.4,3.1,1024,1024,1024,1024,0,0,0,0,97,4.471,63.14,36.08924,P-GPS,,11.0
354,35400,2026-01-08 12:28:20,0.0,5,7.822,0.0,0.0,0.0,208.8,5.3,2.8,1024,1024,1024,1024,0,0,0,0,97,4.471,63.14,36.08924,P-GPS,,11.0
355,35500,2026-01-08 12:28:20,0.0,5,7.822,0.0,0.0,0.0,208.7,6.2,2.4,1024,1024,1024,1024,0,0,0,0,97,4.471,63.14,36.08924,P-GPS,,11.0
356,35600,2026-01-08 12:28:21,0.0,5,7.822,0.0,0.0,0.0,208.7,5.8,1.7,1024,1024,1024,1024,0,0,0,0,97,4.471,63.14,36.08924,P-GPS,,11.0
357,35700,2026-01-08 12:28:21,0.0,5,7.822,0.0,0.0,0.0,208.6,4.9,1.3,1024,1024,1024,1024,0,0,0,0,97,4.471,63.14,36.08924,P-GPS,,11.0
358,35800,2026-01-08 12:28:21,0.0,5,7.822,0.0,0.0,0.0,208.7,4.9,1.8,1024,1024,1024,1024,0,0,0,0,97,4.471,63.14,36.08924,P-GPS,,11.0
359,35900,2026-01-08 12:28:21,0.0,5,7.822,0.0,0.0,0.0,208.7,5.4,1.4,1024,1024,1024,1024,0,0,0,0,97,4.471,63.14,36.08924,P-GPS,,11.0
360,36000,2026-01-08 12:28:21,0.0,5,7.822,0.0,0.0,0.0,208.7,5.9,1.9,1024,1024,1024,1024,0,0,0,0,97,4.471,63.14,36.08924,P-GPS,,11.0
361,36100,2026-01-08 12:28:21,0.0,5,7.822,0.0,0.0,0.0,208.7,5.2,2.2,1024,1024,1024,1024,0,0,0,0,97,4.471,63.14,36.08924,P-GPS,,11.0
362,36200,2026-01-08 12:28:21,0.0,5,7.822,0.0,0.0,0.0,208.7,4.4,2.3,1024,1024,1024,1024,0,0,0,0,97,4.471,63.14,36.08924,P-GPS,,11.0
363,36300,2026-01-08 12:28:21,0.0,5,7.822,0.0,0.0,0.0,208.6,4.3,2.0,1024,1024,1024,1024,0,0,0,0,97,4.471,63.14,36.08924,P-GPS,,11.0
364,36400,2026-01-08 12:28:21,0.0,5,7.822,0.0,0.0,0.0,208.6,3.9,1.7,1024,1024,1024,1024,0,0,0,0,97,4.471,63.14,36.417324,P-GPS,,11.1
365,36500,2026-01-08 12:28:22,0.0,5,7.822,0.0,0.0,0.0,208.7,3.4,2.1,1024,1024,1024,1024,0,0,0,0,97,4.471,63.14,36.417324,P-GPS,,11.1
366,36600,2026-01-08 12:28:22,0.0,5,7.824,0.0,0.0,0.0,208.7,3.3,2.6,1024,1024,1024,1024,0,0,0,0,97,4.546,63.14,36.417324,P-GPS,,11.1
367,36700,2026-01-08 12:28:22,0.0,5,7.824,0.0,0.0,0.0,208.6,3.4,2.9,1024,1024,1024,1024,0,0,0,0,97,4.546,63.14,36.417324,P-GPS,,11.1
368,36800,2026-01-08 12:28:22,0.0,5,7.824,0.0,0.0,0.0,208.6,4.2,2.7,1024,1024,1024,1024,0,0,0,0,96,4.546,63.14,36.417324,P-GPS,,11.1
369,36900,2026-01-08 12:28:22,0.0,5,7.824,0.0,0.0,0.0,208.6,4.2,3.1,1024,1024,1024,1024,0,0,0,0,96,4.546,63.14,36.417324,P-GPS,,11.1
370,37000,2026-01-08 12:28:22,0.0,5,7.824,0.0,0.0,0.0,208.6,4.2,3.0,1024,1024,1024,1024,0,0,0,0,96,4.546,63.14,36.417324,P-GPS,,11.1
371,37100,2026-01-08 12:28:22,0.0,5,7.824,0.0,0.0,0.0,208.6,4.4,2.9,1024,1024,1024,1024,0,0,0,0,96,4.546,63.14,36.417324,P-GPS,,11.1
372,37200,2026-01-08 12:28:22,0.0,5,7.824,0.0,0.0,0.0,208.7,5.0,2.2,1024,1024,1024,1024,0,0,0,0,96,4.546,63.14,36.417324,P-GPS,,11.1
373,37300,2026-01-08 12:28:22,0.0,5,7.824,0.0,0.0,0.0,208.7,5.3,2.1,1024,1024,1024,1024,0,0,0,0,96,4.546,63.14,36.417324,P-GPS,,11.1
374,37400,2026-01-08 12:28:22,0.0,5,7.824,0.0,0.0,0.0,208.6,4.7,1.7,1024,1024,1024,1024,0,0,0,0,96,4.546,63.14,36.417324,P-GPS,,11.1
375,37500,2026-01-08 12:28:22,0.0,5,7.824,0.0,0.0,0.0,208.6,4.3,2.4,1024,1024,1024,1024,0,0,0,0,96,4.546,63.14,36.417324,P-GPS,,11.1
376,37600,2026-01-08 12:28:23,0.0,5,7.824,0.0,0.0,0.0,208.5,4.3,2.5,1024,1024,1024,1024,0,0,0,0,96,4.546,63.14,36.417324,P-GPS,,11.1
377,37700,2026-01-08 12:28:23,0.0,5,7.824,0.0,0.0,0.0,208.5,4.3,3.1,1024,1024,1024,1024,0,0,0,0,96,4.546,63.14,36.417324,P-GPS,,11.1
378,37800,2026-01-08 12:28:23,0.0,5,7.803,0.0,0.0,0.0,208.9,4.6,2.0,1024,1024,1024,1024,0,0,0,0,96,4.631,63.32,36.417324,P-GPS,,11.1
379,37900,2026-01-08 12:28:23,0.0,5,7.803,0.0,0.0,0.0,208.9,4.8,1.1,1024,1024,1024,1024,0,0,0,0,96,4.631,63.32,36.417324,P-GPS,,11.1
380,38000,2026-01-08 12:28:23,0.0,5,7.803,0.0,0.0,0.0,209.0,4.9,0.7,1024,1024,1024,1024,0,0,0,0,96,4.631,63.32,36.417324,P-GPS,,11.1
381,38100,2026-01-08 12:28:23,0.223694,5,7.803,0.0,-0.223694,0.0,209.0,4.9,0.2,1024,1024,1024,1024,0,0,0,0,96,4.631,63.32,36.417324,P-GPS,,11.1
382,38200,2026-01-08 12:28:23,0.223694,5,7.803,0.0,-0.223694,0.0,208.9,5.6,-0.6,1024,1024,1024,1024,0,0,0,0,96,4.631,63.32,36.417324,P-GPS,,11.1
383,38300,2026-01-08 12:28:23,0.0,5,7.803,0.0,0.0,0.0,208.7,5.1,-0.3,1024,1024,1024,1024,0,0,0,0,96,4.631,63.32,36.417324,P-GPS,,11.1
384,38400,2026-01-08 12:28:23,0.0,5,7.803,0.0,0.0,0.0,208.6,5.0,-0.5,1024,1024,1024,1024,0,0,0,0,96,4.631,63.32,36.417324,P-GPS,,11.1
385,38500,2026-01-08 12:28:24,0.0,5,7.803,0.0,0.0,0.0,208.7,5.2,0.1,1024,1024,1024,1024,0,0,0,0,96,4.631,63.32,36.417324,P-GPS,,11.1
