time(millisecond),timestamp,speed(mph),gpslevel,voltage(v),xSpeed(mph),ySpeed(mph),zSpeed(mph),compass_heading(degrees),pitch(degrees),roll(degrees),rc_elevator,rc_aileron,rc_throttle,rc_rudder,rc_elevator(percent),rc_aileron(percent),rc_throttle(percent),rc_rudder(percent),battery_percent,current(A),battery_temperature(f),ascent(feet),flycState,message,height_above_takeoff(meters)
249300,2026-01-08 12:32:04,0.0,5,7.65,0.0,0.0,-4.250186,12.7,11.0,8.4,1024,1024,1684,1024,0,0,100,0,83,5.78,72.5,158.136488,P-GPS,,48.2
249400,2026-01-08 12:32:04,0.0,5,7.65,0.0,0.0,-4.250186,12.8,11.3,8.7,1024,1024,1684,1024,0,0,100,0,83,5.78,72.5,158.792656,P-GPS,,48.4
249500,2026-01-08 12:32:04,0.0,5,7.65,0.0,0.0,-4.250186,12.7,11.2,8.0,1024,1024,1684,1024,0,0,100,0,83,5.78,72.5,159.448824,P-GPS,,48.6
249600,2026-01-08 12:32:04,0.223694,5,7.65,-0.223694,0.0,-4.250186,12.7,10.7,8.0,1024,1024,1684,1024,0,0,100,0,83,5.78,72.5,160.104992,P-GPS,,48.8
249700,2026-01-08 12:32:04,0.223694,5,7.642,-0.223694,0.0,-4.026492,12.6,9.7,7.7,1024,1024,1684,1024,0,0,100,0,83,5.206,72.5,160.76116,P-GPS,,49.0
249800,2026-01-08 12:32:04,0.223694,5,7.642,-0.223694,0.0,-4.026492,12.5,8.2,7.0,1024,1024,1684,1024,0,0,100,0,83,5.206,72.5,161.417328,P-GPS,,49.2
249900,2026-01-08 12:32:04,0.223694,5,7.642,-0.223694,0.0,-4.250186,12.4,7.8,6.4,1024,1024,1684,1024,0,0,100,0,83,5.206,72.5,162.073496,P-GPS,,49.4
250000,2026-01-08 12:32:04,0.0,5,7.642,0.0,0.0,-4.47388,12.5,7.9,6.6,1024,1024,1024,1024,0,0,0,0,83,5.206,72.5,162.729664,P-GPS,,49.6
250100,2026-01-08 12:32:04,0.0,5,7.642,0.0,0.0,-4.47388,12.6,8.8,7.0,1024,1024,1024,1024,0,0,0,0,83,5.206,72.5,163.385832,P-GPS,,49.8
250200,2026-01-08 12:32:04,0.0,5,7.642,0.0,0.0,-4.250186,12.5,8.8,7.9,1024,1024,1024,1024,0,0,0,0,83,5.206,72.5,164.042,P-GPS,,50.0
250300,2026-01-08 12:32:05,0.0,5,7.642,0.0,0.0,-3.802798,12.7,9.4,7.9,1024,1024,1024,1024,0,0,0,0,83,5.206,72.5,164.370084,P-GPS,,50.1
250400,2026-01-08 12:32:05,0.0,5,7.642,0.0,0.0,-3.131716,12.8,10.9,7.5,1024,1024,1024,1024,0,0,0,0,83,5.206,72.5,164.698168,P-GPS,,50.2
250500,2026-01-08 12:32:05,0.0,5,7.642,0.0,0.0,-2.23694,12.8,11.2,7.3,1024,1024,1024,1024,0,0,0,0,83,5.206,72.5,165.026252,P-GPS,,50.3
250600,2026-01-08 12:32:05,0.0,5,7.642,0.0,0.0,-1.565858,12.7,11.4,7.2,1024,1024,1024,1024,0,0,0,0,83,5.206,72.5,165.354336,P-GPS,,50.4
250700,2026-01-08 12:32:05,0.0,5,7.642,0.0,0.0,-0.894776,12.5,10.7,7.2,1024,1024,1024,1024,0,0,0,0,83,5.206,72.5,165.354336,P-GPS,,50.4
250800,2026-01-08 12:32:05,0.0,5,7.738,0.0,0.0,-0.447388,12.5,10.3,7.3,1024,1024,1024,1024,0,0,0,0,82,4.772,72.5,165.354336,P-GPS,,50.4
250900,2026-01-08 12:32:05,0.0,5,7.738,0.0,0.0,0.0,12.5,10.2,6.6,1024,1024,1024,1024,0,0,0,0,82,4.772,72.5,165.026252,P-GPS,,50.3
251000,2026-01-08 12:32:05,0.0,5,7.738,0.0,0.0,0.0,12.5,9.6,6.3,1024,1024,1024,1024,0,0,0,0,82,4.772,72.5,165.026252,P-GPS,,50.3
251100,2026-01-08 12:32:05,0.0,5,7.738,0.0,0.0,0.0,12.4,9.3,6.0,1024,1024,1024,1024,0,0,0,0,82,4.772,72.5,165.026252,P-GPS,,50.3
251200,2026-01-08 12:32:06,0.0,5,7.738,0.0,0.0,0.0,12.3,8.8,6.2,1024,1024,1024,1024,0,0,0,0,82,4.772,72.5,165.026252,P-GPS,,50.3
251300,2026-01-08 12:32:06,0.0,5,7.738,0.0,0.0,0.0,12.3,8.5,6.1,1024,1024,1024,1024,0,0,0,0,82,4.772,72.5,165.026252,P-GPS,,50.3
251400,2026-01-08 12:32:06,0.0,5,7.738,0.0,0.0,0.0,12.3,7.9,6.0,1024,1024,1024,1024,0,0,0,0,82,4.772,72.5,165.026252,P-GPS,,50.3
251500,2026-01-08 12:32:06,0.0,5,7.738,0.0,0.0,0.0,12.4,7.7,5.9,1024,1024,1024,1024,0,0,0,0,82,4.772,72.5,165.026252,P-GPS,,50.3
251600,2026-01-08 12:32:06,0.0,5,7.738,0.0,0.0,-0.223694,12.3,6.8,5.8,1024,1024,1024,1024,0,0,0,0,82,4.772,72.5,164.698168,P-GPS,,50.2
251700,2026-01-08 12:32:06,0.0,5,7.738,0.0,0.0,-0.223694,12.4,7.3,6.3,1024,1024,1024,1024,0,0,0,0,82,4.772,72.5,164.698168,P-GPS,,50.2
251800,2026-01-08 12:32:06,0.0,5,7.738,0.0,0.0,0.0,12.6,7.6,6.4,1024,1024,1024,1024,0,0,0,0,82,4.772,72.5,164.698168,P-GPS,,50.2
251900,2026-01-08 12:32:06,0.0,5,7.728,0.0,0.0,0.0,12.4,7.1,6.3,1024,1024,1024,1024,0,0,0,0,82,4.189,72.68,164.698168,P-GPS,,50.2
252000,2026-01-08 12:32:06,0.0,5,7.728,0.0,0.0,0.0,12.4,7.1,6.0,1024,1024,1024,1024,0,0,0,0,82,4.189,72.68,164.698168,P-GPS,,50.2
252100,2026-01-08 12:32:06,0.0,5,7.728,0.0,0.0,0.0,12.4,6.7,5.7,1024,1024,1024,1024,0,0,0,0,82,4.189,72.68,164.370084,P-GPS,,50.1
252200,2026-01-08 12:32:06,0.0,5,7.728,0.0,0.0,0.0,12.4,7.3,5.6,1024,1024,1024,1024,0,0,0,0,82,4.189,72.68,164.370084,P-GPS,,50.1
252300,2026-01-08 12:32:07,0.0,5,7.728,0.0,0.0,0.0,12.3,7.2,5.1,1024,1024,1024,1024,0,0,0,0,82,4.189,72.68,164.370084,P-GPS,,50.1
252400,2026-01-08 12:32:07,0.0,5,7.728,0.0,0.0,0.0,12.3,8.0,5.1,1024,1024,1024,1024,0,0,0,0,82,4.189,72.68,164.370084,P-GPS,,50.1
252500,2026-01-08 12:32:07,0.0,5,7.728,0.0,0.0,0.0,12.4,7.0,5.2,1024,1024,1024,1024,0,0,0,0,82,4.189,72.68,164.370084,P-GPS,,50.1
252600,2026-01-08 12:32:07,0.0,5,7.728,0.0,0.0,0.0,12.4,9.0,5.3,1024,1024,1024,1024,0,0,0,0,82,4.189,72.68,164.042,P-GPS,,50.0
252700,2026-01-08 12:32:07,0.0,5,7.728,0.0,0.0,0.0,12.4,8.6,4.9,1024,1024,1024,1024,0,0,0,0,82,4.189,72.68,164.370084,P-GPS,,50.1
252800,2026-01-08 12:32:07,0.0,5,7.728,0.0,0.0,0.0,12.4,7.8,4.7,1024,1024,1024,1024,0,0,0,0,82,4.189,72.68,164.370084,P-GPS,,50.1
252900,2026-01-08 12:32:07,0.0,5,7.728,0.0,0.0,0.0,12.3,7.6,4.9,1024,1024,1024,1024,0,0,0,0,82,4.189,72.68,164.370084,P-GPS,,50.1
253000,2026-01-08 12:32:07,0.0,5,7.708,0.0,0.0,0.0,12.4,8.1,5.2,1024,1024,1024,1024,0,0,0,0,82,3.887,72.68,164.370084,P-GPS,,50.1
253100,2026-01-08 12:32:07,0.0,5,7.708,0.0,0.0,0.0,12.4,8.5,5.1,1024,1024,1024,1024,0,0,0,0,82,3.887,72.68,164.370084,P-GPS,,50.1
253200,2026-01-08 12:32:08,0.0,5,7.708,0.0,0.0,0.0,12.3,8.0,5.0,1024,1024,1024,1024,0,0,0,0,82,3.887,72.68,164.698168,P-GPS,,50.2
253300,2026-01-08 12:32:08,0.0,5,7.708,0.0,0.0,0.0,12.2,7.9,5.1,1024,1024,1024,1024,0,0,0,0,82,3.887,72.68,164.698168,P-GPS,,50.2
253400,2026-01-08 12:32:08,0.0,5,7.708,0.0,0.0,-0.223694,12.3,8.0,5.2,1024,1024,1024,1024,0,0,0,0,82,3.887,72.68,164.698168,P-GPS,,50.2
253500,2026-01-08 12:32:08,0.0,5,7.708,0.0,0.0,-0.223694,12.3,8.6,5.1,1024,1024,1024,1024,0,0,0,0,82,3.887,72.68,164.698168,P-GPS,,50.2
253600,2026-01-08 12:32:08,0.0,5,7.708,0.0,0.0,-0.223694,12.3,8.9,5.3,1024,1024,1024,1024,0,0,0,0,82,3.887,72.68,164.698168,P-GPS,,50.2
253700,2026-01-08 12:32:08,0.0,5,7.708,0.0,0.0,0.0,12.2,9.7,5.4,1024,1024,1024,1024,0,0,0,0,82,3.887,72.68,164.698168,P-GPS,,50.2
253800,2026-01-08 12:32:08,0.0,5,7.708,0.0,0.0,0.0,12.2,9.0,5.5,1024,1024,1024,1024,0,0,0,0,82,3.887,72.68,164.698168,P-GPS,,50.2
253900,2026-01-08 12:32:08,0.0,5,7.708,0.0,0.0,0.0,12.2,9.4,5.3,1024,1024,1024,1024,0,0,0,0,82,3.887,72.68,164.698168,P-GPS,,50.2
254000,2026-01-08 12:32:08,0.0,5,7.708,0.0,0.0,0.0,12.4,9.1,6.1,1024,1024,1024,1024,0,0,0,0,82,3.887,72.68,164.698168,P-GPS,,50.2
254100,2026-01-08 12:32:08,0.0,5,7.744,0.0,0.0,0.0,12.3,8.5,5.8,1024,1024,1024,1024,0,0,0,0,82,3.68,72.68,164.698168,P-GPS,,50.2
254200,2026-01-08 12:32:08,0.0,5,7.744,0.0,0.0,0.0,12.3,9.0,6.1,1024,1024,1024,1024,0,0,0,0,82,3.68,72.68,164.698168,P-GPS,,50.2
254300,2026-01-08 12:32:09,0.0,5,7.744,0.0,0.0,0.0,12.4,10.2,6.2,1024,1024,1024,1024,0,0,0,0,82,3.68,72.68,164.698168,P-GPS,,50.2
254400,2026-01-08 12:32:09,0.0,5,7.744,0.0,0.0,0.223694,12.4,10.1,6.0,1024,1024,1024,1024,0,0,0,0,82,3.68,72.68,164.698168,P-GPS,,50.2
254500,2026-01-08 12:32:09,0.0,5,7.744,0.0,0.0,0.223694,12.5,10.5,5.6,1024,1024,1024,1024,0,0,0,0,82,3.68,72.68,164.698168,P-GPS,,50.2
254600,2026-01-08 12:32:09,0.0,5,7.744,0.0,0.0,0.223694,12.5,10.0,5.5,1024,1024,1024,1024,0,0,0,0,82,3.68,72.68,165.026252,P-GPS,,50.3
254700,2026-01-08 12:32:09,0.0,5,7.744,0.0,0.0,0.0,12.4,10.1,5.7,1024,1024,1024,1024,0,0,0,0,82,3.68,72.68,165.026252,P-GPS,,50.3
254800,2026-01-08 12:32:09,0.0,5,7.744,0.0,0.0,0.0,12.5,10.0,5.8,1024,1024,1024,1024,0,0,0,0,82,3.68,72.68,165.026252,P-GPS,,50.3
254900,2026-01-08 12:32:09,0.0,5,7.744,0.0,0.0,0.0,12.4,10.3,5.7,1024,1024,1024,1024,0,0,0,0,82,3.68,72.68,165.026252,P-GPS,,50.3
255000,2026-01-08 12:32:09,0.0,5,7.744,0.0,0.0,0.0,12.4,10.4,5.8,1024,1024,1024,1024,0,0,0,0,82,3.68,72.68,165.026252,P-GPS,,50.3
255100,2026-01-08 12:32:09,0.0,5,7.744,0.0,0.0,0.0,12.4,10.2,5.5,1024,1024,1024,1024,0,0,0,0,82,3.68,72.68,165.354336,P-GPS,,50.4
255200,2026-01-08 12:32:10,0.0,5,7.744,0.0,0.0,0.0,12.5,10.1,4.9,1024,1024,1024,1024,0,0,0,0,82,3.68,72.68,165.354336,P-GPS,,50.4
255300,2026-01-08 12:32:10,0.0,5,7.744,0.0,0.0,0.0,12.5,9.4,4.7,1024,1024,1024,1024,0,0,0,0,82,3.68,72.68,165.354336,P-GPS,,50.4
255400,2026-01-08 12:32:10,0.0,5,7.744,0.0,0.0,0.0,12.5,9.5,5.6,1024,1024,1024,1024,0,0,0,0,82,3.68,72.68,165.354336,P-GPS,,50.4
255500,2026-01-08 12:32:10,0.0,5,7.744,0.0,0.0,0.0,12.6,11.0,5.8,1024,1024,1024,1024,0,0,0,0,82,3.68,72.68,165.354336,P-GPS,,50.4
255600,2026-01-08 12:32:10,0.0,5,7.744,0.0,0.0,0.0,12.6,10.5,6.0,1024,1024,1024,1024,0,0,0,0,82,3.68,72.68,165.354336,P-GPS,,50.4
255700,2026-01-08 12:32:10,0.0,5,7.744,0.0,0.0,0.223694,12.6,10.6,6.1,1024,1024,1024,1024,0,0,0,0,82,3.68,72.68,165.354336,P-GPS,,50.4
255800,2026-01-08 12:32:10,0.0,5,7.744,0.0,0.0,0.223694,12.4,9.0,6.2,1024,1024,1024,1024,0,0,0,0,82,3.68,72.68,165.354336,P-GPS,,50.4
255900,2026-01-08 12:32:10,0.0,5,7.744,0.0,0.0,0.223694,12.4,8.9,6.4,1024,1024,1024,1024,0,0,0,0,82,3.68,72.68,165.354336,P-GPS,,50.4
256000,2026-01-08 12:32:10,0.0,5,7.744,0.0,0.0,0.0,12.3,8.0,6.4,1024,1024,1024,1024,0,0,0,0,82,3.68,72.68,165.354336,P-GPS,,50.4
256100,2026-01-08 12:32:10,0.0,5,7.744,0.0,0.0,0.0,12.3,7.9,6.4,1024,1024,1024,1024,0,0,0,0,82,3.68,72.68,165.354336,P-GPS,,50.4
256200,2026-01-08 12:32:10,0.0,5,7.744,0.0,0.0,0.0,12.4,8.5,6.9,1024,1024,1024,1024,0,0,0,0,82,3.68,72.68,165.354336,P-GPS,,50.4
256300,2026-01-08 12:32:11,0.0,5,7.699,0.0,0.0,0.0,12.5,8.8,6.8,1024,1024,1024,1024,0,0,0,0,82,4.245,72.68,165.354336,P-GPS,,50.4
256400,2026-01-08 12:32:11,0.0,5,7.699,0.0,0.0,0.0,12.5,9.1,6.5,1024,1024,1024,1024,0,0,0,0,82,4.245,72.68,165.354336,P-GPS,,50.4
256500,2026-01-08 12:32:11,0.0,5,7.699,0.0,0.0,0.0,12.5,9.2,6.3,1024,1024,1024,1024,0,0,0,0,82,4.245,72.68,165.354336,P-GPS,,50.4
256600,2026-01-08 12:32:11,0.0,5,7.699,0.0,0.0,0.0,12.4,8.0,6.3,1024,1024,1024,1024,0,0,0,0,82,4.245,72.68,165.354336,P-GPS,,50.4
256700,2026-01-08 12:32:11,0.0,5,7.699,0.0,0.0,0.0,12.5,9.6,6.5,1024,1024,1024,1024,0,0,0,0,82,4.245,72.68,165.354336,P-GPS,,50.4
256800,2026-01-08 12:32:11,0.0,5,7.699,0.0,0.0,0.0,12.5,10.4,6.2,1024,1024,1024,1024,0,0,0,0,82,4.245,72.68,165.354336,P-GPS,,50.4
256900,2026-01-08 12:32:11,0.0,5,7.699,0.0,0.0,0.223694,12.4,9.9,5.7,1024,1024,1024,1024,0,0,0,0,82,4.245,72.68,165.354336,P-GPS,,50.4
257000,2026-01-08 12:32:11,0.0,5,7.699,0.0,0.0,0.0,12.4,9.8,6.1,1024,1024,1024,1024,0,0,0,0,82,4.245,72.68,165.354336,P-GPS,,50.4
257100,2026-01-08 12:32:11,0.0,5,7.699,0.0,0.0,0.0,12.3,8.9,6.2,1024,1024,1024,1024,0,0,0,0,82,4.245,72.68,165.354336,P-GPS,,50.4
257200,2026-01-08 12:32:12,0.0,5,7.699,0.0,0.0,0.0,12.3,8.8,6.1,1024,1024,1024,1024,0,0,0,0,82,4.245,72.68,165.354336,P-GPS,,50.4
257300,2026-01-08 12:32:12,0.0,5,7.699,0.0,0.0,0.0,12.5,9.3,6.1,1024,1024,1024,1024,0,0,0,0,82,4.245,72.68,165.354336,P-GPS,,50.4
257400,2026-01-08 12:32:12,0.0,5,7.715,0.0,0.0,0.0,12.4,9.0,5.9,1024,1024,1024,1024,0,0,0,0,82,4.22,72.86,165.354336,P-GPS,,50.4
257500,2026-01-08 12:32:12,0.0,5,7.715,0.0,0.0,0.0,12.4,9.0,5.9,1024,1024,1024,1024,0,0,0,0,82,4.22,72.86,165.354336,P-GPS,,50.4
257600,2026-01-08 12:32:12,0.0,5,7.715,0.0,0.0,0.0,12.4,9.2,6.2,1024,1024,1024,1024,0,0,0,0,82,4.22,72.86,165.354336,P-GPS,,50.4
257700,2026-01-08 12:32:12,0.0,5,7.715,0.0,0.0,0.0,12.5,9.6,6.4,1024,1024,1024,1024,0,0,0,0,82,4.22,72.86,165.026252,P-GPS,,50.3
257800,2026-01-08 12:32:12,0.0,5,7.715,0.0,0.0,0.0,12.5,9.7,5.9,1024,1024,1024,1024,0,0,0,0,82,4.22,72.86,165.026252,P-GPS,,50.3
257900,2026-01-08 12:32:12,0.0,5,7.715,0.0,0.0,0.0,12.3,9.8,6.0,1024,1024,1024,1024,0,0,0,0,82,4.22,72.86,165.354336,P-GPS,,50.4
258000,2026-01-08 12:32:12,0.0,5,7.715,0.0,0.0,0.0,12.4,9.3,5.9,1024,1024,1024,1024,0,0,0,0,82,4.22,72.86,165.354336,P-GPS,,50.4
258100,2026-01-08 12:32:12,0.0,5,7.715,0.0,0.0,0.0,12.3,9.2,5.6,1024,1024,1024,1024,0,0,0,0,82,4.22,72.86,165.354336,P-GPS,,50.4
258200,2026-01-08 12:32:13,0.0,5,7.715,0.0,0.0,0.0,12.4,9.3,5.6,1024,1024,1024,1024,0,0,0,0,82,4.22,72.86,165.354336,P-GPS,,50.4
258300,2026-01-08 12:32:13,0.0,5,7.715,0.0,0.0,0.0,12.5,9.6,5.4,1024,1024,1024,1024,0,0,0,0,82,4.22,72.86,165.354336,P-GPS,,50.4
258400,2026-01-08 12:32:13,0.0,5,7.715,0.0,0.0,0.0,12.4,9.6,5.5,1024,1024,1024,1024,0,0,0,0,82,4.22,72.86,165.026252,P-GPS,,50.3
258500,2026-01-08 12:32:13,0.0,5,7.707,0.0,0.0,0.0,12.5,9.9,5.0,1024,1024,1024,1024,0,0,0,0,82,4.429,72.86,165.026252,P-GPS,,50.3
258600,2026-01-08 12:32:13,0.0,5,7.707,0.0,0.0,0.0,12.4,10.0,4.7,1024,1024,1024,1024,0,0,0,0,82,4.429,72.86,165.026252,P-GPS,,50.3
258700,2026-01-08 12:32:13,0.0,5,7.707,0.0,0.0,0.0,12.4,9.7,4.5,1024,1024,1024,1024,0,0,0,0,82,4.429,72.86,165.026252,P-GPS,,50.3
258800,2026-01-08 12:32:13,0.0,5,7.707,0.0,0.0,0.0,12.3,9.5,4.7,1024,1024,1024,1024,0,0,0,0,82,4.429,72.86,165.026252,P-GPS,,50.3
258900,2026-01-08 12:32:13,0.0,5,7.707,0.0,0.0,0.0,12.3,9.3,4.7,1024,1024,1024,1024,0,0,0,0,82,4.429,72.86,165.026252,P-GPS,,50.3
259000,2026-01-08 12:32:13,0.0,5,7.707,0.0,0.0,0.0,12.4,8.8,4.6,1024,1024,1024,1024,0,0,0,0,82,4.429,72.86,165.026252,P-GPS,,50.3
259100,2026-01-08 12:32:13,0.0,5,7.707,0.0,0.0,0.0,12.3,9.0,4.9,1024,1024,1024,1024,0,0,0,0,82,4.429,72.86,165.026252,P-GPS,,50.3
259200,2026-01-08 12:32:13,0.0,5,7.707,0.0,0.0,0.0,12.2,8.6,4.9,1024,1024,1024,1024,0,0,0,0,82,4.429,72.86,165.026252,P-GPS,,50.3
259300,2026-01-08 12:32:14,0.0,5,7.707,0.0,0.0,0.0,12.3,8.9,5.2,1024,1024,1024,1024,0,0,0,0,82,4.429,72.86,165.026252,P-GPS,,50.3
259400,2026-01-08 12:32:14,0.0,5,7.707,0.0,0.0,0.0,12.4,9.1,5.3,1024,1024,1024,1024,0,0,0,0,82,4.429,72.86,165.026252,P-GPS,,50.3
259500,2026-01-08 12:32:14,0.0,5,7.707,0.0,0.0,0.0,12.4,9.2,4.9,1024,1024,1024,1024,0,0,0,0,82,4.429,72.86,165.026252,P-GPS,,50.3
259600,2026-01-08 12:32:14,0.0,5,7.702,0.0,0.0,0.0,12.5,9.7,5.1,1024,1024,1024,1024,0,0,0,0,82,4.315,72.86,165.026252,P-GPS,,50.3
259700,2026-01-08 12:32:14,0.0,5,7.702,0.0,0.0,0.0,12.6,10.3,5.2,1024,1024,1024,1024,0,0,0,0,82,4.315,72.86,165.026252,P-GPS,,50.3
259800,2026-01-08 12:32:14,0.0,5,7.702,0.0,0.0,0.0,12.5,10.4,5.2,1024,1024,1024,1024,0,0,0,0,82,4.315,72.86,165.026252,P-GPS,,50.3
259900,2026-01-08 12:32:14,0.0,5,7.702,0.0,0.0,0.0,12.3,9.9,5.0,1024,1024,1024,1024,0,0,0,0,82,4.315,72.86,165.026252,P-GPS,,50.3
260000,2026-01-08 12:32:14,0.0,5,7.702,0.0,0.0,0.0,12.3,9.5,4.6,1024,1024,1024,1024,0,0,0,0,82,4.315,72.86,165.026252,P-GPS,,50.3
260100,2026-01-08 12:32:14,0.0,5,7.702,0.0,0.0,0.0,12.3,9.0,4.4,1024,1024,1024,1024,0,0,0,0,82,4.315,72.86,165.026252,P-GPS,,50.3
260200,2026-01-08 12:32:15,0.0,5,7.702,0.0,0.0,0.0,12.4,8.7,4.8,1024,1024,1024,1024,0,0,0,0,82,4.315,72.86,165.026252,P-GPS,,50.3
260300,2026-01-08 12:32:15,0.0,5,7.702,0.0,0.0,0.0,12.4,8.9,4.8,1024,1024,1024,1024,0,0,0,0,82,4.315,72.86,165.026252,P-GPS,,50.3
260400,2026-01-08 12:32:15,0.0,5,7.702,0.0,0.0,0.0,12.5,9.1,4.9,1024,1024,1024,1024,0,0,0,0,82,4.315,72.86,165.026252,P-GPS,,50.3
260500,2026-01-08 12:32:15,0.0,5,7.702,0.0,0.0,0.0,12.5,9.5,5.3,1024,1024,1024,1024,0,0,0,0,82,4.315,72.86,165.026252,P-GPS,,50.3
260600,2026-01-08 12:32:15,0.0,5,7.702,0.0,0.0,0.0,12.5,9.4,5.3,1024,1024,1024,1024,0,0,0,0,82,4.315,72.86,165.026252,P-GPS,,50.3
260700,2026-01-08 12:32:15,0.0,5,7.719,0.0,0.0,0.0,12.4,9.5,5.6,1024,1024,1024,1024,0,0,0,0,82,4.233,72.86,165.026252,P-GPS,,50.3
260800,2026-01-08 12:32:15,0.0,5,7.719,0.0,0.0,0.0,12.2,9.3,5.4,1024,1024,1024,1024,0,0,0,0,82,4.233,72.86,165.026252,P-GPS,,50.3
260900,2026-01-08 12:32:15,0.0,5,7.719,0.0,0.0,0.0,12.2,9.4,5.4,1024,1024,1024,1024,0,0,0,0,82,4.233,72.86,165.026252,P-GPS,,50.3
261000,2026-01-08 12:32:15,0.0,5,7.719,0.0,0.0,0.0,12.3,9.3,5.0,1024,1024,1024,1024,0,0,0,0,82,4.233,72.86,165.354336,P-GPS,,50.4
261100,2026-01-08 12:32:15,0.0,5,7.719,0.0,0.0,0.0,12.3,9.7,4.9,1024,1024,1024,1024,0,0,0,0,82,4.233,72.86,165.354336,P-GPS,,50.4
261200,2026-01-08 12:32:15,0.0,5,7.719,0.0,0.0,0.0,12.3,9.2,4.8,1024,1024,1024,1024,0,0,0,0,82,4.233,72.86,165.354336,P-GPS,,50.4
261300,2026-01-08 12:32:16,0.0,5,7.719,0.0,0.0,-0.223694,12.2,7.7,4.7,1024,1024,1024,1024,0,0,0,0,82,4.233,72.86,165.354336,P-GPS,,50.4
261400,2026-01-08 12:32:16,0.0,5,7.719,0.0,0.0,-0.223694,12.3,8.9,5.0,1024,1024,1024,1024,0,0,0,0,82,4.233,72.86,165.354336,P-GPS,,50.4
261500,2026-01-08 12:32:16,0.0,5,7.719,0.0,0.0,0.0,12.3,8.4,5.1,1024,1024,1024,1024,0,0,0,0,82,4.233,72.86,165.354336,P-GPS,,50.4
261600,2026-01-08 12:32:16,0.0,5,7.719,0.0,0.0,0.0,12.4,9.1,5.4,1024,1024,1024,1024,0,0,0,0,82,4.233,72.86,165.354336,P-GPS,,50.4
261700,2026-01-08 12:32:16,0.0,5,7.719,0.0,0.0,0.0,12.4,9.1,5.6,1024,1024,1024,1024,0,0,0,0,82,4.233,72.86,165.026252,P-GPS,,50.3
261800,2026-01-08 12:32:16,0.0,5,7.719,0.0,0.0,0.0,12.5,9.4,5.6,1024,1024,1024,1024,0,0,0,0,82,4.26,72.86,165.026252,P-GPS,,50.3
261900,2026-01-08 12:32:16,0.0,5,7.719,0.0,0.0,0.0,12.6,9.4,5.9,1024,1024,1024,1024,0,0,0,0,82,4.26,72.86,165.026252,P-GPS,,50.3
262000,2026-01-08 12:32:16,0.0,5,7.719,0.0,0.0,0.0,12.6,9.4,6.3,1024,1024,1024,1024,0,0,0,0,82,4.26,72.86,165.026252,P-GPS,,50.3
262100,2026-01-08 12:32:16,0.0,5,7.719,0.0,0.0,0.0,12.6,9.5,6.1,1024,1024,1024,1024,0,0,0,0,82,4.26,72.86,165.026252,P-GPS,,50.3
262200,2026-01-08 12:32:17,0.0,5,7.719,0.0,0.0,0.0,12.4,8.6,5.9,1024,1024,1024,1024,0,0,0,0,82,4.26,72.86,165.354336,P-GPS,,50.4
262300,2026-01-08 12:32:17,0.0,5,7.719,0.0,0.0,0.0,12.4,8.4,6.0,1024,1024,1024,1024,0,0,0,0,82,4.26,72.86,165.354336,P-GPS,,50.4
262400,2026-01-08 12:32:17,0.0,5,7.719,0.0,0.0,0.0,12.4,8.2,5.9,1024,1024,1024,1024,0,0,0,0,82,4.26,72.86,165.354336,P-GPS,,50.4
262500,2026-01-08 12:32:17,0.0,5,7.719,0.0,0.0,0.0,12.3,8.2,5.6,1024,1024,1024,1024,0,0,0,0,82,4.26,72.86,165.68242,P-GPS,,50.5
262600,2026-01-08 12:32:17,0.0,5,7.719,0.0,0.0,0.0,12.2,7.7,5.5,1024,1024,1024,1024,0,0,0,0,82,4.26,72.86,165.68242,P-GPS,,50.5
262700,2026-01-08 12:32:17,0.0,5,7.719,0.0,0.0,0.0,12.2,7.5,5.3,1024,1024,1024,1024,0,0,0,0,82,4.26,72.86,165.68242,P-GPS,,50.5
262800,2026-01-08 12:32:17,0.0,5,7.719,0.0,0.0,0.0,12.2,6.5,5.2,1024,1024,1024,1024,0,0,0,0,82,4.26,72.86,165.68242,P-GPS,,50.5
262900,2026-01-08 12:32:17,0.0,5,7.699,0.0,0.0,0.0,12.2,6.5,5.3,1024,1024,1024,1024,0,0,0,0,82,4.453,73.04,166.010504,P-GPS,,50.6
263000,2026-01-08 12:32:17,0.0,5,7.699,0.0,0.0,0.0,12.4,6.6,5.6,1024,1024,1024,1024,0,0,0,0,82,4.453,73.04,166.010504,P-GPS,,50.6
263100,2026-01-08 12:32:17,0.0,5,7.699,0.0,0.0,0.0,12.5,7.3,5.5,1024,1024,1024,1024,0,0,0,0,82,4.453,73.04,166.010504,P-GPS,,50.6
263200,2026-01-08 12:32:18,0.0,5,7.699,0.0,0.0,0.0,12.5,6.7,5.4,1024,1024,1024,1024,0,0,0,0,82,4.453,73.04,166.338588,P-GPS,,50.7
263300,2026-01-08 12:32:18,0.0,5,7.699,0.0,0.0,0.0,12.5,6.6,5.8,1024,1024,1024,1024,0,0,0,0,82,4.453,73.04,166.338588,P-GPS,,50.7
263400,2026-01-08 12:32:18,0.0,5,7.699,0.0,0.0,0.0,12.7,6.6,6.1,1024,1024,1024,1024,0,0,0,0,82,4.453,73.04,166.338588,P-GPS,,50.7
263500,2026-01-08 12:32:18,0.0,5,7.699,0.0,0.0,0.0,12.6,6.8,6.2,1024,1024,1024,1024,0,0,0,0,82,4.453,73.04,166.666672,P-GPS,,50.8
263600,2026-01-08 12:32:18,0.0,5,7.699,0.0,0.0,0.0,12.6,6.5,5.7,1024,1024,1024,1024,0,0,0,0,82,4.453,73.04,166.666672,P-GPS,,50.8
263700,2026-01-08 12:32:18,0.0,5,7.699,0.0,0.0,0.0,12.7,5.9,5.8,1024,1024,1024,1024,0,0,0,0,82,4.453,73.04,166.666672,P-GPS,,50.8
263800,2026-01-08 12:32:18,0.0,5,7.699,0.0,0.0,0.0,12.6,5.9,5.7,1024,1024,1024,1024,0,0,0,0,82,4.453,73.04,166.666672,P-GPS,,50.8
263900,2026-01-08 12:32:18,0.0,5,7.699,0.0,0.0,0.0,12.7,6.0,6.1,1024,1024,1024,1024,0,0,0,0,82,4.453,73.04,166.666672,P-GPS,,50.8
264000,2026-01-08 12:32:18,0.0,5,7.736,0.0,0.0,0.0,12.7,6.8,6.7,1024,1024,1024,1024,0,0,0,0,82,3.898,73.04,166.338588,P-GPS,,50.7
264100,2026-01-08 12:32:18,0.0,5,7.736,0.0,0.0,0.223694,12.5,7.0,6.8,1024,1024,1024,1024,0,0,0,0,82,3.898,73.04,166.338588,P-GPS,,50.7
264200,2026-01-08 12:32:18,0.0,5,7.736,0.0,0.0,0.223694,12.2,7.2,5.7,1024,1024,1024,1024,0,0,0,0,82,3.898,73.04,166.338588,P-GPS,,50.7
264300,2026-01-08 12:32:19,0.0,5,7.736,0.0,0.0,0.223694,12.1,7.2,5.6,1024,1024,1024,1024,0,0,0,0,82,3.898,73.04,166.338588,P-GPS,,50.7
264400,2026-01-08 12:32:19,0.0,5,7.736,0.0,0.0,0.223694,12.1,8.3,6.2,1024,1024,1024,1024,0,0,0,0,82,3.898,73.04,166.338588,P-GPS,,50.7
264500,2026-01-08 12:32:19,0.0,5,7.736,0.0,0.0,0.223694,12.0,8.3,5.9,1024,1024,1024,1024,0,0,0,0,82,3.898,73.04,166.338588,P-GPS,,50.7
264600,2026-01-08 12:32:19,0.0,5,7.736,0.0,0.0,0.0,12.0,8.8,5.2,1024,1024,1024,1024,0,0,0,0,82,3.898,73.04,166.338588,P-GPS,,50.7
264700,2026-01-08 12:32:19,0.0,5,7.736,0.0,0.0,0.0,12.1,9.1,4.9,1024,1024,1024,1024,0,0,0,0,82,3.898,73.04,166.338588,P-GPS,,50.7
264800,2026-01-08 12:32:19,0.223694,5,7.736,0.223694,0.0,0.0,12.0,8.3,4.6,1024,1024,1024,1024,0,0,0,0,82,3.898,73.04,166.338588,P-GPS,,50.7
264900,2026-01-08 12:32:19,0.223694,5,7.736,0.223694,0.0,-0.223694,12.1,9.2,5.1,1024,1024,1024,1024,0,0,0,0,82,3.898,73.04,166.338588,P-GPS,,50.7
265000,2026-01-08 12:32:19,0.223694,5,7.736,0.223694,0.0,-0.223694,12.2,10.1,5.3,1024,1024,1024,1024,0,0,0,0,82,3.898,73.04,166.010504,P-GPS,,50.6
265100,2026-01-08 12:32:19,0.223694,5,7.749,0.223694,0.0,0.0,12.4,11.3,5.1,1024,1024,1024,1024,0,0,0,0,82,4.073,73.04,166.010504,P-GPS,,50.6
265200,2026-01-08 12:32:20,0.223694,5,7.749,0.223694,0.0,0.0,12.4,11.2,5.0,1024,1024,1024,1024,0,0,0,0,82,4.073,73.04,166.010504,P-GPS,,50.6
265300,2026-01-08 12:32:20,0.0,5,7.749,0.0,0.0,0.0,12.3,10.9,5.7,1024,1024,1024,1024,0,0,0,0,82,4.073,73.04,165.68242,P-GPS,,50.5
265400,2026-01-08 12:32:20,0.223694,5,7.749,0.223694,0.0,0.0,12.4,10.8,6.2,1024,1024,1024,1024,0,0,0,0,82,4.073,73.04,165.68242,P-GPS,,50.5
265500,2026-01-08 12:32:20,0.0,5,7.749,0.0,0.0,0.0,12.5,10.8,6.1,1024,1024,1024,1024,0,0,0,0,82,4.073,73.04,165.68242,P-GPS,,50.5
265600,2026-01-08 12:32:20,0.0,5,7.749,0.0,0.0,0.0,12.5,10.6,6.3,1024,1024,1024,1024,0,0,0,0,82,4.073,73.04,165.354336,P-GPS,,50.4
265700,2026-01-08 12:32:20,0.0,5,7.749,0.0,0.0,0.0,12.5,10.7,6.4,1024,1024,1024,1024,0,0,0,0,82,4.073,73.04,165.354336,P-GPS,,50.4
265800,2026-01-08 12:32:20,0.0,5,7.749,0.0,0.0,0.0,12.5,11.3,6.8,1024,1024,1024,1024,0,0,0,0,82,4.073,73.04,165.354336,P-GPS,,50.4
265900,2026-01-08 12:32:20,0.0,5,7.749,0.0,0.0,0.0,12.6,11.1,6.9,1024,1024,1024,1024,0,0,0,0,82,4.073,73.04,165.354336,P-GPS,,50.4
266000,2026-01-08 12:32:20,0.0,5,7.749,0.0,0.0,0.0,12.6,10.7,7.3,1024,1024,1024,1024,0,0,0,0,82,4.073,73.04,165.354336,P-GPS,,50.4
266100,2026-01-08 12:32:20,0.0,5,7.749,0.0,0.0,0.0,12.6,10.4,7.4,1024,1024,1024,1024,0,0,0,0,82,4.073,73.04,165.354336,P-GPS,,50.4
266200,2026-01-08 12:32:21,0.0,5,7.749,0.0,0.0,0.0,12.6,10.3,7.3,1024,1024,1024,1024,0,0,0,0,82,4.073,73.04,165.354336,P-GPS,,50.4
266300,2026-01-08 12:32:21,0.0,5,7.749,0.0,0.0,0.0,12.6,10.2,7.8,1024,1024,1024,1024,0,0,0,0,82,4.073,73.04,165.354336,P-GPS,,50.4
266400,2026-01-08 12:32:21,0.0,5,7.749,0.0,0.0,0.0,12.7,10.4,7.9,1024,1024,1024,1024,0,0,0,0,82,4.073,73.04,165.68242,P-GPS,,50.5
266500,2026-01-08 12:32:21,0.0,5,7.749,0.0,0.0,0.0,12.7,10.1,8.2,1024,1024,1024,1024,0,0,0,0,82,4.073,73.04,165.68242,P-GPS,,50.5
266600,2026-01-08 12:32:21,0.0,5,7.749,0.0,0.0,0.0,12.7,10.4,8.1,1024,1024,1024,1024,0,0,0,0,82,4.073,73.04,165.354336,P-GPS,,50.4
266700,2026-01-08 12:32:21,0.0,5,7.749,0.0,0.0,0.0,12.6,9.3,8.0,1024,1024,1024,1024,0,0,0,0,82,4.073,73.04,165.354336,P-GPS,,50.4
266800,2026-01-08 12:32:21,0.0,5,7.749,0.0,0.0,0.0,12.5,9.5,7.7,1024,1024,1024,1024,0,0,0,0,82,4.073,73.04,165.354336,P-GPS,,50.4
266900,2026-01-08 12:32:21,0.0,5,7.749,0.0,0.0,0.0,12.5,9.5,7.5,1024,1024,1024,1024,0,0,0,0,82,4.073,73.04,165.354336,P-GPS,,50.4
267000,2026-01-08 12:32:21,0.0,5,7.749,0.0,0.0,0.0,12.5,8.9,7.1,1024,1024,1024,1024,0,0,0,0,82,4.073,73.04,165.354336,P-GPS,,50.4
267100,2026-01-08 12:32:21,0.0,5,7.749,0.0,0.0,0.0,12.4,8.9,6.6,1024,1024,1024,1024,0,0,0,0,82,4.073,73.04,165.026252,P-GPS,,50.3
267200,2026-01-08 12:32:22,0.0,5,7.749,0.0,0.0,0.0,12.5,8.8,6.2,1024,1024,1024,1024,0,0,0,0,82,4.073,73.04,165.026252,P-GPS,,50.3
267300,2026-01-08 12:32:22,0.0,5,7.725,0.0,0.0,0.0,12.5,9.3,6.2,1024,1024,1024,1024,0,0,0,0,82,3.878,73.04,165.026252,P-GPS,,50.3
267400,2026-01-08 12:32:22,0.0,5,7.725,0.0,0.0,0.0,12.4,8.8,6.0,1024,1024,1024,1024,0,0,0,0,82,3.878,73.04,165.026252,P-GPS,,50.3
267500,2026-01-08 12:32:22,0.0,5,7.725,0.0,0.0,0.0,12.4,8.4,6.0,1024,1024,1024,1024,0,0,0,0,82,3.878,73.04,164.698168,P-GPS,,50.2
267600,2026-01-08 12:32:22,0.0,5,7.725,0.0,0.0,0.0,12.4,9.4,6.3,1024,1024,1024,1024,0,0,0,0,82,3.878,73.04,164.698168,P-GPS,,50.2
267700,2026-01-08 12:32:22,0.0,5,7.725,0.0,0.0,0.0,12.4,9.7,5.9,1024,1024,1024,1024,0,0,0,0,82,3.878,73.04,164.698168,P-GPS,,50.2
267800,2026-01-08 12:32:22,0.0,5,7.725,0.0,0.0,0.0,12.4,10.0,5.6,1024,1024,1024,1024,0,0,0,0,82,3.878,73.04,164.698168,P-GPS,,50.2
267900,2026-01-08 12:32:22,0.0,5,7.725,0.0,0.0,0.0,12.3,9.6,5.5,1024,1024,1024,1024,0,0,0,0,82,3.878,73.04,164.698168,P-GPS,,50.2
268000,2026-01-08 12:32:22,0.0,5,7.725,0.0,0.0,-0.223694,12.3,9.5,5.5,1024,1024,1024,1024,0,0,0,0,82,3.878,73.04,164.698168,P-GPS,,50.2
268100,2026-01-08 12:32:22,0.0,5,7.725,0.0,0.0,-0.223694,12.3,9.1,5.7,1024,1024,1024,1024,0,0,0,0,82,3.878,73.04,164.698168,P-GPS,,50.2
268200,2026-01-08 12:32:23,0.0,5,7.725,0.0,0.0,-0.223694,12.4,10.0,5.6,1024,1024,1024,1024,0,0,0,0,82,3.878,73.04,164.698168,P-GPS,,50.2
268300,2026-01-08 12:32:23,0.0,5,7.725,0.0,0.0,-0.223694,12.4,10.4,5.5,1024,1024,1024,1024,0,0,0,0,82,3.878,73.04,164.698168,P-GPS,,50.2
268400,2026-01-08 12:32:23,0.0,5,7.725,0.0,0.0,0.0,12.4,10.8,5.5,1024,1024,1024,1024,0,0,0,0,82,3.878,73.04,164.370084,P-GPS,,50.1
268500,2026-01-08 12:32:23,0.0,5,7.737,0.0,0.0,0.0,12.5,10.5,5.4,1024,1024,1024,1024,0,0,0,0,82,3.988,73.04,164.370084,P-GPS,,50.1
268600,2026-01-08 12:32:23,0.0,5,7.737,0.0,0.0,0.0,12.6,11.7,5.6,1024,1024,1024,1024,0,0,0,0,82,3.988,73.04,164.370084,P-GPS,,50.1
268700,2026-01-08 12:32:23,0.0,5,7.737,0.0,0.0,0.0,12.6,10.9,5.5,1024,1024,1024,1024,0,0,0,0,82,3.988,73.04,164.370084,P-GPS,,50.1
268800,2026-01-08 12:32:23,0.0,5,7.737,0.0,0.0,0.0,12.4,11.0,5.1,1024,1024,1024,1024,0,0,0,0,82,3.988,73.04,164.370084,P-GPS,,50.1
268900,2026-01-08 12:32:23,0.0,5,7.737,0.0,0.0,0.0,12.4,11.0,4.9,1024,1024,1024,1024,0,0,0,0,82,3.988,73.04,164.698168,P-GPS,,50.2
269000,2026-01-08 12:32:23,0.0,5,7.737,0.0,0.0,0.0,12.3,11.1,4.8,1024,1024,1024,1024,0,0,0,0,82,3.988,73.04,164.698168,P-GPS,,50.2
269100,2026-01-08 12:32:23,0.0,5,7.737,0.0,0.0,0.0,12.5,11.4,4.7,1024,1024,1024,1024,0,0,0,0,82,3.988,73.04,164.698168,P-GPS,,50.2
269200,2026-01-08 12:32:24,0.0,5,7.737,0.0,0.0,0.0,12.5,11.2,4.9,1024,1024,1024,1024,0,0,0,0,82,3.988,73.04,164.698168,P-GPS,,50.2
269300,2026-01-08 12:32:24,0.0,5,7.737,0.0,0.0,0.0,12.5,11.8,4.5,1024,1024,1024,1024,0,0,0,0,82,3.988,73.04,164.698168,P-GPS,,50.2
269400,2026-01-08 12:32:24,0.0,5,7.737,0.0,0.0,0.0,12.6,12.3,4.7,1024,1024,1024,1024,0,0,0,0,82,3.988,73.04,164.698168,P-GPS,,50.2
269500,2026-01-08 12:32:24,0.0,5,7.737,0.0,0.0,0.0,12.6,12.5,4.6,1024,1024,1024,1024,0,0,0,0,82,3.988,73.04,165.026252,P-GPS,,50.3
269600,2026-01-08 12:32:24,0.0,5,7.663,0.0,0.0,0.0,12.7,12.9,4.3,1024,1024,1024,1024,0,0,0,0,81,4.729,73.04,165.026252,P-GPS,,50.3
269700,2026-01-08 12:32:24,0.0,5,7.663,0.0,0.0,0.0,12.7,13.2,4.2,1024,1024,1024,1024,0,0,0,0,81,4.729,73.04,165.026252,P-GPS,,50.3
269800,2026-01-08 12:32:24,0.223694,5,7.663,0.223694,0.0,0.0,12.7,13.8,3.6,1024,1024,1024,1024,0,0,0,0,81,4.729,73.04,165.026252,P-GPS,,50.3
269900,2026-01-08 12:32:24,0.223694,5,7.663,0.223694,0.0,0.0,12.5,14.4,3.6,1024,1024,1024,1024,0,0,0,0,81,4.729,73.04,165.026252,P-GPS,,50.3
270000,2026-01-08 12:32:24,0.0,5,7.663,0.0,0.0,0.223694,12.5,14.8,3.3,1024,1024,1024,1024,0,0,0,0,81,4.729,73.04,165.354336,P-GPS,,50.4
270100,2026-01-08 12:32:24,0.0,5,7.663,0.0,0.0,0.0,12.4,13.6,2.8,1024,1024,1024,1024,0,0,0,0,81,4.729,73.04,165.354336,P-GPS,,50.4
270200,2026-01-08 12:32:24,0.0,5,7.663,0.0,0.0,0.0,12.4,13.1,4.2,1024,1024,1024,1024,0,0,0,0,81,4.729,73.04,165.68242,P-GPS,,50.5
270300,2026-01-08 12:32:25,0.0,5,7.663,0.0,0.0,0.0,12.5,13.4,4.6,1024,1024,1024,1024,0,0,0,0,81,4.729,73.04,165.68242,P-GPS,,50.5
270400,2026-01-08 12:32:25,0.0,5,7.663,0.0,0.0,0.0,12.5,14.2,4.3,1024,1024,1024,1024,0,0,0,0,81,4.729,73.04,165.68242,P-GPS,,50.5
270500,2026-01-08 12:32:25,0.0,5,7.663,0.0,0.0,0.0,12.5,14.2,4.1,1024,1024,1024,1024,0,0,0,0,81,4.729,73.04,166.010504,P-GPS,,50.6
270600,2026-01-08 12:32:25,0.0,5,7.663,0.0,0.0,0.0,12.6,13.7,5.3,1024,1024,1024,1024,0,0,0,0,81,4.729,73.04,166.010504,P-GPS,,50.6
270700,2026-01-08 12:32:25,0.223694,5,7.593,0.223694,0.0,0.0,12.7,14.9,5.0,1024,1024,1024,1024,0,0,0,0,81,6.531,73.04,166.338588,P-GPS,,50.7
270800,2026-01-08 12:32:25,0.0,5,7.593,0.0,0.0,0.0,12.6,14.8,5.2,1024,1024,1024,1024,0,0,0,0,81,6.531,73.04,166.338588,P-GPS,,50.7
270900,2026-01-08 12:32:25,0.0,5,7.593,0.0,0.0,0.0,12.8,13.8,5.4,1024,1024,1024,1024,0,0,0,0,81,6.531,73.04,166.338588,P-GPS,,50.7
271000,2026-01-08 12:32:25,0.0,5,7.593,0.0,0.0,0.0,12.7,13.2,4.4,1024,1024,1024,1024,0,0,0,0,81,6.531,73.04,166.338588,P-GPS,,50.7
271100,2026-01-08 12:32:25,0.0,5,7.593,0.0,0.0,0.0,12.6,13.3,3.4,1024,1024,1024,1024,0,0,0,0,81,6.531,73.04,166.338588,P-GPS,,50.7
271200,2026-01-08 12:32:26,0.0,5,7.593,0.0,0.0,0.0,12.4,13.4,2.9,1024,1024,1024,1024,0,0,0,0,81,6.531,73.04,166.010504,P-GPS,,50.6
271300,2026-01-08 12:32:26,0.0,5,7.593,0.0,0.0,0.0,12.4,12.6,2.7,1024,1024,1024,1024,0,0,0,0,81,6.531,73.04,166.010504,P-GPS,,50.6
271400,2026-01-08 12:32:26,0.0,5,7.593,0.0,0.0,0.0,12.4,12.3,2.5,1024,1024,1024,1024,0,0,0,0,81,6.531,73.04,166.010504,P-GPS,,50.6
271500,2026-01-08 12:32:26,0.0,5,7.593,0.0,0.0,0.0,12.3,12.3,2.2,1024,1024,1024,1024,0,0,0,0,81,6.531,73.04,165.68242,P-GPS,,50.5
271600,2026-01-08 12:32:26,0.0,5,7.593,0.0,0.0,0.0,12.2,12.0,2.0,1024,1024,1024,1024,0,0,0,0,81,6.531,73.04,165.68242,P-GPS,,50.5
271700,2026-01-08 12:32:26,0.0,5,7.593,0.0,0.0,0.0,12.3,11.5,2.6,1024,1024,1024,1024,0,0,0,0,81,6.531,73.04,165.68242,P-GPS,,50.5
271800,2026-01-08 12:32:26,0.0,5,7.653,0.0,0.0,0.0,12.3,11.9,3.1,1024,1024,1024,1024,0,0,0,0,81,5.801,73.22,165.68242,P-GPS,,50.5
271900,2026-01-08 12:32:26,0.0,5,7.653,0.0,0.0,0.0,12.4,10.9,3.2,1024,1024,1024,1024,0,0,0,0,81,5.801,73.22,165.68242,P-GPS,,50.5
272000,2026-01-08 12:32:26,0.0,5,7.653,0.0,0.0,0.0,12.5,11.1,4.1,1024,1024,1024,1024,0,0,0,0,81,5.801,73.22,165.68242,P-GPS,,50.5
272100,2026-01-08 12:32:26,0.0,5,7.653,0.0,0.0,0.0,12.4,10.6,4.1,1024,1024,1024,1024,0,0,0,0,81,5.801,73.22,166.010504,P-GPS,,50.6
272200,2026-01-08 12:32:26,0.0,5,7.653,0.0,0.0,-0.223694,12.4,10.4,4.4,1024,1024,1024,1024,0,0,0,0,81,5.801,73.22,166.010504,P-GPS,,50.6
272300,2026-01-08 12:32:27,0.0,5,7.653,0.0,0.0,-0.223694,12.3,10.1,4.7,1024,1024,1024,1024,0,0,0,0,81,5.801,73.22,166.010504,P-GPS,,50.6
272400,2026-01-08 12:32:27,0.0,5,7.653,0.0,0.0,-0.223694,12.3,11.5,4.9,1024,1024,1024,1024,0,0,0,0,81,5.801,73.22,166.010504,P-GPS,,50.6
272500,2026-01-08 12:32:27,0.0,5,7.653,0.0,0.0,0.0,12.4,13.2,5.4,1024,1024,1024,1024,0,0,0,0,81,5.801,73.22,166.010504,P-GPS,,50.6
272600,2026-01-08 12:32:27,0.0,5,7.653,0.0,0.0,0.223694,12.5,13.1,4.2,1024,1024,1024,1024,0,0,0,0,81,5.801,73.22,166.010504,P-GPS,,50.6
272700,2026-01-08 12:32:27,0.0,5,7.653,0.0,0.0,0.0,12.4,11.8,3.3,1024,1024,1024,1024,0,0,0,0,81,5.801,73.22,166.010504,P-GPS,,50.6
272800,2026-01-08 12:32:27,0.0,5,7.653,0.0,0.0,0.0,12.4,12.0,3.4,1024,1024,1024,1024,0,0,0,0,81,5.801,73.22,166.010504,P-GPS,,50.6
272900,2026-01-08 12:32:27,0.0,5,7.653,0.0,0.0,0.0,12.4,11.5,3.2,1024,1024,1024,1024,0,0,0,0,81,5.796,73.22,166.010504,P-GPS,,50.6
273000,2026-01-08 12:32:27,0.0,5,7.653,0.0,0.0,-0.223694,12.2,12.1,3.8,1024,1024,1024,1024,0,0,0,0,81,5.796,73.22,166.010504,P-GPS,,50.6
273100,2026-01-08 12:32:27,0.0,5,7.653,0.0,0.0,0.0,12.3,12.4,4.1,1024,1024,1024,1024,0,0,0,0,81,5.796,73.22,166.010504,P-GPS,,50.6
273200,2026-01-08 12:32:28,0.0,5,7.653,0.0,0.0,0.0,12.3,11.7,4.7,1024,1024,1024,1024,0,0,0,0,81,5.796,73.22,166.010504,P-GPS,,50.6
273300,2026-01-08 12:32:28,0.0,5,7.653,0.0,0.0,0.0,12.3,11.3,5.0,1024,1024,1024,1024,0,0,0,0,81,5.796,73.22,166.010504,P-GPS,,50.6
273400,2026-01-08 12:32:28,0.0,5,7.653,0.0,0.0,0.0,12.3,11.2,4.6,1024,1024,1024,1024,0,0,0,0,81,5.796,73.22,166.010504,P-GPS,,50.6
273500,2026-01-08 12:32:28,0.0,5,7.653,0.0,0.0,0.0,12.3,10.5,4.4,1024,1024,1024,1024,0,0,0,0,81,5.796,73.22,166.010504,P-GPS,,50.6
273600,2026-01-08 12:32:28,0.0,5,7.653,0.0,0.0,0.0,12.3,10.6,3.8,1024,1024,1024,1024,0,0,0,0,81,5.796,73.22,166.010504,P-GPS,,50.6
273700,2026-01-08 12:32:28,0.0,5,7.653,0.0,0.0,-0.223694,12.2,10.6,3.8,1024,1024,1024,1024,0,0,0,0,81,5.796,73.22,166.010504,P-GPS,,50.6
273800,2026-01-08 12:32:28,0.0,5,7.653,0.0,0.0,-0.223694,12.2,11.0,4.1,1024,1024,1024,1024,0,0,0,0,81,5.796,73.22,166.010504,P-GPS,,50.6
273900,2026-01-08 12:32:28,0.0,5,7.653,0.0,0.0,0.0,12.4,11.3,4.7,1024,1024,1024,1024,0,0,0,0,81,5.796,73.22,165.68242,P-GPS,,50.5
274000,2026-01-08 12:32:28,0.0,5,7.681,0.0,0.0,0.0,12.3,11.4,5.0,1024,1024,1024,1024,0,0,0,0,81,4.938,73.22,165.68242,P-GPS,,50.5
274100,2026-01-08 12:32:28,0.0,5,7.681,0.0,0.0,0.0,12.2,11.2,4.7,1024,1024,1024,1024,0,0,0,0,81,4.938,73.22,165.68242,P-GPS,,50.5
274200,2026-01-08 12:32:29,0.0,5,7.681,0.0,0.0,0.0,12.2,10.9,4.5,1024,1024,1024,1024,0,0,0,0,81,4.938,73.22,165.68242,P-GPS,,50.5
274300,2026-01-08 12:32:29,0.0,5,7.681,0.0,0.0,0.0,12.2,10.9,4.4,1024,1024,1024,1024,0,0,0,0,81,4.938,73.22,165.68242,P-GPS,,50.5
274400,2026-01-08 12:32:29,0.0,5,7.681,0.0,0.0,0.0,12.3,11.4,3.9,1024,1024,1024,1024,0,0,0,0,81,4.938,73.22,165.68242,P-GPS,,50.5
274500,2026-01-08 12:32:29,0.0,5,7.681,0.0,0.0,0.0,12.5,12.6,3.4,1024,1024,1024,1024,0,0,0,0,81,4.938,73.22,165.68242,P-GPS,,50.5
274600,2026-01-08 12:32:29,0.0,5,7.681,0.0,0.0,0.0,12.4,11.9,3.2,1024,1024,1024,1024,0,0,0,0,81,4.938,73.22,165.68242,P-GPS,,50.5
274700,2026-01-08 12:32:29,0.0,5,7.681,0.0,0.0,0.0,12.4,11.2,3.3,1024,1024,1024,1024,0,0,0,0,81,4.938,73.22,165.68242,P-GPS,,50.5
274800,2026-01-08 12:32:29,0.0,5,7.681,0.0,0.0,-0.223694,12.4,11.8,3.1,1024,1024,1024,1024,0,0,0,0,81,4.938,73.22,165.68242,P-GPS,,50.5
274900,2026-01-08 12:32:29,0.0,5,7.681,0.0,0.0,-0.223694,12.4,12.0,3.4,1024,1024,1024,1024,0,0,0,0,81,4.938,73.22,165.68242,P-GPS,,50.5
275000,2026-01-08 12:32:29,0.0,5,7.681,0.0,0.0,0.0,12.4,12.1,3.4,1024,1024,1024,1024,0,0,0,0,81,4.938,73.22,165.68242,P-GPS,,50.5
275100,2026-01-08 12:32:29,0.0,5,7.641,0.0,0.0,0.0,12.4,12.7,3.4,1024,1024,1024,1024,0,0,0,0,81,5.201,73.22,165.68242,P-GPS,,50.5
275200,2026-01-08 12:32:29,0.0,5,7.641,0.0,0.0,0.0,12.5,12.7,3.2,1024,1024,1024,1024,0,0,0,0,81,5.201,73.22,165.68242,P-GPS,,50.5
275300,2026-01-08 12:32:30,0.0,5,7.641,0.0,0.0,0.0,12.4,12.4,3.3,1024,1024,1024,1024,0,0,0,0,81,5.201,73.22,165.68242,P-GPS,,50.5
275400,2026-01-08 12:32:30,0.0,5,7.641,0.0,0.0,0.0,12.3,12.5,3.5,1024,1024,1024,1024,0,0,0,0,81,5.201,73.22,165.68242,P-GPS,,50.5
275500,2026-01-08 12:32:30,0.0,5,7.641,0.0,0.0,0.0,12.3,12.2,4.2,1024,1024,1024,1024,0,0,0,0,81,5.201,73.22,166.010504,P-GPS,,50.6
275600,2026-01-08 12:32:30,0.0,5,7.641,0.0,0.0,0.0,12.4,12.2,4.5,1024,1024,1024,1024,0,0,0,0,81,5.201,73.22,166.010504,P-GPS,Strong wind warning Strong wind warning. Aircraft unable to return to home automatically. Lower altitude immediately and return to home manually (Code: 30149). SD card speed low. Normal use may be affected. Replace SD card (Code: 10028). Gimbal stuck. Make sure gimbal c,50.6
275700,2026-01-08 12:32:30,0.0,5,7.641,0.0,0.0,0.0,12.5,12.1,4.5,1024,1024,1024,1024,0,0,0,0,81,5.201,73.22,166.010504,P-GPS,,50.6
275800,2026-01-08 12:32:30,0.0,5,7.641,0.0,0.0,0.0,12.5,12.3,4.5,1024,1024,1024,1024,0,0,0,0,81,5.201,73.22,166.010504,P-GPS,,50.6
275900,2026-01-08 12:32:30,0.0,5,7.641,0.0,0.0,0.0,12.4,11.9,4.2,1024,1024,1024,1024,0,0,0,0,81,5.201,73.22,166.010504,P-GPS,,50.6
276000,2026-01-08 12:32:30,0.0,5,7.641,0.0,0.0,0.0,12.4,11.9,4.7,1024,1024,1024,1024,0,0,0,0,81,5.201,73.22,166.010504,P-GPS,,50.6
276100,2026-01-08 12:32:30,0.0,5,7.641,0.0,0.0,0.0,12.4,11.1,4.3,1024,1024,1024,1024,0,0,0,0,81,5.201,73.22,166.010504,P-GPS,,50.6
276200,2026-01-08 12:32:31,0.0,5,7.638,0.0,0.0,0.0,12.4,11.7,4.8,1024,1024,1024,1024,0,0,0,0,81,5.229,73.22,166.010504,P-GPS,,50.6
276300,2026-01-08 12:32:31,0.0,5,7.638,0.0,0.0,0.0,12.3,11.7,5.1,1024,1024,1024,1024,0,0,0,0,81,5.229,73.22,166.010504,P-GPS,,50.6
276400,2026-01-08 12:32:31,0.0,5,7.638,0.0,0.0,0.0,12.3,11.4,5.6,1024,1024,1024,1024,0,0,0,0,81,5.229,73.22,166.338588,P-GPS,,50.7
276500,2026-01-08 12:32:31,0.0,5,7.638,0.0,0.0,0.0,12.2,10.9,5.6,1024,1024,1024,1024,0,0,0,0,81,5.229,73.22,166.010504,P-GPS,,50.6
276600,2026-01-08 12:32:31,0.0,5,7.638,0.0,0.0,0.0,12.2,10.5,5.5,1024,1024,1024,1024,0,0,0,0,81,5.229,73.22,166.010504,P-GPS,,50.6
276700,2026-01-08 12:32:31,0.0,5,7.638,0.0,0.0,0.0,12.3,11.0,5.2,1024,1024,1024,1024,0,0,0,0,81,5.229,73.22,166.010504,P-GPS,,50.6
276800,2026-01-08 12:32:31,0.0,5,7.638,0.0,0.0,0.0,12.3,10.7,5.2,1024,1024,1024,1024,0,0,0,0,81,5.229,73.22,166.010504,P-GPS,,50.6
276900,2026-01-08 12:32:31,0.0,5,7.638,0.0,0.0,0.0,12.2,10.0,4.9,1024,1024,1024,1024,0,0,0,0,81,5.229,73.22,166.010504,P-GPS,,50.6
277000,2026-01-08 12:32:31,0.0,5,7.638,0.0,0.0,0.0,12.3,10.4,4.7,1024,1024,1024,1024,0,0,0,0,81,5.229,73.22,166.010504,P-GPS,,50.6
277100,2026-01-08 12:32:31,0.0,5,7.638,0.0,0.0,0.0,12.2,10.5,4.8,1024,1024,1024,1024,0,0,0,0,81,5.229,73.22,166.010504,P-GPS,,50.6
277200,2026-01-08 12:32:32,0.0,5,7.638,0.0,0.0,0.0,12.2,9.8,5.1,1024,1024,1024,1024,0,0,0,0,81,5.229,73.22,166.010504,P-GPS,,50.6
277300,2026-01-08 12:32:32,0.0,5,7.638,0.0,0.0,0.0,12.3,9.7,5.2,1024,1024,1024,1024,0,0,0,0,81,5.229,73.22,165.68242,P-GPS,,50.5
277400,2026-01-08 12:32:32,0.0,5,7.638,0.0,0.0,0.0,12.4,10.3,5.3,1024,1024,1024,1024,0,0,0,0,81,5.229,73.22,165.68242,P-GPS,,50.5
277500,2026-01-08 12:32:32,0.0,5,7.638,0.0,0.0,0.0,12.3,9.8,5.1,1024,1024,1024,1024,0,0,0,0,81,5.229,73.22,165.68242,P-GPS,,50.5
277600,2026-01-08 12:32:32,0.0,5,7.638,0.0,0.0,0.0,12.3,10.1,5.2,1024,1024,1024,1024,0,0,0,0,81,5.229,73.22,165.68242,P-GPS,,50.5
277700,2026-01-08 12:32:32,0.0,5,7.638,0.0,0.0,0.0,12.3,9.8,5.0,1024,1024,1024,1024,0,0,0,0,81,5.229,73.22,165.68242,P-GPS,,50.5
277800,2026-01-08 12:32:32,0.0,5,7.638,0.0,0.0,0.0,12.4,10.1,5.1,1024,1024,1024,1024,0,0,0,0,81,5.229,73.22,165.354336,P-GPS,,50.4
277900,2026-01-08 12:32:32,0.0,5,7.638,0.0,0.0,0.0,12.3,10.3,4.9,1024,1024,1024,1024,0,0,0,0,81,5.229,73.22,165.354336,P-GPS,,50.4
278000,2026-01-08 12:32:32,0.0,5,7.638,0.0,0.0,0.0,12.4,10.9,4.3,1024,1024,1024,1024,0,0,0,0,81,5.229,73.22,165.354336,P-GPS,,50.4
278100,2026-01-08 12:32:32,0.0,5,7.638,0.0,0.0,0.0,12.3,11.0,3.7,1024,1024,1024,1024,0,0,0,0,81,5.229,73.22,165.354336,P-GPS,,50.4
278200,2026-01-08 12:32:33,0.0,5,7.638,0.0,0.0,0.0,12.2,10.8,3.2,1024,1024,1024,1024,0,0,0,0,81,5.229,73.22,165.354336,P-GPS,,50.4
278300,2026-01-08 12:32:33,0.0,5,7.69,0.0,0.0,0.0,12.2,10.2,3.0,1024,1024,1024,1024,0,0,0,0,81,4.557,73.22,165.354336,P-GPS,,50.4
278400,2026-01-08 12:32:33,0.0,5,7.69,0.0,0.0,0.0,12.1,9.9,3.3,1024,1024,1024,1024,0,0,0,0,81,4.557,73.22,165.354336,P-GPS,,50.4
278500,2026-01-08 12:32:33,0.0,5,7.69,0.0,0.0,0.0,12.2,10.1,3.3,1024,1024,1024,1024,0,0,0,0,81,4.557,73.22,165.354336,P-GPS,,50.4
278600,2026-01-08 12:32:33,0.0,5,7.69,0.0,0.0,0.0,12.3,10.4,3.4,1024,1024,1024,1024,0,0,0,0,81,4.557,73.22,165.354336,P-GPS,,50.4
278700,2026-01-08 12:32:33,0.0,5,7.69,0.0,0.0,0.0,12.3,10.5,3.7,1024,1024,1024,1024,0,0,0,0,81,4.557,73.22,165.354336,P-GPS,,50.4
278800,2026-01-08 12:32:33,0.0,5,7.69,0.0,0.0,0.0,12.2,10.1,3.7,1024,1024,1024,1024,0,0,0,0,81,4.557,73.22,165.354336,P-GPS,,50.4
278900,2026-01-08 12:32:33,0.0,5,7.69,0.0,0.0,0.0,12.3,10.4,4.4,1024,1024,1024,1024,0,0,0,0,81,4.557,73.22,165.354336,P-GPS,,50.4
279000,2026-01-08 12:32:33,0.0,5,7.69,0.0,0.0,0.0,12.3,10.1,4.4,1024,1024,1024,1024,0,0,0,0,81,4.557,73.22,165.354336,P-GPS,,50.4
279100,2026-01-08 12:32:33,0.0,5,7.69,0.0,0.0,0.0,12.3,10.4,4.8,1024,1024,1024,1024,0,0,0,0,81,4.557,73.22,165.354336,P-GPS,,50.4
279200,2026-01-08 12:32:33,0.0,5,7.69,0.0,0.0,0.0,12.3,10.5,4.7,1024,1024,1024,1024,0,0,0,0,81,4.557,73.22,165.354336,P-GPS,,50.4
279300,2026-01-08 12:32:34,0.0,5,7.69,0.0,0.0,0.0,12.4,12.3,4.3,1024,1024,1024,1024,0,0,0,0,81,4.557,73.22,165.354336,P-GPS,,50.4
279400,2026-01-08 12:32:34,0.0,5,7.69,0.0,0.0,0.0,12.5,12.7,4.2,1024,1024,1024,1024,0,0,0,0,81,4.557,73.22,165.354336,P-GPS,,50.4
279500,2026-01-08 12:32:34,0.0,5,7.689,0.0,0.0,0.0,12.5,13.2,3.4,1024,1024,1024,1024,0,0,0,0,81,4.372,73.22,165.354336,P-GPS,,50.4
279600,2026-01-08 12:32:34,0.0,5,7.689,0.0,0.0,0.0,12.5,12.7,3.1,1024,1024,1024,1024,0,0,0,0,81,4.372,73.22,165.354336,P-GPS,,50.4
279700,2026-01-08 12:32:34,0.0,5,7.689,0.0,0.0,0.0,12.5,12.8,3.1,1024,1024,1024,1024,0,0,0,0,81,4.372,73.22,165.354336,P-GPS,,50.4
279800,2026-01-08 12:32:34,0.0,5,7.689,0.0,0.0,0.0,12.5,12.6,2.5,1024,1024,1024,1024,0,0,0,0,81,4.372,73.22,165.354336,P-GPS,,50.4
279900,2026-01-08 12:32:34,0.0,5,7.689,0.0,0.0,0.0,12.4,12.4,3.1,1024,1024,1024,1024,0,0,0,0,81,4.372,73.22,165.354336,P-GPS,,50.4
280000,2026-01-08 12:32:34,0.0,5,7.689,0.0,0.0,0.0,12.3,11.9,3.7,1024,1024,1024,1024,0,0,0,0,81,4.372,73.22,165.354336,P-GPS,,50.4
280100,2026-01-08 12:32:34,0.0,5,7.689,0.0,0.0,-0.223694,12.3,12.7,3.6,1024,1024,1024,1024,0,0,0,0,81,4.372,73.22,165.68242,P-GPS,,50.5
280200,2026-01-08 12:32:35,0.0,5,7.689,0.0,0.0,0.0,12.3,12.4,4.1,1024,1024,1024,1024,0,0,0,0,81,4.372,73.22,165.68242,P-GPS,,50.5
280300,2026-01-08 12:32:35,0.0,5,7.689,0.0,0.0,0.0,12.5,12.0,4.2,1024,1024,1024,1024,0,0,0,0,81,4.372,73.22,165.68242,P-GPS,,50.5
280400,2026-01-08 12:32:35,0.0,5,7.689,0.0,0.0,0.0,12.5,11.8,4.5,1024,1024,1024,1024,0,0,0,0,81,4.372,73.22,165.68242,P-GPS,,50.5
280500,2026-01-08 12:32:35,0.0,5,7.689,0.0,0.0,0.0,12.4,12.0,4.6,1024,1024,1024,1024,0,0,0,0,81,4.372,73.22,165.68242,P-GPS,,50.5
280600,2026-01-08 12:32:35,0.0,5,7.666,0.0,0.0,0.0,12.4,11.8,4.7,1024,1024,1024,1024,0,0,0,0,81,5.067,73.4,165.68242,P-GPS,,50.5
280700,2026-01-08 12:32:35,0.0,5,7.666,0.0,0.0,0.0,12.4,11.6,4.5,1024,1024,1024,1024,0,0,0,0,81,5.067,73.4,165.68242,P-GPS,,50.5
280800,2026-01-08 12:32:35,0.0,5,7.666,0.0,0.0,0.0,12.4,11.7,4.1,1024,1024,1024,1024,0,0,0,0,81,5.067,73.4,165.68242,P-GPS,,50.5
280900,2026-01-08 12:32:35,0.0,5,7.666,0.0,0.0,0.0,12.3,11.5,3.8,1024,1024,1024,1024,0,0,0,0,81,5.067,73.4,165.68242,P-GPS,,50.5
281000,2026-01-08 12:32:35,0.0,5,7.666,0.0,0.0,0.0,12.4,11.3,3.7,1024,1024,1024,1024,0,0,0,0,81,5.067,73.4,166.010504,P-GPS,,50.6
281100,2026-01-08 12:32:35,0.0,5,7.666,0.0,0.0,0.0,12.3,11.0,3.4,1024,1024,1024,1024,0,0,0,0,81,5.067,73.4,166.010504,P-GPS,,50.6
281200,2026-01-08 12:32:36,0.0,5,7.666,0.0,0.0,0.0,12.2,11.1,3.6,1024,1024,1024,1024,0,0,0,0,81,5.067,73.4,166.010504,P-GPS,,50.6
281300,2026-01-08 12:32:36,0.0,5,7.666,0.0,0.0,0.0,12.2,10.4,3.6,1024,1024,1024,1024,0,0,0,0,81,5.067,73.4,166.010504,P-GPS,,50.6
281400,2026-01-08 12:32:36,0.0,5,7.666,0.0,0.0,0.0,12.2,10.5,3.7,1024,1024,1024,1024,0,0,0,0,81,5.067,73.4,166.010504,P-GPS,,50.6
281500,2026-01-08 12:32:36,0.0,5,7.666,0.0,0.0,0.0,12.3,10.8,3.8,1024,1024,1024,1024,0,0,0,0,81,5.067,73.4,166.010504,P-GPS,,50.6
281600,2026-01-08 12:32:36,0.0,5,7.666,0.0,0.0,0.0,12.3,10.9,3.6,1024,1024,1024,1024,0,0,0,0,81,5.067,73.4,166.010504,P-GPS,,50.6
281700,2026-01-08 12:32:36,0.0,5,7.68,0.0,0.0,0.0,12.2,11.0,3.4,1024,1024,1024,1024,0,0,0,0,81,4.859,73.4,166.010504,P-GPS,,50.6
281800,2026-01-08 12:32:36,0.0,5,7.68,0.0,0.0,0.0,12.3,11.2,3.4,1024,1024,1024,1024,0,0,0,0,81,4.859,73.4,166.010504,P-GPS,,50.6
281900,2026-01-08 12:32:36,0.0,5,7.68,0.0,0.0,0.0,12.3,11.4,3.4,1024,1024,1024,1024,0,0,0,0,81,4.859,73.4,166.010504,P-GPS,,50.6
282000,2026-01-08 12:32:36,0.0,5,7.68,0.0,0.0,0.0,12.2,11.3,3.1,1024,1024,1024,1024,0,0,0,0,81,4.859,73.4,166.010504,P-GPS,,50.6
282100,2026-01-08 12:32:36,0.0,5,7.68,0.0,0.0,0.0,12.2,11.1,2.8,1024,1024,1024,1024,0,0,0,0,81,4.859,73.4,166.010504,P-GPS,,50.6
282200,2026-01-08 12:32:37,0.0,5,7.68,0.0,0.0,0.0,12.2,11.2,2.7,1024,1024,1024,1024,0,0,0,0,81,4.859,73.4,166.010504,P-GPS,,50.6
282300,2026-01-08 12:32:37,0.0,5,7.68,0.0,0.0,0.0,12.2,11.0,2.7,1024,1024,1024,1024,0,0,0,0,81,4.859,73.4,166.010504,P-GPS,,50.6
282400,2026-01-08 12:32:37,0.0,5,7.68,0.0,0.0,0.0,12.3,11.1,2.8,1024,1024,1024,1024,0,0,0,0,81,4.859,73.4,166.010504,P-GPS,,50.6
282500,2026-01-08 12:32:37,0.0,5,7.68,0.0,0.0,0.0,12.2,11.0,3.0,1024,1024,1024,1024,0,0,0,0,81,4.859,73.4,166.010504,P-GPS,,50.6
282600,2026-01-08 12:32:37,0.0,5,7.68,0.0,0.0,0.0,12.2,11.0,2.6,1024,1024,1024,1024,0,0,0,0,81,4.859,73.4,166.010504,P-GPS,,50.6
282700,2026-01-08 12:32:37,0.0,5,7.68,0.0,0.0,0.0,12.2,10.8,2.2,1024,1024,1024,1024,0,0,0,0,81,4.859,73.4,166.010504,P-GPS,,50.6
282800,2026-01-08 12:32:37,0.0,5,7.666,0.0,0.0,0.0,12.1,11.0,1.7,1024,1024,1024,1024,0,0,0,0,81,4.914,73.4,166.010504,P-GPS,,50.6
282900,2026-01-08 12:32:37,0.0,5,7.666,0.0,0.0,0.0,12.1,10.7,1.9,1024,1024,1024,1024,0,0,0,0,81,4.914,73.4,166.010504,P-GPS,,50.6
283000,2026-01-08 12:32:37,0.0,5,7.666,0.0,0.0,0.0,12.1,11.0,2.4,1024,1024,1024,1024,0,0,0,0,81,4.914,73.4,166.010504,P-GPS,,50.6
283100,2026-01-08 12:32:37,0.0,5,7.666,0.0,0.0,0.0,12.1,11.2,2.5,1024,1024,1024,1024,0,0,0,0,81,4.914,73.4,166.010504,P-GPS,,50.6
283200,2026-01-08 12:32:38,0.0,5,7.666,0.0,0.0,0.0,12.2,10.8,2.4,1024,1024,1024,1024,0,0,0,0,81,4.914,73.4,166.338588,P-GPS,,50.7
283300,2026-01-08 12:32:38,0.0,5,7.666,0.0,0.0,0.0,12.3,10.5,2.4,1024,1024,1024,1024,0,0,0,0,81,4.914,73.4,166.338588,P-GPS,,50.7
283400,2026-01-08 12:32:38,0.0,5,7.666,0.0,0.0,0.0,12.3,10.6,2.7,1024,1024,1024,1024,0,0,0,0,81,4.914,73.4,166.338588,P-GPS,,50.7
283500,2026-01-08 12:32:38,0.0,5,7.666,0.0,0.0,0.0,12.2,10.5,2.8,1024,1024,1024,1024,0,0,0,0,81,4.914,73.4,166.338588,P-GPS,,50.7
283600,2026-01-08 12:32:38,0.0,5,7.666,0.0,0.0,0.0,12.3,10.4,3.2,1024,1024,1024,1024,0,0,0,0,81,4.914,73.4,166.338588,P-GPS,,50.7
283700,2026-01-08 12:32:38,0.0,5,7.666,0.0,0.0,0.0,12.1,10.6,3.2,1024,1024,1024,1024,0,0,0,0,81,4.914,73.4,166.338588,P-GPS,,50.7
283800,2026-01-08 12:32:38,0.0,5,7.666,0.0,0.0,0.0,12.2,10.4,3.3,1024,1024,1024,1024,0,0,0,0,81,4.914,73.4,166.338588,P-GPS,,50.7
283900,2026-01-08 12:32:38,0.0,5,7.659,0.0,0.0,0.0,12.2,10.6,2.8,1024,1024,1024,1024,0,0,0,0,81,4.743,73.58,166.338588,P-GPS,,50.7
284000,2026-01-08 12:32:38,0.0,5,7.659,0.0,0.0,0.0,12.2,10.3,3.4,1024,1024,1024,1024,0,0,0,0,81,4.743,73.58,166.338588,P-GPS,,50.7
284100,2026-01-08 12:32:38,0.0,5,7.659,0.0,0.0,0.0,12.3,10.6,3.9,1024,1024,1024,1024,0,0,0,0,81,4.743,73.58,166.338588,P-GPS,,50.7
284200,2026-01-08 12:32:39,0.0,5,7.659,0.0,0.0,0.0,12.2,10.0,3.7,1024,1024,1024,1024,0,0,0,0,81,4.743,73.58,166.338588,P-GPS,,50.7
284300,2026-01-08 12:32:39,0.0,5,7.659,0.0,0.0,0.0,12.2,10.8,4.0,1024,1024,1024,1024,0,0,0,0,81,4.743,73.58,166.338588,P-GPS,,50.7
284400,2026-01-08 12:32:39,0.0,5,7.659,0.0,0.0,0.0,12.2,10.4,4.2,1024,1024,1024,1024,0,0,0,0,81,4.743,73.58,166.338588,P-GPS,,50.7
284500,2026-01-08 12:32:39,0.0,5,7.659,0.0,0.0,0.0,12.3,11.3,4.2,1024,1024,1024,1024,0,0,0,0,81,4.743,73.58,166.666672,P-GPS,,50.8
284600,2026-01-08 12:32:39,0.0,5,7.659,0.0,0.0,0.0,12.4,11.4,4.5,1024,1024,1024,1024,0,0,0,0,81,4.743,73.58,166.666672,P-GPS,,50.8
284700,2026-01-08 12:32:39,0.0,5,7.659,0.0,0.0,0.0,12.3,11.2,3.8,1024,1024,1024,1024,0,0,0,0,81,4.743,73.58,166.666672,P-GPS,,50.8
284800,2026-01-08 12:32:39,0.0,5,7.659,0.0,0.0,0.0,12.3,11.6,3.8,1024,1024,1024,1024,0,0,0,0,81,4.743,73.58,166.666672,P-GPS,,50.8
284900,2026-01-08 12:32:39,0.0,5,7.659,0.0,0.0,0.0,12.3,10.8,3.2,1024,1024,1024,1024,0,0,0,0,81,4.743,73.58,166.666672,P-GPS,,50.8
285000,2026-01-08 12:32:39,0.0,5,7.651,0.0,0.0,0.0,12.2,10.3,3.4,1024,1024,1024,1024,0,0,0,0,80,4.711,73.58,166.666672,P-GPS,,50.8
285100,2026-01-08 12:32:39,0.0,5,7.651,0.0,0.0,0.0,12.2,10.7,3.4,1024,1024,1024,1024,0,0,0,0,80,4.711,73.58,166.666672,P-GPS,,50.8
285200,2026-01-08 12:32:40,0.0,5,7.651,0.0,0.0,0.0,12.2,10.3,3.3,1024,1024,1024,1024,0,0,0,0,80,4.711,73.58,166.666672,P-GPS,,50.8
285300,2026-01-08 12:32:40,0.0,5,7.651,0.0,0.0,0.0,12.2,10.4,2.9,1024,1024,1024,1024,0,0,0,0,80,4.711,73.58,166.666672,P-GPS,,50.8
285400,2026-01-08 12:32:40,0.0,5,7.651,0.0,0.0,0.0,12.2,10.3,3.6,1024,1024,1024,1024,0,0,0,0,80,4.711,73.58,166.666672,P-GPS,,50.8
285500,2026-01-08 12:32:40,0.0,5,7.651,0.0,0.0,0.0,12.3,10.5,3.9,1024,1024,1024,1024,0,0,0,0,80,4.711,73.58,166.666672,P-GPS,,50.8
285600,2026-01-08 12:32:40,0.0,5,7.651,0.0,0.0,0.0,12.1,10.3,4.3,1024,1024,1024,1024,0,0,0,0,80,4.711,73.58,166.994756,P-GPS,,50.9
285700,2026-01-08 12:32:40,0.0,5,7.651,0.0,0.0,0.0,12.2,10.2,4.8,1024,1024,1024,1024,0,0,0,0,80,4.711,73.58,166.994756,P-GPS,,50.9
285800,2026-01-08 12:32:40,0.0,5,7.651,0.0,0.0,0.0,12.2,9.9,5.1,1024,1024,790,1024,0,0,-35,0,80,4.711,73.58,166.994756,P-GPS,,50.9
285900,2026-01-08 12:32:40,0.0,5,7.651,0.0,0.0,0.0,12.3,9.8,5.2,1024,1024,790,1024,0,0,-35,0,80,4.711,73.58,166.994756,P-GPS,,50.9
286000,2026-01-08 12:32:40,0.0,5,7.651,0.0,0.0,0.0,12.3,9.5,5.0,1024,1024,364,1024,0,0,-100,0,80,4.711,73.58,166.994756,P-GPS,,50.9
286100,2026-01-08 12:32:40,0.0,5,7.668,0.0,0.0,0.0,12.4,9.5,5.1,1024,1024,364,1024,0,0,-100,0,80,4.837,73.58,166.994756,P-GPS,,50.9
286200,2026-01-08 12:32:41,0.0,5,7.668,0.0,0.0,0.447388,12.6,10.1,5.5,1024,1024,364,1024,0,0,-100,0,80,4.837,73.58,166.994756,P-GPS,,50.9
286300,2026-01-08 12:32:41,0.0,5,7.668,0.0,0.0,1.11847,12.6,11.1,5.4,1024,1024,364,1024,0,0,-100,0,80,4.837,73.58,166.666672,P-GPS,,50.8
286400,2026-01-08 12:32:41,0.0,5,7.668,0.0,0.0,1.789552,12.6,11.5,5.6,1024,1024,364,1024,0,0,-100,0,80,4.837,73.58,166.338588,P-GPS,,50.7
286500,2026-01-08 12:32:41,0.0,5,7.668,0.0,0.0,2.684328,12.5,10.3,5.3,1024,1024,364,1024,0,0,-100,0,80,4.837,73.58,166.010504,P-GPS,,50.6
286600,2026-01-08 12:32:41,0.0,5,7.668,0.0,0.0,3.131716,12.5,10.2,5.7,1024,1024,364,1024,0,0,-100,0,80,4.837,73.58,165.354336,P-GPS,,50.4
286700,2026-01-08 12:32:41,0.0,5,7.668,0.0,0.0,3.579104,12.6,9.6,5.5,1024,1024,364,1024,0,0,-100,0,80,4.837,73.58,164.698168,P-GPS,,50.2
286800,2026-01-08 12:32:41,0.0,5,7.668,0.0,0.0,3.579104,12.6,8.6,5.6,1024,1024,364,1024,0,0,-100,0,80,4.837,73.58,164.370084,P-GPS,,50.1
286900,2026-01-08 12:32:41,0.0,5,7.668,0.0,0.0,3.802798,12.7,7.9,5.9,1024,1024,364,1024,0,0,-100,0,80,4.837,73.58,163.713916,P-GPS,,49.9
287000,2026-01-08 12:32:41,0.223694,5,7.668,-0.223694,0.0,3.802798,12.6,6.5,6.0,1024,1024,364,1024,0,0,-100,0,80,4.837,73.58,163.057748,P-GPS,,49.7
287100,2026-01-08 12:32:41,0.223694,5,7.668,-0.223694,0.0,3.802798,12.7,6.6,5.8,1024,1024,364,1024,0,0,-100,0,80,4.837,73.58,162.40158,P-GPS,,49.5
287200,2026-01-08 12:32:42,0.447388,5,7.741,-0.447388,0.0,3.802798,12.7,5.3,5.3,1024,1024,364,1024,0,0,-100,0,80,3.039,73.58,161.745412,P-GPS,,49.3
287300,2026-01-08 12:32:42,0.447388,5,7.741,-0.447388,0.0,3.802798,12.7,4.9,4.7,1024,1024,364,1024,0,0,-100,0,80,3.039,73.58,160.76116,P-GPS,,49.0
287400,2026-01-08 12:32:42,0.447388,5,7.741,-0.447388,0.0,4.026492,12.7,4.2,4.6,1024,1024,364,1024,0,0,-100,0,80,3.039,73.58,160.104992,P-GPS,,48.8
287500,2026-01-08 12:32:42,0.447388,5,7.741,-0.447388,0.0,4.026492,12.7,3.2,4.4,1024,1024,364,1024,0,0,-100,0,80,3.039,73.58,159.448824,P-GPS,,48.6
287600,2026-01-08 12:32:42,0.447388,5,7.741,-0.447388,0.0,3.802798,12.7,2.5,4.2,1024,1024,364,1024,0,0,-100,0,80,3.039,73.58,158.792656,P-GPS,SD card speed low SD card speed low. Normal use may be affected. Replace SD card (Code: 10028). Gimbal stuck. Make sure gimbal cover is removed and manually check whether gimbal can rotate freely (Code: 40002),48.4
287700,2026-01-08 12:32:42,0.447388,5,7.741,-0.223694,0.0,3.802798,12.6,2.5,4.4,1024,1024,364,1024,0,0,-100,0,80,3.039,73.58,158.136488,P-GPS,,48.2
