time(millisecond),timestamp,speed(mph),gpslevel,voltage(v),xSpeed(mph),ySpeed(mph),zSpeed(mph),compass_heading(degrees),pitch(degrees),roll(degrees),rc_elevator,rc_aileron,rc_throttle,rc_rudder,rc_elevator(percent),rc_aileron(percent),rc_throttle(percent),rc_rudder(percent),battery_percent,current(A),battery_temperature(f),ascent(feet),flycState,message,height_above_takeoff(meters)
482500,2026-01-08 12:36:30,0.223694,5,7.469,0.223694,0.0,-4.47388,22.8,6.8,3.3,1024,1024,1684,1024,0,0,100,0,69,6.203,77.54,26.902888,P-GPS,,8.2
482600,2026-01-08 12:36:30,0.223694,5,7.444,0.223694,0.0,-4.697574,22.8,8.3,3.8,1024,1024,1684,1024,0,0,100,0,69,6.229,77.54,27.559056,P-GPS,,8.4
482700,2026-01-08 12:36:30,0.447388,5,7.444,0.447388,0.0,-4.697574,22.7,8.7,4.4,1024,1024,1684,1024,0,0,100,0,69,6.229,77.54,28.543308,P-GPS,,8.7
482800,2026-01-08 12:36:30,0.447388,5,7.444,0.447388,0.0,-4.47388,22.7,10.8,3.3,1024,1024,1684,1024,0,0,100,0,69,6.229,77.54,29.199476,P-GPS,,8.9
482900,2026-01-08 12:36:30,0.447388,5,7.444,0.447388,0.0,-4.47388,22.9,12.0,2.8,1024,1024,1684,1024,0,0,100,0,69,6.229,77.54,29.855644,P-GPS,,9.1
483000,2026-01-08 12:36:30,0.3131716,5,7.444,0.223694,0.223694,-4.47388,22.8,12.3,3.0,1024,1024,1684,1024,0,0,100,0,69,6.229,77.54,30.511812,P-GPS,,9.3
483100,2026-01-08 12:36:30,0.3131716,5,7.444,0.223694,0.223694,-4.47388,22.6,12.7,1.9,1024,1024,1684,1024,0,0,100,0,69,6.229,77.54,31.16798,P-GPS,,9.5
483200,2026-01-08 12:36:31,0.223694,5,7.444,0.0,0.223694,-4.47388,22.7,12.2,0.7,1024,1024,1684,1024,0,0,100,0,69,6.229,77.54,31.824148,P-GPS,,9.7
483300,2026-01-08 12:36:31,0.0,5,7.444,0.0,0.0,-4.250186,22.7,12.2,-0.2,1024,1024,1684,1024,0,0,100,0,69,6.229,77.54,32.480316,P-GPS,,9.9
483400,2026-01-08 12:36:31,0.0,5,7.444,0.0,0.0,-4.250186,22.6,11.4,-0.3,1024,1024,1024,1024,0,0,0,0,69,6.229,77.54,32.8084,P-GPS,,10.0
483500,2026-01-08 12:36:31,0.0,5,7.444,0.0,0.0,-4.250186,22.7,10.9,0.5,1024,1024,1024,1024,0,0,0,0,69,6.229,77.54,33.464568,P-GPS,,10.2
483600,2026-01-08 12:36:31,0.0,5,7.444,0.0,0.0,-4.026492,22.7,10.8,0.6,1024,1024,1024,1024,0,0,0,0,69,6.229,77.54,34.120736,P-GPS,,10.4
483700,2026-01-08 12:36:31,0.0,5,7.426,0.0,0.0,-3.35541,22.5,10.3,0.3,1024,1024,1024,1024,0,0,0,0,69,6.142,77.54,34.44882,P-GPS,,10.5
483800,2026-01-08 12:36:31,0.0,5,7.426,0.0,0.0,-2.684328,22.8,9.9,1.9,1024,1024,1024,1024,0,0,0,0,69,6.142,77.54,34.776904,P-GPS,,10.6
483900,2026-01-08 12:36:31,0.0,5,7.426,0.0,0.0,-2.013246,22.8,10.3,2.2,1024,1024,1024,1024,0,0,0,0,69,6.142,77.54,34.776904,P-GPS,,10.6
484000,2026-01-08 12:36:31,0.0,5,7.426,0.0,0.0,-1.342164,22.7,10.0,2.0,1024,1024,1024,1024,0,0,0,0,69,6.142,77.54,34.776904,P-GPS,,10.6
484100,2026-01-08 12:36:31,0.0,5,7.426,0.0,0.0,-0.671082,22.7,10.0,1.6,1024,1024,1024,1024,0,0,0,0,69,6.142,77.54,34.776904,P-GPS,,10.6
484200,2026-01-08 12:36:32,0.0,5,7.426,0.0,0.0,-0.223694,22.5,9.8,0.9,1024,1024,1024,1024,0,0,0,0,69,6.142,77.54,34.776904,P-GPS,,10.6
484300,2026-01-08 12:36:32,0.0,5,7.426,0.0,0.0,0.0,22.5,9.4,1.1,1024,1024,1024,1024,0,0,0,0,69,6.142,77.54,34.776904,P-GPS,,10.6
484400,2026-01-08 12:36:32,0.0,5,7.426,0.0,0.0,0.0,22.6,9.2,1.8,1024,1024,1024,1024,0,0,0,0,69,6.142,77.54,34.776904,P-GPS,,10.6
484500,2026-01-08 12:36:32,0.223694,5,7.426,0.0,-0.223694,0.0,22.6,8.0,2.7,1024,1024,1024,1024,0,0,0,0,69,6.142,77.54,34.44882,P-GPS,,10.5
484600,2026-01-08 12:36:32,0.223694,5,7.426,0.0,-0.223694,0.0,22.6,8.2,3.1,1024,1024,1024,1024,0,0,0,0,69,6.142,77.54,34.44882,P-GPS,,10.5
484700,2026-01-08 12:36:32,0.223694,5,7.426,0.0,-0.223694,0.0,22.6,8.2,3.3,1024,1024,1024,1024,0,0,0,0,69,6.142,77.54,34.44882,P-GPS,,10.5
484800,2026-01-08 12:36:32,0.223694,5,7.464,0.0,-0.223694,0.0,22.6,8.6,4.1,1024,1024,1024,1024,0,0,0,0,68,4.825,77.54,34.44882,P-GPS,,10.5
484900,2026-01-08 12:36:32,0.0,5,7.464,0.0,0.0,0.0,22.6,7.4,3.6,1024,1024,1024,1024,0,0,0,0,68,4.825,77.54,34.44882,P-GPS,,10.5
485000,2026-01-08 12:36:32,0.0,5,7.464,0.0,0.0,0.0,22.5,7.7,3.2,1024,1024,1024,1024,0,0,0,0,68,4.825,77.54,34.44882,P-GPS,,10.5
485100,2026-01-08 12:36:32,0.0,5,7.464,0.0,0.0,0.0,22.6,8.2,3.3,1024,1024,1024,1024,0,0,0,0,68,4.825,77.54,34.44882,P-GPS,,10.5
485200,2026-01-08 12:36:33,0.0,5,7.464,0.0,0.0,0.0,22.4,8.1,3.6,1024,1024,1024,1024,0,0,0,0,68,4.825,77.54,34.120736,P-GPS,,10.4
485300,2026-01-08 12:36:33,0.0,5,7.464,0.0,0.0,0.0,22.6,8.4,3.4,1024,1024,1024,1024,0,0,0,0,68,4.825,77.54,34.120736,P-GPS,,10.4
485400,2026-01-08 12:36:33,0.0,5,7.464,0.0,0.0,0.0,22.6,8.9,3.0,1024,1024,1024,1024,0,0,0,0,68,4.825,77.54,34.120736,P-GPS,,10.4
485500,2026-01-08 12:36:33,0.0,5,7.464,0.0,0.0,0.0,22.7,8.6,3.1,1024,1024,1024,1024,0,0,0,0,68,4.825,77.54,34.120736,P-GPS,,10.4
485600,2026-01-08 12:36:33,0.0,5,7.464,0.0,0.0,0.0,22.7,7.9,3.8,1024,1024,1024,1024,0,0,0,0,68,4.825,77.54,34.120736,P-GPS,,10.4
485700,2026-01-08 12:36:33,0.0,5,7.464,0.0,0.0,0.0,22.7,7.6,3.7,1024,1024,1024,1024,0,0,0,0,68,4.825,77.54,33.792652,P-GPS,,10.3
485800,2026-01-08 12:36:33,0.0,5,7.464,0.0,0.0,0.0,22.6,6.5,4.1,1024,1024,1024,1024,0,0,0,0,68,4.825,77.54,33.792652,P-GPS,,10.3
485900,2026-01-08 12:36:33,0.0,5,7.467,0.0,0.0,0.0,22.7,6.5,3.9,1024,1024,1024,1024,0,0,0,0,68,5.551,77.72,33.792652,P-GPS,,10.3
486000,2026-01-08 12:36:33,0.0,5,7.467,0.0,0.0,0.0,22.8,6.6,4.8,1024,1024,1024,1024,0,0,0,0,68,5.551,77.72,33.792652,P-GPS,,10.3
486100,2026-01-08 12:36:33,0.0,5,7.467,0.0,0.0,0.0,22.8,6.7,4.0,1024,1024,1024,1024,0,0,0,0,68,5.551,77.72,33.792652,P-GPS,,10.3
486200,2026-01-08 12:36:34,0.0,5,7.467,0.0,0.0,-0.223694,22.7,7.4,3.6,1024,1024,1024,1024,0,0,0,0,68,5.551,77.72,33.792652,P-GPS,,10.3
486300,2026-01-08 12:36:34,0.0,5,7.467,0.0,0.0,0.0,22.8,7.2,3.5,1024,1024,1024,1024,0,0,0,0,68,5.551,77.72,33.464568,P-GPS,,10.2
486400,2026-01-08 12:36:34,0.0,5,7.467,0.0,0.0,0.0,22.7,7.6,3.1,1024,1024,1024,1024,0,0,0,0,68,5.551,77.72,33.464568,P-GPS,,10.2
486500,2026-01-08 12:36:34,0.0,5,7.467,0.0,0.0,0.0,22.6,7.3,3.1,1024,1024,1024,1024,0,0,0,0,68,5.551,77.72,33.464568,P-GPS,,10.2
486600,2026-01-08 12:36:34,0.0,5,7.467,0.0,0.0,0.0,22.6,8.6,2.7,1024,1024,1024,1024,0,0,0,0,68,5.551,77.72,33.464568,P-GPS,,10.2
486700,2026-01-08 12:36:34,0.0,5,7.467,0.0,0.0,0.0,22.7,8.7,2.9,1024,1024,1024,1024,0,0,0,0,68,5.551,77.72,33.464568,P-GPS,SD card speed low. Normal use may be affected. Replace SD card (Code: 10028). Gimbal stuck. Make sure gimbal cover is removed and manually check whether gimbal can rotate freely (Code: 40002),10.2
486800,2026-01-08 12:36:34,0.0,5,7.467,0.0,0.0,0.0,22.8,8.5,3.2,1024,1024,1024,1024,0,0,0,0,68,5.551,77.72,33.136484,P-GPS,,10.1
486900,2026-01-08 12:36:34,0.0,5,7.467,0.0,0.0,0.0,22.7,8.8,3.0,1024,1024,1024,1024,0,0,0,0,68,5.551,77.72,33.136484,P-GPS,,10.1
487000,2026-01-08 12:36:34,0.0,5,7.494,0.0,0.0,0.0,22.7,8.9,3.4,1024,1024,1024,1024,0,0,0,0,68,5.217,77.72,33.136484,P-GPS,,10.1
487100,2026-01-08 12:36:34,0.0,5,7.494,0.0,0.0,0.0,22.8,9.0,3.1,1024,1024,1024,1024,0,0,0,0,68,5.217,77.72,33.136484,P-GPS,,10.1
487200,2026-01-08 12:36:35,0.0,5,7.494,0.0,0.0,0.0,22.8,8.9,3.4,1024,1024,1024,1024,0,0,0,0,68,5.217,77.72,33.136484,P-GPS,,10.1
487300,2026-01-08 12:36:35,0.0,5,7.494,0.0,0.0,0.0,22.7,7.7,3.5,1024,1024,1024,1024,0,0,0,0,68,5.217,77.72,32.8084,P-GPS,,10.0
487400,2026-01-08 12:36:35,0.0,5,7.494,0.0,0.0,0.0,22.6,6.9,3.3,1024,1024,1024,1024,0,0,0,0,68,5.217,77.72,32.8084,P-GPS,,10.0
487500,2026-01-08 12:36:35,0.0,5,7.494,0.0,0.0,0.0,22.7,7.0,2.9,1024,1024,1024,1024,0,0,0,0,68,5.217,77.72,32.8084,P-GPS,,10.0
487600,2026-01-08 12:36:35,0.0,5,7.494,0.0,0.0,0.0,22.7,7.3,2.8,1024,1024,1024,1024,0,0,0,0,68,5.217,77.72,32.8084,P-GPS,,10.0
487700,2026-01-08 12:36:35,0.0,5,7.494,0.0,0.0,0.0,22.6,7.1,2.9,1024,1024,1024,1024,0,0,0,0,68,5.217,77.72,32.8084,P-GPS,,10.0
487800,2026-01-08 12:36:35,0.0,5,7.494,0.0,0.0,0.0,22.7,7.5,2.6,1024,1024,1024,1024,0,0,0,0,68,5.217,77.72,32.8084,P-GPS,,10.0
487900,2026-01-08 12:36:35,0.0,5,7.494,0.0,0.0,0.0,22.6,7.0,2.9,1024,1024,1024,1024,0,0,0,0,68,5.217,77.72,32.8084,P-GPS,,10.0
488000,2026-01-08 12:36:35,0.0,5,7.494,0.0,0.0,0.0,22.6,6.9,3.5,1024,1024,1024,1024,0,0,0,0,68,5.217,77.72,32.480316,P-GPS,,9.9
488100,2026-01-08 12:36:35,0.0,5,7.509,0.0,0.0,0.0,22.7,7.7,4.2,1024,1024,1024,1024,0,0,0,0,68,4.939,77.72,32.480316,P-GPS,,9.9
488200,2026-01-08 12:36:36,0.0,5,7.509,0.0,0.0,0.0,22.7,7.2,4.2,1024,1024,1024,1024,0,0,0,0,68,4.939,77.72,32.480316,P-GPS,,9.9
488300,2026-01-08 12:36:36,0.0,5,7.509,0.0,0.0,0.0,22.9,7.6,4.3,1024,1024,1024,1024,0,0,0,0,68,4.939,77.72,32.480316,P-GPS,,9.9
488400,2026-01-08 12:36:36,0.0,5,7.509,0.0,0.0,0.0,22.9,7.8,4.3,1024,1024,1024,1024,0,0,0,0,68,4.939,77.72,32.480316,P-GPS,,9.9
488500,2026-01-08 12:36:36,0.0,5,7.509,0.0,0.0,0.0,22.8,6.8,4.7,1024,1024,1024,1024,0,0,0,0,68,4.939,77.72,32.480316,P-GPS,,9.9
488600,2026-01-08 12:36:36,0.0,5,7.509,0.0,0.0,0.0,22.7,6.2,4.3,1024,1024,1024,1024,0,0,0,0,68,4.939,77.72,32.480316,P-GPS,,9.9
488700,2026-01-08 12:36:36,0.0,5,7.509,0.0,0.0,0.0,22.7,5.8,4.1,1024,1024,1024,1024,0,0,0,0,68,4.939,77.72,32.480316,P-GPS,,9.9
488800,2026-01-08 12:36:36,0.0,5,7.509,0.0,0.0,0.0,22.7,5.5,4.0,1024,1024,1024,1024,0,0,0,0,68,4.939,77.72,32.480316,P-GPS,,9.9
488900,2026-01-08 12:36:36,0.0,5,7.509,0.0,0.0,0.0,22.7,5.8,3.7,1024,1024,1024,1024,0,0,0,0,68,4.939,77.72,32.480316,P-GPS,,9.9
489000,2026-01-08 12:36:36,0.0,5,7.509,0.0,0.0,0.0,22.8,5.8,3.9,1024,1024,1024,1024,0,0,0,0,68,4.939,77.72,32.480316,P-GPS,,9.9
489100,2026-01-08 12:36:36,0.0,5,7.509,0.0,0.0,0.0,22.8,5.2,3.9,1024,1024,1024,1024,0,0,0,0,68,4.939,77.72,32.152232,P-GPS,,9.8
489200,2026-01-08 12:36:36,0.0,5,7.509,0.0,0.0,0.0,22.6,5.3,4.1,1024,1024,1024,1024,0,0,0,0,68,4.939,77.72,32.152232,P-GPS,,9.8
489300,2026-01-08 12:36:37,0.0,5,7.509,0.0,0.0,0.0,22.7,5.0,4.1,1024,1024,1024,1024,0,0,0,0,68,4.939,77.72,32.152232,P-GPS,,9.8
489400,2026-01-08 12:36:37,0.0,5,7.509,0.0,0.0,0.0,22.8,5.4,4.2,1024,1024,1024,1024,0,0,0,0,68,4.939,77.72,32.480316,P-GPS,,9.9
489500,2026-01-08 12:36:37,0.0,5,7.509,0.0,0.0,0.0,22.9,5.2,4.1,1024,1024,1024,1024,0,0,0,0,68,4.939,77.72,32.480316,P-GPS,,9.9
489600,2026-01-08 12:36:37,0.0,5,7.509,0.0,0.0,0.0,22.9,5.4,4.5,1024,1024,1024,1024,0,0,0,0,68,4.939,77.72,32.480316,P-GPS,,9.9
489700,2026-01-08 12:36:37,0.0,5,7.509,0.0,0.0,0.0,22.9,5.2,4.8,1024,1024,1024,1024,0,0,0,0,68,4.939,77.72,32.152232,P-GPS,,9.8
489800,2026-01-08 12:36:37,0.0,5,7.509,0.0,0.0,0.0,22.9,6.1,4.4,1024,1024,1024,1024,0,0,0,0,68,4.939,77.72,32.152232,P-GPS,,9.8
489900,2026-01-08 12:36:37,0.0,5,7.509,0.0,0.0,0.0,23.0,5.0,5.0,1024,1024,1024,1024,0,0,0,0,68,4.939,77.72,32.152232,P-GPS,,9.8
490000,2026-01-08 12:36:37,0.0,5,7.509,0.0,0.0,0.0,22.8,3.8,5.6,1024,1024,1024,1024,0,0,0,0,68,4.939,77.72,32.152232,P-GPS,,9.8
490100,2026-01-08 12:36:37,0.0,5,7.509,0.0,0.0,0.0,22.9,4.0,5.7,1024,1024,1024,1024,0,0,0,0,68,4.939,77.72,32.152232,P-GPS,,9.8
490200,2026-01-08 12:36:38,0.0,5,7.509,0.0,0.0,0.0,22.9,4.9,6.1,1024,1024,1024,1024,0,0,0,0,68,4.939,77.72,32.152232,P-GPS,,9.8
490300,2026-01-08 12:36:38,0.0,5,7.497,0.0,0.0,0.0,22.8,4.6,6.1,1024,1024,1024,1024,0,0,0,0,68,4.873,77.72,32.152232,P-GPS,,9.8
490400,2026-01-08 12:36:38,0.0,5,7.497,0.0,0.0,0.0,22.7,4.3,6.2,1024,1024,1024,1024,0,0,0,0,68,4.873,77.72,32.152232,P-GPS,,9.8
490500,2026-01-08 12:36:38,0.0,5,7.497,0.0,0.0,0.0,22.7,4.0,5.9,1024,1024,1024,1024,0,0,0,0,68,4.873,77.72,32.152232,P-GPS,,9.8
490600,2026-01-08 12:36:38,0.0,5,7.497,0.0,0.0,0.0,22.6,3.8,5.8,1024,1024,1024,1024,0,0,0,0,68,4.873,77.72,31.824148,P-GPS,,9.7
490700,2026-01-08 12:36:38,0.0,5,7.497,0.0,0.0,0.0,22.7,4.3,5.4,1024,1024,1024,1024,0,0,0,0,68,4.873,77.72,31.824148,P-GPS,,9.7
490800,2026-01-08 12:36:38,0.0,5,7.497,0.0,0.0,0.0,22.7,4.5,5.0,1024,1024,1024,1024,0,0,0,0,68,4.873,77.72,31.824148,P-GPS,,9.7
490900,2026-01-08 12:36:38,0.0,5,7.497,0.0,0.0,0.0,22.6,4.2,4.7,1024,1024,1024,1024,0,0,0,0,68,4.873,77.72,31.824148,P-GPS,,9.7
491000,2026-01-08 12:36:38,0.0,5,7.497,0.0,0.0,0.0,22.6,4.3,4.6,1024,1024,1024,1024,0,0,0,0,68,4.873,77.72,31.824148,P-GPS,,9.7
491100,2026-01-08 12:36:38,0.0,5,7.497,0.0,0.0,0.0,22.7,5.6,4.0,1024,1024,1024,1024,0,0,0,0,68,4.873,77.72,31.824148,P-GPS,,9.7
491200,2026-01-08 12:36:38,0.0,5,7.497,0.0,0.0,0.0,22.8,6.1,3.8,1024,1024,1024,1024,0,0,0,0,68,4.873,77.72,31.824148,P-GPS,,9.7
491300,2026-01-08 12:36:39,0.0,5,7.497,0.0,0.0,0.0,22.7,6.2,3.5,1024,1024,1024,1024,0,0,0,0,68,4.873,77.72,31.824148,P-GPS,,9.7
491400,2026-01-08 12:36:39,0.0,5,7.503,0.0,0.0,0.0,22.7,6.0,3.8,1024,1024,1024,1024,0,0,0,0,68,4.804,77.72,31.824148,P-GPS,,9.7
491500,2026-01-08 12:36:39,0.0,5,7.503,0.0,0.0,0.0,22.8,6.9,3.7,1024,1024,1024,1024,0,0,0,0,68,4.804,77.72,31.824148,P-GPS,,9.7
491600,2026-01-08 12:36:39,0.0,5,7.503,0.0,0.0,0.0,22.8,7.2,3.8,1024,1024,1024,1024,0,0,0,0,68,4.804,77.72,31.824148,P-GPS,,9.7
491700,2026-01-08 12:36:39,0.0,5,7.503,0.0,0.0,0.0,22.7,7.2,3.4,1024,1024,1024,1024,0,0,0,0,68,4.804,77.72,31.824148,P-GPS,,9.7
491800,2026-01-08 12:36:39,0.0,5,7.503,0.0,0.0,0.0,22.8,7.2,3.6,1024,1024,1024,1024,0,0,0,0,68,4.804,77.72,31.824148,P-GPS,,9.7
491900,2026-01-08 12:36:39,0.0,5,7.503,0.0,0.0,0.0,22.8,6.4,3.8,1024,1024,1024,1024,0,0,0,0,68,4.804,77.72,31.824148,P-GPS,,9.7
492000,2026-01-08 12:36:39,0.0,5,7.503,0.0,0.0,0.0,22.8,6.3,3.9,1024,1024,1024,1024,0,0,0,0,68,4.804,77.72,31.824148,P-GPS,,9.7
492100,2026-01-08 12:36:39,0.0,5,7.503,0.0,0.0,0.0,22.7,6.3,4.1,1024,1024,1024,1024,0,0,0,0,68,4.804,77.72,31.824148,P-GPS,,9.7
492200,2026-01-08 12:36:40,0.0,5,7.503,0.0,0.0,0.0,22.6,6.2,4.3,1024,1024,1024,1024,0,0,0,0,68,4.804,77.72,31.496064,P-GPS,,9.6
492300,2026-01-08 12:36:40,0.0,5,7.503,0.0,0.0,0.0,22.7,7.4,4.3,1024,1024,1024,1024,0,0,0,0,68,4.804,77.72,31.496064,P-GPS,,9.6
492400,2026-01-08 12:36:40,0.0,5,7.503,0.0,0.0,0.0,22.7,7.4,4.3,1024,1024,1024,1024,0,0,0,0,68,4.804,77.72,31.496064,P-GPS,,9.6
492500,2026-01-08 12:36:40,0.0,5,7.507,0.0,0.0,0.0,22.6,7.9,4.6,1024,1024,1024,1024,0,0,0,0,68,4.704,77.72,31.496064,P-GPS,,9.6
492600,2026-01-08 12:36:40,0.0,5,7.507,0.0,0.0,0.0,22.7,8.3,4.6,1024,1024,1024,1024,0,0,0,0,68,4.704,77.72,31.496064,P-GPS,,9.6
492700,2026-01-08 12:36:40,0.0,5,7.507,0.0,0.0,0.0,22.8,8.6,4.2,1024,1024,1024,1024,0,0,0,0,68,4.704,77.72,31.16798,P-GPS,,9.5
492800,2026-01-08 12:36:40,0.0,5,7.507,0.0,0.0,0.0,22.7,8.4,4.2,1024,1024,1024,1024,0,0,0,0,68,4.704,77.72,31.16798,P-GPS,,9.5
492900,2026-01-08 12:36:40,0.0,5,7.507,0.0,0.0,0.0,22.7,7.8,3.9,1024,1024,1024,1024,0,0,0,0,68,4.704,77.72,31.16798,P-GPS,,9.5
493000,2026-01-08 12:36:40,0.0,5,7.507,0.0,0.0,0.0,22.7,7.4,3.9,1024,1024,1024,1024,0,0,0,0,68,4.704,77.72,31.16798,P-GPS,,9.5
493100,2026-01-08 12:36:40,0.0,5,7.507,0.0,0.0,0.0,22.8,7.1,3.4,1024,1024,1024,1024,0,0,0,0,68,4.704,77.72,31.16798,P-GPS,,9.5
493200,2026-01-08 12:36:41,0.0,5,7.507,0.0,0.0,0.0,22.8,7.0,3.4,1024,1024,1024,1024,0,0,0,0,68,4.704,77.72,31.16798,P-GPS,,9.5
493300,2026-01-08 12:36:41,0.0,5,7.507,0.0,0.0,0.0,22.8,7.7,3.9,1024,1024,1024,1024,0,0,0,0,68,4.704,77.72,30.839896,P-GPS,,9.4
493400,2026-01-08 12:36:41,0.0,5,7.507,0.0,0.0,0.0,22.7,7.7,3.5,1024,1024,1024,1024,0,0,0,0,68,4.704,77.72,30.839896,P-GPS,,9.4
493500,2026-01-08 12:36:41,0.0,5,7.507,0.0,0.0,0.0,22.7,6.9,3.3,1024,1024,1024,1024,0,0,0,0,68,4.704,77.72,30.839896,P-GPS,,9.4
493600,2026-01-08 12:36:41,0.0,5,7.511,0.0,0.0,0.0,22.6,7.1,3.5,1024,1024,1024,1024,0,0,0,0,68,4.829,77.72,30.839896,P-GPS,,9.4
493700,2026-01-08 12:36:41,0.0,5,7.511,0.0,0.0,0.0,22.7,7.3,3.7,1024,1024,1024,1024,0,0,0,0,68,4.829,77.72,30.511812,P-GPS,,9.3
493800,2026-01-08 12:36:41,0.0,5,7.511,0.0,0.0,0.0,22.7,6.9,3.4,1024,1024,1024,1024,0,0,0,0,68,4.829,77.72,30.511812,P-GPS,,9.3
493900,2026-01-08 12:36:41,0.0,5,7.511,0.0,0.0,0.0,22.7,6.9,3.4,1024,1024,1024,1024,0,0,0,0,68,4.829,77.72,30.511812,P-GPS,,9.3
494000,2026-01-08 12:36:41,0.0,5,7.511,0.0,0.0,0.0,22.8,6.7,3.3,1024,1024,1024,1024,0,0,0,0,68,4.829,77.72,30.183728,P-GPS,,9.2
494100,2026-01-08 12:36:41,0.0,5,7.511,0.0,0.0,0.0,22.7,6.9,3.1,1024,1024,1024,1024,0,0,0,0,68,4.829,77.72,30.183728,P-GPS,,9.2
494200,2026-01-08 12:36:42,0.0,5,7.511,0.0,0.0,0.0,22.7,6.8,3.3,1024,1024,1024,1024,0,0,0,0,68,4.829,77.72,30.183728,P-GPS,,9.2
494300,2026-01-08 12:36:42,0.0,5,7.511,0.0,0.0,0.0,22.8,6.9,3.7,1024,1024,1024,1024,0,0,0,0,68,4.829,77.72,30.183728,P-GPS,,9.2
494400,2026-01-08 12:36:42,0.0,5,7.511,0.0,0.0,0.0,22.6,6.2,4.0,1024,1024,1024,1024,0,0,0,0,68,4.829,77.72,29.855644,P-GPS,,9.1
494500,2026-01-08 12:36:42,0.0,5,7.511,0.0,0.0,0.0,22.5,5.9,4.3,1024,1024,1024,1024,0,0,0,0,68,4.829,77.72,29.855644,P-GPS,,9.1
494600,2026-01-08 12:36:42,0.0,5,7.511,0.0,0.0,-0.223694,22.6,6.0,4.6,1024,1024,1024,1024,0,0,0,0,68,4.829,77.72,29.52756,P-GPS,,9.0
494700,2026-01-08 12:36:42,0.0,5,7.517,0.0,0.0,-0.223694,22.7,6.7,4.8,1024,1024,1024,1024,0,0,0,0,68,4.27,77.72,29.52756,P-GPS,,9.0
494800,2026-01-08 12:36:42,0.0,5,7.517,0.0,0.0,0.0,22.7,7.5,4.9,1024,1024,1024,1024,0,0,0,0,68,4.27,77.72,29.199476,P-GPS,,8.9
494900,2026-01-08 12:36:42,0.0,5,7.517,0.0,0.0,0.0,22.8,7.2,5.4,1024,1024,1024,1024,0,0,0,0,68,4.27,77.72,29.199476,P-GPS,,8.9
495000,2026-01-08 12:36:42,0.0,5,7.517,0.0,0.0,0.0,22.9,7.2,5.5,1024,1024,1024,1024,0,0,0,0,68,4.27,77.72,28.871392,P-GPS,,8.8
495100,2026-01-08 12:36:42,0.0,5,7.517,0.0,0.0,0.0,22.8,6.3,5.4,1024,1024,1024,1024,0,0,0,0,68,4.27,77.72,28.871392,P-GPS,,8.8
495200,2026-01-08 12:36:43,0.0,5,7.517,0.0,0.0,0.0,23.0,7.1,5.4,1024,1024,1024,1024,0,0,0,0,68,4.27,77.72,28.871392,P-GPS,,8.8
495300,2026-01-08 12:36:43,0.0,5,7.517,0.0,0.0,0.0,23.1,7.2,5.9,1024,1024,1024,1024,0,0,0,0,68,4.27,77.72,28.543308,P-GPS,,8.7
495400,2026-01-08 12:36:43,0.0,5,7.517,0.0,0.0,0.0,23.2,7.2,6.0,1024,1024,1024,1024,0,0,0,0,68,4.27,77.72,28.543308,P-GPS,,8.7
495500,2026-01-08 12:36:43,0.0,5,7.517,0.0,0.0,0.0,23.2,6.9,5.9,1024,1024,1024,1024,0,0,0,0,68,4.27,77.72,28.543308,P-GPS,,8.7
495600,2026-01-08 12:36:43,0.0,5,7.517,0.0,0.0,0.0,23.2,7.9,5.6,1024,1024,1024,1024,0,0,0,0,68,4.27,77.72,28.543308,P-GPS,,8.7
495700,2026-01-08 12:36:43,0.0,5,7.517,0.0,0.0,0.0,23.0,7.6,5.3,1024,1024,1024,1024,0,0,0,0,68,4.27,77.72,28.871392,P-GPS,,8.8
495800,2026-01-08 12:36:43,0.0,5,7.514,0.0,0.0,0.0,22.9,7.5,5.8,1024,1024,1024,1024,0,0,0,0,68,4.132,77.9,28.871392,P-GPS,,8.8
495900,2026-01-08 12:36:43,0.0,5,7.514,0.0,0.0,0.223694,22.9,7.4,6.5,1024,1024,1024,1024,0,0,0,0,68,4.132,77.9,28.871392,P-GPS,,8.8
496000,2026-01-08 12:36:43,0.0,5,7.514,0.0,0.0,0.0,22.9,6.5,5.1,1024,1024,1024,1024,0,0,0,0,68,4.132,77.9,29.199476,P-GPS,,8.9
496100,2026-01-08 12:36:43,0.0,5,7.514,0.0,0.0,0.0,22.9,8.1,4.5,1024,1024,1024,1024,0,0,0,0,68,4.132,77.9,29.199476,P-GPS,,8.9
496200,2026-01-08 12:36:44,0.0,5,7.514,0.0,0.0,0.0,22.9,8.7,4.3,1024,1024,1024,1024,0,0,0,0,68,4.132,77.9,29.199476,P-GPS,,8.9
496300,2026-01-08 12:36:44,0.0,5,7.514,0.0,0.223694,0.0,22.8,8.6,4.4,1024,1024,1024,1024,0,0,0,0,68,4.132,77.9,29.199476,P-GPS,,8.9
496400,2026-01-08 12:36:44,0.223694,5,7.514,0.0,0.223694,0.0,22.8,8.9,3.6,1024,1024,1024,1024,0,0,0,0,68,4.132,77.9,29.199476,P-GPS,,8.9
496500,2026-01-08 12:36:44,0.223694,5,7.514,0.0,0.223694,0.0,22.8,9.1,3.1,1024,1024,1024,1024,0,0,0,0,68,4.132,77.9,29.199476,P-GPS,,8.9
496600,2026-01-08 12:36:44,0.223694,5,7.514,0.0,0.223694,0.0,23.0,9.7,2.6,1024,1024,1024,1024,0,0,0,0,68,4.132,77.9,29.199476,P-GPS,,8.9
496700,2026-01-08 12:36:44,0.223694,5,7.514,0.0,0.223694,0.0,23.0,10.2,2.4,1024,1024,1024,1024,0,0,0,0,68,4.132,77.9,29.199476,P-GPS,,8.9
496800,2026-01-08 12:36:44,0.3131716,5,7.514,0.223694,0.223694,0.0,23.0,10.4,2.6,1024,1024,1024,1024,0,0,0,0,68,4.132,77.9,29.199476,P-GPS,,8.9
496900,2026-01-08 12:36:44,0.3131716,5,7.453,0.223694,0.223694,0.0,23.2,11.3,3.0,1024,1024,1024,1024,0,0,0,0,68,5.559,77.9,29.199476,P-GPS,,8.9
497000,2026-01-08 12:36:44,0.3131716,5,7.453,0.223694,0.223694,0.0,23.3,12.4,2.7,1024,1024,1024,1024,0,0,0,0,68,5.559,77.9,29.199476,P-GPS,,8.9
497100,2026-01-08 12:36:44,0.3131716,5,7.453,0.223694,0.223694,0.0,23.0,12.8,2.4,1024,1024,1024,1024,0,0,0,0,68,5.559,77.9,29.199476,P-GPS,,8.9
497200,2026-01-08 12:36:45,0.223694,5,7.453,0.223694,0.0,0.0,23.1,13.0,2.7,1024,1024,1024,1024,0,0,0,0,68,5.559,77.9,29.199476,P-GPS,,8.9
497300,2026-01-08 12:36:45,0.0,5,7.453,0.0,0.0,0.0,23.1,13.4,2.1,1024,1024,1024,1024,0,0,0,0,68,5.559,77.9,29.199476,P-GPS,,8.9
497400,2026-01-08 12:36:45,0.0,5,7.453,0.0,0.0,0.0,23.0,11.9,1.7,1024,1024,1024,1024,0,0,0,0,68,5.559,77.9,29.199476,P-GPS,,8.9
497500,2026-01-08 12:36:45,0.0,5,7.453,0.0,0.0,0.0,23.0,11.1,2.5,1024,1024,1024,1024,0,0,0,0,68,5.559,77.9,29.199476,P-GPS,,8.9
497600,2026-01-08 12:36:45,0.0,5,7.453,0.0,0.0,0.0,23.0,11.3,3.0,1024,1024,1024,1024,0,0,0,0,68,5.559,77.9,29.199476,P-GPS,,8.9
497700,2026-01-08 12:36:45,0.0,5,7.453,0.0,0.0,-0.223694,23.0,10.5,3.5,1024,1024,1024,1024,0,0,0,0,68,5.559,77.9,29.199476,P-GPS,,8.9
497800,2026-01-08 12:36:45,0.0,5,7.453,0.0,0.0,-0.223694,23.0,9.9,3.9,1024,1024,1024,1024,0,0,0,0,68,5.559,77.9,29.199476,P-GPS,,8.9
497900,2026-01-08 12:36:45,0.0,5,7.453,0.0,0.0,-0.223694,22.9,9.5,4.0,1024,1024,1024,1024,0,0,0,0,68,5.559,77.9,29.199476,P-GPS,,8.9
498000,2026-01-08 12:36:45,0.0,5,7.442,0.0,0.0,-0.223694,22.7,9.8,3.9,1024,1024,1024,1024,0,0,0,0,68,6.14,77.9,29.199476,P-GPS,,8.9
498100,2026-01-08 12:36:45,0.0,5,7.442,0.0,0.0,-0.223694,22.8,9.4,4.0,1024,1024,1024,1024,0,0,0,0,68,6.14,77.9,29.199476,P-GPS,,8.9
498200,2026-01-08 12:36:45,0.0,5,7.442,0.0,0.0,0.0,22.8,9.7,4.2,1024,1024,1024,1024,0,0,0,0,68,6.14,77.9,28.871392,P-GPS,,8.8
498300,2026-01-08 12:36:46,0.0,5,7.442,0.0,0.0,0.0,22.9,10.3,4.2,1024,1024,1024,1024,0,0,0,0,68,6.14,77.9,28.871392,P-GPS,,8.8
498400,2026-01-08 12:36:46,0.0,5,7.442,0.0,0.0,0.0,22.8,9.0,4.3,1024,1024,1024,1024,0,0,0,0,68,6.14,77.9,28.871392,P-GPS,,8.8
498500,2026-01-08 12:36:46,0.0,5,7.442,0.0,0.0,0.0,22.7,9.0,3.9,1024,1024,1024,1024,0,0,0,0,68,6.14,77.9,28.871392,P-GPS,,8.8
498600,2026-01-08 12:36:46,0.0,5,7.442,0.0,0.0,0.0,22.9,8.8,4.5,1024,1024,1024,1024,0,0,0,0,68,6.14,77.9,28.871392,P-GPS,,8.8
498700,2026-01-08 12:36:46,0.223694,5,7.442,0.0,-0.223694,0.0,22.9,8.5,5.0,1024,1024,1024,1024,0,0,0,0,68,6.14,77.9,28.871392,P-GPS,,8.8
498800,2026-01-08 12:36:46,0.223694,5,7.442,0.0,-0.223694,0.0,22.7,7.8,5.6,1024,1024,1024,1024,0,0,0,0,68,6.14,77.9,28.871392,P-GPS,,8.8
498900,2026-01-08 12:36:46,0.223694,5,7.442,0.0,-0.223694,0.223694,22.9,9.0,5.5,1024,1024,1024,1024,0,0,0,0,68,6.14,77.9,29.199476,P-GPS,,8.9
499000,2026-01-08 12:36:46,0.3131716,5,7.442,-0.223694,-0.223694,0.223694,23.0,6.6,4.6,1024,1024,1024,1024,0,0,0,0,68,6.14,77.9,29.199476,P-GPS,,8.9
499100,2026-01-08 12:36:46,0.3131716,5,7.442,-0.223694,-0.223694,0.0,22.8,3.6,5.8,1024,1024,1024,1024,0,0,0,0,68,6.14,77.9,29.199476,P-GPS,,8.9
499200,2026-01-08 12:36:47,0.223694,5,7.408,0.0,-0.223694,-0.223694,22.8,3.5,6.4,1024,1024,1024,1024,0,0,0,0,68,5.49,77.9,29.199476,P-GPS,,8.9
499300,2026-01-08 12:36:47,0.223694,5,7.408,0.0,-0.223694,-0.447388,23.1,3.9,7.0,1024,1024,1024,1024,0,0,0,0,68,5.49,77.9,29.52756,P-GPS,,9.0
499400,2026-01-08 12:36:47,0.0,5,7.408,0.0,0.0,-0.223694,23.1,4.4,6.8,1024,1024,1024,1024,0,0,0,0,68,5.49,77.9,29.52756,P-GPS,,9.0
499500,2026-01-08 12:36:47,0.0,5,7.408,0.0,0.0,-0.223694,23.2,5.0,6.5,1024,1024,1024,1024,0,0,0,0,68,5.49,77.9,29.52756,P-GPS,,9.0
499600,2026-01-08 12:36:47,0.0,5,7.408,0.0,0.0,0.0,23.2,5.5,5.7,1024,1024,1024,1024,0,0,0,0,68,5.49,77.9,29.52756,P-GPS,,9.0
499700,2026-01-08 12:36:47,0.0,5,7.408,0.0,0.0,0.0,23.2,5.6,5.4,1024,1024,1024,1024,0,0,0,0,68,5.49,77.9,29.52756,P-GPS,,9.0
499800,2026-01-08 12:36:47,0.0,5,7.408,0.0,0.0,0.0,23.2,5.4,5.1,1024,1024,1024,1024,0,0,0,0,68,5.49,77.9,29.52756,P-GPS,,9.0
499900,2026-01-08 12:36:47,0.0,5,7.408,0.0,0.0,0.0,23.1,5.9,4.7,1024,1024,1024,1024,0,0,0,0,68,5.49,77.9,29.52756,P-GPS,,9.0
500000,2026-01-08 12:36:47,0.0,5,7.408,0.0,0.0,0.0,23.1,5.5,4.9,1024,1024,1024,1024,0,0,0,0,68,5.49,77.9,29.52756,P-GPS,,9.0
500100,2026-01-08 12:36:47,0.0,5,7.408,0.0,0.0,0.0,22.9,5.3,5.3,1024,1024,1024,1024,0,0,0,0,68,5.49,77.9,29.52756,P-GPS,,9.0
500200,2026-01-08 12:36:48,0.0,5,7.408,0.0,0.0,0.0,22.9,4.7,5.3,1024,1024,1024,1024,0,0,0,0,68,5.49,77.9,29.52756,P-GPS,,9.0
500300,2026-01-08 12:36:48,0.0,5,7.499,0.0,0.0,0.0,22.9,4.2,5.9,1024,1024,1024,1024,0,0,0,0,67,4.09,77.9,29.52756,P-GPS,,9.0
500400,2026-01-08 12:36:48,0.0,5,7.499,0.0,0.0,0.0,22.8,4.1,6.2,1024,1024,1024,1024,0,0,0,0,67,4.09,77.9,29.52756,P-GPS,,9.0
500500,2026-01-08 12:36:48,0.0,5,7.499,0.0,0.0,0.0,22.9,4.5,6.2,1024,1024,1024,1024,0,0,0,0,67,4.09,77.9,29.52756,P-GPS,,9.0
500600,2026-01-08 12:36:48,0.0,5,7.499,0.0,0.0,0.0,23.0,5.6,5.8,1024,1024,1024,1024,0,0,0,0,67,4.09,77.9,29.52756,P-GPS,,9.0
500700,2026-01-08 12:36:48,0.0,5,7.499,0.0,0.0,0.0,22.9,5.5,5.7,1024,1024,1024,1024,0,0,0,0,67,4.09,77.9,29.52756,P-GPS,,9.0
500800,2026-01-08 12:36:48,0.0,5,7.499,0.0,0.0,0.0,22.8,5.4,4.8,1024,1024,1024,1024,0,0,0,0,67,4.09,77.9,29.52756,P-GPS,,9.0
500900,2026-01-08 12:36:48,0.0,5,7.499,0.0,0.0,0.0,22.7,5.1,5.3,1024,1024,1024,1024,0,0,0,0,67,4.09,77.9,29.52756,P-GPS,,9.0
501000,2026-01-08 12:36:48,0.0,5,7.499,0.0,0.0,0.0,22.8,6.7,5.1,1024,1024,1024,1024,0,0,0,0,67,4.09,77.9,29.52756,P-GPS,,9.0
501100,2026-01-08 12:36:48,0.0,5,7.499,0.0,0.0,0.0,22.8,7.1,5.4,1024,1024,1024,1024,0,0,0,0,67,4.09,77.9,29.52756,P-GPS,,9.0
501200,2026-01-08 12:36:49,0.0,5,7.499,0.0,0.0,0.0,22.8,6.2,5.5,1024,1024,1024,1024,0,0,0,0,67,4.09,77.9,29.52756,P-GPS,,9.0
501300,2026-01-08 12:36:49,0.0,5,7.499,0.0,0.0,0.0,22.8,6.8,5.5,1024,1024,1024,1024,0,0,0,0,67,4.09,77.9,29.52756,P-GPS,,9.0
501400,2026-01-08 12:36:49,0.0,5,7.488,0.0,0.0,0.0,23.0,7.6,5.1,1024,1024,1024,1024,0,0,0,0,67,4.768,77.9,29.52756,P-GPS,,9.0
501500,2026-01-08 12:36:49,0.0,5,7.488,0.0,0.0,0.0,22.9,7.7,6.3,1024,1024,1024,1024,0,0,0,0,67,4.768,77.9,29.52756,P-GPS,,9.0
501600,2026-01-08 12:36:49,0.0,5,7.488,0.0,0.0,0.0,23.0,8.0,6.5,1024,1024,1024,1024,0,0,0,0,67,4.768,77.9,29.52756,P-GPS,,9.0
501700,2026-01-08 12:36:49,0.0,5,7.488,0.0,0.0,0.0,22.9,7.1,6.5,1024,1024,1024,1024,0,0,0,0,67,4.768,77.9,29.52756,P-GPS,,9.0
501800,2026-01-08 12:36:49,0.0,5,7.488,0.0,0.0,0.0,22.8,7.1,6.3,1024,1024,1024,1024,0,0,0,0,67,4.768,77.9,29.52756,P-GPS,,9.0
501900,2026-01-08 12:36:49,0.0,5,7.488,0.0,0.0,0.0,22.6,6.9,6.0,1024,1024,1024,1024,0,0,0,0,67,4.768,77.9,29.52756,P-GPS,,9.0
502000,2026-01-08 12:36:49,0.0,5,7.488,0.0,0.0,0.0,22.8,8.0,6.0,1024,1024,1024,1024,0,0,0,0,67,4.768,77.9,29.52756,P-GPS,,9.0
502100,2026-01-08 12:36:49,0.0,5,7.488,0.0,0.0,0.0,22.8,7.9,6.3,1024,1024,1024,1024,0,0,0,0,67,4.768,77.9,29.52756,P-GPS,,9.0
502200,2026-01-08 12:36:50,0.0,5,7.488,0.0,0.0,0.0,22.9,8.4,6.5,1024,1024,1024,1024,0,0,0,0,67,4.768,77.9,29.52756,P-GPS,,9.0
502300,2026-01-08 12:36:50,0.0,5,7.488,0.0,0.0,0.0,22.9,8.2,6.9,1024,1024,1024,1024,0,0,0,0,67,4.768,77.9,29.52756,P-GPS,,9.0
502400,2026-01-08 12:36:50,0.0,5,7.488,0.0,0.0,0.0,23.0,8.7,6.1,1024,1024,1024,1024,0,0,0,0,67,4.768,77.9,29.52756,P-GPS,,9.0
502500,2026-01-08 12:36:50,0.0,5,7.479,0.0,0.0,0.0,23.0,8.3,6.2,1024,1024,1024,1024,0,0,0,0,67,5.145,77.9,29.52756,P-GPS,,9.0
502600,2026-01-08 12:36:50,0.0,5,7.479,0.0,0.0,0.0,22.8,7.5,6.5,1024,1024,1024,1024,0,0,0,0,67,5.145,77.9,29.52756,P-GPS,,9.0
502700,2026-01-08 12:36:50,0.0,5,7.479,0.0,0.0,0.0,22.7,7.6,6.5,1024,1024,1024,1024,0,0,0,0,67,5.145,77.9,29.52756,P-GPS,,9.0
502800,2026-01-08 12:36:50,0.0,5,7.479,0.0,0.0,0.0,22.7,8.1,6.0,1024,1024,1024,1024,0,0,0,0,67,5.145,77.9,29.52756,P-GPS,,9.0
502900,2026-01-08 12:36:50,0.0,5,7.479,0.0,0.0,0.0,22.7,8.1,5.6,1024,1024,1024,1024,0,0,0,0,67,5.145,77.9,29.52756,P-GPS,,9.0
503000,2026-01-08 12:36:50,0.223694,5,7.479,0.223694,0.0,0.0,22.8,9.0,5.3,1024,1024,1024,1024,0,0,0,0,67,5.145,77.9,29.52756,P-GPS,,9.0
503100,2026-01-08 12:36:50,0.223694,5,7.479,0.223694,0.0,0.0,23.0,10.6,6.8,1024,1024,1024,1024,0,0,0,0,67,5.145,77.9,29.52756,P-GPS,,9.0
503200,2026-01-08 12:36:50,0.223694,5,7.479,0.223694,0.0,0.0,23.1,10.8,6.4,1024,1024,1024,1024,0,0,0,0,67,5.145,77.9,29.52756,P-GPS,,9.0
503300,2026-01-08 12:36:51,0.0,5,7.479,0.0,0.0,0.0,23.2,10.8,6.4,1024,1024,1024,1024,0,0,0,0,67,5.145,77.9,29.855644,P-GPS,,9.1
503400,2026-01-08 12:36:51,0.0,5,7.479,0.0,0.0,0.0,23.3,10.4,6.7,1024,1024,1024,1024,0,0,0,0,67,5.145,77.9,29.855644,P-GPS,,9.1
503500,2026-01-08 12:36:51,0.0,5,7.479,0.0,0.0,0.0,23.4,10.1,7.1,1024,1024,1024,1024,0,0,0,0,67,5.145,77.9,29.855644,P-GPS,,9.1
503600,2026-01-08 12:36:51,0.0,5,7.453,0.0,0.0,0.0,23.4,8.6,7.4,1024,1024,1024,1024,0,0,0,0,67,5.224,78.08,29.855644,P-GPS,,9.1
503700,2026-01-08 12:36:51,0.0,5,7.453,0.0,0.0,0.0,23.0,7.0,8.4,1024,1024,1024,1024,0,0,0,0,67,5.224,78.08,29.855644,P-GPS,,9.1
503800,2026-01-08 12:36:51,0.0,5,7.453,0.0,0.0,0.0,22.8,6.9,7.5,1024,1024,1024,1024,0,0,0,0,67,5.224,78.08,30.183728,P-GPS,,9.2
503900,2026-01-08 12:36:51,0.0,5,7.453,0.0,0.0,0.0,22.8,6.9,7.4,1024,1024,1024,1024,0,0,0,0,67,5.224,78.08,29.855644,P-GPS,,9.1
504000,2026-01-08 12:36:51,0.0,5,7.453,0.0,0.0,-0.223694,22.8,8.2,6.3,1024,1024,1024,1024,0,0,0,0,67,5.224,78.08,29.855644,P-GPS,,9.1
504100,2026-01-08 12:36:51,0.223694,5,7.453,0.0,0.223694,-0.223694,22.8,9.4,5.1,1024,1024,1024,1024,0,0,0,0,67,5.224,78.08,29.855644,P-GPS,,9.1
504200,2026-01-08 12:36:52,0.223694,5,7.453,0.0,0.223694,0.0,22.8,9.3,5.3,1024,1024,1024,1024,0,0,0,0,67,5.224,78.08,29.855644,P-GPS,,9.1
504300,2026-01-08 12:36:52,0.223694,5,7.453,0.0,0.223694,-0.223694,22.7,8.8,4.4,1024,1024,1024,1024,0,0,0,0,67,5.224,78.08,29.52756,P-GPS,,9.0
504400,2026-01-08 12:36:52,0.223694,5,7.453,0.0,0.223694,-0.223694,22.5,7.4,3.8,1024,1024,1024,1024,0,0,0,0,67,5.224,78.08,29.52756,P-GPS,,9.0
504500,2026-01-08 12:36:52,0.223694,5,7.453,0.0,0.223694,0.0,22.6,9.3,3.2,1024,1024,1024,1024,0,0,0,0,67,5.224,78.08,29.199476,P-GPS,,8.9
504600,2026-01-08 12:36:52,0.0,5,7.453,0.0,0.0,0.0,22.6,9.2,3.6,1024,1024,1024,1024,0,0,0,0,67,5.224,78.08,28.871392,P-GPS,,8.8
504700,2026-01-08 12:36:52,0.223694,5,7.518,-0.223694,0.0,0.0,22.8,8.4,2.9,1024,1024,1024,1024,0,0,0,0,67,4.782,78.08,28.871392,P-GPS,,8.8
504800,2026-01-08 12:36:52,0.223694,5,7.518,-0.223694,0.0,0.0,22.7,7.0,3.2,1024,1024,1024,1024,0,0,0,0,67,4.782,78.08,28.871392,P-GPS,,8.8
504900,2026-01-08 12:36:52,0.223694,5,7.518,-0.223694,0.0,0.0,22.6,6.1,2.9,1024,1024,1024,1024,0,0,0,0,67,4.782,78.08,28.543308,P-GPS,,8.7
505000,2026-01-08 12:36:52,0.223694,5,7.518,-0.223694,0.0,0.0,22.6,5.6,2.5,1024,1024,1024,1024,0,0,0,0,67,4.782,78.08,28.543308,P-GPS,,8.7
505100,2026-01-08 12:36:52,0.0,5,7.518,0.0,0.0,0.0,22.5,6.4,2.9,1024,1024,1024,1024,0,0,0,0,67,4.782,78.08,28.215224,P-GPS,,8.6
505200,2026-01-08 12:36:53,0.0,5,7.518,0.0,0.0,0.0,22.6,6.6,3.5,1024,1024,1024,1024,0,0,0,0,67,4.782,78.08,28.215224,P-GPS,,8.6
505300,2026-01-08 12:36:53,0.0,5,7.518,0.0,0.0,0.0,22.8,6.6,4.8,1024,1024,1024,1024,0,0,0,0,67,4.782,78.08,28.215224,P-GPS,,8.6
505400,2026-01-08 12:36:53,0.0,5,7.518,0.0,0.0,0.0,22.8,6.6,5.0,1024,1024,1024,1024,0,0,0,0,67,4.782,78.08,28.215224,P-GPS,,8.6
505500,2026-01-08 12:36:53,0.0,5,7.518,0.0,0.0,0.0,22.7,7.1,4.0,1024,1024,1024,1024,0,0,0,0,67,4.782,78.08,28.215224,P-GPS,,8.6
505600,2026-01-08 12:36:53,0.0,5,7.518,0.0,0.0,0.0,22.6,6.9,3.7,1024,1024,1024,1024,0,0,0,0,67,4.782,78.08,28.215224,P-GPS,,8.6
505700,2026-01-08 12:36:53,0.0,5,7.518,0.0,0.0,0.0,22.6,7.1,3.7,1024,1024,1024,1024,0,0,0,0,67,4.782,78.08,28.215224,P-GPS,,8.6
505800,2026-01-08 12:36:53,0.0,5,7.488,0.0,0.0,0.0,22.6,6.4,3.6,1024,1024,1024,1024,0,0,0,0,67,4.449,78.08,28.215224,P-GPS,,8.6
505900,2026-01-08 12:36:53,0.0,5,7.488,0.0,0.0,0.0,22.6,7.1,3.6,1024,1024,1024,1024,0,0,0,0,67,4.449,78.08,28.215224,P-GPS,,8.6
506000,2026-01-08 12:36:53,0.0,5,7.488,0.0,0.0,0.0,22.7,7.4,3.6,1024,1024,1024,1024,0,0,0,0,67,4.449,78.08,28.215224,P-GPS,,8.6
506100,2026-01-08 12:36:53,0.0,5,7.488,0.0,0.0,0.0,22.8,6.8,3.7,1024,1024,1024,1024,0,0,0,0,67,4.449,78.08,28.215224,P-GPS,,8.6
506200,2026-01-08 12:36:54,0.0,5,7.488,0.0,0.0,0.0,22.9,7.2,3.8,1024,1024,1024,1024,0,0,0,0,67,4.449,78.08,28.215224,P-GPS,,8.6
506300,2026-01-08 12:36:54,0.0,5,7.488,0.0,0.0,0.0,22.8,6.9,3.5,1024,1024,1024,1024,0,0,0,0,67,4.449,78.08,28.215224,P-GPS,,8.6
506400,2026-01-08 12:36:54,0.0,5,7.488,0.0,0.0,0.0,22.8,6.8,3.4,1024,1024,1024,1024,0,0,0,0,67,4.449,78.08,28.215224,P-GPS,,8.6
506500,2026-01-08 12:36:54,0.0,5,7.488,0.0,0.0,0.0,22.8,7.0,3.5,1024,1024,1024,1024,0,0,0,0,67,4.449,78.08,28.215224,P-GPS,,8.6
506600,2026-01-08 12:36:54,0.0,5,7.488,0.0,0.0,0.0,22.8,6.9,2.9,1024,1024,1024,1024,0,0,0,0,67,4.449,78.08,28.215224,P-GPS,,8.6
506700,2026-01-08 12:36:54,0.223694,5,7.488,0.0,0.223694,0.0,22.7,6.8,2.2,1024,1024,1024,1024,0,0,0,0,67,4.449,78.08,27.88714,P-GPS,,8.5
506800,2026-01-08 12:36:54,0.223694,5,7.488,0.0,0.0,0.0,22.8,7.3,1.9,1024,1024,1024,1024,0,0,0,0,67,4.449,78.08,27.88714,P-GPS,,8.5
506900,2026-01-08 12:36:54,0.0,5,7.482,0.0,0.0,0.0,22.7,8.5,2.3,1024,1024,1024,1024,0,0,0,0,67,4.673,78.08,27.88714,P-GPS,,8.5
507000,2026-01-08 12:36:54,0.0,5,7.482,0.0,0.0,0.0,22.7,8.7,2.6,1024,1024,1024,1024,0,0,0,0,67,4.673,78.08,27.88714,P-GPS,,8.5
507100,2026-01-08 12:36:54,0.0,5,7.482,0.0,0.0,0.0,22.7,9.3,2.2,1024,1024,1024,1024,0,0,0,0,67,4.673,78.08,27.88714,P-GPS,,8.5
507200,2026-01-08 12:36:55,0.223694,5,7.482,0.223694,0.0,0.0,22.8,10.2,2.3,1024,1024,1024,1024,0,0,0,0,67,4.673,78.08,27.88714,P-GPS,,8.5
507300,2026-01-08 12:36:55,0.0,5,7.482,0.0,0.0,0.0,22.8,10.2,2.1,1024,1024,1024,1024,0,0,0,0,67,4.673,78.08,28.215224,P-GPS,,8.6
507400,2026-01-08 12:36:55,0.0,5,7.482,0.0,0.0,0.0,22.7,9.8,2.1,1024,1024,1024,1024,0,0,0,0,67,4.673,78.08,28.215224,P-GPS,,8.6
507500,2026-01-08 12:36:55,0.0,5,7.482,0.0,0.0,0.0,22.7,9.9,2.1,1024,1024,1024,1024,0,0,0,0,67,4.673,78.08,28.215224,P-GPS,,8.6
507600,2026-01-08 12:36:55,0.0,5,7.482,0.0,0.0,0.0,22.7,9.4,2.4,1024,1024,1024,1024,0,0,0,0,67,4.673,78.08,28.215224,P-GPS,,8.6
507700,2026-01-08 12:36:55,0.0,5,7.482,0.0,0.0,0.0,22.8,9.2,2.6,1024,1024,1024,1024,0,0,0,0,67,4.673,78.08,28.215224,P-GPS,,8.6
507800,2026-01-08 12:36:55,0.0,5,7.482,0.0,0.0,0.0,23.0,9.1,2.9,1024,1024,1024,1024,0,0,0,0,67,4.673,78.08,28.215224,P-GPS,,8.6
507900,2026-01-08 12:36:55,0.0,5,7.482,0.0,0.0,0.0,23.0,9.5,3.3,1024,1024,1024,1024,0,0,0,0,67,4.673,78.08,28.543308,P-GPS,,8.7
508000,2026-01-08 12:36:55,0.0,5,7.468,0.0,0.0,0.0,23.0,9.2,2.6,1024,1024,1024,1024,0,0,0,0,67,4.977,78.08,28.543308,P-GPS,,8.7
508100,2026-01-08 12:36:55,0.0,5,7.468,0.0,0.0,0.0,22.9,8.5,2.9,1024,1024,1024,1024,0,0,0,0,67,4.977,78.08,28.543308,P-GPS,,8.7
508200,2026-01-08 12:36:55,0.0,5,7.468,0.0,0.0,0.0,22.8,9.0,3.2,1024,1024,1024,1024,0,0,0,0,67,4.977,78.08,28.543308,P-GPS,,8.7
508300,2026-01-08 12:36:56,0.0,5,7.468,0.0,0.0,0.0,22.9,8.8,3.2,1024,1024,1024,1024,0,0,0,0,67,4.977,78.08,28.543308,P-GPS,,8.7
508400,2026-01-08 12:36:56,0.0,5,7.468,0.0,0.0,0.0,22.7,7.9,2.9,1024,1024,1024,1024,0,0,0,0,67,4.977,78.08,28.543308,P-GPS,,8.7
508500,2026-01-08 12:36:56,0.0,5,7.468,0.0,0.0,0.0,22.7,7.4,2.9,1024,1024,1024,1024,0,0,0,0,67,4.977,78.08,28.543308,P-GPS,,8.7
508600,2026-01-08 12:36:56,0.0,5,7.468,0.0,0.0,0.0,22.9,7.8,2.8,1024,1024,1024,1024,0,0,0,0,67,4.977,78.08,28.543308,P-GPS,,8.7
508700,2026-01-08 12:36:56,0.0,5,7.468,0.0,0.0,0.0,22.9,7.8,2.9,1024,1024,1024,1024,0,0,0,0,67,4.977,78.08,28.871392,P-GPS,,8.8
508800,2026-01-08 12:36:56,0.0,5,7.468,0.0,0.0,0.0,22.8,7.4,2.9,1024,1024,1024,1024,0,0,0,0,67,4.977,78.08,28.871392,P-GPS,,8.8
508900,2026-01-08 12:36:56,0.0,5,7.468,0.0,0.0,0.0,22.8,7.5,2.5,1024,1024,1024,1024,0,0,0,0,67,4.977,78.08,28.871392,P-GPS,,8.8
509000,2026-01-08 12:36:56,0.0,5,7.468,0.0,0.0,0.0,22.9,6.9,2.5,1024,1024,1024,1024,0,0,0,0,67,4.977,78.08,28.871392,P-GPS,,8.8
509100,2026-01-08 12:36:56,0.0,5,7.461,0.0,0.0,0.0,22.8,6.7,2.4,1024,1024,1024,1024,0,0,0,0,67,4.979,78.08,28.871392,P-GPS,,8.8
509200,2026-01-08 12:36:57,0.0,5,7.461,0.0,0.0,0.0,22.8,7.0,2.4,1024,1024,1024,1024,0,0,0,0,67,4.979,78.08,28.871392,P-GPS,,8.8
509300,2026-01-08 12:36:57,0.0,5,7.461,0.0,0.0,0.0,22.8,6.9,2.4,1024,1024,1024,1024,0,0,0,0,67,4.979,78.08,28.871392,P-GPS,,8.8
509400,2026-01-08 12:36:57,0.0,5,7.461,0.0,0.0,0.0,22.8,7.4,1.8,1024,1024,1024,1024,0,0,0,0,67,4.979,78.08,28.871392,P-GPS,,8.8
509500,2026-01-08 12:36:57,0.0,5,7.461,0.0,0.0,0.0,22.8,7.8,1.5,1024,1024,1024,1024,0,0,0,0,67,4.979,78.08,28.871392,P-GPS,,8.8
509600,2026-01-08 12:36:57,0.0,5,7.461,0.0,0.0,0.0,22.7,7.4,1.4,1024,1024,1024,1024,0,0,0,0,67,4.979,78.08,28.871392,P-GPS,,8.8
509700,2026-01-08 12:36:57,0.0,5,7.461,0.0,0.0,0.0,22.7,7.3,1.9,1024,1024,1024,1024,0,0,0,0,67,4.979,78.08,28.871392,P-GPS,,8.8
509800,2026-01-08 12:36:57,0.0,5,7.461,0.0,0.0,0.0,22.8,7.1,1.3,1024,1024,1024,1024,0,0,0,0,67,4.979,78.08,28.871392,P-GPS,,8.8
509900,2026-01-08 12:36:57,0.0,5,7.461,0.0,0.0,0.0,22.7,7.3,1.6,1024,1024,1024,1024,0,0,0,0,67,4.979,78.08,28.871392,P-GPS,,8.8
510000,2026-01-08 12:36:57,0.0,5,7.461,0.0,0.0,0.0,22.9,6.5,2.3,1024,1024,1024,1024,0,0,0,0,67,4.979,78.08,28.871392,P-GPS,,8.8
510100,2026-01-08 12:36:57,0.0,5,7.461,0.0,0.0,0.0,22.9,6.4,1.9,1024,1024,1024,1024,0,0,0,0,67,4.979,78.08,28.871392,P-GPS,,8.8
510200,2026-01-08 12:36:57,0.0,5,7.461,0.0,0.0,0.0,22.8,6.5,1.2,1024,1024,1024,1024,0,0,0,0,67,4.979,78.08,29.199476,P-GPS,,8.9
510300,2026-01-08 12:36:58,0.0,5,7.466,0.0,0.0,0.0,22.8,6.4,0.9,1024,1024,1024,1024,0,0,0,0,67,4.932,78.08,29.199476,P-GPS,,8.9
510400,2026-01-08 12:36:58,0.0,5,7.466,0.0,0.0,0.0,22.8,6.6,0.8,1024,1024,1024,1024,0,0,0,0,67,4.932,78.08,29.199476,P-GPS,,8.9
510500,2026-01-08 12:36:58,0.0,5,7.466,0.0,0.0,0.0,22.7,6.4,0.7,1024,1024,1024,1024,0,0,0,0,67,4.932,78.08,29.199476,P-GPS,,8.9
510600,2026-01-08 12:36:58,0.0,5,7.466,0.0,0.0,0.0,22.7,6.2,1.0,1024,1024,1024,1024,0,0,0,0,67,4.932,78.08,29.199476,P-GPS,,8.9
510700,2026-01-08 12:36:58,0.0,5,7.466,0.0,0.0,0.0,22.7,6.3,1.0,1024,1024,1024,1024,0,0,0,0,67,4.932,78.08,29.199476,P-GPS,,8.9
510800,2026-01-08 12:36:58,0.0,5,7.466,0.0,0.0,0.0,22.6,6.1,0.8,1024,1024,1024,1024,0,0,0,0,67,4.932,78.08,29.52756,P-GPS,,9.0
510900,2026-01-08 12:36:58,0.0,5,7.466,0.0,0.0,0.0,22.6,6.1,2.0,1024,1024,1024,1024,0,0,0,0,67,4.932,78.08,29.52756,P-GPS,,9.0
511000,2026-01-08 12:36:58,0.0,5,7.466,0.0,0.0,0.0,22.6,6.3,2.0,1024,1024,1024,1024,0,0,0,0,67,4.932,78.08,29.52756,P-GPS,,9.0
511100,2026-01-08 12:36:58,0.0,5,7.466,0.0,0.0,0.0,22.6,6.2,2.4,1024,1024,1024,1024,0,0,0,0,67,4.932,78.08,29.52756,P-GPS,,9.0
511200,2026-01-08 12:36:59,0.0,5,7.466,0.0,0.0,0.0,22.5,6.0,2.9,1024,1024,1024,1024,0,0,0,0,67,4.932,78.08,29.855644,P-GPS,,9.1
511300,2026-01-08 12:36:59,0.0,5,7.466,0.0,0.0,0.0,22.6,5.5,2.7,1024,1024,1024,1024,0,0,0,0,67,4.932,78.08,29.855644,P-GPS,,9.1
511400,2026-01-08 12:36:59,0.0,5,7.477,0.0,0.0,0.0,22.6,5.5,3.2,1024,1024,1024,1024,0,0,0,0,67,4.788,78.08,29.855644,P-GPS,,9.1
511500,2026-01-08 12:36:59,0.0,5,7.477,0.0,0.0,0.0,22.7,5.9,3.5,1024,1024,1024,1024,0,0,0,0,67,4.788,78.08,29.855644,P-GPS,,9.1
511600,2026-01-08 12:36:59,0.0,5,7.477,0.0,0.0,0.0,22.6,5.9,3.4,1024,1024,1024,1024,0,0,0,0,67,4.788,78.08,29.855644,P-GPS,,9.1
511700,2026-01-08 12:36:59,0.0,5,7.477,0.0,0.0,0.0,22.6,6.1,3.7,1024,1024,1024,1024,0,0,0,0,67,4.788,78.08,30.183728,P-GPS,,9.2
511800,2026-01-08 12:36:59,0.0,5,7.477,0.0,0.0,0.0,22.7,6.8,3.7,1024,1024,1024,1024,0,0,0,0,67,4.788,78.08,30.183728,P-GPS,,9.2
511900,2026-01-08 12:36:59,0.0,5,7.477,0.0,0.0,0.0,22.7,6.9,3.6,1024,1024,1024,1024,0,0,0,0,67,4.788,78.08,30.183728,P-GPS,,9.2
512000,2026-01-08 12:36:59,0.0,5,7.477,0.0,0.0,0.0,22.7,7.0,3.4,1024,1024,1024,1024,0,0,0,0,67,4.788,78.08,30.183728,P-GPS,,9.2
512100,2026-01-08 12:36:59,0.0,5,7.477,0.0,0.0,0.0,22.7,6.3,3.8,1024,1024,1024,1024,0,0,0,0,67,4.788,78.08,30.511812,P-GPS,,9.3
512200,2026-01-08 12:36:59,0.0,5,7.477,0.0,0.0,0.0,22.6,5.7,4.0,1024,1024,1024,1024,0,0,0,0,67,4.788,78.08,30.511812,P-GPS,,9.3
512300,2026-01-08 12:37:00,0.0,5,7.477,0.0,0.0,0.0,22.6,5.2,3.5,1024,1024,1684,1024,0,0,100,0,67,4.788,78.08,30.511812,P-GPS,,9.3
512400,2026-01-08 12:37:00,0.0,5,7.477,0.0,0.0,0.0,22.6,5.2,3.8,1024,1024,1684,1024,0,0,100,0,67,4.788,78.08,30.839896,P-GPS,,9.4
512500,2026-01-08 12:37:00,0.0,5,7.474,0.0,0.0,-0.223694,22.8,5.3,3.4,1024,1024,1684,1024,0,0,100,0,67,4.543,78.08,30.839896,P-GPS,,9.4
512600,2026-01-08 12:37:00,0.0,5,7.474,0.0,0.0,-0.894776,22.6,5.6,3.7,1024,1024,1684,1024,0,0,100,0,67,4.543,78.08,31.16798,P-GPS,,9.5
512700,2026-01-08 12:37:00,0.0,5,7.474,0.0,0.0,-1.789552,22.5,5.3,3.6,1024,1024,1684,1024,0,0,100,0,67,4.543,78.08,31.496064,P-GPS,,9.6
512800,2026-01-08 12:37:00,0.0,5,7.474,0.0,0.0,-2.460634,22.6,5.5,4.2,1024,1024,1684,1024,0,0,100,0,67,4.543,78.08,32.152232,P-GPS,,9.8
512900,2026-01-08 12:37:00,0.0,5,7.474,0.0,0.0,-3.35541,22.7,5.7,4.4,1024,1024,1684,1024,0,0,100,0,67,4.543,78.08,32.480316,P-GPS,,9.9
513000,2026-01-08 12:37:00,0.0,5,7.474,0.0,0.0,-3.802798,22.7,5.9,4.4,1024,1024,1684,1024,0,0,100,0,67,4.543,78.08,33.136484,P-GPS,,10.1
513100,2026-01-08 12:37:00,0.0,5,7.474,0.0,0.0,-4.250186,22.7,5.8,4.6,1024,1024,1684,1024,0,0,100,0,67,4.543,78.08,33.792652,P-GPS,,10.3
513200,2026-01-08 12:37:01,0.0,5,7.474,0.0,0.0,-4.47388,22.6,5.8,4.2,1024,1024,1684,1024,0,0,100,0,67,4.543,78.08,34.44882,P-GPS,,10.5
513300,2026-01-08 12:37:01,0.0,5,7.474,0.0,0.0,-4.47388,22.6,5.8,4.0,1024,1024,1684,1024,0,0,100,0,67,4.543,78.08,35.104988,P-GPS,,10.7
513400,2026-01-08 12:37:01,0.0,5,7.474,0.0,0.0,-4.47388,22.6,5.9,3.7,1024,1024,1684,1024,0,0,100,0,67,4.543,78.08,35.761156,P-GPS,,10.9
513500,2026-01-08 12:37:01,0.0,5,7.474,0.0,0.0,-4.47388,22.7,6.2,3.3,1024,1024,1684,1024,0,0,100,0,67,4.543,78.08,36.08924,P-GPS,,11.0
513600,2026-01-08 12:37:01,0.0,5,7.433,0.0,0.0,-4.250186,22.7,7.0,3.1,1024,1024,1684,1024,0,0,100,0,67,6.365,78.08,36.745408,P-GPS,,11.2
513700,2026-01-08 12:37:01,0.0,5,7.433,0.0,0.0,-4.250186,22.6,6.8,3.5,1024,1024,1684,1024,0,0,100,0,67,6.365,78.08,37.401576,P-GPS,,11.4
513800,2026-01-08 12:37:01,0.0,5,7.433,0.0,0.0,-4.250186,22.6,7.0,3.9,1024,1024,1684,1024,0,0,100,0,67,6.365,78.08,38.057744,P-GPS,,11.6
513900,2026-01-08 12:37:01,0.0,5,7.433,0.0,0.0,-4.250186,22.8,7.9,4.9,1024,1024,1684,1024,0,0,100,0,67,6.365,78.08,38.713912,P-GPS,,11.8
610300,2026-01-08 12:38:38,0.223694,5,7.458,-0.223694,0.0,4.026492,23.2,6.3,3.9,1024,1024,364,1024,0,0,-100,0,60,3.73,79.88,39.041996,P-GPS,,11.9
610400,2026-01-08 12:38:38,0.223694,5,7.458,-0.223694,0.0,4.026492,23.2,4.5,4.8,1024,1024,364,1024,0,0,-100,0,60,3.73,79.88,38.385828,P-GPS,,11.7
610500,2026-01-08 12:38:38,0.223694,5,7.453,-0.223694,0.0,4.026492,22.9,3.8,5.4,1024,1024,364,1024,0,0,-100,0,60,3.65,79.88,38.057744,P-GPS,,11.6
610600,2026-01-08 12:38:38,0.223694,5,7.453,-0.223694,0.0,3.802798,22.8,3.8,4.7,1024,1024,364,1024,0,0,-100,0,60,3.65,79.88,37.401576,P-GPS,,11.4
610700,2026-01-08 12:38:38,0.223694,5,7.453,-0.223694,0.0,3.802798,22.5,2.6,4.5,1024,1024,364,1024,0,0,-100,0,60,3.65,79.88,36.745408,P-GPS,,11.2
610800,2026-01-08 12:38:38,0.223694,5,7.453,-0.223694,0.0,3.802798,22.4,4.2,4.3,1024,1024,364,1044,0,0,-100,3,60,3.65,79.88,36.08924,P-GPS,,11.0
610900,2026-01-08 12:38:38,0.0,5,7.453,0.0,0.0,3.802798,22.4,4.7,3.8,1024,1024,364,1044,0,0,-100,3,60,3.65,79.88,35.433072,P-GPS,,10.8
611000,2026-01-08 12:38:38,0.0,5,7.453,0.0,0.0,3.802798,22.3,5.5,3.3,1024,1024,364,1044,0,0,-100,3,60,3.65,79.88,34.776904,P-GPS,,10.6
611100,2026-01-08 12:38:38,0.0,5,7.453,0.0,0.0,3.802798,21.8,5.4,3.5,1024,1024,364,1044,0,0,-100,3,60,3.65,79.88,34.44882,P-GPS,,10.5
611200,2026-01-08 12:38:39,0.0,5,7.453,0.0,0.0,4.026492,21.7,5.3,3.8,1024,1024,364,1030,0,0,-100,1,60,3.65,79.88,33.792652,P-GPS,,10.3
611300,2026-01-08 12:38:39,0.0,5,7.453,0.0,0.0,4.026492,21.9,5.6,3.8,1024,1024,364,1024,0,0,-100,0,60,3.65,79.88,33.136484,P-GPS,,10.1
611400,2026-01-08 12:38:39,0.0,5,7.453,0.0,0.0,3.802798,21.9,6.5,3.2,1024,1024,364,1024,0,0,-100,0,60,3.65,79.88,32.480316,P-GPS,,9.9
611500,2026-01-08 12:38:39,0.0,5,7.453,0.0,0.0,3.802798,21.8,6.9,3.1,1024,1024,364,1024,0,0,-100,0,60,3.65,79.88,32.152232,P-GPS,,9.8
611600,2026-01-08 12:38:39,0.0,5,7.453,0.0,0.0,3.802798,21.8,7.0,3.4,1024,1024,364,1024,0,0,-100,0,60,3.562,79.88,31.496064,P-GPS,,9.6
611700,2026-01-08 12:38:39,0.0,5,7.453,0.0,0.0,3.802798,22.0,7.5,2.7,1024,1024,364,1036,0,0,-100,2,60,3.562,79.88,30.839896,P-GPS,,9.4
611800,2026-01-08 12:38:39,0.223694,5,7.453,-0.223694,0.0,4.026492,22.4,5.7,3.8,1024,1024,364,1026,0,0,-100,0,60,3.562,79.88,30.511812,P-GPS,,9.3
611900,2026-01-08 12:38:39,0.223694,5,7.453,-0.223694,0.0,4.026492,22.3,3.3,4.7,1024,1024,364,1026,0,0,-100,0,60,3.562,79.88,29.855644,P-GPS,,9.1
612000,2026-01-08 12:38:39,0.0,5,7.453,0.0,0.0,4.026492,21.7,2.3,4.3,1024,1024,364,1026,0,0,-100,0,60,3.562,79.88,29.52756,P-GPS,,9.0
612100,2026-01-08 12:38:39,0.0,5,7.453,0.0,0.0,4.026492,21.3,2.7,3.1,1024,1024,364,1026,0,0,-100,0,60,3.562,79.88,28.871392,P-GPS,,8.8
612200,2026-01-08 12:38:39,0.0,5,7.453,0.0,0.0,3.802798,21.5,4.5,2.3,1024,1024,364,1031,0,0,-100,1,60,3.562,79.88,28.543308,P-GPS,,8.7
612300,2026-01-08 12:38:40,0.0,5,7.453,0.0,0.0,3.802798,21.9,4.7,3.0,1024,1024,364,1037,0,0,-100,2,60,3.562,79.88,27.88714,P-GPS,,8.5
612400,2026-01-08 12:38:40,0.0,5,7.453,0.0,0.0,3.802798,21.8,5.4,3.2,1024,1024,364,1110,0,0,-100,13,60,3.562,79.88,27.559056,P-GPS,,8.4
612500,2026-01-08 12:38:40,0.0,5,7.453,0.0,0.0,3.802798,21.9,5.4,3.5,1024,1024,364,1109,0,0,-100,13,60,3.562,79.88,26.902888,P-GPS,,8.2
612600,2026-01-08 12:38:40,0.0,5,7.453,0.0,0.0,4.026492,21.9,5.1,3.9,1024,1024,364,1109,0,0,-100,13,60,3.562,79.88,26.574804,P-GPS,,8.1
