time(millisecond),timestamp,speed(mph),gpslevel,voltage(v),xSpeed(mph),ySpeed(mph),zSpeed(mph),compass_heading(degrees),pitch(degrees),roll(degrees),rc_elevator,rc_aileron,rc_throttle,rc_rudder,rc_elevator(percent),rc_aileron(percent),rc_throttle(percent),rc_rudder(percent),battery_percent,current(A),battery_temperature(f),ascent(feet),flycState,message,height_above_takeoff(meters)
170800,2026-01-08 12:30:45,0.0,5,7.666,0.0,0.0,0.0,12.2,9.6,4.2,1024,1024,1024,1024,0,0,0,0,88,6.804,69.44,35.433072,P-GPS,,10.8
170900,2026-01-08 12:30:45,0.0,5,7.666,0.0,0.0,0.0,12.1,9.8,4.0,1024,1024,790,1024,0,0,-35,0,88,6.804,69.44,35.104988,P-GPS,,10.7
171000,2026-01-08 12:30:45,0.0,5,7.666,0.0,0.0,0.0,12.1,8.9,4.0,1024,1024,364,1024,0,0,-100,0,88,6.804,69.44,35.104988,P-GPS,,10.7
171100,2026-01-08 12:30:45,0.0,5,7.666,0.0,0.0,0.0,12.0,8.7,3.6,1024,1024,461,1024,0,0,-85,0,88,6.804,69.44,34.776904,P-GPS,,10.6
171200,2026-01-08 12:30:45,0.0,5,7.746,0.0,0.0,0.0,12.1,9.0,3.7,1024,1024,1024,1024,0,0,0,0,88,4.417,69.44,34.44882,P-GPS,,10.5
172000,2026-01-08 12:30:46,0.0,5,7.746,0.0,0.0,0.0,12.0,9.2,1.7,1024,1024,1024,1024,0,0,0,0,88,4.417,69.44,32.480316,P-GPS,,9.9
172100,2026-01-08 12:30:46,0.0,5,7.746,0.0,0.0,0.0,12.1,9.3,1.4,1024,1024,1024,1024,0,0,0,0,88,4.417,69.44,32.152232,P-GPS,,9.8
172200,2026-01-08 12:30:47,0.0,5,7.746,0.0,0.0,0.0,12.1,9.5,2.1,1024,1024,1024,1024,0,0,0,0,88,4.417,69.44,32.152232,P-GPS,,9.8
172300,2026-01-08 12:30:47,0.0,5,7.746,0.0,0.0,0.0,12.3,10.6,1.8,1024,1024,1024,1024,0,0,0,0,88,4.417,69.44,31.824148,P-GPS,,9.7
172400,2026-01-08 12:30:47,0.223694,5,7.746,0.0,0.223694,0.0,12.3,12.3,0.9,1024,1024,1024,1024,0,0,0,0,88,4.417,69.44,31.824148,P-GPS,,9.7
172500,2026-01-08 12:30:47,0.223694,5,7.746,0.0,0.0,0.0,12.2,9.6,0.5,1024,1024,1024,1024,0,0,0,0,88,4.417,69.44,31.824148,P-GPS,,9.7
172700,2026-01-08 12:30:47,0.0,5,7.746,0.0,0.0,0.0,12.0,10.3,1.5,1024,1024,1024,1024,0,0,0,0,88,4.417,69.44,31.496064,P-GPS,,9.6
172800,2026-01-08 12:30:47,0.0,5,7.746,0.0,0.0,0.0,12.0,10.4,1.8,1024,1024,1024,1024,0,0,0,0,88,4.417,69.44,31.16798,P-GPS,,9.5
172900,2026-01-08 12:30:47,0.0,5,7.746,0.0,0.0,0.0,12.0,10.5,2.8,1024,1024,1024,1024,0,0,0,0,88,4.417,69.44,31.16798,P-GPS,,9.5
173000,2026-01-08 12:30:47,0.0,5,7.746,0.0,0.0,0.0,12.3,12.1,3.0,1024,1024,1024,1024,0,0,0,0,88,4.417,69.44,31.16798,P-GPS,,9.5
173200,2026-01-08 12:30:47,0.0,5,7.746,0.0,0.0,0.0,12.2,10.5,1.3,1024,1024,1024,1024,0,0,0,0,88,4.417,69.44,30.839896,P-GPS,,9.4
173300,2026-01-08 12:30:48,0.0,5,7.746,0.0,0.0,0.0,12.2,10.5,2.1,1024,1024,1024,1024,0,0,0,0,88,4.417,69.44,30.839896,P-GPS,,9.4
173400,2026-01-08 12:30:48,0.0,5,7.758,0.0,0.0,0.0,12.1,11.0,1.9,1024,1024,1024,1024,0,0,0,0,88,4.83,69.44,30.839896,P-GPS,,9.4
173500,2026-01-08 12:30:48,0.0,5,7.758,0.0,0.0,0.0,12.1,10.9,2.3,1024,1024,1024,1024,0,0,0,0,88,4.83,69.44,30.511812,P-GPS,,9.3
173600,2026-01-08 12:30:48,0.0,5,7.758,0.0,0.0,0.0,12.0,10.9,2.5,1024,1024,1024,1024,0,0,0,0,88,4.83,69.44,30.511812,P-GPS,,9.3
173700,2026-01-08 12:30:48,0.0,5,7.758,0.0,0.0,0.0,12.0,11.0,2.9,1024,1024,1024,1024,0,0,0,0,88,4.83,69.44,30.511812,P-GPS,,9.3
173800,2026-01-08 12:30:48,0.0,5,7.758,0.0,0.0,0.0,12.2,10.7,3.2,1024,1024,1024,1024,0,0,0,0,88,4.83,69.44,30.511812,P-GPS,,9.3
173900,2026-01-08 12:30:48,0.0,5,7.758,0.0,0.0,0.0,12.2,11.2,2.9,1024,1024,1024,1024,0,0,0,0,88,4.83,69.44,30.511812,P-GPS,,9.3
174000,2026-01-08 12:30:48,0.0,5,7.758,0.0,0.0,0.0,12.2,11.1,2.9,1024,1024,1024,1024,0,0,0,0,88,4.83,69.44,30.511812,P-GPS,,9.3
174100,2026-01-08 12:30:48,0.0,5,7.758,0.0,0.0,0.0,12.3,11.7,2.8,1024,1024,1024,1024,0,0,0,0,88,4.83,69.44,30.183728,P-GPS,,9.2
174200,2026-01-08 12:30:49,0.0,5,7.758,0.0,0.0,0.0,12.1,10.9,2.5,1024,1024,1024,1024,0,0,0,0,88,4.83,69.44,30.183728,P-GPS,,9.2
174300,2026-01-08 12:30:49,0.0,5,7.758,0.0,0.0,0.0,12.3,11.0,2.0,1024,1024,1024,1024,0,0,0,0,88,4.83,69.44,30.183728,P-GPS,,9.2
174400,2026-01-08 12:30:49,0.0,5,7.758,0.0,0.0,0.0,12.1,10.4,1.2,1024,1024,1024,1024,0,0,0,0,88,4.83,69.44,30.183728,P-GPS,,9.2
174500,2026-01-08 12:30:49,0.0,5,7.758,0.0,0.0,0.0,12.0,10.2,1.3,1024,1024,1024,1024,0,0,0,0,88,4.83,69.44,30.183728,P-GPS,,9.2
174600,2026-01-08 12:30:49,0.0,5,7.758,0.0,0.0,0.0,12.0,9.7,1.3,1024,1024,1024,1024,0,0,0,0,88,4.83,69.44,30.183728,P-GPS,,9.2
174700,2026-01-08 12:30:49,0.0,5,7.758,0.0,0.0,0.0,12.0,9.4,1.2,1024,1024,1024,1024,0,0,0,0,88,4.83,69.44,29.855644,P-GPS,,9.1
174800,2026-01-08 12:30:49,0.0,5,7.758,0.0,0.0,0.0,12.1,9.4,1.5,1024,1024,1024,1024,0,0,0,0,88,4.83,69.44,29.855644,P-GPS,,9.1
174900,2026-01-08 12:30:49,0.0,5,7.758,0.0,0.0,0.0,12.3,9.2,1.8,1024,1024,1024,1024,0,0,0,0,88,4.83,69.44,29.855644,P-GPS,,9.1
175000,2026-01-08 12:30:49,0.0,5,7.758,0.0,0.0,0.0,12.3,9.6,0.8,1024,1024,1024,1024,0,0,0,0,88,4.83,69.44,29.855644,P-GPS,,9.1
175100,2026-01-08 12:30:49,0.0,5,7.758,0.0,0.0,0.0,12.2,9.3,0.5,1024,1024,1024,1024,0,0,0,0,88,4.83,69.44,29.855644,P-GPS,,9.1
175200,2026-01-08 12:30:50,0.0,5,7.758,0.0,0.0,0.0,12.1,8.5,0.1,1024,1024,1024,1024,0,0,0,0,88,4.83,69.44,29.855644,P-GPS,,9.1
175300,2026-01-08 12:30:50,0.0,5,7.747,0.0,0.0,0.0,12.2,9.4,0.2,1024,1024,1024,1024,0,0,0,0,88,4.767,69.44,29.52756,P-GPS,,9.0
175400,2026-01-08 12:30:50,0.0,5,7.747,0.0,0.0,0.0,12.1,10.1,-0.6,1024,1024,1024,1024,0,0,0,0,88,4.767,69.44,29.52756,P-GPS,,9.0
175500,2026-01-08 12:30:50,0.223694,5,7.747,-0.223694,0.0,0.0,12.0,9.8,-0.3,1024,1024,1024,1024,0,0,0,0,88,4.767,69.44,29.52756,P-GPS,,9.0
175600,2026-01-08 12:30:50,0.223694,5,7.747,-0.223694,0.0,0.0,11.9,7.9,-0.2,1024,1024,1024,1024,0,0,0,0,88,4.767,69.44,29.52756,P-GPS,,9.0
175700,2026-01-08 12:30:50,0.3131716,5,7.747,-0.223694,-0.223694,0.0,11.9,6.4,1.7,1024,1024,1024,1024,0,0,0,0,88,4.767,69.44,29.855644,P-GPS,,9.1
175900,2026-01-08 12:30:50,0.223694,5,7.747,0.0,-0.223694,0.0,11.9,7.2,3.8,1024,1024,1024,1024,0,0,0,0,88,4.767,69.44,29.855644,P-GPS,,9.1
176200,2026-01-08 12:30:51,0.223694,5,7.778,0.0,-0.223694,0.0,12.4,8.8,6.1,1024,1024,1024,1024,0,0,0,0,88,4.772,69.62,29.855644,P-GPS,,9.1
176300,2026-01-08 12:30:51,0.223694,5,7.778,0.0,-0.223694,0.0,12.2,8.3,5.4,1024,1024,1024,1024,0,0,0,0,88,4.772,69.62,29.855644,P-GPS,,9.1
176400,2026-01-08 12:30:51,0.223694,5,7.778,0.0,-0.223694,0.0,12.4,8.5,5.7,1024,1024,1024,1024,0,0,0,0,88,4.772,69.62,30.183728,P-GPS,,9.2
176500,2026-01-08 12:30:51,0.223694,5,7.778,0.0,-0.223694,0.0,12.4,8.5,6.2,1024,1024,1024,1024,0,0,0,0,88,4.772,69.62,30.183728,P-GPS,,9.2
176600,2026-01-08 12:30:51,0.223694,5,7.778,0.0,-0.223694,0.0,12.3,7.3,6.0,1024,1024,1024,1024,0,0,0,0,88,4.772,69.62,30.183728,P-GPS,,9.2
176700,2026-01-08 12:30:51,0.223694,5,7.778,0.0,-0.223694,0.0,12.3,7.1,6.0,1024,1024,1024,1024,0,0,0,0,88,4.772,69.62,30.183728,P-GPS,,9.2
176800,2026-01-08 12:30:51,0.223694,5,7.778,0.0,-0.223694,0.0,12.3,6.8,6.2,1024,1024,1024,1024,0,0,0,0,88,4.772,69.62,30.511812,P-GPS,,9.3
176900,2026-01-08 12:30:51,0.0,5,7.778,0.0,0.0,0.0,12.1,6.4,6.0,1024,1024,1024,1024,0,0,0,0,88,4.772,69.62,30.511812,P-GPS,,9.3
177000,2026-01-08 12:30:51,0.0,5,7.778,0.0,0.0,0.0,12.0,5.6,5.4,1024,1024,1024,1024,0,0,0,0,88,4.772,69.62,30.511812,P-GPS,,9.3
177200,2026-01-08 12:30:52,0.0,5,7.778,0.0,0.0,0.0,12.1,6.6,5.6,1024,1024,1024,1024,0,0,0,0,88,4.772,69.62,30.183728,P-GPS,,9.2
177300,2026-01-08 12:30:52,0.0,5,7.775,0.0,0.0,0.0,12.2,6.8,5.1,1024,1024,1024,1024,0,0,0,0,88,4.141,69.62,30.183728,P-GPS,,9.2
177400,2026-01-08 12:30:52,0.0,5,7.775,0.0,0.0,0.0,12.3,6.7,5.1,1024,1024,1024,1024,0,0,0,0,88,4.141,69.62,29.855644,P-GPS,,9.1
177500,2026-01-08 12:30:52,0.0,5,7.775,0.0,0.0,0.0,12.3,7.0,5.4,1024,1024,1024,1024,0,0,0,0,88,4.141,69.62,29.855644,P-GPS,,9.1
177600,2026-01-08 12:30:52,0.0,5,7.775,0.0,0.0,0.0,12.2,6.6,5.3,1024,1024,1024,1024,0,0,0,0,88,4.141,69.62,29.855644,P-GPS,,9.1
177700,2026-01-08 12:30:52,0.0,5,7.775,0.0,0.0,0.0,12.3,6.6,5.4,1024,1024,1024,1024,0,0,0,0,88,4.141,69.62,29.855644,P-GPS,,9.1
177800,2026-01-08 12:30:52,0.0,5,7.775,0.0,0.0,0.0,12.2,6.3,4.7,1024,1024,1024,1024,0,0,0,0,88,4.141,69.62,29.855644,P-GPS,,9.1
177900,2026-01-08 12:30:52,0.0,5,7.775,0.0,0.0,0.0,12.3,7.3,4.8,1024,1024,1024,1024,0,0,0,0,88,4.141,69.62,29.855644,P-GPS,,9.1
178000,2026-01-08 12:30:52,0.0,5,7.775,0.0,0.0,0.0,12.3,7.1,5.0,1024,1024,1024,1024,0,0,0,0,88,4.141,69.62,29.855644,P-GPS,,9.1
178100,2026-01-08 12:30:52,0.0,5,7.775,0.0,0.0,0.0,12.3,7.5,4.9,1024,1024,1024,1024,0,0,0,0,88,4.141,69.62,29.855644,P-GPS,,9.1
178200,2026-01-08 12:30:52,0.0,5,7.776,0.0,0.0,0.0,12.3,7.3,5.0,1024,1024,1024,1024,0,0,0,0,88,4.103,69.62,29.855644,P-GPS,,9.1
178300,2026-01-08 12:30:53,0.0,5,7.776,0.0,0.0,0.0,12.4,7.8,5.1,1024,1024,1024,1024,0,0,0,0,88,4.103,69.62,29.855644,P-GPS,,9.1
178400,2026-01-08 12:30:53,0.0,5,7.776,0.0,0.0,0.0,12.3,8.2,4.6,1024,1024,1024,1024,0,0,0,0,88,4.103,69.62,29.855644,P-GPS,,9.1
178500,2026-01-08 12:30:53,0.0,5,7.776,0.0,0.0,0.0,12.2,7.0,4.4,1024,1024,1024,1024,0,0,0,0,88,4.103,69.62,30.183728,P-GPS,,9.2
178600,2026-01-08 12:30:53,0.0,5,7.776,0.0,0.0,0.0,12.0,6.4,4.2,1024,1024,1024,1024,0,0,0,0,88,4.103,69.62,29.855644,P-GPS,,9.1
178700,2026-01-08 12:30:53,0.0,5,7.776,0.0,0.0,0.0,12.0,5.9,4.1,1024,1024,1024,1024,0,0,0,0,88,4.103,69.62,29.855644,P-GPS,,9.1
178800,2026-01-08 12:30:53,0.0,5,7.776,0.0,0.0,0.0,12.1,5.9,4.1,1024,1024,1024,1024,0,0,0,0,88,4.103,69.62,29.855644,P-GPS,,9.1
178900,2026-01-08 12:30:53,0.0,5,7.776,0.0,0.0,0.0,12.1,6.1,4.3,1024,1024,1024,1024,0,0,0,0,88,4.103,69.62,29.52756,P-GPS,,9.0
179000,2026-01-08 12:30:53,0.0,5,7.776,0.0,0.0,0.0,12.1,6.0,4.4,1024,1024,1024,1024,0,0,0,0,88,4.103,69.62,29.52756,P-GPS,,9.0
179100,2026-01-08 12:30:53,0.0,5,7.776,0.0,0.0,0.0,12.2,5.9,4.5,1024,1024,1024,1024,0,0,0,0,88,4.103,69.62,29.199476,P-GPS,,8.9
179200,2026-01-08 12:30:54,0.0,5,7.799,0.0,0.0,0.0,12.0,5.8,4.6,1024,1024,1024,1024,0,0,0,0,87,4.121,69.62,29.199476,P-GPS,,8.9
179300,2026-01-08 12:30:54,0.0,5,7.799,0.0,0.0,0.0,12.0,6.4,4.7,1024,1024,1024,1024,0,0,0,0,87,4.121,69.62,28.871392,P-GPS,,8.8
179400,2026-01-08 12:30:54,0.0,5,7.799,0.0,0.0,0.0,12.0,6.7,4.8,1024,1024,1024,1024,0,0,0,0,87,4.121,69.62,28.871392,P-GPS,,8.8
179500,2026-01-08 12:30:54,0.0,5,7.799,0.0,0.0,0.0,12.0,6.6,4.6,1024,1024,1024,1024,0,0,0,0,87,4.121,69.62,28.871392,P-GPS,,8.8
179600,2026-01-08 12:30:54,0.0,5,7.799,0.0,0.0,0.0,12.2,7.2,5.0,1024,1024,1024,1024,0,0,0,0,87,4.121,69.62,28.543308,P-GPS,,8.7
179700,2026-01-08 12:30:54,0.0,5,7.799,0.0,0.0,0.0,12.3,7.1,5.2,1024,1024,1024,1024,0,0,0,0,87,4.121,69.62,28.543308,P-GPS,,8.7
179800,2026-01-08 12:30:54,0.0,5,7.799,0.0,0.0,0.0,12.3,6.5,5.0,1024,1024,1024,1024,0,0,0,0,87,4.121,69.62,28.871392,P-GPS,,8.8
179900,2026-01-08 12:30:54,0.0,5,7.799,0.0,0.0,0.0,12.4,6.7,4.5,1024,1024,1024,1024,0,0,0,0,87,4.121,69.62,28.871392,P-GPS,,8.8
180000,2026-01-08 12:30:54,0.0,5,7.799,0.0,0.0,0.0,12.3,5.5,4.2,1024,1024,1024,1024,0,0,0,0,87,4.121,69.62,28.871392,P-GPS,,8.8
180100,2026-01-08 12:30:54,0.0,5,7.776,0.0,0.0,0.0,12.4,5.5,4.3,1024,1024,1024,1024,0,0,0,0,87,4.105,69.62,28.871392,P-GPS,,8.8
180200,2026-01-08 12:30:54,0.0,5,7.776,0.0,0.0,0.0,12.3,5.2,4.1,1024,1024,1024,1024,0,0,0,0,87,4.105,69.62,28.871392,P-GPS,,8.8
180300,2026-01-08 12:30:55,0.0,5,7.776,0.0,0.0,0.0,12.2,5.3,3.9,1024,1024,1024,1024,0,0,0,0,87,4.105,69.62,28.871392,P-GPS,,8.8
180400,2026-01-08 12:30:55,0.0,5,7.776,0.0,0.0,0.0,12.2,5.8,4.1,1024,1024,1024,1024,0,0,0,0,87,4.105,69.62,28.871392,P-GPS,,8.8
180500,2026-01-08 12:30:55,0.0,5,7.776,0.0,0.0,0.0,12.2,6.2,3.7,1024,1024,1024,1024,0,0,0,0,87,4.105,69.62,28.871392,P-GPS,,8.8
180600,2026-01-08 12:30:55,0.0,5,7.776,0.0,0.0,0.0,12.2,6.2,3.5,1024,1024,1024,1024,0,0,0,0,87,4.105,69.62,28.871392,P-GPS,,8.8
180700,2026-01-08 12:30:55,0.0,5,7.776,0.0,0.0,0.0,12.1,6.0,3.0,1024,1024,1024,1024,0,0,0,0,87,4.105,69.62,28.871392,P-GPS,,8.8
180800,2026-01-08 12:30:55,0.0,5,7.776,0.0,0.0,0.0,12.2,6.0,2.7,1024,1024,1024,1024,0,0,0,0,87,4.105,69.62,28.871392,P-GPS,,8.8
180900,2026-01-08 12:30:55,0.0,5,7.776,0.0,0.0,0.0,12.2,5.0,2.7,1024,1024,1024,1024,0,0,0,0,87,4.105,69.62,28.871392,P-GPS,,8.8
181000,2026-01-08 12:30:55,0.0,5,7.776,0.0,0.0,0.0,12.1,3.4,2.8,1024,1024,1024,1024,0,0,0,0,87,4.105,69.62,28.871392,P-GPS,,8.8
181200,2026-01-08 12:30:56,0.0,5,7.785,0.0,0.0,0.0,11.9,6.0,4.6,1024,1024,1024,1024,0,0,0,0,87,4.2,69.8,28.871392,P-GPS,,8.8
181300,2026-01-08 12:30:56,0.0,5,7.785,0.0,0.0,0.0,12.2,7.4,5.3,1024,1024,1024,1024,0,0,0,0,87,4.2,69.8,28.871392,P-GPS,,8.8
181400,2026-01-08 12:30:56,0.223694,5,7.785,0.223694,0.0,0.0,12.2,8.3,5.1,1024,1024,1024,1024,0,0,0,0,87,4.2,69.8,28.543308,P-GPS,,8.7
181500,2026-01-08 12:30:56,0.223694,5,7.785,0.223694,0.0,0.0,12.4,8.8,5.1,1024,1024,1024,1024,0,0,0,0,87,4.2,69.8,28.543308,P-GPS,,8.7
181600,2026-01-08 12:30:56,0.223694,5,7.785,0.223694,0.0,0.0,12.3,9.1,4.5,1024,1024,1024,1024,0,0,0,0,87,4.2,69.8,28.543308,P-GPS,,8.7
181700,2026-01-08 12:30:56,0.223694,5,7.785,0.223694,0.0,0.0,12.2,9.5,4.1,1024,1024,1024,1024,0,0,0,0,87,4.2,69.8,28.871392,P-GPS,,8.8
181800,2026-01-08 12:30:56,0.0,5,7.785,0.0,0.0,0.0,12.1,9.9,3.3,1024,1024,1024,1024,0,0,0,0,87,4.2,69.8,28.871392,P-GPS,,8.8
181900,2026-01-08 12:30:56,0.0,5,7.785,0.0,0.0,0.0,12.0,9.2,2.7,1024,1024,1024,1024,0,0,0,0,87,4.2,69.8,28.871392,P-GPS,,8.8
182500,2026-01-08 12:30:57,0.0,5,7.785,0.0,0.0,0.0,12.5,8.0,5.3,1024,1024,1024,1024,0,0,0,0,87,4.2,69.8,28.543308,P-GPS,,8.7
182600,2026-01-08 12:30:57,0.223694,5,7.785,0.0,0.223694,0.0,12.6,9.3,3.8,1024,1024,1024,1024,0,0,0,0,87,4.2,69.8,28.215224,P-GPS,,8.6
182700,2026-01-08 12:30:57,0.223694,5,7.785,0.0,0.223694,0.0,12.4,8.9,2.2,1024,1024,1024,1024,0,0,0,0,87,4.2,69.8,27.88714,P-GPS,,8.5
182800,2026-01-08 12:30:57,0.223694,5,7.785,0.0,0.223694,0.0,12.3,8.6,1.0,1024,1024,1024,1024,0,0,0,0,87,4.2,69.8,27.88714,P-GPS,,8.5
182900,2026-01-08 12:30:57,0.223694,5,7.785,0.0,0.223694,0.0,12.1,10.5,0.1,1024,1024,1024,1024,0,0,0,0,87,4.2,69.8,27.559056,P-GPS,,8.4
183000,2026-01-08 12:30:57,0.223694,5,7.785,0.0,0.223694,0.0,11.9,10.4,0.6,1024,1024,1024,1024,0,0,0,0,87,4.2,69.8,27.559056,P-GPS,,8.4
183100,2026-01-08 12:30:57,0.0,5,7.785,0.0,0.0,0.0,11.9,9.6,1.2,1024,1024,1024,1024,0,0,0,0,87,4.2,69.8,27.559056,P-GPS,,8.4
183200,2026-01-08 12:30:58,0.0,5,7.785,0.0,0.0,0.0,12.1,9.6,2.1,1024,1024,1024,1024,0,0,0,0,87,4.2,69.8,27.559056,P-GPS,,8.4
183300,2026-01-08 12:30:58,0.0,5,7.785,0.0,0.0,0.0,12.1,8.9,1.6,1024,1024,1024,1024,0,0,0,0,87,4.2,69.8,27.559056,P-GPS,,8.4
183400,2026-01-08 12:30:58,0.0,5,7.771,0.0,0.0,0.0,12.0,7.8,2.6,1024,1024,1024,1024,0,0,0,0,87,3.865,69.8,27.88714,P-GPS,,8.5
183500,2026-01-08 12:30:58,0.0,5,7.771,0.0,0.0,0.0,12.0,7.6,2.1,1024,1024,1024,1024,0,0,0,0,87,3.865,69.8,27.88714,P-GPS,,8.5
183600,2026-01-08 12:30:58,0.0,5,7.771,0.0,0.0,0.0,12.1,7.8,2.1,1024,1024,1024,1024,0,0,0,0,87,3.865,69.8,27.88714,P-GPS,,8.5
183700,2026-01-08 12:30:58,0.0,5,7.771,0.0,0.0,0.0,12.1,7.7,2.5,1024,1024,1024,1024,0,0,0,0,87,3.865,69.8,27.88714,P-GPS,,8.5
183800,2026-01-08 12:30:58,0.0,5,7.771,0.0,0.0,0.0,12.0,7.9,2.6,1024,1024,1024,1024,0,0,0,0,87,3.865,69.8,28.215224,P-GPS,,8.6
183900,2026-01-08 12:30:58,0.0,5,7.771,0.0,0.0,0.0,12.0,8.4,2.5,1024,1024,1024,1024,0,0,0,0,87,3.865,69.8,28.215224,P-GPS,,8.6
184000,2026-01-08 12:30:58,0.0,5,7.771,0.0,0.0,0.0,12.0,8.1,2.5,1024,1024,1024,1024,0,0,0,0,87,3.865,69.8,28.215224,P-GPS,,8.6
184100,2026-01-08 12:30:58,0.0,5,7.771,0.0,0.0,0.0,12.2,9.1,2.8,1024,1024,1024,1024,0,0,0,0,87,3.865,69.8,28.543308,P-GPS,,8.7
184200,2026-01-08 12:30:58,0.0,5,7.771,0.0,0.0,0.0,12.1,8.7,3.1,1024,1024,1024,1024,0,0,0,0,87,3.865,69.8,28.543308,P-GPS,,8.7
184300,2026-01-08 12:30:59,0.0,5,7.771,0.0,0.0,0.0,12.1,8.6,3.5,1024,1024,1024,1024,0,0,0,0,87,3.865,69.8,28.543308,P-GPS,,8.7
184400,2026-01-08 12:30:59,0.0,5,7.771,0.0,0.0,0.0,12.3,9.1,4.0,1024,1024,1024,1024,0,0,0,0,87,3.865,69.8,28.871392,P-GPS,,8.8
184500,2026-01-08 12:30:59,0.0,5,7.776,0.0,0.0,0.0,12.3,9.6,4.3,1024,1024,1024,1024,0,0,0,0,87,4.552,69.8,28.871392,P-GPS,,8.8
184600,2026-01-08 12:30:59,0.0,5,7.776,0.0,0.0,0.0,12.3,9.7,4.0,1024,1024,1024,1024,0,0,0,0,87,4.552,69.8,28.871392,P-GPS,,8.8
184700,2026-01-08 12:30:59,0.0,5,7.776,0.0,0.0,0.0,12.3,9.9,4.2,1024,1024,1024,1024,0,0,0,0,87,4.552,69.8,28.871392,P-GPS,,8.8
184800,2026-01-08 12:30:59,0.0,5,7.776,0.0,0.0,0.0,12.2,9.5,4.2,1024,1024,1024,1024,0,0,0,0,87,4.552,69.8,29.199476,P-GPS,,8.9
184900,2026-01-08 12:30:59,0.0,5,7.776,0.0,0.0,0.0,12.2,9.3,3.9,1024,1024,1024,1024,0,0,0,0,87,4.552,69.8,29.199476,P-GPS,,8.9
185000,2026-01-08 12:30:59,0.0,5,7.776,0.0,0.0,0.0,12.3,9.0,4.6,1024,1024,1024,1024,0,0,0,0,87,4.552,69.8,29.199476,P-GPS,,8.9
185100,2026-01-08 12:30:59,0.0,5,7.776,0.0,0.0,0.0,12.5,9.3,4.1,1024,1024,1024,1024,0,0,0,0,87,4.552,69.8,29.199476,P-GPS,,8.9
185200,2026-01-08 12:31:00,0.0,5,7.776,0.0,0.0,0.0,12.5,8.3,3.6,1024,1024,1024,1024,0,0,0,0,87,4.552,69.8,29.199476,P-GPS,,8.9
185300,2026-01-08 12:31:00,0.0,5,7.776,0.0,0.0,0.0,12.4,8.7,2.7,1024,1024,1024,1024,0,0,0,0,87,4.552,69.8,29.199476,P-GPS,,8.9
185400,2026-01-08 12:31:00,0.0,5,7.776,0.0,0.0,0.0,12.3,9.0,2.4,1024,1024,1024,1024,0,0,0,0,87,4.552,69.8,29.199476,P-GPS,,8.9
185500,2026-01-08 12:31:00,0.0,5,7.776,0.0,0.0,0.0,12.2,9.0,2.4,1024,1024,1024,1024,0,0,0,0,87,4.552,69.8,29.199476,P-GPS,,8.9
185600,2026-01-08 12:31:00,0.0,5,7.761,0.0,0.0,0.0,12.1,8.5,2.1,1024,1024,1024,1024,0,0,0,0,87,4.679,69.8,29.199476,P-GPS,,8.9
185700,2026-01-08 12:31:00,0.0,5,7.761,0.0,0.0,0.0,12.1,8.3,2.3,1024,1024,1024,1024,0,0,0,0,87,4.679,69.8,29.199476,P-GPS,,8.9
185800,2026-01-08 12:31:00,0.0,5,7.761,0.0,0.0,0.0,12.1,8.6,2.5,1024,1024,1024,1024,0,0,0,0,87,4.679,69.8,29.199476,P-GPS,,8.9
185900,2026-01-08 12:31:00,0.0,5,7.761,0.0,0.0,0.0,12.1,8.7,2.7,1024,1024,1024,1024,0,0,0,0,87,4.679,69.8,29.199476,P-GPS,,8.9
186000,2026-01-08 12:31:00,0.0,5,7.761,0.0,0.0,0.0,12.1,8.2,3.0,1024,1024,1024,1024,0,0,0,0,87,4.679,69.8,29.199476,P-GPS,,8.9
186100,2026-01-08 12:31:00,0.0,5,7.761,0.0,0.0,0.0,12.2,8.8,2.8,1024,1024,1024,1024,0,0,0,0,87,4.679,69.8,29.199476,P-GPS,,8.9
186200,2026-01-08 12:31:00,0.0,5,7.761,0.0,0.0,0.0,12.2,9.3,3.2,1024,1024,1024,1024,0,0,0,0,87,4.679,69.8,29.199476,P-GPS,,8.9
186300,2026-01-08 12:31:01,0.0,5,7.761,0.0,0.0,0.0,12.3,9.3,3.4,1024,1024,1024,1024,0,0,0,0,87,4.679,69.8,29.52756,P-GPS,,9.0
186400,2026-01-08 12:31:01,0.0,5,7.761,0.0,0.0,0.0,12.3,9.7,3.2,1024,1024,1024,1024,0,0,0,0,87,4.679,69.8,29.52756,P-GPS,,9.0
186500,2026-01-08 12:31:01,0.0,5,7.761,0.0,0.0,0.0,12.3,9.6,3.0,1024,1024,1024,1024,0,0,0,0,87,4.679,69.8,29.52756,P-GPS,,9.0
186600,2026-01-08 12:31:01,0.0,5,7.761,0.0,0.0,0.0,12.2,8.8,3.1,1024,1024,1024,1024,0,0,0,0,87,4.679,69.8,29.52756,P-GPS,,9.0
186700,2026-01-08 12:31:01,0.0,5,7.749,0.0,0.0,0.0,12.1,8.8,3.5,1024,1024,1024,1024,0,0,0,0,87,4.72,69.98,29.52756,P-GPS,,9.0
186800,2026-01-08 12:31:01,0.0,5,7.749,0.0,0.0,0.0,12.2,9.0,4.2,1024,1024,1024,1024,0,0,0,0,87,4.72,69.98,29.52756,P-GPS,,9.0
186900,2026-01-08 12:31:01,0.0,5,7.749,0.0,0.0,0.0,12.3,9.1,4.3,1024,1024,1024,1024,0,0,0,0,87,4.72,69.98,29.855644,P-GPS,,9.1
187000,2026-01-08 12:31:01,0.0,5,7.749,0.0,0.0,0.0,12.3,9.6,4.8,1024,1024,1024,1024,0,0,0,0,87,4.72,69.98,29.855644,P-GPS,,9.1
187100,2026-01-08 12:31:01,0.0,5,7.749,0.0,0.0,0.0,12.4,9.5,5.0,1024,1024,1024,1024,0,0,0,0,87,4.72,69.98,29.855644,P-GPS,,9.1
187200,2026-01-08 12:31:02,0.0,5,7.749,0.0,0.0,0.0,12.3,9.4,4.5,1024,1024,1024,1024,0,0,0,0,87,4.72,69.98,29.855644,P-GPS,,9.1
187300,2026-01-08 12:31:02,0.0,5,7.749,0.0,0.0,0.0,12.3,10.1,4.3,1024,1024,1024,1024,0,0,0,0,87,4.72,69.98,29.52756,P-GPS,,9.0
187400,2026-01-08 12:31:02,0.0,5,7.749,0.0,0.0,0.0,12.3,10.3,3.8,1024,1024,1024,1024,0,0,0,0,87,4.72,69.98,29.52756,P-GPS,,9.0
187500,2026-01-08 12:31:02,0.0,5,7.749,0.0,0.0,0.0,12.3,10.1,3.4,1024,1024,1024,1024,0,0,0,0,87,4.72,69.98,29.52756,P-GPS,,9.0
187600,2026-01-08 12:31:02,0.0,5,7.749,0.0,0.0,0.0,12.2,9.7,3.0,1024,1024,1024,1024,0,0,0,0,87,4.72,69.98,29.52756,P-GPS,,9.0
187700,2026-01-08 12:31:02,0.0,5,7.749,0.0,0.0,0.0,12.1,10.2,2.9,1024,1024,1024,1024,0,0,0,0,87,4.72,69.98,29.52756,P-GPS,,9.0
187800,2026-01-08 12:31:02,0.0,5,7.744,0.0,0.0,0.0,12.2,9.9,3.1,1024,1024,1024,1024,0,0,0,0,87,4.679,69.98,29.52756,P-GPS,,9.0
187900,2026-01-08 12:31:02,0.0,5,7.744,0.0,0.0,0.0,12.4,10.4,2.8,1024,1024,1024,1024,0,0,0,0,87,4.679,69.98,29.52756,P-GPS,,9.0
188000,2026-01-08 12:31:02,0.0,5,7.744,0.0,0.0,0.0,12.4,10.9,2.4,1024,1024,1024,1024,0,0,0,0,87,4.679,69.98,29.199476,P-GPS,,8.9
188100,2026-01-08 12:31:02,0.223694,5,7.744,0.0,0.223694,0.0,12.4,11.6,1.6,1024,1024,1024,1024,0,0,0,0,87,4.679,69.98,29.199476,P-GPS,,8.9
188200,2026-01-08 12:31:02,0.223694,5,7.744,0.0,0.223694,0.0,12.3,11.6,1.3,1024,1024,1024,1024,0,0,0,0,87,4.679,69.98,29.199476,P-GPS,,8.9
188300,2026-01-08 12:31:03,0.223694,5,7.744,0.0,0.223694,0.0,12.2,11.4,0.6,1024,1024,1024,1024,0,0,0,0,87,4.679,69.98,29.199476,P-GPS,,8.9
188400,2026-01-08 12:31:03,0.223694,5,7.744,0.0,0.223694,0.0,12.0,11.6,0.2,1024,1024,1024,1024,0,0,0,0,87,4.679,69.98,29.199476,P-GPS,,8.9
188500,2026-01-08 12:31:03,0.0,5,7.744,0.0,0.0,0.0,12.0,12.0,0.4,1024,1024,1024,1024,0,0,0,0,87,4.679,69.98,28.871392,P-GPS,,8.8
188600,2026-01-08 12:31:03,0.0,5,7.744,0.0,0.0,0.0,12.1,11.7,1.0,1024,1024,1024,1024,0,0,0,0,87,4.679,69.98,28.871392,P-GPS,,8.8
188800,2026-01-08 12:31:03,0.0,5,7.744,0.0,0.0,0.0,12.4,13.5,1.7,1024,1024,1024,1024,0,0,0,0,87,4.679,69.98,28.871392,P-GPS,,8.8
188900,2026-01-08 12:31:03,0.0,5,7.752,0.0,0.0,0.0,12.4,12.1,2.4,1024,1024,1024,1024,0,0,0,0,87,4.691,69.98,28.871392,P-GPS,,8.8
189000,2026-01-08 12:31:03,0.0,5,7.752,0.0,0.0,0.0,12.4,12.1,2.3,1024,1024,1024,1024,0,0,0,0,87,4.691,69.98,28.871392,P-GPS,,8.8
189100,2026-01-08 12:31:03,0.0,5,7.752,0.0,0.0,0.0,12.2,11.9,2.0,1024,1024,1024,1024,0,0,0,0,87,4.691,69.98,28.871392,P-GPS,,8.8
189200,2026-01-08 12:31:04,0.0,5,7.752,0.0,0.0,0.0,12.1,11.8,2.5,1024,1024,1024,1024,0,0,0,0,87,4.691,69.98,28.871392,P-GPS,,8.8
189300,2026-01-08 12:31:04,0.0,5,7.752,0.0,0.0,0.0,12.2,11.3,3.3,1024,1024,1024,1024,0,0,0,0,87,4.691,69.98,28.871392,P-GPS,,8.8
189400,2026-01-08 12:31:04,0.223694,5,7.752,0.0,-0.223694,0.0,12.1,10.3,3.9,1024,1024,1024,1024,0,0,0,0,87,4.691,69.98,28.871392,P-GPS,,8.8
189700,2026-01-08 12:31:04,0.223694,5,7.752,0.0,-0.223694,0.0,12.5,10.3,5.4,1024,1024,1024,1024,0,0,0,0,87,4.691,69.98,28.871392,P-GPS,,8.8
189800,2026-01-08 12:31:04,0.0,5,7.752,0.0,0.0,0.0,12.5,10.8,4.8,1024,1024,1024,1024,0,0,0,0,87,4.691,69.98,28.871392,P-GPS,,8.8
189900,2026-01-08 12:31:04,0.0,5,7.752,0.0,0.0,0.0,12.4,10.9,5.3,1024,1024,1024,1024,0,0,0,0,87,4.691,69.98,28.871392,P-GPS,,8.8
190000,2026-01-08 12:31:04,0.0,5,7.769,0.0,0.0,0.0,12.4,10.8,5.1,1024,1024,1024,1024,0,0,0,0,87,4.441,69.98,28.871392,P-GPS,,8.8
190100,2026-01-08 12:31:04,0.0,5,7.769,0.0,0.0,0.0,12.4,11.0,5.7,1024,1024,1024,1024,0,0,0,0,87,4.441,69.98,28.871392,P-GPS,,8.8
190300,2026-01-08 12:31:05,0.0,5,7.769,0.0,0.0,0.0,12.4,9.7,4.5,1024,1024,1024,1024,0,0,0,0,87,4.441,69.98,28.871392,P-GPS,,8.8
190400,2026-01-08 12:31:05,0.0,5,7.769,0.0,0.0,0.0,12.3,9.6,3.6,1024,1024,1024,1024,0,0,0,0,87,4.441,69.98,28.871392,P-GPS,,8.8
190500,2026-01-08 12:31:05,0.0,5,7.769,0.0,0.0,0.0,12.1,9.5,3.8,1024,1024,1024,1024,0,0,0,0,87,4.441,69.98,28.871392,P-GPS,,8.8
190600,2026-01-08 12:31:05,0.0,5,7.769,0.0,0.0,0.0,12.3,10.1,4.5,1024,1024,1024,1024,0,0,0,0,87,4.441,69.98,28.871392,P-GPS,,8.8
190700,2026-01-08 12:31:05,0.0,5,7.769,0.0,0.0,0.0,12.3,10.5,4.7,1024,1024,1024,1024,0,0,0,0,87,4.441,69.98,28.871392,P-GPS,,8.8
190800,2026-01-08 12:31:05,0.0,5,7.769,0.0,0.0,0.0,12.2,10.7,4.3,1024,1024,1024,1024,0,0,0,0,87,4.441,69.98,28.871392,P-GPS,,8.8
190900,2026-01-08 12:31:05,0.0,5,7.769,0.0,0.0,0.0,12.3,10.8,4.3,1024,1024,1024,1024,0,0,0,0,87,4.441,69.98,28.871392,P-GPS,,8.8
191000,2026-01-08 12:31:05,0.0,5,7.769,0.0,0.0,0.0,12.4,11.6,4.6,1024,1024,1024,1024,0,0,0,0,87,4.441,69.98,28.871392,P-GPS,,8.8
191100,2026-01-08 12:31:05,0.0,5,7.745,0.0,0.0,0.0,12.6,12.4,4.8,1024,1024,1024,1024,0,0,0,0,87,4.984,69.98,28.871392,P-GPS,,8.8
191200,2026-01-08 12:31:06,0.0,5,7.745,0.0,0.0,0.0,12.7,13.1,4.9,1024,1024,1024,1024,0,0,0,0,87,4.984,69.98,28.871392,P-GPS,,8.8
191300,2026-01-08 12:31:06,0.0,5,7.745,0.0,0.0,0.0,12.7,13.5,4.2,1024,1024,1024,1024,0,0,0,0,87,4.984,69.98,28.871392,P-GPS,,8.8
191400,2026-01-08 12:31:06,0.0,5,7.745,0.0,0.0,0.0,12.6,13.1,3.7,1024,1024,1024,1024,0,0,0,0,87,4.984,69.98,28.871392,P-GPS,,8.8
191500,2026-01-08 12:31:06,0.0,5,7.745,0.0,0.0,0.0,12.6,12.9,3.7,1024,1024,1024,1024,0,0,0,0,87,4.984,69.98,28.871392,P-GPS,,8.8
191600,2026-01-08 12:31:06,0.0,5,7.745,0.0,0.0,0.0,12.5,12.8,3.3,1024,1024,1024,1024,0,0,0,0,87,4.984,69.98,28.871392,P-GPS,,8.8
191700,2026-01-08 12:31:06,0.0,5,7.745,0.0,0.0,0.0,12.4,12.1,3.5,1024,1024,1024,1024,0,0,0,0,87,4.984,69.98,28.871392,P-GPS,,8.8
192200,2026-01-08 12:31:06,0.0,5,7.745,0.0,0.0,0.0,12.6,12.3,5.8,1024,1024,1024,1024,0,0,0,0,87,4.984,69.98,28.543308,P-GPS,,8.7
192300,2026-01-08 12:31:07,0.0,5,7.745,0.0,0.0,0.0,12.6,13.0,5.4,1024,1024,1024,1024,0,0,0,0,87,4.984,69.98,28.543308,P-GPS,,8.7
192400,2026-01-08 12:31:07,0.0,5,7.745,0.0,0.0,0.0,12.5,12.9,5.4,1024,1024,1024,1024,0,0,0,0,87,4.984,69.98,28.543308,P-GPS,,8.7
192500,2026-01-08 12:31:07,0.0,5,7.745,0.0,0.0,0.0,12.3,12.0,5.7,1024,1024,1024,1024,0,0,0,0,87,4.984,69.98,28.215224,P-GPS,,8.6
192600,2026-01-08 12:31:07,0.0,5,7.745,0.0,0.0,0.0,12.5,12.4,6.3,1024,1024,1024,1024,0,0,0,0,87,4.984,69.98,28.215224,P-GPS,,8.6
192700,2026-01-08 12:31:07,0.0,5,7.745,0.0,0.0,0.0,12.7,12.7,6.2,1024,1024,1024,1024,0,0,0,0,87,4.984,69.98,28.215224,P-GPS,,8.6
192800,2026-01-08 12:31:07,0.0,5,7.745,0.0,0.0,0.0,12.8,13.4,6.0,1024,1024,1024,1024,0,0,0,0,87,4.984,69.98,28.215224,P-GPS,,8.6
192900,2026-01-08 12:31:07,0.0,5,7.745,0.0,0.0,0.0,12.8,13.6,5.3,1024,1024,1024,1024,0,0,0,0,87,4.984,69.98,27.88714,P-GPS,,8.5
193000,2026-01-08 12:31:07,0.0,5,7.745,0.0,0.0,0.0,12.7,13.8,4.3,1024,1024,1024,1024,0,0,0,0,87,4.984,69.98,27.88714,P-GPS,,8.5
193100,2026-01-08 12:31:07,0.0,5,7.745,0.0,0.0,0.0,12.6,13.5,3.7,1024,1024,1024,1024,0,0,0,0,87,4.984,69.98,27.88714,P-GPS,,8.5
193200,2026-01-08 12:31:08,0.0,5,7.745,0.0,0.0,0.0,12.4,13.1,3.3,1024,1024,1024,1024,0,0,0,0,87,4.984,69.98,27.88714,P-GPS,,8.5
193300,2026-01-08 12:31:08,0.0,5,7.782,0.0,0.0,0.0,12.3,12.6,3.8,1024,1024,1024,1024,0,0,0,0,87,4.684,70.16,27.88714,P-GPS,,8.5
193400,2026-01-08 12:31:08,0.0,5,7.782,0.0,0.0,0.0,12.3,12.1,4.1,1024,1024,1024,1024,0,0,0,0,87,4.684,70.16,27.88714,P-GPS,,8.5
193500,2026-01-08 12:31:08,0.0,5,7.782,0.0,0.0,0.0,12.3,11.8,4.6,1024,1024,1024,1024,0,0,0,0,87,4.684,70.16,27.88714,P-GPS,,8.5
193600,2026-01-08 12:31:08,0.0,5,7.782,0.0,0.0,0.0,12.3,11.3,4.7,1024,1024,1024,1024,0,0,0,0,87,4.684,70.16,27.88714,P-GPS,,8.5
193700,2026-01-08 12:31:08,0.0,5,7.782,0.0,0.0,0.0,12.3,11.3,5.0,1024,1024,1024,1024,0,0,0,0,87,4.684,70.16,27.88714,P-GPS,,8.5
193800,2026-01-08 12:31:08,0.0,5,7.782,0.0,0.0,0.0,12.2,11.1,5.0,1024,1024,1024,1024,0,0,0,0,87,4.684,70.16,27.559056,P-GPS,,8.4
193900,2026-01-08 12:31:08,0.0,5,7.782,0.0,0.0,0.0,12.3,11.2,3.7,1024,1024,1024,1024,0,0,0,0,87,4.684,70.16,27.559056,P-GPS,,8.4
194000,2026-01-08 12:31:08,0.0,5,7.782,0.0,0.0,0.0,12.2,11.8,3.2,1024,1024,1024,1024,0,0,0,0,87,4.684,70.16,27.559056,P-GPS,,8.4
194100,2026-01-08 12:31:08,0.0,5,7.782,0.0,0.0,0.0,12.2,11.6,3.5,1024,1024,1024,1024,0,0,0,0,87,4.684,70.16,27.559056,P-GPS,,8.4
194200,2026-01-08 12:31:08,0.0,5,7.782,0.0,0.0,0.0,12.4,11.5,3.2,1024,1024,1024,1024,0,0,0,0,87,4.684,70.16,27.559056,P-GPS,,8.4
194300,2026-01-08 12:31:09,0.0,5,7.782,0.0,0.0,0.0,12.4,11.1,3.1,1024,1024,1024,1024,0,0,0,0,87,4.684,70.16,27.559056,P-GPS,,8.4
194400,2026-01-08 12:31:09,0.0,5,7.743,0.0,0.0,0.0,12.3,10.7,2.5,1024,1024,1024,1024,0,0,0,0,87,4.745,70.16,27.559056,P-GPS,,8.4
194500,2026-01-08 12:31:09,0.0,5,7.743,0.0,0.0,0.0,12.4,10.8,2.5,1024,1024,1024,1024,0,0,0,0,87,4.745,70.16,27.559056,P-GPS,,8.4
194600,2026-01-08 12:31:09,0.0,5,7.743,0.0,0.0,0.0,12.5,11.7,2.6,1024,1024,1024,1024,0,0,0,0,87,4.745,70.16,27.559056,P-GPS,,8.4
194700,2026-01-08 12:31:09,0.0,5,7.743,0.0,0.0,0.0,12.5,11.6,1.8,1024,1024,1024,1024,0,0,0,0,87,4.745,70.16,27.559056,P-GPS,,8.4
194800,2026-01-08 12:31:09,0.0,5,7.743,0.0,0.0,0.0,12.5,11.6,1.5,1024,1024,1024,1024,0,0,0,0,87,4.745,70.16,27.559056,P-GPS,,8.4
194900,2026-01-08 12:31:09,0.223694,5,7.743,0.0,0.223694,0.0,12.5,12.6,1.4,1024,1024,1024,1024,0,0,0,0,87,4.745,70.16,27.559056,P-GPS,,8.4
195000,2026-01-08 12:31:09,0.223694,5,7.743,0.0,0.0,0.0,12.3,13.0,1.3,1024,1024,1024,1024,0,0,0,0,87,4.745,70.16,27.559056,P-GPS,,8.4
195100,2026-01-08 12:31:09,0.0,5,7.743,0.0,0.0,0.0,12.3,12.5,0.5,1024,1024,1024,1024,0,0,0,0,87,4.745,70.16,27.559056,P-GPS,,8.4
195200,2026-01-08 12:31:09,0.0,5,7.743,0.0,0.0,0.0,12.2,13.5,1.0,1024,1024,1024,1024,0,0,0,0,87,4.745,70.16,27.88714,P-GPS,,8.5
195300,2026-01-08 12:31:10,0.0,5,7.743,0.0,0.0,0.0,12.4,13.9,2.3,1024,1024,1024,1024,0,0,0,0,87,4.745,70.16,27.88714,P-GPS,,8.5
195400,2026-01-08 12:31:10,0.223694,5,7.743,0.223694,0.0,0.0,12.5,13.5,2.4,1024,1024,1024,1024,0,0,0,0,87,4.745,70.16,28.215224,P-GPS,,8.6
195500,2026-01-08 12:31:10,0.223694,5,7.743,0.223694,0.0,0.0,12.6,15.6,3.5,1024,1024,1024,1024,0,0,0,0,87,4.745,70.16,28.215224,P-GPS,,8.6
195600,2026-01-08 12:31:10,0.4921268,5,7.743,0.447388,-0.223694,0.0,12.6,17.2,4.1,1024,1024,1024,1024,0,0,0,0,87,4.745,70.16,28.543308,P-GPS,,8.7
195900,2026-01-08 12:31:10,0.223694,5,7.743,0.223694,0.0,0.0,12.5,14.9,3.3,1024,1024,1024,1024,0,0,0,0,87,4.745,70.16,29.199476,P-GPS,,8.9
196000,2026-01-08 12:31:10,0.0,5,7.743,0.0,0.0,0.0,12.2,15.9,3.1,1024,1024,1024,1024,0,0,0,0,87,4.745,70.16,29.199476,P-GPS,,8.9
196200,2026-01-08 12:31:11,0.0,5,7.696,0.0,0.0,0.0,12.4,16.1,4.8,1024,1024,1024,1024,0,0,0,0,87,5.708,70.16,29.855644,P-GPS,,9.1
196300,2026-01-08 12:31:11,0.223694,5,7.696,-0.223694,0.0,0.0,12.5,13.7,3.8,1024,1024,1024,1024,0,0,0,0,87,5.708,70.16,29.855644,P-GPS,,9.1
196900,2026-01-08 12:31:11,0.3131716,5,7.696,-0.223694,0.223694,0.0,12.0,10.6,-0.3,1024,1024,1024,1024,0,0,0,0,87,5.708,70.16,29.52756,P-GPS,,9.0
197000,2026-01-08 12:31:11,0.3131716,5,7.696,-0.223694,0.223694,0.0,12.1,9.8,-1.2,1024,1024,1024,1024,0,0,0,0,87,5.708,70.16,29.52756,P-GPS,,9.0
197100,2026-01-08 12:31:11,0.3131716,5,7.696,-0.223694,0.447388,0.0,12.1,9.8,-1.8,1024,1024,1024,1024,0,0,0,0,87,5.708,70.16,29.52756,P-GPS,,9.0
197200,2026-01-08 12:31:11,0.4921268,5,7.592,-0.223694,0.447388,0.0,12.0,10.2,-2.8,1024,1024,1024,1024,0,0,0,0,86,7.319,70.16,29.199476,P-GPS,,8.9
197300,2026-01-08 12:31:12,0.3131716,5,7.592,-0.223694,0.223694,0.0,11.8,10.6,-3.3,1024,1024,1024,1024,0,0,0,0,86,7.319,70.16,29.199476,P-GPS,,8.9
197400,2026-01-08 12:31:12,0.3131716,5,7.592,-0.223694,0.223694,0.0,11.9,9.8,-3.4,1024,1024,1024,1024,0,0,0,0,86,7.319,70.16,29.199476,P-GPS,,8.9
197500,2026-01-08 12:31:12,0.0,5,7.592,0.0,0.0,0.0,11.9,9.8,-2.3,1024,1024,1024,1024,0,0,0,0,86,7.319,70.16,29.199476,P-GPS,,8.9
197600,2026-01-08 12:31:12,0.0,5,7.592,0.0,0.0,0.0,11.9,10.5,-1.9,1024,1024,1024,1024,0,0,0,0,86,7.319,70.16,29.199476,P-GPS,,8.9
197700,2026-01-08 12:31:12,0.0,5,7.592,0.0,0.0,0.0,11.8,10.7,-1.3,1024,1024,1024,1024,0,0,0,0,86,7.319,70.16,29.199476,P-GPS,,8.9
197800,2026-01-08 12:31:12,0.0,5,7.592,0.0,0.0,0.0,11.8,10.7,-0.8,1024,1024,1024,1024,0,0,0,0,86,7.319,70.16,29.199476,P-GPS,,8.9
197900,2026-01-08 12:31:12,0.0,5,7.592,0.0,0.0,0.0,11.8,11.1,0.1,1024,1024,1024,1024,0,0,0,0,86,7.319,70.16,29.199476,P-GPS,,8.9
198000,2026-01-08 12:31:12,0.0,5,7.592,0.0,0.0,0.0,11.8,11.5,-0.2,1024,1024,1024,1024,0,0,0,0,86,7.319,70.16,29.199476,P-GPS,,8.9
198100,2026-01-08 12:31:12,0.223694,5,7.592,0.0,-0.223694,0.0,11.9,10.3,1.0,1024,1024,1024,1024,0,0,0,0,86,7.319,70.16,29.52756,P-GPS,,9.0
198200,2026-01-08 12:31:13,0.223694,5,7.592,0.0,-0.223694,0.0,12.0,9.7,1.2,1024,1024,1024,1024,0,0,0,0,86,7.319,70.16,29.52756,P-GPS,,9.0
198600,2026-01-08 12:31:13,0.0,5,7.718,0.0,0.0,0.0,12.4,10.2,-1.7,1024,1024,1024,1024,0,0,0,0,86,5.098,70.34,30.183728,P-GPS,,9.2
198700,2026-01-08 12:31:13,0.0,5,7.718,-0.223694,0.0,0.0,12.3,9.3,-1.7,1024,1024,1024,1024,0,0,0,0,86,5.098,70.34,30.183728,P-GPS,,9.2
198800,2026-01-08 12:31:13,0.3131716,5,7.718,-0.223694,0.223694,0.0,12.3,6.3,-1.7,1024,1024,1024,1024,0,0,0,0,86,5.098,70.34,30.511812,P-GPS,,9.3
199000,2026-01-08 12:31:13,0.3131716,5,7.718,-0.223694,0.223694,0.0,12.1,7.7,-5.4,1024,1024,1024,1024,0,0,0,0,86,5.098,70.34,30.511812,P-GPS,,9.3
199100,2026-01-08 12:31:13,0.223694,5,7.718,-0.223694,0.0,0.0,12.1,6.0,-4.8,1024,1024,1024,1024,0,0,0,0,86,5.098,70.34,30.511812,P-GPS,,9.3
199300,2026-01-08 12:31:14,0.0,5,7.753,0.0,0.0,0.0,11.8,8.8,-4.6,1024,1024,1024,1024,0,0,0,0,86,5.088,70.34,30.183728,P-GPS,,9.2
199400,2026-01-08 12:31:14,0.0,5,7.753,0.0,0.0,0.0,11.9,9.1,-3.6,1024,1024,1024,1024,0,0,0,0,86,5.088,70.34,30.183728,P-GPS,,9.2
199900,2026-01-08 12:31:14,0.4921268,5,7.753,0.223694,-0.447388,0.0,11.8,12.0,0.5,1024,1024,1024,1024,0,0,0,0,86,5.088,70.34,30.183728,P-GPS,,9.2
200000,2026-01-08 12:31:14,0.4921268,5,7.753,0.223694,-0.447388,0.0,11.9,12.5,1.6,1024,1024,1024,1024,0,0,0,0,86,5.088,70.34,30.511812,P-GPS,,9.3
200100,2026-01-08 12:31:14,0.4921268,5,7.753,0.223694,-0.447388,0.0,12.0,12.9,2.5,1024,1024,1024,1024,0,0,0,0,86,5.088,70.34,30.511812,P-GPS,,9.3
200200,2026-01-08 12:31:15,0.4921268,5,7.753,0.223694,-0.447388,0.0,12.2,13.1,3.1,1024,1024,1024,1024,0,0,0,0,86,5.088,70.34,30.839896,P-GPS,,9.4
200300,2026-01-08 12:31:15,0.4921268,5,7.705,0.223694,-0.447388,0.0,12.3,13.4,3.6,1024,1024,1024,1024,0,0,0,0,86,4.449,70.34,30.839896,P-GPS,,9.4
200400,2026-01-08 12:31:15,0.3131716,5,7.705,0.223694,-0.223694,0.0,12.4,13.0,3.7,1024,1024,1024,1024,0,0,0,0,86,4.449,70.34,30.839896,P-GPS,,9.4
200500,2026-01-08 12:31:15,0.3131716,5,7.705,0.223694,-0.223694,0.0,12.2,13.1,3.3,1024,1024,1024,1024,0,0,0,0,86,4.449,70.34,31.16798,P-GPS,,9.5
200600,2026-01-08 12:31:15,0.223694,5,7.705,0.0,-0.223694,0.0,12.2,12.8,2.9,1024,1024,1024,1024,0,0,0,0,86,4.449,70.34,31.16798,P-GPS,,9.5
200700,2026-01-08 12:31:15,0.223694,5,7.705,0.0,0.0,0.0,12.2,12.9,2.7,1024,1024,1024,1024,0,0,0,0,86,4.449,70.34,31.496064,P-GPS,,9.6
200800,2026-01-08 12:31:15,0.0,5,7.705,0.0,0.0,0.0,12.1,12.7,2.9,1024,1024,1083,1024,0,0,9,0,86,4.449,70.34,31.496064,P-GPS,,9.6
200900,2026-01-08 12:31:15,0.0,5,7.705,0.0,0.0,0.0,12.2,12.2,3.1,1024,1024,1684,1024,0,0,100,0,86,4.449,70.34,31.824148,P-GPS,,9.7
201000,2026-01-08 12:31:15,0.0,5,7.705,0.0,0.0,0.0,12.2,12.4,2.5,1024,1024,1684,1024,0,0,100,0,86,4.449,70.34,31.824148,P-GPS,,9.7
