time(millisecond),timestamp,speed(mph),gpslevel,voltage(v),xSpeed(mph),ySpeed(mph),zSpeed(mph),compass_heading(degrees),pitch(degrees),roll(degrees),rc_elevator,rc_aileron,rc_throttle,rc_rudder,rc_elevator(percent),rc_aileron(percent),rc_throttle(percent),rc_rudder(percent),battery_percent,current(A),battery_temperature(f),ascent(feet),flycState,message,height_above_takeoff(meters)
331600,2026-01-08 12:33:38,0.223694,5,7.591,0.0,0.223694,-4.250186,24.0,10.3,2.8,1024,1024,1684,1024,0,0,100,0,78,6.226,74.48,26.574804,P-GPS,,8.1
331700,2026-01-08 12:33:38,0.0,5,7.591,0.0,0.0,-4.026492,23.9,9.0,1.6,1024,1024,1684,1024,0,0,100,0,78,6.226,74.48,27.230972,P-GPS,,8.3
331800,2026-01-08 12:33:38,0.0,5,7.591,0.0,0.0,-4.026492,23.9,7.0,3.5,1024,1024,1684,1024,0,0,100,0,78,6.226,74.48,27.88714,P-GPS,,8.5
331900,2026-01-08 12:33:38,0.0,5,7.591,0.0,0.0,-4.250186,24.0,6.3,4.3,1024,1024,1684,1024,0,0,100,0,78,6.226,74.48,28.543308,P-GPS,,8.7
332000,2026-01-08 12:33:38,0.0,5,7.591,0.0,-0.223694,-4.250186,24.2,7.9,6.4,1024,1024,1684,1024,0,0,100,0,78,6.226,74.48,29.52756,P-GPS,,9.0
332100,2026-01-08 12:33:38,0.223694,5,7.591,0.0,-0.223694,-4.250186,24.3,8.6,7.7,1024,1024,1684,1024,0,0,100,0,78,6.226,74.48,30.183728,P-GPS,,9.2
332200,2026-01-08 12:33:38,0.223694,5,7.591,0.0,-0.223694,-4.250186,24.3,9.0,8.0,1024,1024,1684,1024,0,0,100,0,78,6.226,74.48,30.839896,P-GPS,,9.4
332300,2026-01-08 12:33:38,0.223694,5,7.591,0.0,-0.223694,-4.250186,24.1,8.9,8.4,1024,1024,1684,1024,0,0,100,0,78,6.226,74.48,31.496064,P-GPS,,9.6
332400,2026-01-08 12:33:38,0.223694,5,7.591,0.0,-0.223694,-4.47388,24.3,9.3,8.7,1024,1024,1684,1024,0,0,100,0,78,6.226,74.48,32.152232,P-GPS,,9.8
332500,2026-01-08 12:33:39,0.0,5,7.624,0.0,0.0,-4.47388,24.3,9.6,8.6,1024,1024,1024,1024,0,0,0,0,78,5.841,74.66,32.8084,P-GPS,,10.0
332600,2026-01-08 12:33:39,0.0,5,7.624,0.0,0.0,-4.47388,24.3,9.8,8.3,1024,1024,1024,1024,0,0,0,0,78,5.841,74.66,33.464568,P-GPS,,10.2
332700,2026-01-08 12:33:39,0.0,5,7.624,0.0,0.0,-4.250186,24.2,9.5,7.5,1024,1024,1024,1024,0,0,0,0,78,5.841,74.66,34.120736,P-GPS,,10.4
332800,2026-01-08 12:33:39,0.0,5,7.624,0.0,0.0,-3.802798,24.1,8.8,8.0,1024,1024,1024,1024,0,0,0,0,78,5.841,74.66,34.776904,P-GPS,,10.6
332900,2026-01-08 12:33:39,0.0,5,7.624,0.0,0.0,-3.35541,24.1,9.1,7.5,1024,1024,1024,1024,0,0,0,0,78,5.841,74.66,35.104988,P-GPS,,10.7
333000,2026-01-08 12:33:39,0.0,5,7.624,0.0,0.0,-2.684328,24.2,9.9,7.3,1024,1024,1024,1024,0,0,0,0,78,5.841,74.66,35.433072,P-GPS,,10.8
333100,2026-01-08 12:33:39,0.0,5,7.624,0.0,0.0,-1.789552,24.3,9.9,7.8,1024,1024,1024,1024,0,0,0,0,78,5.841,74.66,35.433072,P-GPS,,10.8
333200,2026-01-08 12:33:39,0.0,5,7.624,0.0,0.0,-1.11847,24.3,10.4,8.0,1024,1024,1024,1024,0,0,0,0,78,5.841,74.66,35.761156,P-GPS,,10.9
333300,2026-01-08 12:33:39,0.0,5,7.624,0.0,0.0,-0.447388,24.2,9.8,7.7,1024,1024,1024,1024,0,0,0,0,78,5.841,74.66,35.761156,P-GPS,,10.9
333400,2026-01-08 12:33:39,0.0,5,7.624,0.0,0.0,-0.223694,24.2,9.9,7.7,1024,1024,1024,1024,0,0,0,0,78,5.841,74.66,35.433072,P-GPS,,10.8
333500,2026-01-08 12:33:40,0.0,5,7.552,0.0,0.0,0.0,24.1,9.4,7.9,1024,1024,1024,1024,0,0,0,0,78,6.381,74.66,35.433072,P-GPS,,10.8
333600,2026-01-08 12:33:40,0.0,5,7.552,0.0,0.0,0.0,24.2,9.6,8.0,1024,1024,1024,1024,0,0,0,0,78,6.381,74.66,35.433072,P-GPS,,10.8
333700,2026-01-08 12:33:40,0.0,5,7.552,0.0,0.0,0.0,24.1,9.6,7.7,1024,1024,1024,1024,0,0,0,0,78,6.381,74.66,35.104988,P-GPS,,10.7
333800,2026-01-08 12:33:40,0.0,5,7.552,0.0,0.0,0.0,24.1,9.2,7.5,1024,1024,1024,1024,0,0,0,0,78,6.381,74.66,35.104988,P-GPS,,10.7
333900,2026-01-08 12:33:40,0.0,5,7.552,0.0,0.0,0.0,24.1,9.0,7.2,1024,1024,1024,1024,0,0,0,0,78,6.381,74.66,34.776904,P-GPS,,10.6
334000,2026-01-08 12:33:40,0.0,5,7.552,-0.223694,0.0,0.0,24.0,8.9,6.7,1024,1024,1024,1024,0,0,0,0,78,6.381,74.66,34.776904,P-GPS,,10.6
334100,2026-01-08 12:33:40,0.223694,5,7.552,-0.223694,0.0,0.0,24.1,8.5,6.3,1024,1024,1024,1024,0,0,0,0,78,6.381,74.66,34.44882,P-GPS,,10.5
334200,2026-01-08 12:33:40,0.223694,5,7.552,-0.223694,0.0,0.0,24.1,8.8,6.2,1024,1024,1024,1024,0,0,0,0,78,6.381,74.66,34.44882,P-GPS,,10.5
334300,2026-01-08 12:33:40,0.223694,5,7.552,-0.223694,0.0,0.0,24.1,8.2,6.3,1024,1024,1024,1024,0,0,0,0,78,6.381,74.66,34.120736,P-GPS,,10.4
334400,2026-01-08 12:33:40,0.223694,5,7.552,-0.223694,0.0,0.0,24.0,7.6,5.6,1024,1024,1024,1024,0,0,0,0,78,6.381,74.66,34.120736,P-GPS,,10.4
334500,2026-01-08 12:33:41,0.223694,5,7.647,-0.223694,0.0,0.0,24.0,7.9,5.5,1024,1024,1024,1024,0,0,0,0,78,4.3,74.66,34.120736,P-GPS,,10.4
334600,2026-01-08 12:33:41,0.223694,5,7.647,-0.223694,0.0,0.0,23.9,7.7,5.6,1024,1024,1024,1024,0,0,0,0,78,4.3,74.66,33.792652,P-GPS,,10.3
334700,2026-01-08 12:33:41,0.223694,5,7.647,-0.223694,0.0,0.0,23.9,7.8,5.5,1024,1024,1024,1024,0,0,0,0,78,4.3,74.66,33.792652,P-GPS,,10.3
334800,2026-01-08 12:33:41,0.0,5,7.647,0.0,0.0,0.0,24.0,8.0,5.6,1024,1024,1024,1024,0,0,0,0,78,4.3,74.66,33.464568,P-GPS,,10.2
334900,2026-01-08 12:33:41,0.0,5,7.647,0.0,0.0,0.0,24.0,7.7,5.6,1024,1024,1024,1024,0,0,0,0,78,4.3,74.66,33.464568,P-GPS,,10.2
335000,2026-01-08 12:33:41,0.0,5,7.647,0.0,0.0,0.0,24.0,8.1,5.8,1024,1024,1024,1024,0,0,0,0,78,4.3,74.66,33.136484,P-GPS,,10.1
335100,2026-01-08 12:33:41,0.0,5,7.647,0.0,0.0,0.0,24.0,8.0,5.7,1024,1024,1024,1024,0,0,0,0,78,4.3,74.66,33.136484,P-GPS,,10.1
335200,2026-01-08 12:33:41,0.0,5,7.647,0.0,0.0,0.0,24.0,8.2,5.7,1024,1024,1024,1024,0,0,0,0,78,4.3,74.66,33.136484,P-GPS,,10.1
335300,2026-01-08 12:33:41,0.0,5,7.647,0.0,0.0,0.0,24.0,8.0,5.5,1024,1024,1024,1024,0,0,0,0,78,4.3,74.66,32.8084,P-GPS,,10.0
335400,2026-01-08 12:33:41,0.0,5,7.647,0.0,0.0,0.0,24.1,8.1,5.8,1024,1024,1024,1024,0,0,0,0,78,4.3,74.66,32.8084,P-GPS,,10.0
335500,2026-01-08 12:33:42,0.0,5,7.643,0.0,0.0,0.0,24.1,8.1,5.8,1024,1024,1024,1024,0,0,0,0,78,4.69,74.66,32.8084,P-GPS,,10.0
335600,2026-01-08 12:33:42,0.0,5,7.643,0.0,0.0,0.0,24.1,8.1,5.9,1024,1024,1024,1024,0,0,0,0,78,4.69,74.66,32.480316,P-GPS,,9.9
335700,2026-01-08 12:33:42,0.0,5,7.643,0.0,0.0,0.0,24.0,7.8,6.0,1024,1024,1024,1024,0,0,0,0,78,4.69,74.66,32.480316,P-GPS,,9.9
335800,2026-01-08 12:33:42,0.0,5,7.643,0.0,0.0,0.0,24.0,7.5,5.7,1024,1024,1024,1024,0,0,0,0,78,4.69,74.66,32.480316,P-GPS,,9.9
335900,2026-01-08 12:33:42,0.0,5,7.643,0.0,0.0,0.0,23.9,7.7,5.6,1024,1024,1024,1024,0,0,0,0,78,4.69,74.66,32.152232,P-GPS,,9.8
336000,2026-01-08 12:33:42,0.0,5,7.643,0.0,0.0,0.0,23.9,7.9,5.6,1024,1024,1024,1024,0,0,0,0,78,4.69,74.66,32.152232,P-GPS,,9.8
336100,2026-01-08 12:33:42,0.0,5,7.643,0.0,0.0,0.0,24.0,8.2,5.5,1024,1024,1024,1024,0,0,0,0,78,4.69,74.66,32.152232,P-GPS,,9.8
336200,2026-01-08 12:33:42,0.0,5,7.643,0.0,0.0,0.0,24.0,8.2,5.6,1024,1024,1024,1024,0,0,0,0,78,4.69,74.66,32.152232,P-GPS,,9.8
336300,2026-01-08 12:33:42,0.0,5,7.643,0.0,0.0,0.0,24.0,8.4,5.8,1024,1024,1024,1024,0,0,0,0,78,4.69,74.66,32.152232,P-GPS,,9.8
336400,2026-01-08 12:33:42,0.0,5,7.643,0.0,0.0,0.0,24.0,8.3,5.8,1024,1024,1024,1024,0,0,0,0,78,4.69,74.66,31.824148,P-GPS,,9.7
336500,2026-01-08 12:33:43,0.0,5,7.634,0.0,0.0,0.0,24.0,8.4,5.8,1024,1024,1024,1024,0,0,0,0,78,4.97,74.66,31.824148,P-GPS,,9.7
336600,2026-01-08 12:33:43,0.0,5,7.634,0.0,0.0,0.0,24.0,8.5,5.8,1024,1024,1024,1024,0,0,0,0,78,4.97,74.66,31.824148,P-GPS,,9.7
336700,2026-01-08 12:33:43,0.0,5,7.634,0.0,0.0,0.0,24.0,8.6,5.5,1024,1024,1024,1024,0,0,0,0,78,4.97,74.66,31.824148,P-GPS,,9.7
336800,2026-01-08 12:33:43,0.0,5,7.634,0.0,0.0,0.0,24.1,8.7,5.5,1024,1024,1024,1024,0,0,0,0,78,4.97,74.66,31.496064,P-GPS,,9.6
336900,2026-01-08 12:33:43,0.0,5,7.634,0.0,0.0,0.0,24.1,8.4,5.4,1024,1024,1024,1024,0,0,0,0,78,4.97,74.66,31.496064,P-GPS,,9.6
337000,2026-01-08 12:33:43,0.0,5,7.634,0.0,0.0,0.0,24.0,8.0,5.5,1024,1024,1024,1024,0,0,0,0,78,4.97,74.66,31.496064,P-GPS,,9.6
337100,2026-01-08 12:33:43,0.0,5,7.634,0.0,0.0,0.0,24.1,8.2,5.3,1024,1024,1024,1024,0,0,0,0,78,4.97,74.66,31.496064,P-GPS,,9.6
337200,2026-01-08 12:33:43,0.0,5,7.634,0.0,0.0,0.0,24.1,8.4,5.7,1024,1024,1024,1024,0,0,0,0,78,4.97,74.66,31.496064,P-GPS,,9.6
337300,2026-01-08 12:33:43,0.0,5,7.634,0.0,0.0,0.0,24.1,8.3,6.2,1024,1024,1024,1024,0,0,0,0,78,4.97,74.66,31.496064,P-GPS,,9.6
337400,2026-01-08 12:33:43,0.0,5,7.634,0.0,0.0,0.0,24.0,8.6,6.2,1024,1024,1024,1024,0,0,0,0,78,4.97,74.66,31.496064,P-GPS,,9.6
337500,2026-01-08 12:33:44,0.0,5,7.634,0.0,0.0,0.0,24.1,9.0,6.9,1024,1024,1024,1024,0,0,0,0,78,4.97,74.66,31.496064,P-GPS,,9.6
337600,2026-01-08 12:33:44,0.0,5,7.658,0.0,0.0,0.0,24.1,9.1,7.1,1024,1024,1024,1024,0,0,0,0,78,4.664,74.84,31.496064,P-GPS,,9.6
337700,2026-01-08 12:33:44,0.0,5,7.658,0.0,0.0,0.0,24.2,9.8,7.4,1024,1024,1024,1024,0,0,0,0,78,4.664,74.84,31.496064,P-GPS,,9.6
337800,2026-01-08 12:33:44,0.0,5,7.658,0.0,0.0,0.0,24.2,10.2,7.0,1024,1024,1024,1024,0,0,0,0,78,4.664,74.84,31.496064,P-GPS,,9.6
337900,2026-01-08 12:33:44,0.0,5,7.658,0.0,0.0,0.0,24.2,10.1,6.8,1024,1024,1024,1024,0,0,0,0,78,4.664,74.84,31.16798,P-GPS,,9.5
338000,2026-01-08 12:33:44,0.0,5,7.658,0.0,0.0,0.0,24.2,10.6,6.6,1024,1024,1024,1024,0,0,0,0,78,4.664,74.84,31.16798,P-GPS,,9.5
338100,2026-01-08 12:33:44,0.0,5,7.658,0.0,0.0,0.0,24.2,10.3,5.6,1024,1024,1024,1024,0,0,0,0,78,4.664,74.84,31.16798,P-GPS,,9.5
338200,2026-01-08 12:33:44,0.0,5,7.658,0.0,0.0,0.0,24.2,10.4,4.6,1024,1024,1024,1024,0,0,0,0,78,4.664,74.84,31.16798,P-GPS,,9.5
338300,2026-01-08 12:33:44,0.0,5,7.658,0.0,0.0,0.0,24.1,10.2,4.6,1024,1024,1024,1024,0,0,0,0,78,4.664,74.84,30.839896,P-GPS,,9.4
338400,2026-01-08 12:33:44,0.0,5,7.658,0.0,0.0,0.0,24.1,10.5,4.5,1024,1024,1024,1024,0,0,0,0,78,4.664,74.84,30.839896,P-GPS,,9.4
338500,2026-01-08 12:33:45,0.0,5,7.592,0.0,0.0,0.0,24.1,10.7,4.3,1024,1024,1024,1024,0,0,0,0,78,5.222,74.84,30.839896,P-GPS,,9.4
338600,2026-01-08 12:33:45,0.0,5,7.592,0.0,0.0,0.0,24.0,10.7,4.1,1024,1024,1024,1024,0,0,0,0,78,5.222,74.84,30.839896,P-GPS,,9.4
338700,2026-01-08 12:33:45,0.0,5,7.592,0.0,0.0,0.0,24.0,10.3,4.4,1024,1024,1024,1024,0,0,0,0,78,5.222,74.84,30.511812,P-GPS,,9.3
338800,2026-01-08 12:33:45,0.0,5,7.592,0.0,0.0,0.0,24.0,10.6,4.0,1024,1024,1024,1024,0,0,0,0,78,5.222,74.84,30.511812,P-GPS,,9.3
338900,2026-01-08 12:33:45,0.0,5,7.592,0.0,0.0,0.0,24.0,10.5,3.9,1024,1024,1024,1024,0,0,0,0,78,5.222,74.84,30.511812,P-GPS,,9.3
339000,2026-01-08 12:33:45,0.0,5,7.592,0.0,0.0,0.0,24.1,10.3,4.0,1024,1024,1024,1024,0,0,0,0,78,5.222,74.84,30.511812,P-GPS,,9.3
339100,2026-01-08 12:33:45,0.0,5,7.592,0.0,0.0,0.0,24.0,10.8,4.0,1024,1024,1024,1024,0,0,0,0,78,5.222,74.84,30.183728,P-GPS,,9.2
339200,2026-01-08 12:33:45,0.0,5,7.592,0.0,0.0,0.0,24.0,10.0,3.8,1024,1024,1024,1024,0,0,0,0,78,5.222,74.84,30.183728,P-GPS,,9.2
339300,2026-01-08 12:33:45,0.0,5,7.592,0.0,0.0,0.0,24.0,9.5,3.7,1024,1024,1024,1024,0,0,0,0,78,5.222,74.84,30.183728,P-GPS,,9.2
339400,2026-01-08 12:33:45,0.0,5,7.592,0.0,0.0,0.0,23.9,9.7,3.1,1024,1024,1024,1024,0,0,0,0,78,5.222,74.84,30.183728,P-GPS,,9.2
339500,2026-01-08 12:33:46,0.0,5,7.592,0.0,0.0,0.0,24.0,9.2,3.6,1024,1024,1024,1024,0,0,0,0,78,5.222,74.84,29.855644,P-GPS,,9.1
339600,2026-01-08 12:33:46,0.0,5,7.592,0.0,0.0,0.0,23.7,8.1,3.6,1024,1024,1024,1024,0,0,0,0,78,5.222,74.84,29.855644,P-GPS,,9.1
339700,2026-01-08 12:33:46,0.0,5,7.592,0.0,0.0,0.0,24.0,8.5,4.3,1024,1024,1024,1024,0,0,0,0,78,5.222,74.84,29.855644,P-GPS,,9.1
339800,2026-01-08 12:33:46,0.0,5,7.592,0.0,0.0,0.0,24.0,8.2,4.9,1024,1024,1024,1024,0,0,0,0,77,5.222,74.84,29.855644,P-GPS,,9.1
339900,2026-01-08 12:33:46,0.223694,5,7.592,0.0,-0.223694,0.0,24.0,7.5,5.4,1024,1024,1024,1024,0,0,0,0,77,5.222,74.84,29.855644,P-GPS,,9.1
340000,2026-01-08 12:33:46,0.223694,5,7.592,0.0,-0.223694,0.0,24.1,7.9,6.1,1024,1024,1024,1024,0,0,0,0,77,5.222,74.84,29.855644,P-GPS,,9.1
340100,2026-01-08 12:33:46,0.223694,5,7.592,0.0,-0.223694,0.0,24.1,8.1,6.6,1024,1024,1024,1024,0,0,0,0,77,5.222,74.84,29.855644,P-GPS,,9.1
340200,2026-01-08 12:33:46,0.223694,5,7.592,0.0,-0.223694,0.0,24.3,7.7,6.7,1024,1024,1024,1024,0,0,0,0,77,5.222,74.84,29.855644,P-GPS,,9.1
340300,2026-01-08 12:33:46,0.223694,5,7.592,0.0,0.0,0.0,24.3,8.0,6.7,1024,1024,1024,1024,0,0,0,0,77,5.222,74.84,29.855644,P-GPS,,9.1
340400,2026-01-08 12:33:46,0.0,5,7.592,0.0,0.0,0.0,24.1,7.5,6.7,1024,1024,1024,1024,0,0,0,0,77,5.222,74.84,29.855644,P-GPS,,9.1
340500,2026-01-08 12:33:46,0.0,5,7.592,0.0,0.0,0.0,24.0,8.1,6.2,1024,1024,1024,1024,0,0,0,0,77,5.222,74.84,29.855644,P-GPS,,9.1
340600,2026-01-08 12:33:47,0.0,5,7.656,0.0,0.0,0.0,23.9,7.8,6.2,1024,1024,1024,1024,0,0,0,0,77,4.181,74.84,29.855644,P-GPS,,9.1
340700,2026-01-08 12:33:47,0.0,5,7.656,0.0,0.0,0.0,23.9,7.7,6.2,1024,1024,1024,1024,0,0,0,0,77,4.181,74.84,29.855644,P-GPS,,9.1
340800,2026-01-08 12:33:47,0.0,5,7.656,0.0,0.0,0.0,23.9,7.7,5.7,1024,1024,1024,1024,0,0,0,0,77,4.181,74.84,29.855644,P-GPS,,9.1
340900,2026-01-08 12:33:47,0.0,5,7.656,0.0,0.0,0.0,24.0,7.7,5.8,1024,1024,1024,1024,0,0,0,0,77,4.181,74.84,29.855644,P-GPS,,9.1
341000,2026-01-08 12:33:47,0.0,5,7.656,0.0,0.0,0.0,24.0,7.7,6.0,1024,1024,1024,1024,0,0,0,0,77,4.181,74.84,29.855644,P-GPS,,9.1
341100,2026-01-08 12:33:47,0.0,5,7.656,0.0,0.0,0.0,23.9,7.2,5.8,1024,1024,1024,1024,0,0,0,0,77,4.181,74.84,30.183728,P-GPS,,9.2
341200,2026-01-08 12:33:47,0.0,5,7.656,0.0,0.0,0.0,24.0,7.3,6.2,1024,1024,1024,1024,0,0,0,0,77,4.181,74.84,30.183728,P-GPS,,9.2
341300,2026-01-08 12:33:47,0.0,5,7.656,0.0,0.0,0.0,24.0,8.0,6.1,1024,1024,1024,1024,0,0,0,0,77,4.181,74.84,30.183728,P-GPS,,9.2
341400,2026-01-08 12:33:47,0.0,5,7.656,0.0,0.0,0.0,24.0,8.0,6.1,1024,1024,1024,1024,0,0,0,0,77,4.181,74.84,30.183728,P-GPS,,9.2
341500,2026-01-08 12:33:47,0.0,5,7.656,0.0,0.0,0.0,24.0,8.6,6.5,1024,1024,1024,1024,0,0,0,0,77,4.181,74.84,30.183728,P-GPS,,9.2
341600,2026-01-08 12:33:48,0.0,5,7.656,0.0,0.0,0.0,24.1,8.8,6.6,1024,1024,1024,1024,0,0,0,0,77,4.181,74.84,30.183728,P-GPS,,9.2
341700,2026-01-08 12:33:48,0.0,5,7.648,0.0,0.0,0.0,24.1,9.2,6.9,1024,1024,1024,1024,0,0,0,0,77,4.531,74.84,30.183728,P-GPS,,9.2
341800,2026-01-08 12:33:48,0.0,5,7.648,0.0,0.0,0.0,24.1,8.8,6.7,1024,1024,1024,1024,0,0,0,0,77,4.531,74.84,30.183728,P-GPS,,9.2
341900,2026-01-08 12:33:48,0.0,5,7.648,0.0,0.0,0.0,24.1,8.5,6.8,1024,1024,1024,1024,0,0,0,0,77,4.531,74.84,30.183728,P-GPS,,9.2
342000,2026-01-08 12:33:48,0.0,5,7.648,0.0,0.0,0.0,24.1,8.6,6.6,1024,1024,1024,1024,0,0,0,0,77,4.531,74.84,30.183728,P-GPS,,9.2
342100,2026-01-08 12:33:48,0.0,5,7.648,0.0,0.0,0.0,24.1,8.5,6.5,1024,1024,1024,1024,0,0,0,0,77,4.531,74.84,30.183728,P-GPS,,9.2
342200,2026-01-08 12:33:48,0.0,5,7.648,0.0,0.0,0.0,24.1,8.7,6.5,1024,1024,1024,1024,0,0,0,0,77,4.531,74.84,30.183728,P-GPS,,9.2
342300,2026-01-08 12:33:48,0.0,5,7.648,0.0,0.0,0.0,24.2,8.8,6.5,1024,1024,1024,1024,0,0,0,0,77,4.531,74.84,30.183728,P-GPS,,9.2
342400,2026-01-08 12:33:48,0.0,5,7.648,0.0,0.0,0.0,24.2,9.0,6.9,1024,1024,1024,1024,0,0,0,0,77,4.531,74.84,30.183728,P-GPS,,9.2
342500,2026-01-08 12:33:49,0.0,5,7.648,0.0,0.0,0.0,24.1,9.3,7.0,1024,1024,1024,1024,0,0,0,0,77,4.531,74.84,30.183728,P-GPS,,9.2
342600,2026-01-08 12:33:49,0.0,5,7.648,0.0,0.0,0.0,24.1,9.0,7.0,1024,1024,1024,1024,0,0,0,0,77,4.531,74.84,30.183728,P-GPS,,9.2
342700,2026-01-08 12:33:49,0.0,5,7.648,0.0,0.0,0.0,24.1,9.2,7.1,1024,1024,1024,1024,0,0,0,0,77,4.531,74.84,30.511812,P-GPS,,9.3
342800,2026-01-08 12:33:49,0.0,5,7.612,0.0,0.0,0.0,24.2,9.5,7.2,1024,1024,1024,1024,0,0,0,0,77,4.724,74.84,30.511812,P-GPS,,9.3
342900,2026-01-08 12:33:49,0.0,5,7.612,0.0,0.0,0.0,24.2,10.0,7.0,1024,1024,1024,1024,0,0,0,0,77,4.724,74.84,30.511812,P-GPS,,9.3
343000,2026-01-08 12:33:49,0.0,5,7.612,0.0,0.0,0.0,24.1,9.9,6.6,1024,1024,1024,1024,0,0,0,0,77,4.724,74.84,30.511812,P-GPS,,9.3
343100,2026-01-08 12:33:49,0.0,5,7.612,0.0,0.0,0.0,24.2,9.9,6.7,1024,1024,1024,1024,0,0,0,0,77,4.724,74.84,30.511812,P-GPS,,9.3
343200,2026-01-08 12:33:49,0.0,5,7.612,0.0,0.0,0.0,24.1,9.8,6.3,1024,1024,1024,1024,0,0,0,0,77,4.724,74.84,30.511812,P-GPS,,9.3
343300,2026-01-08 12:33:49,0.0,5,7.612,0.0,0.0,-0.223694,24.1,10.1,6.1,1024,1024,1024,1024,0,0,0,0,77,4.724,74.84,30.183728,P-GPS,,9.2
343400,2026-01-08 12:33:49,0.0,5,7.612,0.0,0.0,0.0,24.2,10.6,6.0,1024,1024,1024,1024,0,0,0,0,77,4.724,74.84,30.183728,P-GPS,,9.2
343500,2026-01-08 12:33:49,0.0,5,7.612,0.0,0.0,0.0,24.2,10.3,6.5,1024,1024,1024,1024,0,0,0,0,77,4.724,74.84,30.183728,P-GPS,,9.2
343600,2026-01-08 12:33:50,0.0,5,7.612,0.0,0.0,0.0,24.1,10.0,7.0,1024,1024,1024,1024,0,0,0,0,77,4.724,74.84,30.183728,P-GPS,,9.2
343700,2026-01-08 12:33:50,0.0,5,7.612,0.0,0.0,0.0,24.2,10.3,7.1,1024,1024,1024,1024,0,0,0,0,77,4.724,74.84,30.183728,P-GPS,,9.2
343800,2026-01-08 12:33:50,0.0,5,7.612,0.0,0.0,0.0,24.2,10.4,7.1,1024,1024,1024,1024,0,0,0,0,77,4.724,74.84,30.183728,P-GPS,,9.2
343900,2026-01-08 12:33:50,0.0,5,7.628,0.0,0.0,0.0,24.2,10.5,6.9,1024,1024,1024,1024,0,0,0,0,77,4.976,75.02,30.183728,P-GPS,,9.2
344000,2026-01-08 12:33:50,0.0,5,7.628,0.0,0.0,0.0,24.2,10.2,6.5,1024,1024,1024,1024,0,0,0,0,77,4.976,75.02,30.183728,P-GPS,,9.2
344100,2026-01-08 12:33:50,0.0,5,7.628,0.0,0.0,0.0,24.1,10.3,6.3,1024,1024,1024,1024,0,0,0,0,77,4.976,75.02,30.183728,P-GPS,,9.2
344200,2026-01-08 12:33:50,0.0,5,7.628,0.0,0.0,0.0,24.2,10.5,6.1,1024,1024,1024,1024,0,0,0,0,77,4.976,75.02,30.183728,P-GPS,,9.2
344300,2026-01-08 12:33:50,0.0,5,7.628,0.0,0.0,0.0,24.1,9.9,6.2,1024,1024,1024,1024,0,0,0,0,77,4.976,75.02,30.183728,P-GPS,,9.2
344400,2026-01-08 12:33:50,0.0,5,7.628,0.0,0.0,0.0,24.2,10.0,6.2,1024,1024,1024,1024,0,0,0,0,77,4.976,75.02,30.183728,P-GPS,,9.2
344500,2026-01-08 12:33:51,0.0,5,7.628,0.0,0.0,0.0,24.1,9.3,6.4,1024,1024,1024,1024,0,0,0,0,77,4.976,75.02,30.183728,P-GPS,,9.2
344600,2026-01-08 12:33:51,0.0,5,7.628,0.0,0.0,0.0,24.0,9.3,5.9,1024,1024,1024,1024,0,0,0,0,77,4.976,75.02,29.855644,P-GPS,,9.1
344700,2026-01-08 12:33:51,0.0,5,7.628,0.0,0.0,0.0,24.1,9.4,6.0,1024,1024,1024,1024,0,0,0,0,77,4.976,75.02,29.855644,P-GPS,,9.1
344800,2026-01-08 12:33:51,0.0,5,7.628,0.0,0.0,0.0,24.2,9.5,6.8,1024,1024,1024,1024,0,0,0,0,77,4.976,75.02,30.183728,P-GPS,,9.2
344900,2026-01-08 12:33:51,0.0,5,7.628,0.0,0.0,0.0,24.1,9.1,7.0,1024,1024,1024,1024,0,0,0,0,77,4.976,75.02,30.183728,P-GPS,,9.2
345000,2026-01-08 12:33:51,0.0,5,7.64,0.0,0.0,0.0,24.0,8.6,6.6,1024,1024,1024,1024,0,0,0,0,77,4.86,75.02,29.855644,P-GPS,,9.1
345100,2026-01-08 12:33:51,0.0,5,7.64,0.0,0.0,0.0,24.0,8.7,6.0,1024,1024,1024,1024,0,0,0,0,77,4.86,75.02,29.855644,P-GPS,,9.1
345200,2026-01-08 12:33:51,0.0,5,7.64,0.0,0.0,0.0,24.1,9.2,5.4,1024,1024,1024,1024,0,0,0,0,77,4.86,75.02,29.855644,P-GPS,,9.1
345300,2026-01-08 12:33:51,0.0,5,7.64,0.0,0.0,0.0,24.1,9.2,5.2,1024,1024,1024,1024,0,0,0,0,77,4.86,75.02,29.855644,P-GPS,,9.1
345400,2026-01-08 12:33:51,0.0,5,7.64,0.0,0.0,0.0,24.0,8.9,5.3,1024,1024,1024,1024,0,0,0,0,77,4.86,75.02,29.855644,P-GPS,,9.1
345500,2026-01-08 12:33:51,0.0,5,7.64,0.0,0.0,0.0,24.0,8.3,5.5,1024,1024,1024,1024,0,0,0,0,77,4.86,75.02,29.52756,P-GPS,,9.0
345600,2026-01-08 12:33:52,0.0,5,7.64,0.0,0.0,0.0,24.1,8.5,5.8,1024,1024,1024,1024,0,0,0,0,77,4.86,75.02,29.52756,P-GPS,,9.0
345700,2026-01-08 12:33:52,0.0,5,7.64,0.0,0.0,0.0,24.1,8.4,5.8,1024,1024,1024,1024,0,0,0,0,77,4.86,75.02,29.52756,P-GPS,,9.0
345800,2026-01-08 12:33:52,0.0,5,7.64,0.0,0.0,0.0,24.2,9.0,6.2,1024,1024,1024,1024,0,0,0,0,77,4.86,75.02,29.52756,P-GPS,,9.0
345900,2026-01-08 12:33:52,0.0,5,7.64,0.0,0.0,0.0,24.2,9.8,5.5,1024,1024,1024,1024,0,0,0,0,77,4.86,75.02,29.199476,P-GPS,,8.9
346000,2026-01-08 12:33:52,0.0,5,7.64,0.0,0.0,0.0,24.0,9.9,5.0,1024,1024,1024,1024,0,0,0,0,77,4.86,75.02,29.199476,P-GPS,,8.9
346100,2026-01-08 12:33:52,0.0,5,7.642,0.0,0.0,0.0,24.0,9.2,4.9,1024,1024,1024,1024,0,0,0,0,77,4.477,75.02,29.199476,P-GPS,,8.9
346200,2026-01-08 12:33:52,0.0,5,7.642,0.0,0.0,0.0,24.0,8.7,4.7,1024,1024,1024,1024,0,0,0,0,77,4.477,75.02,29.199476,P-GPS,,8.9
346300,2026-01-08 12:33:52,0.0,5,7.642,0.0,0.0,0.0,23.9,8.4,4.4,1024,1024,1024,1024,0,0,0,0,77,4.477,75.02,29.199476,P-GPS,,8.9
346400,2026-01-08 12:33:52,0.223694,5,7.642,-0.223694,0.0,0.0,23.8,8.2,4.2,1024,1024,1024,1024,0,0,0,0,77,4.477,75.02,29.199476,P-GPS,,8.9
346500,2026-01-08 12:33:53,0.0,5,7.642,0.0,0.0,0.0,23.9,7.8,4.1,1024,1024,1024,1024,0,0,0,0,77,4.477,75.02,29.199476,P-GPS,,8.9
346600,2026-01-08 12:33:53,0.0,5,7.642,0.0,0.0,0.0,23.9,7.5,4.5,1024,1024,1024,1024,0,0,0,0,77,4.477,75.02,29.199476,P-GPS,,8.9
346700,2026-01-08 12:33:53,0.0,5,7.642,0.0,0.0,0.0,23.9,8.0,4.3,1024,1024,1024,1024,0,0,0,0,77,4.477,75.02,29.199476,P-GPS,,8.9
346800,2026-01-08 12:33:53,0.0,5,7.642,0.0,0.0,0.0,24.0,7.8,5.2,1024,1024,1024,1024,0,0,0,0,77,4.477,75.02,29.199476,P-GPS,,8.9
346900,2026-01-08 12:33:53,0.0,5,7.642,0.0,0.0,0.0,24.1,7.7,5.3,1024,1024,1024,1024,0,0,0,0,77,4.477,75.02,29.199476,P-GPS,,8.9
347000,2026-01-08 12:33:53,0.0,5,7.642,0.0,0.0,0.0,24.1,7.4,5.3,1024,1024,1024,1024,0,0,0,0,77,4.477,75.02,29.199476,P-GPS,,8.9
347100,2026-01-08 12:33:53,0.0,5,7.642,0.0,0.0,0.0,24.1,7.2,5.8,1024,1024,1024,1024,0,0,0,0,77,4.477,75.02,29.52756,P-GPS,,9.0
347200,2026-01-08 12:33:53,0.0,5,7.646,0.0,0.0,0.0,24.2,7.9,5.7,1024,1024,1024,1024,0,0,0,0,77,4.622,75.02,29.52756,P-GPS,,9.0
347300,2026-01-08 12:33:53,0.0,5,7.646,0.0,0.0,0.0,24.1,7.8,5.6,1024,1024,1024,1024,0,0,0,0,77,4.622,75.02,29.52756,P-GPS,,9.0
347400,2026-01-08 12:33:53,0.0,5,7.646,0.0,0.0,0.0,24.0,8.3,5.5,1024,1024,1024,1024,0,0,0,0,77,4.622,75.02,29.52756,P-GPS,,9.0
347500,2026-01-08 12:33:54,0.0,5,7.646,0.0,0.0,0.0,24.0,8.0,5.8,1024,1024,1024,1024,0,0,0,0,77,4.622,75.02,29.52756,P-GPS,,9.0
347600,2026-01-08 12:33:54,0.0,5,7.646,0.0,0.0,0.0,24.0,7.7,5.9,1024,1024,1024,1024,0,0,0,0,77,4.622,75.02,29.52756,P-GPS,,9.0
347700,2026-01-08 12:33:54,0.0,5,7.646,0.0,0.0,0.0,24.1,8.4,6.3,1024,1024,1024,1024,0,0,0,0,77,4.622,75.02,29.52756,P-GPS,,9.0
347800,2026-01-08 12:33:54,0.0,5,7.646,0.0,0.0,0.0,24.1,8.9,6.1,1024,1024,1024,1024,0,0,0,0,77,4.622,75.02,29.52756,P-GPS,,9.0
347900,2026-01-08 12:33:54,0.0,5,7.646,0.0,0.0,0.0,24.0,8.6,5.9,1024,1024,1024,1024,0,0,0,0,77,4.622,75.02,29.52756,P-GPS,,9.0
348000,2026-01-08 12:33:54,0.0,5,7.646,0.0,0.0,0.0,24.0,8.4,5.9,1024,1024,1024,1024,0,0,0,0,77,4.622,75.02,29.52756,P-GPS,,9.0
348100,2026-01-08 12:33:54,0.0,5,7.646,0.0,0.0,0.0,24.1,8.6,5.8,1024,1024,1024,1024,0,0,0,0,77,4.622,75.02,29.52756,P-GPS,,9.0
348200,2026-01-08 12:33:54,0.0,5,7.646,0.0,0.0,0.0,24.0,9.0,5.6,1024,1024,1024,1024,0,0,0,0,77,4.622,75.02,29.52756,P-GPS,,9.0
348300,2026-01-08 12:33:54,0.0,5,7.63,0.0,0.0,0.0,24.0,8.6,5.9,1024,1024,1024,1024,0,0,0,0,77,4.559,75.02,29.52756,P-GPS,,9.0
348400,2026-01-08 12:33:54,0.0,5,7.63,0.0,0.0,0.0,24.1,8.4,5.7,1024,1024,1024,1024,0,0,0,0,77,4.559,75.02,29.52756,P-GPS,,9.0
348500,2026-01-08 12:33:55,0.0,5,7.63,0.0,0.0,0.0,24.0,9.2,5.4,1024,1024,1024,1024,0,0,0,0,77,4.559,75.02,29.52756,P-GPS,,9.0
348600,2026-01-08 12:33:55,0.0,5,7.63,0.0,0.0,0.0,24.1,8.7,5.4,1024,1024,1024,1024,0,0,0,0,77,4.559,75.02,29.52756,P-GPS,,9.0
348700,2026-01-08 12:33:55,0.0,5,7.63,0.0,0.0,0.0,24.0,8.6,5.5,1024,1024,1024,1024,0,0,0,0,77,4.559,75.02,29.52756,P-GPS,,9.0
348800,2026-01-08 12:33:55,0.0,5,7.63,0.0,0.0,0.0,24.1,8.7,5.5,1024,1024,1024,1024,0,0,0,0,77,4.559,75.02,29.52756,P-GPS,,9.0
348900,2026-01-08 12:33:55,0.0,5,7.63,0.0,0.0,0.0,24.0,8.9,5.3,1024,1024,1024,1024,0,0,0,0,77,4.559,75.02,29.52756,P-GPS,,9.0
349000,2026-01-08 12:33:55,0.0,5,7.63,0.0,0.0,0.0,24.0,8.9,4.8,1024,1024,1024,1024,0,0,0,0,77,4.559,75.02,29.52756,P-GPS,,9.0
349100,2026-01-08 12:33:55,0.0,5,7.63,0.0,0.0,0.0,24.0,8.7,4.6,1024,1024,1024,1024,0,0,0,0,77,4.559,75.02,29.52756,P-GPS,,9.0
349200,2026-01-08 12:33:55,0.0,5,7.63,0.0,0.0,0.0,24.0,8.6,4.4,1024,1024,1024,1024,0,0,0,0,77,4.559,75.02,29.52756,P-GPS,,9.0
349300,2026-01-08 12:33:55,0.0,5,7.63,0.0,0.0,0.0,23.9,8.4,4.3,1024,1024,1024,1024,0,0,0,0,77,4.559,75.02,29.52756,P-GPS,,9.0
349400,2026-01-08 12:33:55,0.0,5,7.609,0.0,0.0,0.0,23.9,8.4,4.5,1024,1024,1024,1024,0,0,0,0,77,4.951,75.2,29.855644,P-GPS,,9.1
349500,2026-01-08 12:33:56,0.0,5,7.609,0.0,0.0,0.0,24.0,8.8,4.4,1024,1024,1024,1024,0,0,0,0,77,4.951,75.2,29.855644,P-GPS,,9.1
349600,2026-01-08 12:33:56,0.0,5,7.609,0.0,0.0,0.0,24.1,9.2,4.9,1024,1024,1024,1024,0,0,0,0,77,4.951,75.2,29.855644,P-GPS,,9.1
349700,2026-01-08 12:33:56,0.0,5,7.609,0.0,0.0,0.0,24.2,9.0,5.3,1024,1024,1024,1024,0,0,0,0,77,4.951,75.2,29.855644,P-GPS,,9.1
349800,2026-01-08 12:33:56,0.0,5,7.609,0.0,0.0,0.0,24.0,8.4,4.9,1024,1024,1024,1024,0,0,0,0,77,4.951,75.2,29.855644,P-GPS,,9.1
349900,2026-01-08 12:33:56,0.0,5,7.609,0.0,0.0,0.0,23.9,8.2,5.4,1024,1024,1024,1024,0,0,0,0,77,4.951,75.2,29.855644,P-GPS,,9.1
350000,2026-01-08 12:33:56,0.0,5,7.609,0.0,0.0,0.0,23.9,8.0,5.6,1024,1024,1024,1024,0,0,0,0,77,4.951,75.2,29.855644,P-GPS,,9.1
350100,2026-01-08 12:33:56,0.0,5,7.609,0.0,0.0,0.0,23.9,7.5,5.2,1024,1024,1024,1024,0,0,0,0,77,4.951,75.2,29.855644,P-GPS,,9.1
350200,2026-01-08 12:33:56,0.0,5,7.609,0.0,0.0,0.0,23.9,8.1,4.6,1024,1024,1024,1024,0,0,0,0,77,4.951,75.2,29.855644,P-GPS,,9.1
350300,2026-01-08 12:33:56,0.0,5,7.609,0.0,0.0,0.0,23.9,8.5,4.6,1024,1024,1024,1024,0,0,0,0,77,4.951,75.2,30.183728,P-GPS,,9.2
350400,2026-01-08 12:33:56,0.0,5,7.609,0.0,0.0,0.0,24.0,8.8,4.7,1024,1024,1024,1024,0,0,0,0,77,4.951,75.2,30.183728,P-GPS,,9.2
350500,2026-01-08 12:33:57,0.0,5,7.624,0.0,0.0,0.0,24.0,8.7,4.8,1024,1024,1024,1024,0,0,0,0,77,4.941,75.2,30.183728,P-GPS,,9.2
350600,2026-01-08 12:33:57,0.0,5,7.624,0.0,0.0,0.0,24.1,8.8,4.5,1024,1024,1024,1024,0,0,0,0,77,4.941,75.2,30.183728,P-GPS,,9.2
350700,2026-01-08 12:33:57,0.0,5,7.624,0.0,0.0,0.0,24.0,8.7,4.2,1024,1024,1024,1024,0,0,0,0,77,4.941,75.2,30.183728,P-GPS,,9.2
350800,2026-01-08 12:33:57,0.0,5,7.624,0.0,0.0,0.0,23.9,8.5,4.2,1024,1024,1024,1024,0,0,0,0,77,4.941,75.2,30.183728,P-GPS,,9.2
350900,2026-01-08 12:33:57,0.0,5,7.624,0.0,0.0,0.0,23.9,8.3,4.1,1024,1024,1024,1024,0,0,0,0,77,4.941,75.2,30.183728,P-GPS,,9.2
351000,2026-01-08 12:33:57,0.0,5,7.624,0.0,0.0,0.0,23.9,8.6,4.2,1024,1024,1024,1024,0,0,0,0,77,4.941,75.2,30.183728,P-GPS,,9.2
351100,2026-01-08 12:33:57,0.0,5,7.624,0.0,0.0,0.0,23.9,8.3,4.4,1024,1024,1024,1024,0,0,0,0,77,4.941,75.2,30.183728,P-GPS,,9.2
351200,2026-01-08 12:33:57,0.0,5,7.624,0.0,0.0,0.0,24.0,8.3,4.6,1024,1024,1024,1024,0,0,0,0,77,4.941,75.2,30.183728,P-GPS,,9.2
351300,2026-01-08 12:33:57,0.0,5,7.624,0.0,0.0,0.0,24.0,7.8,4.7,1024,1024,1024,1024,0,0,0,0,77,4.941,75.2,30.183728,P-GPS,,9.2
351400,2026-01-08 12:33:57,0.0,5,7.624,0.0,0.0,0.0,24.1,8.0,5.5,1024,1024,1024,1024,0,0,0,0,77,4.941,75.2,30.183728,P-GPS,,9.2
351500,2026-01-08 12:33:58,0.0,5,7.624,0.0,0.0,0.0,24.3,8.3,5.5,1024,1024,1024,1024,0,0,0,0,77,4.941,75.2,30.183728,P-GPS,,9.2
351600,2026-01-08 12:33:58,0.0,5,7.624,0.0,0.0,0.0,24.4,8.6,5.5,1024,1024,1024,1024,0,0,0,0,77,4.941,75.2,30.511812,P-GPS,,9.3
351700,2026-01-08 12:33:58,0.0,5,7.636,0.0,0.0,0.0,24.3,8.3,5.7,1024,1024,1024,1024,0,0,0,0,77,4.466,75.2,30.511812,P-GPS,,9.3
351800,2026-01-08 12:33:58,0.0,5,7.636,0.0,0.0,0.0,24.2,7.9,5.6,1024,1024,1024,1024,0,0,0,0,77,4.466,75.2,30.511812,P-GPS,,9.3
351900,2026-01-08 12:33:58,0.0,5,7.636,0.0,0.0,0.0,24.3,7.5,5.9,1024,1024,1024,1024,0,0,0,0,77,4.466,75.2,30.839896,P-GPS,,9.4
352000,2026-01-08 12:33:58,0.0,5,7.636,0.0,0.0,0.0,24.2,7.3,5.5,1024,1024,1024,1024,0,0,0,0,77,4.466,75.2,30.839896,P-GPS,,9.4
352100,2026-01-08 12:33:58,0.0,5,7.636,0.0,0.0,0.0,24.0,6.8,5.8,1024,1024,1024,1024,0,0,0,0,77,4.466,75.2,30.839896,P-GPS,,9.4
352200,2026-01-08 12:33:58,0.0,5,7.636,0.0,0.0,0.0,24.0,6.6,5.1,1024,1024,1024,1024,0,0,0,0,77,4.466,75.2,30.839896,P-GPS,,9.4
352300,2026-01-08 12:33:58,0.0,5,7.636,0.0,0.0,0.0,24.0,6.0,5.1,1024,1024,1024,1024,0,0,0,0,77,4.466,75.2,31.16798,P-GPS,,9.5
352400,2026-01-08 12:33:58,0.0,5,7.636,0.0,0.0,0.0,24.0,6.3,5.1,1024,1024,1024,1024,0,0,0,0,77,4.466,75.2,31.16798,P-GPS,,9.5
352500,2026-01-08 12:33:58,0.0,5,7.636,0.0,0.0,0.0,24.0,6.3,5.0,1024,1024,1024,1024,0,0,0,0,77,4.466,75.2,31.16798,P-GPS,,9.5
352600,2026-01-08 12:33:59,0.0,5,7.636,0.0,0.0,0.0,24.0,5.9,4.7,1024,1024,1024,1024,0,0,0,0,77,4.466,75.2,31.16798,P-GPS,,9.5
352700,2026-01-08 12:33:59,0.0,5,7.636,0.0,0.0,0.0,24.1,5.8,4.8,1024,1024,1024,1024,0,0,0,0,77,4.466,75.2,31.16798,P-GPS,,9.5
352800,2026-01-08 12:33:59,0.0,5,7.632,0.0,0.0,0.0,24.1,5.3,4.8,1024,1024,1024,1024,0,0,0,0,77,4.414,75.2,31.496064,P-GPS,,9.6
352900,2026-01-08 12:33:59,0.0,5,7.632,0.0,0.0,0.0,24.1,5.1,4.5,1024,1024,1024,1024,0,0,0,0,77,4.414,75.2,31.496064,P-GPS,,9.6
353000,2026-01-08 12:33:59,0.0,5,7.632,0.0,0.0,0.0,24.2,5.3,4.7,1024,1024,1024,1024,0,0,0,0,77,4.414,75.2,31.496064,P-GPS,,9.6
353100,2026-01-08 12:33:59,0.0,5,7.632,0.0,0.0,0.0,24.1,5.3,4.6,1024,1024,1024,1024,0,0,0,0,77,4.414,75.2,31.496064,P-GPS,,9.6
353200,2026-01-08 12:33:59,0.0,5,7.632,0.0,0.0,0.0,24.1,5.0,4.4,1024,1024,1024,1024,0,0,0,0,77,4.414,75.2,31.824148,P-GPS,,9.7
353300,2026-01-08 12:33:59,0.0,5,7.632,0.0,0.0,0.0,24.1,4.7,4.4,1024,1024,1024,1024,0,0,0,0,77,4.414,75.2,31.824148,P-GPS,,9.7
353400,2026-01-08 12:33:59,0.0,5,7.632,0.0,0.0,0.0,24.1,4.8,4.2,1024,1024,1024,1024,0,0,0,0,77,4.414,75.2,31.824148,P-GPS,,9.7
353500,2026-01-08 12:34:00,0.0,5,7.632,0.0,0.0,0.0,24.1,5.1,4.5,1024,1024,1024,1024,0,0,0,0,77,4.414,75.2,32.152232,P-GPS,,9.8
353600,2026-01-08 12:34:00,0.0,5,7.632,0.0,0.0,0.0,24.0,5.0,4.1,1024,1024,1024,1024,0,0,0,0,77,4.414,75.2,32.152232,P-GPS,,9.8
353700,2026-01-08 12:34:00,0.0,5,7.632,0.0,0.0,0.0,24.0,4.8,4.4,1024,1024,1024,1024,0,0,0,0,77,4.414,75.2,32.152232,P-GPS,,9.8
353800,2026-01-08 12:34:00,0.0,5,7.632,0.0,0.0,0.0,23.9,4.6,4.5,1024,1024,1024,1024,0,0,0,0,77,4.414,75.2,32.152232,P-GPS,,9.8
353900,2026-01-08 12:34:00,0.0,5,7.632,0.0,0.0,0.0,23.8,4.4,4.2,1024,1024,1024,1024,0,0,0,0,77,4.377,75.2,32.480316,P-GPS,,9.9
354000,2026-01-08 12:34:00,0.0,5,7.632,0.0,0.0,0.0,23.9,5.1,4.3,1024,1024,1024,1024,0,0,0,0,77,4.377,75.2,32.480316,P-GPS,,9.9
354100,2026-01-08 12:34:00,0.0,5,7.632,0.0,0.0,0.0,23.9,5.0,4.4,1024,1024,1024,1024,0,0,0,0,77,4.377,75.2,32.480316,P-GPS,,9.9
354200,2026-01-08 12:34:00,0.0,5,7.632,0.0,0.0,0.0,23.8,4.9,4.4,1024,1024,1024,1024,0,0,0,0,77,4.377,75.2,32.8084,P-GPS,,10.0
354300,2026-01-08 12:34:00,0.0,5,7.632,0.0,0.0,0.0,23.9,4.8,4.5,1024,1024,1024,1024,0,0,0,0,77,4.377,75.2,32.8084,P-GPS,,10.0
354400,2026-01-08 12:34:00,0.0,5,7.632,0.0,0.0,0.0,23.8,5.0,4.7,1024,1024,1024,1024,0,0,0,0,77,4.377,75.2,32.8084,P-GPS,,10.0
354500,2026-01-08 12:34:01,0.0,5,7.632,0.0,0.0,0.0,23.8,4.7,4.6,1024,1024,1024,1024,0,0,0,0,77,4.377,75.2,32.8084,P-GPS,,10.0
354600,2026-01-08 12:34:01,0.0,5,7.632,0.0,0.0,0.0,23.7,5.1,4.3,1024,1024,1024,1024,0,0,0,0,77,4.377,75.2,33.136484,P-GPS,,10.1
354700,2026-01-08 12:34:01,0.0,5,7.632,0.0,0.0,0.0,23.7,5.3,4.1,1024,1024,1024,1024,0,0,0,0,77,4.377,75.2,33.136484,P-GPS,,10.1
354800,2026-01-08 12:34:01,0.0,5,7.632,0.0,0.0,0.0,23.6,4.5,4.0,1024,1024,1024,1024,0,0,0,0,77,4.377,75.2,33.136484,P-GPS,,10.1
354900,2026-01-08 12:34:01,0.0,5,7.632,0.0,0.0,0.0,23.6,3.7,3.8,1024,1024,1024,1024,0,0,0,0,77,4.377,75.2,33.136484,P-GPS,,10.1
355000,2026-01-08 12:34:01,0.0,5,7.624,0.0,0.0,0.0,23.7,4.1,3.7,1024,1024,1024,1024,0,0,0,0,77,4.556,75.2,33.136484,P-GPS,,10.1
355100,2026-01-08 12:34:01,0.0,5,7.624,0.0,0.0,0.0,23.8,5.1,4.1,1024,1024,1024,1024,0,0,0,0,77,4.556,75.2,33.464568,P-GPS,,10.2
355200,2026-01-08 12:34:01,0.0,5,7.624,0.0,0.0,0.0,23.9,5.5,4.1,1024,1024,1024,1024,0,0,0,0,77,4.556,75.2,33.464568,P-GPS,,10.2
355300,2026-01-08 12:34:01,0.0,5,7.624,0.0,0.0,0.0,23.9,6.0,4.6,1024,1024,1024,1024,0,0,0,0,77,4.556,75.2,33.464568,P-GPS,,10.2
355400,2026-01-08 12:34:01,0.0,5,7.624,0.0,0.0,0.0,23.8,7.0,4.5,1024,1024,1024,1024,0,0,0,0,77,4.556,75.2,33.464568,P-GPS,,10.2
355500,2026-01-08 12:34:01,0.0,5,7.624,0.223694,0.0,0.0,23.8,7.6,4.5,1024,1024,1024,1024,0,0,0,0,77,4.556,75.2,33.464568,P-GPS,,10.2
355600,2026-01-08 12:34:02,0.223694,5,7.624,0.223694,0.0,0.0,23.7,8.1,4.3,1024,1024,1024,1024,0,0,0,0,77,4.556,75.2,33.464568,P-GPS,,10.2
355700,2026-01-08 12:34:02,0.0,5,7.624,0.0,0.0,0.0,23.7,8.0,4.0,1024,1024,1024,1024,0,0,0,0,77,4.556,75.2,33.464568,P-GPS,,10.2
355800,2026-01-08 12:34:02,0.0,5,7.624,0.0,0.0,0.0,23.7,7.3,3.4,1024,1024,1024,1024,0,0,0,0,77,4.556,75.2,33.464568,P-GPS,,10.2
355900,2026-01-08 12:34:02,0.0,5,7.624,0.0,0.0,0.0,23.6,6.3,3.4,1024,1024,1024,1024,0,0,0,0,77,4.556,75.2,33.464568,P-GPS,,10.2
356000,2026-01-08 12:34:02,0.0,5,7.624,0.0,0.0,0.0,23.7,6.1,3.2,1024,1024,1024,1024,0,0,0,0,77,4.556,75.2,33.464568,P-GPS,,10.2
356100,2026-01-08 12:34:02,0.0,5,7.615,0.0,0.0,0.0,23.9,6.4,3.9,1024,1024,1024,1024,0,0,0,0,76,4.511,75.2,33.464568,P-GPS,,10.2
356200,2026-01-08 12:34:02,0.0,5,7.615,0.0,0.0,0.0,24.1,6.4,4.3,1024,1024,1024,1024,0,0,0,0,76,4.511,75.2,33.464568,P-GPS,,10.2
356300,2026-01-08 12:34:02,0.0,5,7.615,0.0,0.0,0.0,24.1,6.2,5.1,1024,1024,1024,1024,0,0,0,0,76,4.511,75.2,33.464568,P-GPS,,10.2
356400,2026-01-08 12:34:02,0.0,5,7.615,0.0,0.0,0.0,24.0,6.7,4.9,1024,1024,1024,1024,0,0,0,0,76,4.511,75.2,33.464568,P-GPS,,10.2
356500,2026-01-08 12:34:03,0.0,5,7.615,0.0,0.0,0.0,23.9,6.9,4.7,1024,1024,1024,1024,0,0,0,0,76,4.511,75.2,33.792652,P-GPS,,10.3
356600,2026-01-08 12:34:03,0.0,5,7.615,0.0,0.0,0.0,23.9,6.8,4.9,1024,1024,1024,1024,0,0,0,0,76,4.511,75.2,33.792652,P-GPS,,10.3
356700,2026-01-08 12:34:03,0.0,5,7.615,0.0,0.0,0.0,24.0,7.4,4.7,1024,1024,1024,1024,0,0,0,0,76,4.511,75.2,33.792652,P-GPS,,10.3
356800,2026-01-08 12:34:03,0.0,5,7.615,0.0,0.0,0.0,23.9,6.8,4.1,1024,1024,1024,1024,0,0,0,0,76,4.511,75.2,33.792652,P-GPS,,10.3
356900,2026-01-08 12:34:03,0.0,5,7.615,0.0,0.0,0.0,23.9,5.7,4.1,1024,1024,1024,1024,0,0,0,0,76,4.511,75.2,33.792652,P-GPS,,10.3
357000,2026-01-08 12:34:03,0.0,5,7.615,0.0,0.0,0.0,23.9,5.5,4.2,1024,1024,1024,1024,0,0,0,0,76,4.511,75.2,33.792652,P-GPS,,10.3
357100,2026-01-08 12:34:03,0.0,5,7.615,0.0,0.0,0.0,23.9,5.1,4.5,1024,1024,1024,1024,0,0,0,0,76,4.511,75.2,34.120736,P-GPS,,10.4
357200,2026-01-08 12:34:03,0.0,5,7.623,0.0,0.0,0.0,24.0,5.2,4.8,1024,1024,1024,1024,0,0,0,0,76,4.406,75.2,34.120736,P-GPS,,10.4
357300,2026-01-08 12:34:03,0.0,5,7.623,0.0,0.0,0.0,23.9,4.7,5.2,1024,1024,1024,1024,0,0,0,0,76,4.406,75.2,34.120736,P-GPS,,10.4
357400,2026-01-08 12:34:03,0.0,5,7.623,0.0,0.0,0.0,23.9,6.1,5.4,1024,1024,1024,1024,0,0,0,0,76,4.406,75.2,34.120736,P-GPS,,10.4
357500,2026-01-08 12:34:04,0.223694,5,7.623,0.223694,0.0,0.0,23.9,7.1,5.5,1024,1024,1024,1024,0,0,0,0,76,4.406,75.2,33.792652,P-GPS,,10.3
357600,2026-01-08 12:34:04,0.223694,5,7.623,0.223694,0.0,0.0,24.0,8.1,5.9,1024,1024,1024,1024,0,0,0,0,76,4.406,75.2,33.792652,P-GPS,,10.3
357700,2026-01-08 12:34:04,0.223694,5,7.623,0.223694,0.0,0.0,23.9,8.8,5.4,1024,1024,1024,1024,0,0,0,0,76,4.406,75.2,33.792652,P-GPS,,10.3
357800,2026-01-08 12:34:04,0.0,5,7.623,0.0,0.0,0.0,23.8,8.5,5.1,1024,1024,1024,1024,0,0,0,0,76,4.406,75.2,33.792652,P-GPS,,10.3
357900,2026-01-08 12:34:04,0.0,5,7.623,0.0,0.0,0.0,23.8,8.4,5.1,1024,1024,1024,1024,0,0,0,0,76,4.406,75.2,33.792652,P-GPS,,10.3
358000,2026-01-08 12:34:04,0.0,5,7.623,0.0,0.0,0.0,23.8,8.3,5.2,1024,1024,1024,1024,0,0,0,0,76,4.406,75.2,33.464568,P-GPS,,10.2
358100,2026-01-08 12:34:04,0.0,5,7.623,0.0,0.0,0.0,23.8,8.2,4.7,1024,1024,1024,1024,0,0,0,0,76,4.406,75.2,33.464568,P-GPS,,10.2
358200,2026-01-08 12:34:04,0.0,5,7.623,0.0,0.0,0.0,23.8,8.1,4.8,1024,1024,1024,1024,0,0,0,0,76,4.406,75.2,33.464568,P-GPS,,10.2
358300,2026-01-08 12:34:04,0.0,5,7.617,0.0,0.0,0.0,23.8,8.3,4.8,1024,1024,1024,1024,0,0,0,0,76,4.481,75.2,33.464568,P-GPS,,10.2
358400,2026-01-08 12:34:04,0.0,5,7.617,0.0,0.0,0.0,23.8,8.0,4.9,1024,1024,1024,1024,0,0,0,0,76,4.481,75.2,33.464568,P-GPS,,10.2
358500,2026-01-08 12:34:05,0.0,5,7.617,0.0,0.0,0.0,23.7,8.1,5.2,1024,1024,1024,1024,0,0,0,0,76,4.481,75.2,33.464568,P-GPS,,10.2
358600,2026-01-08 12:34:05,0.0,5,7.617,0.0,0.0,0.0,23.8,8.2,4.8,1024,1024,1024,1024,0,0,0,0,76,4.481,75.2,33.464568,P-GPS,,10.2
358700,2026-01-08 12:34:05,0.0,5,7.617,0.0,0.0,0.0,23.9,7.5,5.0,1024,1024,1024,1024,0,0,0,0,76,4.481,75.2,33.464568,P-GPS,,10.2
358800,2026-01-08 12:34:05,0.0,5,7.617,0.0,0.0,0.0,24.1,8.8,5.6,1024,1024,1024,1024,0,0,0,0,76,4.481,75.2,33.464568,P-GPS,,10.2
358900,2026-01-08 12:34:05,0.0,5,7.617,0.0,0.0,0.0,24.0,8.5,5.4,1024,1024,1024,1024,0,0,0,0,76,4.481,75.2,33.136484,P-GPS,,10.1
359000,2026-01-08 12:34:05,0.0,5,7.617,0.0,0.0,0.0,24.0,8.3,5.4,1024,1024,1024,1024,0,0,0,0,76,4.481,75.2,33.136484,P-GPS,,10.1
359100,2026-01-08 12:34:05,0.0,5,7.617,0.0,0.0,0.0,24.1,8.8,5.2,1024,1024,1024,1024,0,0,0,0,76,4.481,75.2,33.136484,P-GPS,,10.1
359200,2026-01-08 12:34:05,0.0,5,7.617,0.0,0.0,0.0,24.0,8.1,5.2,1024,1024,1024,1024,0,0,0,0,76,4.481,75.2,33.136484,P-GPS,,10.1
359300,2026-01-08 12:34:05,0.0,5,7.617,0.0,0.0,0.0,24.0,7.7,5.5,1024,1024,1024,1024,0,0,0,0,76,4.481,75.2,33.136484,P-GPS,,10.1
359400,2026-01-08 12:34:05,0.0,5,7.631,0.0,0.0,0.0,24.0,7.4,5.5,1024,1024,1024,1024,0,0,0,0,76,4.427,75.38,32.8084,P-GPS,,10.0
359500,2026-01-08 12:34:06,0.0,5,7.631,0.0,0.0,0.0,24.0,7.8,5.2,1024,1024,1024,1024,0,0,0,0,76,4.427,75.38,32.8084,P-GPS,,10.0
359600,2026-01-08 12:34:06,0.0,5,7.631,0.0,0.0,0.0,24.0,7.8,6.0,1024,1024,1024,1024,0,0,0,0,76,4.427,75.38,32.8084,P-GPS,,10.0
359700,2026-01-08 12:34:06,0.0,5,7.631,0.0,0.0,0.0,24.1,9.2,5.1,1024,1024,1024,1024,0,0,0,0,76,4.427,75.38,32.480316,P-GPS,,9.9
359800,2026-01-08 12:34:06,0.0,5,7.631,0.0,0.0,0.0,23.9,8.0,4.5,1024,1024,1024,1024,0,0,0,0,76,4.427,75.38,32.480316,P-GPS,,9.9
359900,2026-01-08 12:34:06,0.0,5,7.631,0.0,0.0,0.0,23.9,7.2,4.7,1024,1024,1024,1024,0,0,0,0,76,4.427,75.38,32.480316,P-GPS,,9.9
360000,2026-01-08 12:34:06,0.0,5,7.631,0.0,0.0,0.0,23.9,7.1,5.0,1024,1024,1024,1024,0,0,0,0,76,4.427,75.38,32.480316,P-GPS,,9.9
360100,2026-01-08 12:34:06,0.0,5,7.631,0.0,0.0,-0.223694,23.8,6.5,5.8,1024,1024,1024,1024,0,0,0,0,76,4.427,75.38,32.480316,P-GPS,,9.9
360200,2026-01-08 12:34:06,0.0,5,7.631,0.0,0.0,0.0,24.0,7.7,5.6,1024,1024,1024,1024,0,0,0,0,76,4.427,75.38,32.152232,P-GPS,,9.8
360300,2026-01-08 12:34:06,0.0,5,7.631,0.0,0.0,0.0,24.0,7.6,5.0,1024,1024,1024,1024,0,0,0,0,76,4.427,75.38,32.152232,P-GPS,,9.8
360400,2026-01-08 12:34:06,0.0,5,7.631,0.0,0.0,0.0,24.1,8.0,5.5,1024,1024,1024,1024,0,0,0,0,76,4.427,75.38,31.824148,P-GPS,,9.7
360500,2026-01-08 12:34:07,0.0,5,7.631,0.0,0.0,0.0,24.1,8.5,6.0,1024,1024,1024,1024,0,0,0,0,76,4.427,75.38,31.824148,P-GPS,,9.7
360600,2026-01-08 12:34:07,0.0,5,7.631,0.0,0.0,0.223694,24.0,8.8,5.0,1024,1024,1024,1024,0,0,0,0,76,4.427,75.38,31.824148,P-GPS,,9.7
360700,2026-01-08 12:34:07,0.0,5,7.631,0.0,0.0,0.0,23.8,8.6,4.5,1024,1024,1024,1024,0,0,0,0,76,4.427,75.38,31.824148,P-GPS,,9.7
360800,2026-01-08 12:34:07,0.0,5,7.631,0.0,0.0,0.0,23.8,8.4,4.3,1024,1024,1024,1024,0,0,0,0,76,4.427,75.38,31.824148,P-GPS,,9.7
360900,2026-01-08 12:34:07,0.0,5,7.631,0.0,0.0,0.0,23.8,8.1,4.5,1024,1024,1024,1024,0,0,0,0,76,4.427,75.38,31.824148,P-GPS,,9.7
361000,2026-01-08 12:34:07,0.0,5,7.631,0.0,0.0,0.0,23.9,7.8,4.5,1024,1024,1024,1024,0,0,0,0,76,4.427,75.38,31.824148,P-GPS,,9.7
361100,2026-01-08 12:34:07,0.0,5,7.631,0.0,0.0,0.0,23.9,7.7,4.7,1024,1024,1024,1024,0,0,0,0,76,4.427,75.38,31.824148,P-GPS,,9.7
361200,2026-01-08 12:34:07,0.0,5,7.631,0.0,0.0,0.0,24.0,7.4,4.9,1024,1024,1024,1024,0,0,0,0,76,4.427,75.38,31.824148,P-GPS,,9.7
361300,2026-01-08 12:34:07,0.0,5,7.631,0.0,0.0,0.0,23.9,7.5,4.6,1024,1024,1024,1024,0,0,0,0,76,4.427,75.38,31.824148,P-GPS,,9.7
361400,2026-01-08 12:34:07,0.0,5,7.631,0.0,0.0,0.0,23.8,6.8,4.7,1024,1024,1024,1024,0,0,0,0,76,4.427,75.38,31.824148,P-GPS,,9.7
361500,2026-01-08 12:34:08,0.0,5,7.631,0.0,0.0,0.0,23.8,6.7,4.6,1024,1024,1024,1024,0,0,0,0,76,4.427,75.38,31.824148,P-GPS,,9.7
361600,2026-01-08 12:34:08,0.0,5,7.65,0.0,0.0,0.0,23.9,7.0,4.5,1024,1024,1024,1024,0,0,0,0,76,4.259,75.38,31.824148,P-GPS,,9.7
361700,2026-01-08 12:34:08,0.0,5,7.65,0.0,0.0,0.0,23.8,7.3,4.0,1024,1024,1024,1024,0,0,0,0,76,4.259,75.38,31.496064,P-GPS,,9.6
361800,2026-01-08 12:34:08,0.0,5,7.65,0.0,0.0,0.0,23.7,7.0,3.8,1024,1024,1024,1024,0,0,0,0,76,4.259,75.38,31.496064,P-GPS,,9.6
361900,2026-01-08 12:34:08,0.0,5,7.65,0.0,0.0,0.0,23.8,7.0,3.8,1024,1024,1024,1024,0,0,0,0,76,4.259,75.38,31.496064,P-GPS,,9.6
362000,2026-01-08 12:34:08,0.0,5,7.65,0.0,0.0,0.0,23.8,7.1,3.6,1024,1024,1024,1024,0,0,0,0,76,4.259,75.38,31.496064,P-GPS,,9.6
362100,2026-01-08 12:34:08,0.0,5,7.65,0.0,0.0,0.0,23.8,7.0,3.4,1024,1024,1024,1024,0,0,0,0,76,4.259,75.38,31.496064,P-GPS,,9.6
362200,2026-01-08 12:34:08,0.0,5,7.65,0.0,0.0,0.0,23.8,6.5,2.9,1024,1024,1024,1024,0,0,0,0,76,4.259,75.38,31.496064,P-GPS,,9.6
362300,2026-01-08 12:34:08,0.0,5,7.65,0.0,0.0,0.0,23.8,6.6,3.2,1024,1024,1024,1024,0,0,0,0,76,4.259,75.38,31.496064,P-GPS,,9.6
362400,2026-01-08 12:34:08,0.0,5,7.65,0.0,0.0,0.0,23.9,6.9,3.6,1024,1024,1024,1024,0,0,0,0,76,4.259,75.38,31.496064,P-GPS,,9.6
362500,2026-01-08 12:34:08,0.0,5,7.65,0.0,0.0,0.0,23.9,7.6,3.6,1024,1024,1024,1024,0,0,0,0,76,4.259,75.38,31.496064,P-GPS,,9.6
362600,2026-01-08 12:34:09,0.0,5,7.65,0.0,0.0,0.0,23.8,8.1,4.0,1024,1024,1024,1024,0,0,0,0,76,4.259,75.38,31.496064,P-GPS,,9.6
362700,2026-01-08 12:34:09,0.0,5,7.619,0.0,0.0,0.0,23.9,8.4,4.3,1024,1024,1024,1024,0,0,0,0,76,4.599,75.38,31.496064,P-GPS,,9.6
362800,2026-01-08 12:34:09,0.0,5,7.619,0.0,0.0,0.0,23.8,7.6,4.2,1024,1024,1202,1024,0,0,27,0,76,4.599,75.38,31.496064,P-GPS,,9.6
362900,2026-01-08 12:34:09,0.0,5,7.619,0.0,0.0,0.0,23.9,7.7,3.9,1024,1024,1684,1024,0,0,100,0,76,4.599,75.38,31.824148,P-GPS,,9.7
363000,2026-01-08 12:34:09,0.0,5,7.619,0.0,0.0,0.0,23.8,7.9,3.7,1024,1024,1684,1024,0,0,100,0,76,4.599,75.38,31.824148,P-GPS,,9.7
363100,2026-01-08 12:34:09,0.0,5,7.619,0.0,0.0,0.0,23.9,7.9,3.0,1024,1024,1684,1024,0,0,100,0,76,4.599,75.38,31.824148,P-GPS,,9.7
363200,2026-01-08 12:34:09,0.0,5,7.619,0.0,0.0,-0.671082,24.0,8.0,2.9,1024,1024,1684,1024,0,0,100,0,76,4.599,75.38,31.824148,P-GPS,,9.7
363300,2026-01-08 12:34:09,0.0,5,7.619,0.0,0.0,-1.565858,24.0,8.4,3.5,1024,1024,1684,1024,0,0,100,0,76,4.599,75.38,32.152232,P-GPS,,9.8
363400,2026-01-08 12:34:09,0.0,5,7.619,0.0,0.0,-2.23694,23.9,8.0,4.1,1024,1024,1684,1024,0,0,100,0,76,4.599,75.38,32.480316,P-GPS,,9.9
363500,2026-01-08 12:34:10,0.0,5,7.619,0.0,0.0,-2.908022,24.1,8.6,4.3,1024,1024,1684,1024,0,0,100,0,76,4.599,75.38,33.136484,P-GPS,,10.1
363600,2026-01-08 12:34:10,0.0,5,7.619,0.0,0.0,-3.579104,24.0,9.6,2.9,1024,1024,1684,1024,0,0,100,0,76,4.599,75.38,33.464568,P-GPS,,10.2
363700,2026-01-08 12:34:10,0.0,5,7.619,0.0,0.0,-4.026492,24.0,10.0,4.3,1024,1024,1684,1024,0,0,100,0,76,4.599,75.38,34.120736,P-GPS,,10.4
363800,2026-01-08 12:34:10,0.0,5,7.475,0.0,0.0,-4.250186,24.1,9.1,4.7,1024,1024,1684,1024,0,0,100,0,76,6.949,75.38,34.776904,P-GPS,,10.6
363900,2026-01-08 12:34:10,0.0,5,7.475,0.0,0.0,-4.47388,24.1,8.1,4.1,1024,1024,1684,1024,0,0,100,0,76,6.949,75.38,35.433072,P-GPS,,10.8
364000,2026-01-08 12:34:10,0.0,5,7.475,0.0,0.0,-4.47388,24.1,8.2,3.7,1024,1024,1684,1024,0,0,100,0,76,6.949,75.38,36.08924,P-GPS,,11.0
364100,2026-01-08 12:34:10,0.0,5,7.475,0.0,0.0,-4.47388,24.1,8.4,2.7,1024,1024,1684,1024,0,0,100,0,76,6.949,75.38,36.745408,P-GPS,,11.2
364200,2026-01-08 12:34:10,0.0,5,7.475,0.0,0.0,-4.250186,24.1,8.5,2.2,1024,1024,1684,1024,0,0,100,0,76,6.949,75.38,37.401576,P-GPS,,11.4
364300,2026-01-08 12:34:10,0.0,5,7.475,0.0,0.0,-4.250186,24.0,8.8,1.6,1024,1024,1684,1024,0,0,100,0,76,6.949,75.38,38.057744,P-GPS,,11.6
364400,2026-01-08 12:34:10,0.0,5,7.475,0.0,0.0,-4.250186,23.9,8.6,1.3,1024,1024,1684,1024,0,0,100,0,76,6.949,75.38,38.385828,P-GPS,,11.7
364500,2026-01-08 12:34:11,0.0,5,7.475,0.0,0.0,-4.250186,23.9,8.6,1.5,1024,1024,1684,1024,0,0,100,0,76,6.949,75.38,39.041996,P-GPS,,11.9
463200,2026-01-08 12:35:49,0.0,5,7.514,0.0,0.0,3.802798,24.2,8.5,7.1,1024,1024,364,1024,0,0,-100,0,70,4.213,77.36,39.041996,P-GPS,,11.9
463300,2026-01-08 12:35:49,0.0,5,7.514,0.0,0.0,3.802798,24.3,7.6,7.2,1024,1024,364,1024,0,0,-100,0,70,4.213,77.36,38.385828,P-GPS,,11.7
463400,2026-01-08 12:35:49,0.0,5,7.514,0.0,0.0,3.802798,24.2,7.6,7.2,1024,1024,364,1024,0,0,-100,0,70,4.213,77.36,38.057744,P-GPS,,11.6
463500,2026-01-08 12:35:50,0.0,5,7.514,0.0,0.0,4.026492,24.3,8.5,6.3,1024,1024,364,1024,0,0,-100,0,70,4.213,77.36,37.401576,P-GPS,,11.4
463600,2026-01-08 12:35:50,0.0,5,7.514,0.0,0.0,4.026492,24.2,7.8,6.5,1024,1024,364,1024,0,0,-100,0,70,4.213,77.36,37.073492,P-GPS,,11.3
463700,2026-01-08 12:35:50,0.0,5,7.514,0.0,0.0,4.026492,24.0,6.8,6.7,1024,1024,364,1024,0,0,-100,0,70,4.213,77.36,36.417324,P-GPS,,11.1
463800,2026-01-08 12:35:50,0.0,5,7.514,0.0,0.0,3.802798,24.0,6.4,6.0,1024,1024,364,1024,0,0,-100,0,70,4.213,77.36,35.761156,P-GPS,,10.9
463900,2026-01-08 12:35:50,0.0,5,7.514,0.0,0.0,3.802798,24.3,7.0,5.8,1024,1024,364,1024,0,0,-100,0,70,4.213,77.36,35.104988,P-GPS,,10.7
464000,2026-01-08 12:35:50,0.0,5,7.514,0.0,0.0,3.802798,24.1,7.1,5.7,1024,1024,364,1024,0,0,-100,0,70,4.213,77.36,34.44882,P-GPS,,10.5
464100,2026-01-08 12:35:50,0.0,5,7.552,0.0,0.0,4.026492,24.0,6.5,5.9,1024,1024,364,1024,0,0,-100,0,70,3.9,77.36,34.120736,P-GPS,,10.4
464200,2026-01-08 12:35:50,0.223694,5,7.552,-0.223694,0.0,4.026492,23.7,5.7,6.4,1024,1024,364,1024,0,0,-100,0,70,3.9,77.36,33.464568,P-GPS,,10.2
464300,2026-01-08 12:35:50,0.0,5,7.552,0.0,0.0,4.026492,23.4,5.1,5.7,1024,1024,364,1024,0,0,-100,0,70,3.9,77.36,32.8084,P-GPS,,10.0
464400,2026-01-08 12:35:50,0.0,5,7.552,0.0,0.0,3.802798,23.6,4.8,6.2,1024,1024,364,1024,0,0,-100,0,70,3.9,77.36,31.824148,P-GPS,,9.7
464500,2026-01-08 12:35:51,0.0,5,7.552,0.0,0.0,3.802798,23.5,5.2,5.2,1024,1024,364,1024,0,0,-100,0,70,3.9,77.36,31.16798,P-GPS,,9.5
464600,2026-01-08 12:35:51,0.0,5,7.552,0.0,0.0,3.579104,23.8,5.9,5.4,1024,1024,364,1024,0,0,-100,0,70,3.9,77.36,30.511812,P-GPS,,9.3
464700,2026-01-08 12:35:51,0.0,5,7.552,0.0,0.0,3.802798,24.1,7.7,3.7,1024,1024,364,1024,0,0,-100,0,70,3.9,77.36,29.855644,P-GPS,,9.1
464800,2026-01-08 12:35:51,0.223694,5,7.552,-0.223694,0.0,4.026492,24.5,5.6,3.6,1024,1024,364,1024,0,0,-100,0,70,3.9,77.36,29.199476,P-GPS,,8.9
464900,2026-01-08 12:35:51,0.223694,5,7.552,-0.223694,0.0,4.250186,24.7,6.3,2.8,1024,1024,364,1024,0,0,-100,0,70,3.9,77.36,28.215224,P-GPS,,8.6
465000,2026-01-08 12:35:51,0.4921268,5,7.552,-0.447388,-0.223694,4.250186,24.7,4.2,3.5,1024,1024,364,1024,0,0,-100,0,70,3.9,77.36,27.559056,P-GPS,,8.4
465100,2026-01-08 12:35:51,0.4921268,5,7.552,-0.447388,-0.223694,4.250186,24.6,2.4,4.4,1024,1024,364,1024,0,0,-100,0,70,3.9,77.36,26.902888,P-GPS,,8.2
