index,time(millisecond),timestamp,speed(mph),gpslevel,voltage(v),xSpeed(mph),ySpeed(mph),zSpeed(mph),compass_heading(degrees),pitch(degrees),roll(degrees),rc_elevator,rc_aileron,rc_throttle,rc_rudder,rc_elevator(percent),rc_aileron(percent),rc_throttle(percent),rc_rudder(percent),battery_percent,current(A),battery_temperature(f),ascent(feet),flycState,message,height_above_takeoff(meters)
575,684000,2026-01-08 12:40:08,0.0,5,7.31,0.0,0.0,0.0,38.9,8.6,5.0,1024,1024,1024,1024,0,0,0,0,55,4.498,80.96,100.393704,P-GPS,,30.6
576,684100,2026-01-08 12:40:08,0.0,5,7.31,0.0,0.0,0.0,38.9,8.2,4.8,1024,1024,1024,1024,0,0,0,0,55,4.498,80.96,100.393704,P-GPS,,30.6
577,684200,2026-01-08 12:40:08,0.0,5,7.31,0.0,0.0,0.0,38.9,8.0,4.7,1024,1024,1024,1024,0,0,0,0,55,4.498,80.96,100.393704,P-GPS,,30.6
578,684300,2026-01-08 12:40:09,0.0,5,7.31,0.0,0.0,0.0,39.0,7.7,4.5,1024,1024,1024,1024,0,0,0,0,55,4.498,80.96,100.721788,P-GPS,,30.7
579,684400,2026-01-08 12:40:09,0.0,5,7.31,0.0,0.0,0.0,39.1,6.8,4.7,1024,1024,1024,1024,0,0,0,0,55,4.498,80.96,100.721788,P-GPS,,30.7
580,684500,2026-01-08 12:40:09,0.0,5,7.31,0.0,0.0,0.0,39.1,6.0,5.0,1024,1024,1024,1024,0,0,0,0,55,4.498,80.96,100.721788,P-GPS,,30.7
581,684600,2026-01-08 12:40:09,0.0,5,7.31,0.0,0.0,-0.223694,39.1,5.9,4.9,1024,1024,1024,1024,0,0,0,0,55,4.498,80.96,101.049872,P-GPS,,30.8
582,684700,2026-01-08 12:40:09,0.0,5,7.31,0.0,0.0,0.0,39.0,5.2,5.3,1024,1024,1024,1024,0,0,0,0,55,4.498,80.96,101.049872,P-GPS,,30.8
583,684800,2026-01-08 12:40:09,0.0,5,7.31,0.0,0.0,0.0,38.9,6.2,4.8,1024,1024,1024,1024,0,0,0,0,55,4.498,80.96,101.049872,P-GPS,,30.8
584,684900,2026-01-08 12:40:09,0.0,5,7.31,0.0,0.0,0.0,38.9,7.5,4.8,1024,1024,1024,1024,0,0,0,0,55,4.498,80.96,101.049872,P-GPS,,30.8
585,685000,2026-01-08 12:40:09,0.0,5,7.31,0.0,0.0,0.0,38.9,7.8,4.8,1024,1024,1024,1024,0,0,0,0,55,4.498,80.96,101.049872,P-GPS,,30.8
586,685100,2026-01-08 12:40:09,0.0,5,7.311,0.0,0.0,0.0,38.8,7.1,5.3,1024,1024,1024,1024,0,0,0,0,55,4.493,80.96,101.049872,P-GPS,,30.8
587,685200,2026-01-08 12:40:10,0.0,5,7.311,0.0,0.0,0.0,38.9,7.9,5.4,1024,1024,1024,1024,0,0,0,0,55,4.493,80.96,101.049872,P-GPS,,30.8
588,685300,2026-01-08 12:40:10,0.0,5,7.311,0.0,0.0,0.0,38.9,8.6,5.8,1024,1024,1024,1024,0,0,0,0,55,4.493,80.96,101.049872,P-GPS,,30.8
589,685400,2026-01-08 12:40:10,0.223694,5,7.311,0.223694,0.0,0.0,39.0,8.9,6.1,1024,1024,1024,1024,0,0,0,0,55,4.493,80.96,101.049872,P-GPS,,30.8
590,685500,2026-01-08 12:40:10,0.0,5,7.311,0.0,0.0,0.0,38.9,9.1,6.3,1024,1024,1024,1024,0,0,0,0,55,4.493,80.96,101.049872,P-GPS,,30.8
591,685600,2026-01-08 12:40:10,0.223694,5,7.311,0.223694,0.0,0.0,38.9,9.7,6.6,1024,1024,1024,1024,0,0,0,0,55,4.493,80.96,101.049872,P-GPS,,30.8
592,685700,2026-01-08 12:40:10,0.223694,5,7.311,0.0,0.0,0.223694,39.0,10.0,6.7,1024,1024,1024,1024,0,0,0,0,55,4.493,80.96,100.721788,P-GPS,,30.7
593,685800,2026-01-08 12:40:10,0.0,5,7.311,0.0,0.0,0.223694,39.0,9.8,6.8,1024,1024,1024,1024,0,0,0,0,55,4.493,80.96,100.721788,P-GPS,,30.7
594,685900,2026-01-08 12:40:10,0.0,5,7.311,0.0,0.0,0.0,39.0,9.8,6.7,1024,1024,1024,1024,0,0,0,0,55,4.493,80.96,100.721788,P-GPS,,30.7
595,686000,2026-01-08 12:40:10,0.0,5,7.311,0.0,0.0,0.0,39.0,10.0,7.0,1024,1024,1024,1024,0,0,0,0,55,4.493,80.96,100.721788,P-GPS,,30.7
596,686100,2026-01-08 12:40:10,0.0,5,7.311,0.0,0.0,0.0,39.0,10.0,6.9,1024,1024,1024,1024,0,0,0,0,55,4.493,80.96,100.721788,P-GPS,,30.7
597,686200,2026-01-08 12:40:11,0.0,5,7.292,0.0,0.0,0.0,39.0,9.5,7.1,1024,1024,1024,1024,0,0,0,0,55,4.518,81.14,100.721788,P-GPS,,30.7
598,686300,2026-01-08 12:40:11,0.0,5,7.292,0.0,0.0,0.0,39.1,9.8,7.3,1024,1024,1024,1024,0,0,0,0,55,4.518,81.14,100.721788,P-GPS,,30.7
599,686400,2026-01-08 12:40:11,0.0,5,7.292,0.0,0.0,0.0,39.2,10.8,6.6,1024,1024,1024,1024,0,0,0,0,55,4.518,81.14,100.721788,P-GPS,,30.7
600,686500,2026-01-08 12:40:11,0.0,5,7.292,0.0,0.0,0.0,39.1,11.0,6.1,1024,1024,1024,1024,0,0,0,0,55,4.518,81.14,100.721788,P-GPS,,30.7
601,686600,2026-01-08 12:40:11,0.0,5,7.292,0.0,0.0,0.0,39.1,9.9,6.4,1024,1024,1024,1024,0,0,0,0,55,4.518,81.14,100.721788,P-GPS,,30.7
602,686700,2026-01-08 12:40:11,0.0,5,7.292,0.0,0.0,0.0,39.4,11.3,5.5,1024,1024,1024,1024,0,0,0,0,55,4.518,81.14,100.393704,P-GPS,,30.6
603,686800,2026-01-08 12:40:11,0.0,5,7.292,0.0,0.0,0.0,39.3,11.4,5.4,1024,1024,1024,1024,0,0,0,0,55,4.518,81.14,100.393704,P-GPS,,30.6
604,686900,2026-01-08 12:40:11,0.0,5,7.292,0.0,0.0,0.0,39.1,10.4,5.5,1024,1024,1024,1024,0,0,0,0,55,4.518,81.14,100.393704,P-GPS,,30.6
605,687000,2026-01-08 12:40:11,0.0,5,7.292,0.0,0.0,0.0,39.2,10.4,5.9,1024,1024,1024,1024,0,0,0,0,55,4.518,81.14,100.393704,P-GPS,,30.6
606,687100,2026-01-08 12:40:11,0.0,5,7.292,0.0,0.0,0.0,39.2,10.0,6.0,1024,1024,1024,1024,0,0,0,0,55,4.518,81.14,100.393704,P-GPS,,30.6
607,687200,2026-01-08 12:40:12,0.0,5,7.292,0.0,0.0,0.0,39.1,8.9,5.5,1024,1024,1024,1024,0,0,0,0,55,4.518,81.14,100.393704,P-GPS,,30.6
608,687300,2026-01-08 12:40:12,0.0,5,7.292,0.0,0.0,0.0,39.1,8.7,6.3,1024,1024,1024,1024,0,0,0,0,55,4.518,81.14,100.393704,P-GPS,,30.6
609,687400,2026-01-08 12:40:12,0.0,5,7.292,0.0,0.0,-0.223694,39.2,8.0,6.9,1024,1024,1024,1024,0,0,0,0,55,4.518,81.14,100.393704,P-GPS,,30.6
610,687500,2026-01-08 12:40:12,0.0,5,7.292,0.0,0.0,0.0,39.3,8.7,7.5,1024,1024,1024,1024,0,0,0,0,55,4.518,81.14,100.393704,P-GPS,,30.6
611,687600,2026-01-08 12:40:12,0.0,5,7.292,0.0,0.0,0.0,39.3,9.1,7.1,1024,1024,1024,1024,0,0,0,0,55,4.518,81.14,100.721788,P-GPS,,30.7
612,687700,2026-01-08 12:40:12,0.223694,5,7.292,0.0,-0.223694,0.0,39.3,8.6,7.4,1024,1024,1024,1024,0,0,0,0,55,4.518,81.14,100.721788,P-GPS,,30.7
613,687800,2026-01-08 12:40:12,0.0,5,7.292,0.0,0.0,0.0,39.1,7.4,8.0,1024,1024,1024,1024,0,0,0,0,55,4.518,81.14,100.721788,P-GPS,,30.7
614,687900,2026-01-08 12:40:12,0.0,5,7.292,0.0,0.0,0.0,39.2,8.0,8.1,1024,1024,1024,1024,0,0,0,0,55,4.518,81.14,100.721788,P-GPS,,30.7
615,688000,2026-01-08 12:40:12,0.0,5,7.292,0.0,0.0,0.0,39.3,9.4,7.7,1024,1024,1024,1024,0,0,0,0,55,4.518,81.14,101.049872,P-GPS,,30.8
616,688100,2026-01-08 12:40:12,0.0,5,7.292,0.0,0.0,0.0,39.2,8.9,7.1,1024,1024,1024,1024,0,0,0,0,55,4.518,81.14,101.049872,P-GPS,,30.8
617,688200,2026-01-08 12:40:13,0.0,5,7.292,0.0,0.0,0.0,39.2,8.0,6.8,1024,1024,1024,1024,0,0,0,0,55,4.518,81.14,101.049872,P-GPS,,30.8
618,688300,2026-01-08 12:40:13,0.0,5,7.304,0.0,0.0,0.0,39.2,7.5,6.8,1024,1024,1024,1024,0,0,0,0,55,4.504,81.14,101.377956,P-GPS,,30.9
619,688400,2026-01-08 12:40:13,0.0,5,7.304,0.0,0.0,0.0,39.2,7.4,6.7,1024,1024,1024,1024,0,0,0,0,55,4.504,81.14,101.377956,P-GPS,,30.9
620,688500,2026-01-08 12:40:13,0.0,5,7.304,0.0,0.0,0.0,39.3,6.6,6.3,1024,1024,1024,1024,0,0,0,0,55,4.504,81.14,101.377956,P-GPS,,30.9
621,688600,2026-01-08 12:40:13,0.0,5,7.304,0.0,0.0,0.0,39.4,7.6,6.7,1024,1024,1024,1024,0,0,0,0,55,4.504,81.14,101.377956,P-GPS,,30.9
622,688700,2026-01-08 12:40:13,0.0,5,7.304,0.0,0.0,0.0,39.2,8.2,6.5,1024,1024,1024,1024,0,0,0,0,55,4.504,81.14,101.70604,P-GPS,SD card speed low SD card speed low. Normal use may be affected. Replace SD card (Code: 10028). Gimbal stuck. Make sure gimbal cover is removed and manually check whether gimbal can rotate freely (Code: 40002),31.0
623,688800,2026-01-08 12:40:13,0.0,5,7.304,0.0,0.0,0.0,39.1,7.8,6.1,1024,1024,1024,1024,0,0,0,0,55,4.504,81.14,101.70604,P-GPS,,31.0
624,688900,2026-01-08 12:40:13,0.0,5,7.304,0.0,0.0,0.0,39.2,8.3,6.9,1024,1024,1024,1024,0,0,0,0,55,4.504,81.14,101.70604,P-GPS,,31.0
625,689000,2026-01-08 12:40:13,0.0,5,7.304,0.0,0.0,0.223694,39.1,8.2,6.7,1024,1024,1024,1024,0,0,0,0,55,4.504,81.14,101.70604,P-GPS,,31.0
626,689100,2026-01-08 12:40:13,0.0,5,7.304,0.0,0.0,0.223694,38.9,7.4,6.3,1024,1024,1024,1024,0,0,0,0,55,4.504,81.14,101.70604,P-GPS,,31.0
627,689200,2026-01-08 12:40:14,0.0,5,7.304,0.0,0.0,0.0,38.7,6.3,5.8,1024,1024,1024,1024,0,0,0,0,55,4.504,81.14,101.70604,P-GPS,,31.0
628,689300,2026-01-08 12:40:14,0.0,5,7.304,0.0,0.0,0.0,38.8,6.3,6.4,1024,1024,1024,1024,0,0,0,0,55,4.504,81.14,101.70604,P-GPS,,31.0
629,689400,2026-01-08 12:40:14,0.0,5,7.304,0.0,0.0,0.0,39.0,7.3,6.4,1024,1024,1024,1024,0,0,0,0,55,4.504,81.14,101.70604,P-GPS,,31.0
630,689500,2026-01-08 12:40:14,0.0,5,7.284,0.0,0.0,0.0,39.1,7.9,6.2,1024,1024,1024,1024,0,0,0,0,55,4.684,81.14,102.034124,P-GPS,,31.1
631,689600,2026-01-08 12:40:14,0.0,5,7.284,0.0,0.0,0.0,39.2,7.6,6.1,1024,1024,1024,1024,0,0,0,0,55,4.684,81.14,102.034124,P-GPS,,31.1
632,689700,2026-01-08 12:40:14,0.0,5,7.284,0.0,0.0,0.0,39.2,7.5,6.2,1024,1024,1024,1024,0,0,0,0,55,4.684,81.14,102.034124,P-GPS,,31.1
633,689800,2026-01-08 12:40:14,0.0,5,7.284,0.0,0.0,0.0,39.2,7.8,6.4,1024,1024,1024,1024,0,0,0,0,55,4.684,81.14,102.034124,P-GPS,,31.1
634,689900,2026-01-08 12:40:14,0.0,5,7.284,0.0,0.0,0.0,39.2,8.4,6.7,1024,1024,1024,1024,0,0,0,0,55,4.684,81.14,102.034124,P-GPS,,31.1
635,690000,2026-01-08 12:40:14,0.0,5,7.284,0.0,0.0,0.0,39.1,7.6,6.5,1024,1024,1024,1024,0,0,0,0,55,4.684,81.14,102.034124,P-GPS,,31.1
636,690100,2026-01-08 12:40:14,0.0,5,7.284,0.0,0.0,0.0,39.2,7.7,6.5,1024,1024,1024,1024,0,0,0,0,55,4.684,81.14,102.034124,P-GPS,,31.1
637,690200,2026-01-08 12:40:15,0.0,5,7.284,0.0,0.0,0.0,39.0,7.2,6.1,1024,1024,1024,1024,0,0,0,0,55,4.684,81.14,102.034124,P-GPS,,31.1
638,690300,2026-01-08 12:40:15,0.0,5,7.284,0.0,0.0,0.0,39.0,6.8,5.8,1024,1024,1024,1024,0,0,0,0,55,4.684,81.14,102.034124,P-GPS,,31.1
639,690400,2026-01-08 12:40:15,0.0,5,7.284,0.0,0.0,0.0,39.0,7.3,5.6,1024,1024,1024,1024,0,0,0,0,55,4.684,81.14,102.034124,P-GPS,,31.1
640,690500,2026-01-08 12:40:15,0.0,5,7.284,0.0,0.0,0.223694,39.0,7.4,5.7,1024,1024,1024,1024,0,0,0,0,55,4.684,81.14,102.034124,P-GPS,,31.1
641,690600,2026-01-08 12:40:15,0.0,5,7.315,0.0,0.0,0.223694,38.9,7.0,5.6,1024,1024,1024,1024,0,0,0,0,55,4.501,81.14,102.034124,P-GPS,,31.1
642,690700,2026-01-08 12:40:15,0.0,5,7.315,0.0,0.0,0.0,38.8,6.7,5.6,1024,1024,1024,1024,0,0,0,0,55,4.501,81.14,102.034124,P-GPS,,31.1
643,690800,2026-01-08 12:40:15,0.0,5,7.315,0.0,0.0,0.0,38.8,6.6,5.6,1024,1024,1024,1024,0,0,0,0,55,4.501,81.14,102.034124,P-GPS,,31.1
644,690900,2026-01-08 12:40:15,0.0,5,7.315,0.0,0.0,0.0,38.9,6.8,5.7,1024,1024,1024,1024,0,0,0,0,55,4.501,81.14,102.034124,P-GPS,,31.1
645,691000,2026-01-08 12:40:15,0.0,5,7.315,0.0,0.0,0.0,38.9,6.4,5.8,1024,1024,1024,1024,0,0,0,0,55,4.501,81.14,102.034124,P-GPS,,31.1
646,691100,2026-01-08 12:40:15,0.0,5,7.315,0.0,0.0,0.0,38.9,6.3,5.9,1024,1024,1024,1024,0,0,0,0,55,4.501,81.14,102.034124,P-GPS,,31.1
647,691200,2026-01-08 12:40:15,0.0,5,7.315,0.0,0.0,0.0,38.9,6.6,6.1,1024,1024,1024,1024,0,0,0,0,55,4.501,81.14,102.034124,P-GPS,,31.1
648,691300,2026-01-08 12:40:16,0.0,5,7.315,0.0,0.0,0.0,38.9,7.4,6.3,1024,1024,1024,1024,0,0,0,0,55,4.501,81.14,102.034124,P-GPS,,31.1
649,691400,2026-01-08 12:40:16,0.0,5,7.315,0.0,0.0,0.0,38.9,7.6,6.0,1024,1024,1024,1024,0,0,0,0,55,4.501,81.14,102.034124,P-GPS,,31.1
650,691500,2026-01-08 12:40:16,0.0,5,7.315,0.0,0.0,0.0,38.8,7.5,6.2,1024,1024,1024,1024,0,0,0,0,55,4.501,81.14,102.034124,P-GPS,,31.1
651,691600,2026-01-08 12:40:16,0.0,5,7.315,0.0,0.0,0.0,38.8,8.0,6.2,1024,1024,1024,1024,0,0,0,0,55,4.501,81.14,102.034124,P-GPS,,31.1
652,691700,2026-01-08 12:40:16,0.0,5,7.309,0.0,0.0,0.0,38.9,8.7,6.3,1024,1024,1024,1024,0,0,0,0,54,4.765,81.14,102.034124,P-GPS,,31.1
653,691800,2026-01-08 12:40:16,0.0,5,7.309,0.0,0.0,0.0,39.0,9.0,6.6,1024,1024,1024,1024,0,0,0,0,54,4.765,81.14,102.034124,P-GPS,,31.1
654,691900,2026-01-08 12:40:16,0.0,5,7.309,0.0,0.0,0.0,38.9,9.5,6.8,1024,1024,1024,1024,0,0,0,0,54,4.765,81.14,102.034124,P-GPS,,31.1
655,692000,2026-01-08 12:40:16,0.0,5,7.309,0.0,0.0,0.0,39.0,9.4,6.7,1024,1024,1024,1024,0,0,0,0,54,4.765,81.14,102.034124,P-GPS,,31.1
656,692100,2026-01-08 12:40:16,0.0,5,7.309,0.0,0.0,0.0,39.0,9.2,6.3,1024,1024,1024,1024,0,0,0,0,54,4.765,81.14,102.034124,P-GPS,,31.1
657,692200,2026-01-08 12:40:17,0.0,5,7.309,0.0,0.0,0.0,38.9,9.2,5.9,1024,1024,1024,1024,0,0,0,0,54,4.765,81.14,101.70604,P-GPS,,31.0
658,692300,2026-01-08 12:40:17,0.0,5,7.309,0.0,0.0,0.0,38.9,9.4,5.9,1024,1024,1024,1024,0,0,0,0,54,4.765,81.14,101.70604,P-GPS,,31.0
659,692400,2026-01-08 12:40:17,0.0,5,7.309,0.0,0.0,0.0,38.9,9.3,5.7,1024,1024,1024,1024,0,0,0,0,54,4.765,81.14,101.70604,P-GPS,,31.0
660,692500,2026-01-08 12:40:17,0.0,5,7.309,0.0,0.0,0.0,38.8,8.7,6.4,1024,1024,1024,1024,0,0,0,0,54,4.765,81.14,101.70604,P-GPS,,31.0
661,692600,2026-01-08 12:40:17,0.0,5,7.309,0.0,0.0,0.0,38.8,8.2,6.1,1024,1024,1024,1024,0,0,0,0,54,4.765,81.14,101.70604,P-GPS,,31.0
662,692700,2026-01-08 12:40:17,0.0,5,7.293,0.0,0.0,0.0,38.9,9.8,5.8,1024,1024,1024,1024,0,0,0,0,54,5.022,81.32,101.70604,P-GPS,,31.0
663,692800,2026-01-08 12:40:17,0.0,5,7.293,0.0,0.0,0.0,39.0,9.6,5.7,1024,1024,1024,1024,0,0,0,0,54,5.022,81.32,101.70604,P-GPS,,31.0
664,692900,2026-01-08 12:40:17,0.0,5,7.293,0.0,0.0,0.0,39.2,10.5,6.6,1024,1024,1024,1024,0,0,0,0,54,5.022,81.32,101.70604,P-GPS,,31.0
665,693000,2026-01-08 12:40:17,0.0,5,7.293,0.0,0.0,0.0,39.1,10.5,7.2,1024,1024,1024,1024,0,0,0,0,54,5.022,81.32,101.70604,P-GPS,,31.0
666,693100,2026-01-08 12:40:17,0.0,5,7.293,0.0,0.0,0.0,39.1,9.6,7.3,1024,1024,1024,1024,0,0,0,0,54,5.022,81.32,101.70604,P-GPS,,31.0
667,693200,2026-01-08 12:40:18,0.0,5,7.293,0.0,0.0,0.0,39.2,10.4,7.9,1024,1024,1024,1024,0,0,0,0,54,5.022,81.32,101.70604,P-GPS,,31.0
668,693300,2026-01-08 12:40:18,0.223694,5,7.293,0.223694,0.0,0.0,39.3,11.2,8.4,1024,1024,1024,1024,0,0,0,0,54,5.022,81.32,102.034124,P-GPS,,31.1
669,693400,2026-01-08 12:40:18,0.0,5,7.293,0.0,0.0,0.0,39.4,11.3,7.6,1024,1024,1024,1024,0,0,0,0,54,5.022,81.32,102.034124,P-GPS,,31.1
670,693500,2026-01-08 12:40:18,0.0,5,7.293,0.0,0.0,0.0,39.3,11.2,7.5,1024,1024,1024,1024,0,0,0,0,54,5.022,81.32,102.034124,P-GPS,,31.1
671,693600,2026-01-08 12:40:18,0.0,5,7.293,0.0,0.0,0.0,39.3,10.8,7.9,1024,1024,1024,1024,0,0,0,0,54,5.022,81.32,102.034124,P-GPS,,31.1
672,693700,2026-01-08 12:40:18,0.0,5,7.293,0.0,0.0,0.0,39.3,10.9,7.9,1024,1024,1024,1024,0,0,0,0,54,5.022,81.32,102.034124,P-GPS,,31.1
673,693800,2026-01-08 12:40:18,0.0,5,7.293,0.0,0.0,0.0,39.3,11.0,7.7,1024,1024,1024,1024,0,0,0,0,54,5.022,81.32,102.034124,P-GPS,,31.1
674,693900,2026-01-08 12:40:18,0.0,5,7.249,0.0,0.0,0.0,39.2,10.8,7.7,1024,1024,1024,1024,0,0,0,0,54,5.858,81.32,102.034124,P-GPS,,31.1
675,694000,2026-01-08 12:40:18,0.0,5,7.249,0.0,0.0,0.0,39.2,10.8,7.7,1024,1024,1024,1024,0,0,0,0,54,5.858,81.32,102.034124,P-GPS,,31.1
676,694100,2026-01-08 12:40:18,0.0,5,7.249,0.0,0.0,0.0,39.2,10.5,7.8,1024,1024,1024,1024,0,0,0,0,54,5.858,81.32,102.362208,P-GPS,,31.2
677,694200,2026-01-08 12:40:19,0.0,5,7.249,0.0,0.0,0.0,39.2,10.6,8.0,1024,1024,1024,1024,0,0,0,0,54,5.858,81.32,102.362208,P-GPS,,31.2
678,694300,2026-01-08 12:40:19,0.0,5,7.249,0.0,0.0,0.0,39.2,10.7,8.1,1024,1024,1024,1024,0,0,0,0,54,5.858,81.32,102.362208,P-GPS,,31.2
679,694400,2026-01-08 12:40:19,0.0,5,7.249,0.0,0.0,0.0,39.2,10.6,8.0,1024,1024,1024,1024,0,0,0,0,54,5.858,81.32,102.362208,P-GPS,,31.2
680,694500,2026-01-08 12:40:19,0.0,5,7.249,0.0,0.0,0.0,39.2,10.8,8.1,1024,1024,1024,1024,0,0,0,0,54,5.858,81.32,102.362208,P-GPS,,31.2
681,694600,2026-01-08 12:40:19,0.0,5,7.249,0.0,0.0,0.223694,39.3,11.0,7.8,1024,1024,1024,1024,0,0,0,0,54,5.858,81.32,102.362208,P-GPS,,31.2
682,694700,2026-01-08 12:40:19,0.0,5,7.249,0.0,0.0,0.0,39.3,10.3,8.0,1024,1024,1024,1024,0,0,0,0,54,5.858,81.32,102.362208,P-GPS,,31.2
683,694800,2026-01-08 12:40:19,0.0,5,7.249,0.0,0.0,0.0,39.2,9.5,7.7,1024,1024,1024,1024,0,0,0,0,54,5.858,81.32,102.362208,P-GPS,,31.2
684,694900,2026-01-08 12:40:19,0.0,5,7.249,0.0,0.0,0.0,39.3,10.8,9.0,1024,1024,1024,1024,0,0,0,0,54,5.858,81.32,102.362208,P-GPS,,31.2
685,695000,2026-01-08 12:40:19,0.0,5,7.213,0.0,0.0,0.0,39.4,11.3,9.0,1024,1024,1024,1024,0,0,0,0,54,6.009,81.5,102.362208,P-GPS,,31.2
686,695100,2026-01-08 12:40:19,0.0,5,7.213,0.0,0.0,0.0,39.3,11.3,8.9,1024,1024,1024,1024,0,0,0,0,54,6.009,81.5,102.362208,P-GPS,,31.2
687,695200,2026-01-08 12:40:20,0.0,5,7.213,0.0,0.0,0.0,39.3,11.2,8.5,1024,1024,1024,1024,0,0,0,0,54,6.009,81.5,102.362208,P-GPS,,31.2
688,695300,2026-01-08 12:40:20,0.0,5,7.213,0.0,0.0,0.0,39.4,11.6,8.2,1024,1024,1024,1024,0,0,0,0,54,6.009,81.5,102.362208,P-GPS,,31.2
689,695400,2026-01-08 12:40:20,0.0,5,7.213,0.0,0.0,0.0,39.2,10.8,8.4,1024,1024,1024,1024,0,0,0,0,54,6.009,81.5,102.034124,P-GPS,,31.1
690,695500,2026-01-08 12:40:20,0.0,5,7.213,0.0,0.0,0.0,39.3,11.0,8.3,1024,1024,1024,1024,0,0,0,0,54,6.009,81.5,102.034124,P-GPS,,31.1
691,695600,2026-01-08 12:40:20,0.0,5,7.213,0.0,0.0,0.0,39.4,11.5,8.0,1024,1024,1024,1024,0,0,0,0,54,6.009,81.5,102.034124,P-GPS,,31.1
692,695700,2026-01-08 12:40:20,0.0,5,7.213,0.0,0.0,0.0,39.3,10.6,8.4,1024,1024,1024,1024,0,0,0,0,54,6.009,81.5,102.034124,P-GPS,,31.1
693,695800,2026-01-08 12:40:20,0.0,5,7.213,0.0,0.0,0.0,39.3,9.9,8.5,1024,1024,1024,1024,0,0,0,0,54,6.009,81.5,102.034124,P-GPS,,31.1
694,695900,2026-01-08 12:40:20,0.0,5,7.213,0.0,0.0,0.0,39.2,9.5,8.0,1024,1024,1024,1024,0,0,0,0,54,6.009,81.5,102.034124,P-GPS,,31.1
695,696000,2026-01-08 12:40:20,0.0,5,7.213,0.0,0.0,0.0,39.1,8.6,7.9,1024,1024,1024,1024,0,0,0,0,54,6.009,81.5,101.70604,P-GPS,,31.0
696,696100,2026-01-08 12:40:20,0.0,5,7.246,0.0,0.0,0.0,39.2,9.2,7.6,1024,1024,1024,1024,0,0,0,0,54,5.368,81.5,101.70604,P-GPS,,31.0
697,696200,2026-01-08 12:40:21,0.0,5,7.246,0.0,0.0,0.0,39.2,8.3,7.4,1024,1024,1024,1024,0,0,0,0,54,5.368,81.5,101.70604,P-GPS,,31.0
698,696300,2026-01-08 12:40:21,0.0,5,7.246,0.0,0.0,-0.223694,39.2,8.1,7.4,1024,1024,1024,1024,0,0,0,0,54,5.368,81.5,101.70604,P-GPS,,31.0
699,696400,2026-01-08 12:40:21,0.0,5,7.246,0.0,0.0,0.0,39.3,8.8,7.4,1024,1024,1024,1024,0,0,0,0,54,5.368,81.5,101.377956,P-GPS,,30.9
700,696500,2026-01-08 12:40:21,0.0,5,7.246,0.0,0.0,0.0,39.2,8.9,7.0,1024,1024,1024,1024,0,0,0,0,54,5.368,81.5,101.377956,P-GPS,,30.9
701,696600,2026-01-08 12:40:21,0.0,5,7.246,0.0,0.0,0.0,39.1,8.6,6.8,1024,1024,1024,1024,0,0,0,0,54,5.368,81.5,101.049872,P-GPS,,30.8
702,696700,2026-01-08 12:40:21,0.223694,5,7.246,-0.223694,0.0,0.0,39.0,7.6,6.0,1024,1024,1024,1024,0,0,0,0,54,5.368,81.5,101.049872,P-GPS,,30.8
703,696800,2026-01-08 12:40:21,0.223694,5,7.246,-0.223694,0.0,0.0,39.1,8.2,5.3,1024,1024,1024,1024,0,0,0,0,54,5.368,81.5,100.721788,P-GPS,,30.7
704,696900,2026-01-08 12:40:21,0.223694,5,7.246,-0.223694,0.0,0.0,39.3,8.0,5.6,1024,1024,1024,1024,0,0,0,0,54,5.368,81.5,100.721788,P-GPS,,30.7
705,697000,2026-01-08 12:40:21,0.223694,5,7.246,-0.223694,0.0,0.0,39.1,7.8,5.8,1024,1024,1024,1024,0,0,0,0,54,5.368,81.5,100.721788,P-GPS,,30.7
706,697100,2026-01-08 12:40:21,0.223694,5,7.246,-0.223694,0.0,0.0,39.1,7.0,4.9,1024,1024,1024,1024,0,0,0,0,54,5.368,81.5,100.721788,P-GPS,,30.7
707,697200,2026-01-08 12:40:22,0.0,5,7.304,0.0,0.0,0.0,39.0,7.0,4.9,1024,1024,1024,1024,0,0,0,0,54,4.297,81.5,100.721788,P-GPS,,30.7
708,697300,2026-01-08 12:40:22,0.0,5,7.304,0.0,0.0,0.0,38.9,6.9,5.2,1024,1024,1024,1024,0,0,0,0,54,4.297,81.5,100.721788,P-GPS,,30.7
709,697400,2026-01-08 12:40:22,0.0,5,7.304,0.0,0.0,0.0,38.9,7.6,5.9,1024,1024,1024,1024,0,0,0,0,54,4.297,81.5,100.393704,P-GPS,,30.6
710,697500,2026-01-08 12:40:22,0.0,5,7.304,0.0,0.0,0.0,39.1,8.7,6.8,1024,1024,1024,1024,0,0,0,0,54,4.297,81.5,100.393704,P-GPS,,30.6
711,697600,2026-01-08 12:40:22,0.223694,5,7.304,0.223694,0.0,0.0,39.2,9.9,7.3,1024,1024,1024,1024,0,0,0,0,54,4.297,81.5,100.393704,P-GPS,,30.6
712,697700,2026-01-08 12:40:22,0.223694,5,7.304,0.223694,0.0,0.0,39.3,9.6,8.1,1024,1024,1024,1024,0,0,0,0,54,4.297,81.5,100.393704,P-GPS,,30.6
713,697800,2026-01-08 12:40:22,0.223694,5,7.304,0.223694,0.0,0.0,39.3,9.3,8.3,1024,1024,1024,1024,0,0,0,0,54,4.297,81.5,100.721788,P-GPS,,30.7
714,697900,2026-01-08 12:40:22,0.223694,5,7.304,0.0,0.0,0.0,39.1,8.2,8.1,1024,1024,1024,1024,0,0,0,0,54,4.297,81.5,100.721788,P-GPS,,30.7
715,698000,2026-01-08 12:40:22,0.0,5,7.304,0.0,0.0,-0.223694,39.4,9.4,8.2,1024,1024,1024,1024,0,0,0,0,54,4.297,81.5,100.721788,P-GPS,,30.7
716,698100,2026-01-08 12:40:22,0.0,5,7.304,0.0,0.0,0.0,39.3,8.2,7.5,1024,1024,1024,1024,0,0,0,0,54,4.297,81.5,100.721788,P-GPS,,30.7
717,698200,2026-01-08 12:40:22,0.0,5,7.304,0.0,0.0,-0.223694,39.4,8.3,7.5,1024,1024,1024,1024,0,0,0,0,54,4.297,81.5,101.049872,P-GPS,,30.8
718,698300,2026-01-08 12:40:23,0.0,5,7.304,0.0,0.0,-0.223694,39.5,8.3,8.0,1024,1024,1024,1024,0,0,0,0,54,4.297,81.5,101.049872,P-GPS,,30.8
719,698400,2026-01-08 12:40:23,0.0,5,7.304,0.0,0.0,-0.223694,39.5,7.9,8.7,1024,1024,1024,1024,0,0,0,0,54,4.297,81.5,101.049872,P-GPS,,30.8
720,698500,2026-01-08 12:40:23,0.0,5,7.304,0.0,0.0,0.0,39.7,8.2,8.8,1024,1024,1024,1024,0,0,0,0,54,4.297,81.5,101.049872,P-GPS,,30.8
721,698600,2026-01-08 12:40:23,0.0,5,7.304,0.0,0.0,0.0,39.6,8.5,9.2,1024,1024,1024,1024,0,0,0,0,54,4.297,81.5,101.049872,P-GPS,,30.8
722,698700,2026-01-08 12:40:23,0.0,5,7.304,0.0,0.0,0.0,39.6,8.9,8.9,1024,1024,1024,1024,0,0,0,0,54,4.297,81.5,101.049872,P-GPS,Strong wind warning Strong wind warning. Aircraft unable to return to home automatically. Lower altitude immediately and return to home manually (Code: 30149). SD card speed low. Normal use may be affected. Replace SD card (Code: 10028). Gimbal stuck. Make sure gimbal c,30.8
723,698800,2026-01-08 12:40:23,0.0,5,7.304,0.0,0.0,0.0,39.5,8.8,9.0,1024,1024,1024,1024,0,0,0,0,54,4.297,81.5,101.049872,P-GPS,,30.8
724,698900,2026-01-08 12:40:23,0.0,5,7.304,0.0,0.0,0.0,39.4,8.2,8.1,1024,1024,1024,1024,0,0,0,0,54,4.297,81.5,101.049872,P-GPS,,30.8
725,699000,2026-01-08 12:40:23,0.0,5,7.304,0.0,0.0,0.0,39.4,7.5,8.5,1024,1024,1024,1024,0,0,0,0,54,4.297,81.5,101.049872,P-GPS,,30.8
726,699100,2026-01-08 12:40:23,0.0,5,7.304,0.0,0.0,0.0,39.6,7.9,8.1,1024,1024,1024,1024,0,0,0,0,54,4.297,81.5,100.721788,P-GPS,,30.7
727,699200,2026-01-08 12:40:24,0.0,5,7.304,0.0,0.0,0.0,39.5,7.9,7.7,1024,1024,1024,1024,0,0,0,0,54,4.297,81.5,100.721788,P-GPS,,30.7
728,699300,2026-01-08 12:40:24,0.0,5,7.268,0.0,0.0,0.0,39.4,8.4,7.9,1024,1024,1024,1024,0,0,0,0,54,4.73,81.5,100.721788,P-GPS,,30.7
729,699400,2026-01-08 12:40:24,0.0,5,7.268,0.0,0.0,0.223694,39.0,7.8,7.4,1024,1024,1024,1024,0,0,0,0,54,4.73,81.5,100.393704,P-GPS,,30.6
730,699500,2026-01-08 12:40:24,0.223694,5,7.268,-0.223694,0.0,0.223694,38.8,5.5,7.3,1024,1024,1024,1024,0,0,0,0,54,4.73,81.5,100.393704,P-GPS,,30.6
731,699600,2026-01-08 12:40:24,0.0,5,7.268,0.0,0.0,0.0,38.9,6.6,7.4,1024,1024,1024,1024,0,0,0,0,54,4.73,81.5,100.393704,P-GPS,,30.6
732,699700,2026-01-08 12:40:24,0.0,5,7.268,0.0,0.0,0.223694,38.8,7.0,6.4,1024,1024,1024,1024,0,0,0,0,54,4.73,81.5,100.06562,P-GPS,,30.5
733,699800,2026-01-08 12:40:24,0.0,5,7.268,0.0,0.0,0.0,38.8,7.7,6.1,1024,1024,1024,1024,0,0,0,0,54,4.73,81.5,100.06562,P-GPS,,30.5
734,699900,2026-01-08 12:40:24,0.0,5,7.268,0.0,0.0,0.0,38.8,7.6,5.9,1024,1024,1024,1024,0,0,0,0,54,4.73,81.5,100.06562,P-GPS,,30.5
735,700000,2026-01-08 12:40:24,0.0,5,7.268,0.0,0.0,0.0,39.0,9.0,6.4,1024,1024,1024,1024,0,0,0,0,54,4.73,81.5,100.393704,P-GPS,,30.6
736,700100,2026-01-08 12:40:24,0.0,5,7.268,0.0,0.0,0.0,39.0,9.1,6.8,1024,1024,1024,1024,0,0,0,0,54,4.73,81.5,100.393704,P-GPS,,30.6
737,700200,2026-01-08 12:40:25,0.0,5,7.268,0.0,0.0,0.0,39.1,8.1,7.4,1024,1024,1024,1024,0,0,0,0,54,4.73,81.5,100.393704,P-GPS,,30.6
738,700300,2026-01-08 12:40:25,0.0,5,7.268,0.0,0.0,0.0,39.2,8.5,7.2,1024,1024,1024,1024,0,0,0,0,54,4.73,81.5,100.721788,P-GPS,,30.7
739,700400,2026-01-08 12:40:25,0.0,5,7.268,0.0,0.0,0.0,39.2,8.9,7.3,1024,1024,1024,1024,0,0,0,0,54,4.73,81.5,100.721788,P-GPS,,30.7
740,700500,2026-01-08 12:40:25,0.0,5,7.269,0.0,0.0,0.0,39.3,9.0,7.4,1024,1024,1024,1024,0,0,0,0,54,4.913,81.5,101.049872,P-GPS,,30.8
741,700600,2026-01-08 12:40:25,0.0,5,7.269,0.0,0.0,0.0,39.2,8.5,7.4,1024,1024,1024,1024,0,0,0,0,54,4.913,81.5,101.049872,P-GPS,,30.8
742,700700,2026-01-08 12:40:25,0.0,5,7.269,0.0,0.0,0.0,39.3,8.8,7.4,1024,1024,1024,1024,0,0,0,0,54,4.913,81.5,101.049872,P-GPS,,30.8
743,700800,2026-01-08 12:40:25,0.0,5,7.269,0.0,0.0,0.0,39.1,8.6,7.1,1024,1024,1024,1024,0,0,0,0,54,4.913,81.5,101.049872,P-GPS,,30.8
744,700900,2026-01-08 12:40:25,0.0,5,7.269,0.0,0.0,0.0,39.1,8.5,6.6,1024,1024,1024,1024,0,0,0,0,54,4.913,81.5,101.049872,P-GPS,,30.8
745,701000,2026-01-08 12:40:25,0.0,5,7.269,0.0,0.0,0.0,39.1,8.9,6.4,1024,1024,1024,1024,0,0,0,0,54,4.913,81.5,101.049872,P-GPS,,30.8
746,701100,2026-01-08 12:40:25,0.0,5,7.269,0.0,0.0,0.0,39.1,9.1,6.3,1024,1024,1024,1024,0,0,0,0,54,4.913,81.5,101.049872,P-GPS,,30.8
747,701200,2026-01-08 12:40:26,0.0,5,7.269,0.0,0.0,0.0,39.0,8.2,5.8,1024,1024,1024,1024,0,0,0,0,54,4.913,81.5,101.049872,P-GPS,,30.8
748,701300,2026-01-08 12:40:26,0.0,5,7.269,0.0,0.0,0.0,39.0,7.5,5.6,1024,1024,1024,1024,0,0,0,0,54,4.913,81.5,101.049872,P-GPS,,30.8
749,701400,2026-01-08 12:40:26,0.0,5,7.269,0.0,0.0,0.0,39.0,7.5,5.5,1024,1024,1024,1024,0,0,0,0,54,4.913,81.5,101.049872,P-GPS,,30.8
750,701500,2026-01-08 12:40:26,0.0,5,7.297,0.0,0.0,0.0,39.1,7.4,5.6,1024,1024,1024,1024,0,0,0,0,54,4.588,81.5,101.049872,P-GPS,,30.8
751,701600,2026-01-08 12:40:26,0.0,5,7.297,0.0,0.0,0.0,39.1,7.4,5.3,1024,1024,1024,1024,0,0,0,0,54,4.588,81.5,101.049872,P-GPS,,30.8
752,701700,2026-01-08 12:40:26,0.0,5,7.297,0.0,0.0,0.0,39.1,7.5,4.9,1024,1024,1024,1024,0,0,0,0,54,4.588,81.5,100.721788,P-GPS,SD card speed low SD card speed low. Normal use may be affected. Replace SD card (Code: 10028). Gimbal stuck. Make sure gimbal cover is removed and manually check whether gimbal can rotate freely (Code: 40002),30.7
753,701800,2026-01-08 12:40:26,0.0,5,7.297,0.0,0.0,0.0,39.0,7.8,5.1,1024,1024,1024,1024,0,0,0,0,54,4.588,81.5,100.721788,P-GPS,,30.7
754,701900,2026-01-08 12:40:26,0.0,5,7.297,0.0,0.0,0.0,38.9,8.1,5.2,1024,1024,1024,1024,0,0,0,0,54,4.588,81.5,100.721788,P-GPS,,30.7
755,702000,2026-01-08 12:40:26,0.0,5,7.297,0.0,0.0,0.0,38.9,8.1,5.3,1024,1024,1024,1024,0,0,0,0,54,4.588,81.5,100.721788,P-GPS,,30.7
756,702100,2026-01-08 12:40:26,0.0,5,7.297,0.0,0.0,0.0,38.8,8.0,5.3,1024,1024,1024,1024,0,0,0,0,54,4.588,81.5,100.721788,P-GPS,,30.7
757,702200,2026-01-08 12:40:27,0.0,5,7.297,0.0,0.0,0.0,38.7,8.0,5.3,1024,1024,1024,1024,0,0,0,0,54,4.588,81.5,100.721788,P-GPS,,30.7
758,702300,2026-01-08 12:40:27,0.0,5,7.297,0.0,0.0,0.0,38.8,7.8,5.3,1024,1024,1024,1024,0,0,0,0,54,4.588,81.5,100.721788,P-GPS,,30.7
759,702400,2026-01-08 12:40:27,0.0,5,7.297,0.0,0.0,0.0,38.8,8.0,5.4,1024,1024,1024,1024,0,0,0,0,54,4.588,81.5,100.721788,P-GPS,,30.7
760,702500,2026-01-08 12:40:27,0.0,5,7.297,0.0,0.0,0.0,38.7,8.5,5.6,1024,1024,1024,1024,0,0,0,0,54,4.588,81.5,100.721788,P-GPS,,30.7
761,702600,2026-01-08 12:40:27,0.0,5,7.297,0.0,0.0,0.0,38.8,8.2,5.5,1024,1024,1024,1024,0,0,0,0,54,4.588,81.5,100.721788,P-GPS,,30.7
762,702700,2026-01-08 12:40:27,0.0,5,7.299,0.0,0.0,0.0,38.8,8.0,5.4,1024,1024,1024,1024,0,0,0,0,54,4.54,81.5,100.721788,P-GPS,,30.7
763,702800,2026-01-08 12:40:27,0.0,5,7.299,0.0,0.0,0.0,38.7,7.1,5.2,1024,1024,1024,1024,0,0,0,0,54,4.54,81.5,100.721788,P-GPS,,30.7
764,702900,2026-01-08 12:40:27,0.0,5,7.299,0.0,0.0,0.0,38.8,7.6,5.5,1024,1024,1024,1024,0,0,0,0,54,4.54,81.5,100.721788,P-GPS,,30.7
765,703000,2026-01-08 12:40:27,0.0,5,7.299,0.0,0.0,0.0,38.9,8.4,5.6,1024,1024,1024,1024,0,0,0,0,54,4.54,81.5,100.721788,P-GPS,,30.7
766,703100,2026-01-08 12:40:27,0.0,5,7.299,0.0,0.0,0.0,38.7,8.0,5.8,1024,1024,1024,1024,0,0,0,0,54,4.54,81.5,100.721788,P-GPS,,30.7
767,703200,2026-01-08 12:40:28,0.0,5,7.299,0.0,0.0,0.0,38.8,8.7,5.8,1024,1024,1024,1024,0,0,0,0,54,4.54,81.5,101.049872,P-GPS,,30.8
768,703300,2026-01-08 12:40:28,0.0,5,7.299,0.0,0.0,0.0,38.8,8.7,6.0,1024,1024,1024,1024,0,0,0,0,54,4.54,81.5,101.049872,P-GPS,,30.8
769,703400,2026-01-08 12:40:28,0.0,5,7.299,0.0,0.0,0.0,38.8,8.7,6.2,1024,1024,1024,1024,0,0,0,0,54,4.54,81.5,101.049872,P-GPS,,30.8
770,703500,2026-01-08 12:40:28,0.0,5,7.299,0.0,0.0,0.0,38.8,8.2,6.3,1024,1024,1024,1024,0,0,0,0,54,4.54,81.5,101.049872,P-GPS,,30.8
771,703600,2026-01-08 12:40:28,0.0,5,7.299,0.0,0.0,0.0,38.9,8.8,6.5,1024,1024,1024,1024,0,0,0,0,54,4.54,81.5,101.049872,P-GPS,,30.8
772,703700,2026-01-08 12:40:28,0.0,5,7.299,0.0,0.0,0.0,38.9,8.8,6.4,1024,1024,1024,1024,0,0,0,0,54,4.54,81.5,101.049872,P-GPS,,30.8
773,703800,2026-01-08 12:40:28,0.0,5,7.279,0.0,0.0,0.0,38.9,9.0,6.2,1024,1024,1024,1024,0,0,0,0,54,4.846,81.68,101.049872,P-GPS,,30.8
774,703900,2026-01-08 12:40:28,0.0,5,7.279,0.0,0.0,0.0,39.1,10.0,6.0,1024,1024,1024,1024,0,0,0,0,54,4.846,81.68,101.049872,P-GPS,,30.8
775,704000,2026-01-08 12:40:28,0.0,5,7.279,0.0,0.0,0.0,39.0,10.3,5.7,1024,1024,1024,1024,0,0,0,0,54,4.846,81.68,101.049872,P-GPS,,30.8
776,704100,2026-01-08 12:40:28,0.0,5,7.279,0.0,0.0,0.0,39.0,9.5,5.3,1024,1024,1024,1024,0,0,0,0,54,4.846,81.68,101.049872,P-GPS,,30.8
777,704200,2026-01-08 12:40:29,0.0,5,7.279,0.0,0.0,0.0,39.0,9.6,4.5,1024,1024,1024,1024,0,0,0,0,54,4.846,81.68,101.049872,P-GPS,,30.8
778,704300,2026-01-08 12:40:29,0.0,5,7.279,0.0,0.0,0.0,38.9,10.1,4.2,1024,1024,1024,1024,0,0,0,0,54,4.846,81.68,101.049872,P-GPS,,30.8
779,704400,2026-01-08 12:40:29,0.0,5,7.279,0.0,0.0,0.0,38.9,10.3,4.8,1024,1024,1024,1024,0,0,0,0,54,4.846,81.68,101.049872,P-GPS,,30.8
780,704500,2026-01-08 12:40:29,0.0,5,7.279,0.0,0.0,0.0,39.0,10.3,5.0,1024,1024,1024,1024,0,0,0,0,54,4.846,81.68,100.721788,P-GPS,,30.7
781,704600,2026-01-08 12:40:29,0.0,5,7.279,0.0,0.0,0.0,39.0,10.4,5.3,1024,1024,1024,1024,0,0,0,0,54,4.846,81.68,100.721788,P-GPS,,30.7
782,704700,2026-01-08 12:40:29,0.0,5,7.279,0.0,0.0,0.0,39.1,11.1,5.9,1024,1024,1024,1024,0,0,0,0,54,4.846,81.68,101.049872,P-GPS,,30.8
783,704800,2026-01-08 12:40:29,0.0,5,7.279,0.0,0.0,0.0,39.1,11.0,6.3,1024,1024,1024,1024,0,0,0,0,54,4.846,81.68,101.049872,P-GPS,,30.8
784,704900,2026-01-08 12:40:29,0.0,5,7.273,0.0,0.0,0.0,39.2,10.9,6.5,1024,1024,1024,1024,0,0,0,0,54,5.144,81.68,101.049872,P-GPS,,30.8
785,705000,2026-01-08 12:40:29,0.0,5,7.273,0.0,0.0,0.0,39.1,10.6,6.9,1024,1024,1024,1024,0,0,0,0,54,5.144,81.68,101.049872,P-GPS,,30.8
786,705100,2026-01-08 12:40:29,0.0,5,7.273,0.0,0.0,0.0,39.2,11.1,7.4,1024,1024,1024,1024,0,0,0,0,54,5.144,81.68,101.377956,P-GPS,,30.9
787,705200,2026-01-08 12:40:29,0.0,5,7.273,0.0,0.0,0.0,39.2,10.8,7.6,1024,1024,1024,1024,0,0,0,0,54,5.144,81.68,101.377956,P-GPS,,30.9
788,705300,2026-01-08 12:40:30,0.0,5,7.273,0.0,0.0,0.0,39.1,10.1,7.7,1024,1024,1024,1024,0,0,0,0,54,5.144,81.68,101.377956,P-GPS,,30.9
789,705400,2026-01-08 12:40:30,0.0,5,7.273,0.0,0.0,0.0,39.2,10.3,7.5,1024,1024,1024,1024,0,0,0,0,54,5.144,81.68,101.70604,P-GPS,,31.0
790,705500,2026-01-08 12:40:30,0.0,5,7.273,0.0,0.0,0.0,39.3,9.7,6.9,1024,1024,1024,1024,0,0,0,0,54,5.144,81.68,101.70604,P-GPS,,31.0
791,705600,2026-01-08 12:40:30,0.0,5,7.273,0.0,0.0,-0.223694,39.2,8.9,7.5,1024,1024,1024,1024,0,0,0,0,54,5.144,81.68,101.70604,P-GPS,,31.0
792,705700,2026-01-08 12:40:30,0.0,5,7.273,0.0,0.0,0.0,39.3,9.3,7.4,1024,1024,1024,1024,0,0,0,0,54,5.144,81.68,102.034124,P-GPS,,31.1
793,705800,2026-01-08 12:40:30,0.0,5,7.273,0.0,0.0,0.0,39.2,8.6,7.4,1024,1024,1024,1024,0,0,0,0,54,5.144,81.68,102.034124,P-GPS,,31.1
794,705900,2026-01-08 12:40:30,0.0,5,7.273,0.0,0.0,0.0,39.2,7.0,7.4,1024,1024,1024,1024,0,0,0,0,54,5.144,81.68,102.034124,P-GPS,,31.1
795,706000,2026-01-08 12:40:30,0.0,5,7.3,0.0,0.0,0.0,39.0,6.4,7.2,1024,1024,1024,1024,0,0,0,0,54,5.066,81.68,102.034124,P-GPS,,31.1
796,706100,2026-01-08 12:40:30,0.0,5,7.3,0.0,0.0,-0.223694,39.2,7.0,7.5,1024,1024,1024,1024,0,0,0,0,54,5.066,81.68,101.70604,P-GPS,,31.0
797,706200,2026-01-08 12:40:31,0.0,5,7.3,0.0,0.0,0.0,39.3,9.0,7.5,1024,1024,1024,1024,0,0,0,0,54,5.066,81.68,101.70604,P-GPS,,31.0
798,706300,2026-01-08 12:40:31,0.0,5,7.3,0.0,0.0,0.0,39.6,9.9,6.5,1024,1024,1024,1024,0,0,0,0,54,5.066,81.68,101.377956,P-GPS,,30.9
799,706400,2026-01-08 12:40:31,0.0,5,7.3,0.0,0.0,0.0,39.6,9.9,6.9,1024,1024,1024,1024,0,0,0,0,54,5.066,81.68,101.377956,P-GPS,,30.9
800,706500,2026-01-08 12:40:31,0.0,5,7.3,0.0,0.0,0.223694,39.4,9.1,6.8,1024,1024,1024,1024,0,0,0,0,54,5.066,81.68,101.377956,P-GPS,,30.9
801,706600,2026-01-08 12:40:31,0.0,5,7.3,0.0,0.0,0.223694,39.4,8.4,6.4,1024,1024,1024,1024,0,0,0,0,54,5.066,81.68,101.049872,P-GPS,,30.8
802,706700,2026-01-08 12:40:31,0.0,5,7.3,0.0,0.0,0.0,39.5,7.9,6.5,1024,1024,1024,1024,0,0,0,0,54,5.066,81.68,101.049872,P-GPS,,30.8
803,706800,2026-01-08 12:40:31,0.0,5,7.3,0.0,0.0,0.0,39.4,7.4,6.8,1024,1024,1024,1024,0,0,0,0,54,5.066,81.68,100.721788,P-GPS,,30.7
804,706900,2026-01-08 12:40:31,0.0,5,7.3,0.0,0.0,0.0,39.3,7.2,7.0,1024,1024,1024,1024,0,0,0,0,54,5.066,81.68,100.721788,P-GPS,,30.7
805,707000,2026-01-08 12:40:31,0.0,5,7.3,0.0,0.0,0.0,39.2,6.8,7.1,1024,1024,1024,1024,0,0,0,0,54,5.066,81.68,100.721788,P-GPS,,30.7
806,707100,2026-01-08 12:40:31,0.0,5,7.326,0.0,0.0,0.0,39.0,7.1,6.8,1024,1024,1024,1024,0,0,0,0,54,3.643,81.68,100.393704,P-GPS,,30.6
807,707200,2026-01-08 12:40:32,0.0,5,7.326,0.0,0.0,0.0,39.0,9.3,6.6,1024,1024,1024,1024,0,0,0,0,54,3.643,81.68,100.393704,P-GPS,,30.6
808,707300,2026-01-08 12:40:32,0.0,5,7.326,0.0,0.0,0.0,38.9,9.7,6.2,1024,1024,1024,1024,0,0,0,0,54,3.643,81.68,100.393704,P-GPS,,30.6
809,707400,2026-01-08 12:40:32,0.0,5,7.326,0.0,0.0,0.0,38.9,10.5,6.5,1024,1024,1024,1024,0,0,0,0,54,3.643,81.68,100.06562,P-GPS,,30.5
810,707500,2026-01-08 12:40:32,0.0,5,7.326,0.0,0.0,0.223694,39.0,10.4,6.3,1024,1024,1024,1024,0,0,0,0,54,3.643,81.68,100.06562,P-GPS,,30.5
811,707600,2026-01-08 12:40:32,0.223694,5,7.326,0.223694,0.0,0.223694,39.0,10.7,6.8,1024,1024,1024,1024,0,0,0,0,54,3.643,81.68,100.06562,P-GPS,,30.5
812,707700,2026-01-08 12:40:32,0.223694,5,7.326,0.223694,0.0,0.0,39.1,12.0,7.6,1024,1024,1024,1024,0,0,0,0,54,3.643,81.68,100.06562,P-GPS,,30.5
813,707800,2026-01-08 12:40:32,0.223694,5,7.326,0.223694,0.0,0.0,39.3,12.4,7.8,1024,1024,1024,1024,0,0,0,0,54,3.643,81.68,100.06562,P-GPS,,30.5
814,707900,2026-01-08 12:40:32,0.223694,5,7.326,0.223694,0.0,0.0,39.3,12.8,7.8,1024,1024,1024,1024,0,0,0,0,54,3.643,81.68,99.737536,P-GPS,,30.4
815,708000,2026-01-08 12:40:32,0.223694,5,7.326,0.223694,0.0,0.0,39.7,14.2,8.0,1024,1024,1024,1024,0,0,0,0,54,3.643,81.68,100.06562,P-GPS,,30.5
816,708100,2026-01-08 12:40:32,0.3131716,5,7.276,0.223694,0.223694,0.0,39.7,13.9,7.3,1024,1024,1024,1024,0,0,0,0,53,4.554,81.68,100.06562,P-GPS,,30.5
817,708200,2026-01-08 12:40:33,0.3131716,5,7.276,0.223694,0.223694,0.0,39.8,14.5,7.4,1024,1024,1024,1024,0,0,0,0,53,4.554,81.68,100.06562,P-GPS,,30.5
818,708300,2026-01-08 12:40:33,0.3131716,5,7.276,0.223694,0.223694,0.0,39.7,15.1,6.9,1024,1024,1024,1024,0,0,0,0,53,4.554,81.68,100.06562,P-GPS,,30.5
819,708400,2026-01-08 12:40:33,0.223694,5,7.276,0.0,0.223694,0.0,39.6,15.0,5.9,1024,1024,1024,1024,0,0,0,0,53,4.554,81.68,100.393704,P-GPS,,30.6
820,708500,2026-01-08 12:40:33,0.223694,5,7.276,0.0,0.223694,0.0,39.5,14.3,5.8,1024,1024,1024,1024,0,0,0,0,53,4.554,81.68,100.393704,P-GPS,,30.6
821,708600,2026-01-08 12:40:33,0.223694,5,7.276,0.0,0.223694,0.0,39.4,14.6,5.7,1024,1024,1024,1024,0,0,0,0,53,4.554,81.68,100.393704,P-GPS,,30.6
822,708700,2026-01-08 12:40:33,0.223694,5,7.276,0.0,0.223694,0.0,39.3,14.1,5.1,1024,1024,1024,1024,0,0,0,0,53,4.554,81.68,100.393704,P-GPS,,30.6
823,708800,2026-01-08 12:40:33,0.0,5,7.276,0.0,0.0,0.0,39.3,13.9,5.0,1024,1024,1024,1024,0,0,0,0,53,4.554,81.68,100.393704,P-GPS,,30.6
824,708900,2026-01-08 12:40:33,0.0,5,7.276,0.0,0.0,0.0,39.2,13.6,5.4,1024,1024,1024,1024,0,0,0,0,53,4.554,81.68,100.393704,P-GPS,,30.6
825,709000,2026-01-08 12:40:33,0.0,5,7.276,0.0,0.0,0.0,39.2,13.7,5.3,1024,1024,1024,1024,0,0,0,0,53,4.554,81.68,100.393704,P-GPS,,30.6
826,709100,2026-01-08 12:40:33,0.0,5,7.276,0.0,0.0,0.0,39.2,13.2,5.5,1024,1024,1024,1024,0,0,0,0,53,4.554,81.68,100.393704,P-GPS,,30.6
827,709200,2026-01-08 12:40:34,0.0,5,7.276,0.0,0.0,0.0,39.2,12.3,5.8,1024,1024,1024,1024,0,0,0,0,53,4.554,81.68,100.393704,P-GPS,,30.6
828,709300,2026-01-08 12:40:34,0.0,5,7.276,0.0,0.0,0.0,39.2,12.7,5.7,1024,1024,1024,1024,0,0,0,0,53,4.554,81.68,100.393704,P-GPS,,30.6
829,709400,2026-01-08 12:40:34,0.0,5,7.276,0.0,0.0,0.0,39.2,12.7,5.7,1024,1024,1024,1024,0,0,0,0,53,4.554,81.68,100.393704,P-GPS,,30.6
830,709500,2026-01-08 12:40:34,0.0,5,7.276,0.0,0.0,0.0,39.2,12.5,6.1,1024,1024,1024,1024,0,0,0,0,53,4.554,81.68,100.393704,P-GPS,,30.6
831,709600,2026-01-08 12:40:34,0.0,5,7.276,0.0,0.0,0.0,39.2,12.3,6.1,1024,1024,1024,1024,0,0,0,0,53,4.554,81.68,100.393704,P-GPS,,30.6
832,709700,2026-01-08 12:40:34,0.0,5,7.276,0.0,0.0,0.0,39.1,12.1,6.4,1024,1024,1024,1024,0,0,0,0,53,4.554,81.68,100.393704,P-GPS,,30.6
833,709800,2026-01-08 12:40:34,0.0,5,7.276,0.0,0.0,0.0,39.1,11.3,6.6,1024,1024,1024,1024,0,0,0,0,53,4.554,81.68,100.393704,P-GPS,,30.6
834,709900,2026-01-08 12:40:34,0.0,5,7.276,0.0,0.0,0.0,39.1,11.3,6.5,1024,1024,1024,1024,0,0,0,0,53,4.554,81.68,100.393704,P-GPS,,30.6
835,710000,2026-01-08 12:40:34,0.0,5,7.276,0.0,0.0,0.0,39.0,10.7,6.1,1024,1024,1024,1024,0,0,0,0,53,4.554,81.68,100.393704,P-GPS,,30.6
