index,time(millisecond),timestamp,speed(mph),gpslevel,voltage(v),xSpeed(mph),ySpeed(mph),zSpeed(mph),compass_heading(degrees),pitch(degrees),roll(degrees),rc_elevator,rc_aileron,rc_throttle,rc_rudder,rc_elevator(percent),rc_aileron(percent),rc_throttle(percent),rc_rudder(percent),battery_percent,current(A),battery_temperature(f),ascent(feet),flycState,message,height_above_takeoff(meters)
81,634600,2026-01-08 12:39:19,0.3131716,5,7.424,0.223694,0.223694,-4.250186,26.0,15.0,5.8,1024,1024,1024,1024,0,0,0,0,59,6.317,80.06,31.824148,P-GPS,,9.7
82,634700,2026-01-08 12:39:19,0.3131716,5,7.424,0.223694,0.223694,-4.250186,26.0,14.3,6.5,1024,1024,1024,1024,0,0,0,0,59,6.317,80.06,32.152232,P-GPS,,9.8
83,634800,2026-01-08 12:39:19,0.447388,5,7.424,0.0,0.447388,-4.026492,25.9,16.8,3.3,1024,1024,1024,1024,0,0,0,0,59,6.317,80.06,32.8084,P-GPS,,10.0
84,634900,2026-01-08 12:39:19,0.447388,5,7.424,0.0,0.447388,-3.802798,25.6,16.3,1.6,1024,1024,1024,1024,0,0,0,0,59,6.317,80.06,33.136484,P-GPS,,10.1
85,635000,2026-01-08 12:39:19,0.447388,5,7.424,0.0,0.447388,-3.35541,25.3,14.5,1.1,1024,1024,1024,1024,0,0,0,0,59,6.317,80.06,33.464568,P-GPS,,10.2
86,635100,2026-01-08 12:39:19,0.223694,5,7.424,0.0,0.223694,-2.908022,25.0,13.5,1.5,1024,1024,1024,1024,0,0,0,0,59,6.317,80.06,33.792652,P-GPS,,10.3
87,635200,2026-01-08 12:39:20,0.223694,5,7.424,0.0,0.223694,-2.460634,25.1,13.9,2.2,1024,1024,1024,1024,0,0,0,0,59,6.317,80.06,34.120736,P-GPS,,10.4
88,635300,2026-01-08 12:39:20,0.223694,5,7.424,0.0,0.223694,-1.789552,25.2,14.5,2.6,1024,1024,1024,1024,0,0,0,0,59,6.317,80.06,34.120736,P-GPS,,10.4
89,635400,2026-01-08 12:39:20,0.223694,5,7.424,0.0,0.223694,-1.11847,25.2,14.6,2.3,1024,1024,1024,1024,0,0,0,0,59,6.317,80.06,34.120736,P-GPS,,10.4
90,635500,2026-01-08 12:39:20,0.0,5,7.325,0.0,0.0,-0.671082,25.3,14.9,2.1,1024,1024,1024,1024,0,0,0,0,59,7.474,80.06,33.792652,P-GPS,,10.3
91,635600,2026-01-08 12:39:20,0.0,5,7.325,0.0,0.0,-0.223694,25.4,14.6,2.5,1024,1024,1024,1024,0,0,0,0,59,7.474,80.06,33.792652,P-GPS,,10.3
92,635700,2026-01-08 12:39:20,0.0,5,7.325,0.0,0.0,0.0,25.2,12.7,1.5,1024,1024,1024,1024,0,0,0,0,59,7.474,80.06,33.464568,P-GPS,,10.2
93,635800,2026-01-08 12:39:20,0.0,5,7.325,0.0,0.0,0.0,25.3,12.4,2.5,1024,1024,1024,1024,0,0,0,0,59,7.474,80.06,33.464568,P-GPS,,10.2
94,635900,2026-01-08 12:39:20,0.223694,5,7.325,-0.223694,0.0,0.0,25.4,10.9,2.5,1024,1024,1024,1684,0,0,0,100,59,7.474,80.06,33.136484,P-GPS,,10.1
95,636000,2026-01-08 12:39:20,0.223694,5,7.325,-0.223694,0.0,0.0,25.4,9.5,3.7,1024,1024,1024,1024,0,0,0,0,59,7.474,80.06,33.136484,P-GPS,,10.1
96,636100,2026-01-08 12:39:20,0.0,5,7.325,0.0,0.0,-0.223694,25.7,9.7,4.1,1024,1024,1024,1024,0,0,0,0,59,7.474,80.06,32.8084,P-GPS,,10.0
97,636200,2026-01-08 12:39:20,0.0,5,7.325,0.0,0.0,-0.223694,36.4,10.5,4.7,1024,1024,1024,1024,0,0,0,0,59,7.474,80.06,32.8084,P-GPS,,10.0
98,636300,2026-01-08 12:39:21,0.223694,5,7.325,-0.223694,0.0,-0.223694,39.1,9.0,6.4,1024,1024,1024,1024,0,0,0,0,59,7.474,80.06,32.480316,P-GPS,,9.9
99,636400,2026-01-08 12:39:21,0.223694,5,7.325,-0.223694,0.0,-0.223694,38.9,8.7,4.5,1024,1024,1024,1024,0,0,0,0,59,7.474,80.06,32.152232,P-GPS,,9.8
100,636500,2026-01-08 12:39:21,0.223694,5,7.325,-0.223694,0.0,-0.223694,38.8,10.3,3.6,1024,1024,1024,1024,0,0,0,0,59,7.474,80.06,32.152232,P-GPS,,9.8
101,636600,2026-01-08 12:39:21,0.223694,5,7.344,-0.223694,0.0,0.0,38.7,9.4,2.9,1024,1024,1024,1024,0,0,0,0,58,5.924,80.06,31.824148,P-GPS,,9.7
102,636700,2026-01-08 12:39:21,0.223694,5,7.344,-0.223694,0.0,0.0,38.6,7.8,2.6,1024,1024,1024,1024,0,0,0,0,58,5.924,80.06,31.496064,P-GPS,,9.6
103,636800,2026-01-08 12:39:21,0.223694,5,7.344,-0.223694,0.0,0.0,38.6,9.3,1.5,1024,1024,1024,1024,0,0,0,0,58,5.924,80.06,31.16798,P-GPS,,9.5
104,636900,2026-01-08 12:39:21,0.223694,5,7.344,-0.223694,0.0,0.0,38.5,8.4,1.3,1024,1024,1024,1024,0,0,0,0,58,5.924,80.06,30.839896,P-GPS,,9.4
105,637000,2026-01-08 12:39:21,0.223694,5,7.344,-0.223694,0.0,0.0,38.5,8.8,1.5,1024,1024,1024,1024,0,0,0,0,58,5.924,80.06,30.511812,P-GPS,,9.3
106,637100,2026-01-08 12:39:21,0.223694,5,7.344,-0.223694,0.0,0.0,38.6,9.0,1.7,1024,1024,1024,1024,0,0,0,0,58,5.924,80.06,30.511812,P-GPS,,9.3
107,637200,2026-01-08 12:39:22,0.223694,5,7.344,-0.223694,0.0,0.0,38.5,9.3,0.3,1024,1024,1024,1024,0,0,0,0,58,5.924,80.06,30.183728,P-GPS,,9.2
108,637300,2026-01-08 12:39:22,0.0,5,7.344,0.0,0.0,0.0,38.7,8.8,0.6,1024,1024,1024,1024,0,0,0,0,58,5.924,80.06,29.855644,P-GPS,,9.1
109,637400,2026-01-08 12:39:22,0.0,5,7.344,0.0,0.0,0.0,38.6,8.6,0.4,1024,1024,1024,1024,0,0,0,0,58,5.924,80.06,29.855644,P-GPS,,9.1
110,637500,2026-01-08 12:39:22,0.0,5,7.344,0.0,0.0,0.0,38.6,8.4,0.5,1024,1024,1024,1024,0,0,0,0,58,5.924,80.06,29.52756,P-GPS,,9.0
111,637600,2026-01-08 12:39:22,0.0,5,7.344,0.0,0.0,-0.223694,38.7,7.4,1.2,1024,1024,1024,1024,0,0,0,0,58,5.924,80.06,29.52756,P-GPS,,9.0
112,637700,2026-01-08 12:39:22,0.0,5,7.366,0.0,0.0,-0.223694,38.8,8.4,1.4,1024,1024,1024,1024,0,0,0,0,58,5.092,80.06,29.199476,P-GPS,,8.9
113,637800,2026-01-08 12:39:22,0.0,5,7.366,0.0,0.0,0.0,38.9,8.5,1.2,1024,1024,1024,1024,0,0,0,0,58,5.092,80.06,28.871392,P-GPS,,8.8
114,637900,2026-01-08 12:39:22,0.0,5,7.366,0.0,0.0,0.0,39.0,8.3,1.2,1024,1024,1024,1024,0,0,0,0,58,5.092,80.06,28.871392,P-GPS,,8.8
115,638000,2026-01-08 12:39:22,0.0,5,7.366,0.0,0.0,0.0,39.1,8.7,0.9,1024,1024,1024,1024,0,0,0,0,58,5.092,80.06,28.871392,P-GPS,,8.8
116,638100,2026-01-08 12:39:22,0.0,5,7.366,0.0,0.0,0.0,39.0,9.6,1.7,1024,1024,1024,1024,0,0,0,0,58,5.092,80.06,28.543308,P-GPS,,8.7
117,638200,2026-01-08 12:39:22,0.0,5,7.366,0.0,0.0,0.0,38.8,9.8,1.0,1024,1024,1024,1024,0,0,0,0,58,5.092,80.06,28.543308,P-GPS,,8.7
118,638300,2026-01-08 12:39:23,0.0,5,7.366,0.0,0.0,0.0,38.6,10.2,1.5,1024,1024,1024,1024,0,0,0,0,58,5.092,80.06,28.543308,P-GPS,,8.7
119,638400,2026-01-08 12:39:23,0.0,5,7.366,0.0,0.0,0.0,38.9,10.6,3.4,1024,1024,1024,1024,0,0,0,0,58,5.092,80.06,28.215224,P-GPS,,8.6
120,638500,2026-01-08 12:39:23,0.0,5,7.366,0.0,0.0,0.0,39.1,10.2,3.4,1024,1024,1024,1024,0,0,0,0,58,5.092,80.06,28.215224,P-GPS,,8.6
121,638600,2026-01-08 12:39:23,0.0,5,7.366,0.0,0.0,0.0,39.0,8.6,2.6,1024,1024,1024,1024,0,0,0,0,58,5.092,80.06,28.215224,P-GPS,,8.6
122,638700,2026-01-08 12:39:23,0.0,5,7.366,0.0,0.0,0.0,38.8,8.4,2.0,1024,1024,1024,1024,0,0,0,0,58,5.092,80.06,28.215224,P-GPS,,8.6
123,638800,2026-01-08 12:39:23,0.0,5,7.394,0.0,0.0,0.0,38.8,7.7,1.7,1024,1024,1024,1024,0,0,0,0,58,4.624,80.06,28.215224,P-GPS,,8.6
124,638900,2026-01-08 12:39:23,0.0,5,7.394,0.0,0.0,0.0,38.7,6.4,1.4,1024,1024,1024,1024,0,0,0,0,58,4.624,80.06,28.215224,P-GPS,,8.6
125,639000,2026-01-08 12:39:23,0.0,5,7.394,0.0,0.0,0.0,38.6,6.3,1.2,1024,1024,1024,1024,0,0,0,0,58,4.624,80.06,28.215224,P-GPS,,8.6
126,639100,2026-01-08 12:39:23,0.0,5,7.394,0.0,0.0,0.0,38.8,6.4,2.1,1024,1024,1024,1024,0,0,0,0,58,4.624,80.06,28.215224,P-GPS,,8.6
127,639200,2026-01-08 12:39:24,0.0,5,7.394,0.0,0.0,-0.223694,38.7,5.1,1.4,1024,1024,1024,1024,0,0,0,0,58,4.624,80.06,28.215224,P-GPS,,8.6
128,639300,2026-01-08 12:39:24,0.0,5,7.394,0.0,0.0,-0.223694,38.5,3.8,1.8,1024,1024,1024,1024,0,0,0,0,58,4.624,80.06,28.215224,P-GPS,,8.6
129,639400,2026-01-08 12:39:24,0.0,5,7.394,0.0,0.0,0.0,38.6,6.1,1.7,1024,1024,1024,1024,0,0,0,0,58,4.624,80.06,27.88714,P-GPS,,8.5
130,639500,2026-01-08 12:39:24,0.0,5,7.394,0.0,0.0,0.0,38.6,5.9,1.8,1024,1024,1024,1024,0,0,0,0,58,4.624,80.06,27.88714,P-GPS,,8.5
131,639600,2026-01-08 12:39:24,0.0,5,7.394,0.0,0.0,0.0,38.5,5.3,2.5,1024,1024,1024,1024,0,0,0,0,58,4.624,80.06,27.88714,P-GPS,,8.5
132,639700,2026-01-08 12:39:24,0.0,5,7.394,0.0,0.0,0.0,38.6,5.9,2.9,1024,1024,1024,1024,0,0,0,0,58,4.624,80.06,27.88714,P-GPS,,8.5
133,639800,2026-01-08 12:39:24,0.0,5,7.394,0.0,0.0,0.0,38.7,6.3,2.6,1024,1024,1024,1024,0,0,0,0,58,4.624,80.06,27.88714,P-GPS,,8.5
134,639900,2026-01-08 12:39:24,0.223694,5,7.421,0.0,-0.223694,0.0,38.9,5.5,2.3,1024,1024,1024,1024,0,0,0,0,58,3.906,80.06,27.88714,P-GPS,,8.5
135,640000,2026-01-08 12:39:24,0.3131716,5,7.421,-0.223694,-0.223694,0.0,39.1,4.4,2.7,1024,1024,1024,1024,0,0,0,0,58,3.906,80.06,27.88714,P-GPS,,8.5
136,640100,2026-01-08 12:39:24,0.3131716,5,7.421,-0.223694,-0.223694,0.0,39.0,4.0,3.1,1024,1024,1024,1024,0,0,0,0,58,3.906,80.06,27.88714,P-GPS,,8.5
137,640200,2026-01-08 12:39:25,0.3131716,5,7.421,-0.223694,-0.223694,0.0,38.9,3.9,3.8,1024,1024,1024,1024,0,0,0,0,58,3.906,80.06,27.88714,P-GPS,,8.5
138,640300,2026-01-08 12:39:25,0.3131716,5,7.421,-0.223694,-0.223694,0.0,38.8,1.9,3.6,1024,1024,1024,1024,0,0,0,0,58,3.906,80.06,27.88714,P-GPS,,8.5
139,640400,2026-01-08 12:39:25,0.3131716,5,7.421,-0.223694,-0.223694,0.0,38.8,2.0,2.5,1024,1024,1024,1024,0,0,0,0,58,3.906,80.06,27.88714,P-GPS,,8.5
140,640500,2026-01-08 12:39:25,0.3131716,5,7.421,-0.223694,-0.223694,0.0,38.7,1.5,2.3,1024,1024,1024,1024,0,0,0,0,58,3.906,80.06,27.88714,P-GPS,,8.5
141,640600,2026-01-08 12:39:25,0.223694,5,7.421,-0.223694,0.0,0.0,38.5,1.0,2.3,1024,1024,1024,1024,0,0,0,0,58,3.906,80.06,27.88714,P-GPS,,8.5
142,640700,2026-01-08 12:39:25,0.223694,5,7.421,-0.223694,0.0,0.0,38.5,-1.1,3.5,1024,1024,1024,1024,0,0,0,0,58,3.906,80.06,27.88714,P-GPS,,8.5
143,640800,2026-01-08 12:39:25,0.0,5,7.421,0.0,0.0,0.0,38.4,1.9,3.3,1024,1024,1024,1024,0,0,0,0,58,3.906,80.06,27.88714,P-GPS,,8.5
144,640900,2026-01-08 12:39:25,0.0,5,7.421,0.0,0.0,0.0,38.4,4.1,2.6,1024,1024,1024,1024,0,0,0,0,58,3.906,80.06,28.215224,P-GPS,,8.6
145,641000,2026-01-08 12:39:25,0.0,5,7.415,0.0,0.0,0.0,38.4,4.7,2.5,1024,1024,1024,1024,0,0,0,0,58,3.43,80.06,28.215224,P-GPS,,8.6
146,641100,2026-01-08 12:39:25,0.0,5,7.415,0.0,0.0,0.0,38.5,5.2,3.1,1024,1024,1024,1024,0,0,0,0,58,3.43,80.06,28.215224,P-GPS,,8.6
147,641200,2026-01-08 12:39:26,0.0,5,7.415,0.0,0.0,0.0,38.5,5.8,3.4,1024,1024,1024,1024,0,0,0,0,58,3.43,80.06,28.215224,P-GPS,,8.6
148,641300,2026-01-08 12:39:26,0.0,5,7.415,0.0,0.0,0.0,38.5,6.2,3.0,1024,1024,1024,1024,0,0,0,0,58,3.43,80.06,28.543308,P-GPS,,8.7
149,641400,2026-01-08 12:39:26,0.0,5,7.415,0.0,0.0,0.0,38.5,6.7,1.8,1024,1024,1024,1024,0,0,0,0,58,3.43,80.06,28.543308,P-GPS,,8.7
150,641500,2026-01-08 12:39:26,0.0,5,7.415,0.0,0.0,0.0,38.5,6.5,1.6,1024,1024,1024,1024,0,0,0,0,58,3.43,80.06,28.543308,P-GPS,,8.7
151,641600,2026-01-08 12:39:26,0.0,5,7.415,0.0,0.0,0.0,38.6,6.3,1.1,1024,1024,1024,1024,0,0,0,0,58,3.43,80.06,28.871392,P-GPS,,8.8
152,641700,2026-01-08 12:39:26,0.0,5,7.415,0.0,0.0,0.0,38.8,6.6,1.3,1024,1024,1024,1024,0,0,0,0,58,3.43,80.06,28.871392,P-GPS,,8.8
153,641800,2026-01-08 12:39:26,0.0,5,7.415,0.0,0.0,0.0,38.8,4.5,1.4,1024,1024,1024,1024,0,0,0,0,58,3.43,80.06,29.199476,P-GPS,,8.9
154,641900,2026-01-08 12:39:26,0.0,5,7.415,0.0,0.0,-0.223694,38.5,3.4,0.9,1024,1024,1024,1024,0,0,0,0,58,3.43,80.06,29.199476,P-GPS,,8.9
155,642000,2026-01-08 12:39:26,0.223694,5,7.415,0.223694,0.0,-0.223694,38.5,4.1,1.6,1024,1024,1024,1024,0,0,0,0,58,3.43,80.06,29.199476,P-GPS,,8.9
156,642100,2026-01-08 12:39:26,0.223694,5,7.398,0.223694,0.0,-0.223694,38.3,6.8,1.9,1024,1024,1024,1024,0,0,0,0,58,4.295,80.06,29.52756,P-GPS,,9.0
157,642200,2026-01-08 12:39:27,0.223694,5,7.398,0.223694,0.0,0.0,38.5,8.6,3.0,1024,1024,1024,1024,0,0,0,0,58,4.295,80.06,29.52756,P-GPS,,9.0
158,642300,2026-01-08 12:39:27,0.223694,5,7.398,0.223694,0.0,0.0,38.5,8.0,4.1,1024,1024,1024,1024,0,0,0,0,58,4.295,80.06,29.52756,P-GPS,,9.0
159,642400,2026-01-08 12:39:27,0.223694,5,7.398,0.223694,0.0,0.0,39.0,9.4,4.6,1024,1024,1024,1024,0,0,0,0,58,4.295,80.06,29.52756,P-GPS,,9.0
160,642500,2026-01-08 12:39:27,0.223694,5,7.398,0.223694,0.0,0.0,39.0,8.7,4.5,1024,1024,1024,1024,0,0,0,0,58,4.295,80.06,29.52756,P-GPS,,9.0
161,642600,2026-01-08 12:39:27,0.223694,5,7.398,0.223694,0.0,0.0,39.1,9.3,4.5,1024,1024,1024,1024,0,0,0,0,58,4.295,80.06,29.52756,P-GPS,,9.0
162,642700,2026-01-08 12:39:27,0.0,5,7.398,0.0,0.0,0.0,39.0,10.3,3.7,1024,1024,1024,1024,0,0,0,0,58,4.295,80.06,29.52756,P-GPS,,9.0
163,642800,2026-01-08 12:39:27,0.0,5,7.398,0.0,0.0,0.0,38.8,10.0,2.7,1024,1024,1024,1024,0,0,0,0,58,4.295,80.06,29.52756,P-GPS,,9.0
164,642900,2026-01-08 12:39:27,0.0,5,7.398,0.0,0.0,0.0,38.6,9.4,2.2,1024,1024,1024,1024,0,0,0,0,58,4.295,80.06,29.52756,P-GPS,,9.0
165,643000,2026-01-08 12:39:27,0.0,5,7.398,0.0,0.0,0.0,38.5,9.5,2.3,1024,1024,1024,1024,0,0,0,0,58,4.295,80.06,29.52756,P-GPS,,9.0
166,643100,2026-01-08 12:39:27,0.0,5,7.398,0.0,0.0,0.0,38.6,9.8,2.4,1024,1024,1024,1024,0,0,0,0,58,4.295,80.06,29.855644,P-GPS,,9.1
167,643200,2026-01-08 12:39:27,0.0,5,7.38,0.0,0.0,0.0,38.7,9.3,2.9,1024,1024,1024,1024,0,0,0,0,58,4.33,80.06,29.855644,P-GPS,,9.1
168,643300,2026-01-08 12:39:28,0.0,5,7.38,0.0,0.0,0.0,38.8,8.5,3.6,1024,1024,1024,1024,0,0,0,0,58,4.33,80.06,30.183728,P-GPS,,9.2
169,643400,2026-01-08 12:39:28,0.0,5,7.38,0.0,0.0,0.0,38.8,8.1,3.9,1024,1024,1024,1024,0,0,0,0,58,4.33,80.06,30.183728,P-GPS,,9.2
170,643500,2026-01-08 12:39:28,0.0,5,7.38,0.0,0.0,0.0,38.8,7.8,3.5,1024,1024,1024,1024,0,0,0,0,58,4.33,80.06,30.511812,P-GPS,,9.3
171,643600,2026-01-08 12:39:28,0.0,5,7.38,0.0,0.0,0.0,38.8,8.1,3.4,1024,1024,1024,1024,0,0,0,0,58,4.33,80.06,30.511812,P-GPS,,9.3
172,643700,2026-01-08 12:39:28,0.0,5,7.38,0.0,0.0,0.0,38.8,8.7,3.3,1024,1024,1024,1024,0,0,0,0,58,4.33,80.06,30.511812,P-GPS,,9.3
173,643800,2026-01-08 12:39:28,0.0,5,7.38,0.0,0.0,0.0,38.7,8.5,3.5,1024,1024,1024,1024,0,0,0,0,58,4.33,80.06,30.839896,P-GPS,,9.4
174,643900,2026-01-08 12:39:28,0.0,5,7.38,0.0,0.0,0.0,38.7,8.7,3.4,1024,1024,1024,1024,0,0,0,0,58,4.33,80.06,30.839896,P-GPS,,9.4
175,644000,2026-01-08 12:39:28,0.0,5,7.38,0.0,0.0,0.0,38.7,9.1,3.8,1024,1024,1024,1024,0,0,0,0,58,4.33,80.06,30.839896,P-GPS,,9.4
176,644100,2026-01-08 12:39:28,0.0,5,7.38,0.0,0.0,0.0,38.8,9.4,4.0,1024,1024,1024,1024,0,0,0,0,58,4.33,80.06,31.16798,P-GPS,,9.5
177,644200,2026-01-08 12:39:29,0.0,5,7.38,0.0,0.0,0.0,38.8,9.8,4.1,1024,1024,1024,1024,0,0,0,0,58,4.33,80.06,31.16798,P-GPS,,9.5
178,644300,2026-01-08 12:39:29,0.0,5,7.38,0.0,0.0,0.0,38.8,9.6,4.6,1024,1024,1024,1024,0,0,0,0,58,4.33,80.06,31.16798,P-GPS,,9.5
179,644400,2026-01-08 12:39:29,0.0,5,7.38,0.0,0.0,0.0,38.9,10.0,4.8,1024,1024,1024,1024,0,0,0,0,58,4.33,80.06,31.496064,P-GPS,,9.6
180,644500,2026-01-08 12:39:29,0.0,5,7.38,0.0,0.0,0.0,38.9,10.0,4.7,1024,1024,1024,1024,0,0,0,0,58,4.33,80.06,31.496064,P-GPS,,9.6
181,644600,2026-01-08 12:39:29,0.0,5,7.38,0.0,0.0,0.0,38.9,9.3,4.8,1024,1024,1024,1024,0,0,0,0,58,4.33,80.06,31.496064,P-GPS,,9.6
182,644700,2026-01-08 12:39:29,0.0,5,7.38,0.0,0.0,-0.223694,38.9,8.8,5.6,1024,1024,1024,1024,0,0,0,0,58,4.33,80.06,31.496064,P-GPS,,9.6
183,644800,2026-01-08 12:39:29,0.0,5,7.38,0.0,0.0,0.0,39.0,9.1,5.3,1024,1024,1024,1024,0,0,0,0,58,4.33,80.06,31.824148,P-GPS,,9.7
184,644900,2026-01-08 12:39:29,0.0,5,7.38,0.0,0.0,0.0,39.0,9.2,5.5,1024,1024,1024,1024,0,0,0,0,58,4.33,80.06,31.824148,P-GPS,,9.7
185,645000,2026-01-08 12:39:29,0.0,5,7.38,0.0,0.0,0.0,39.1,9.3,5.6,1024,1024,1024,1024,0,0,0,0,58,4.33,80.06,31.824148,P-GPS,,9.7
186,645100,2026-01-08 12:39:29,0.0,5,7.38,0.0,0.0,0.0,38.9,9.1,5.0,1024,1024,1024,1024,0,0,0,0,58,4.33,80.06,31.824148,P-GPS,,9.7
187,645200,2026-01-08 12:39:29,0.0,5,7.38,0.0,0.0,0.0,38.9,8.6,5.5,1024,1024,1024,1024,0,0,0,0,58,4.33,80.06,31.824148,P-GPS,,9.7
188,645300,2026-01-08 12:39:30,0.0,5,7.366,0.0,0.0,0.0,38.9,8.2,6.0,1024,1024,1024,1024,0,0,0,0,58,4.978,80.06,31.824148,P-GPS,,9.7
189,645400,2026-01-08 12:39:30,0.0,5,7.366,0.0,0.0,0.0,39.1,9.0,6.2,1024,1024,1024,1024,0,0,0,0,58,4.978,80.06,31.824148,P-GPS,,9.7
190,645500,2026-01-08 12:39:30,0.0,5,7.366,0.0,0.0,0.0,39.2,9.5,6.8,1024,1024,1024,1024,0,0,0,0,58,4.978,80.06,31.824148,P-GPS,,9.7
191,645600,2026-01-08 12:39:30,0.0,5,7.366,0.0,0.0,0.0,39.1,8.3,7.1,1024,1024,1024,1024,0,0,0,0,58,4.978,80.06,31.824148,P-GPS,,9.7
192,645700,2026-01-08 12:39:30,0.0,5,7.366,0.0,0.0,0.0,38.9,7.4,7.2,1024,1024,1024,1024,0,0,0,0,58,4.978,80.06,31.824148,P-GPS,,9.7
193,645800,2026-01-08 12:39:30,0.0,5,7.366,0.0,0.0,0.0,39.0,7.9,7.0,1024,1024,1024,1024,0,0,0,0,58,4.978,80.06,31.824148,P-GPS,,9.7
194,645900,2026-01-08 12:39:30,0.0,5,7.366,0.0,0.0,0.0,39.0,8.7,6.3,1024,1024,1024,1024,0,0,0,0,58,4.978,80.06,31.496064,P-GPS,,9.6
195,646000,2026-01-08 12:39:30,0.0,5,7.366,0.0,0.0,0.0,39.1,9.5,6.2,1024,1024,1024,1024,0,0,0,0,58,4.978,80.06,31.496064,P-GPS,,9.6
196,646100,2026-01-08 12:39:30,0.0,5,7.366,0.0,0.0,0.0,39.2,10.2,6.3,1024,1024,1024,1024,0,0,0,0,58,4.978,80.06,31.16798,P-GPS,,9.5
197,646200,2026-01-08 12:39:30,0.0,5,7.366,0.0,0.0,0.0,39.2,11.3,5.9,1024,1024,1024,1024,0,0,0,0,58,4.978,80.06,31.16798,P-GPS,,9.5
198,646300,2026-01-08 12:39:31,0.0,5,7.366,0.0,0.0,0.0,39.1,11.2,5.9,1024,1024,1024,1024,0,0,0,0,58,4.978,80.06,30.839896,P-GPS,,9.4
199,646400,2026-01-08 12:39:31,0.0,5,7.366,0.0,0.0,0.0,39.1,10.6,5.9,1024,1024,1024,1024,0,0,0,0,58,4.978,80.06,30.839896,P-GPS,,9.4
200,646500,2026-01-08 12:39:31,0.0,5,7.377,0.0,0.0,0.0,39.1,11.0,6.0,1024,1024,1024,1024,0,0,0,0,58,4.402,80.06,30.839896,P-GPS,,9.4
201,646600,2026-01-08 12:39:31,0.0,5,7.377,0.0,0.0,0.0,39.2,10.9,6.1,1024,1024,1024,1024,0,0,0,0,58,4.402,80.06,30.511812,P-GPS,,9.3
202,646700,2026-01-08 12:39:31,0.0,5,7.377,0.0,0.0,0.0,39.1,10.3,6.0,1024,1024,1024,1024,0,0,0,0,58,4.402,80.06,30.511812,P-GPS,,9.3
203,646800,2026-01-08 12:39:31,0.0,5,7.377,0.0,0.0,0.0,39.2,11.4,4.6,1024,1024,1024,1024,0,0,0,0,58,4.402,80.06,30.511812,P-GPS,,9.3
204,646900,2026-01-08 12:39:31,0.0,5,7.377,0.0,0.0,0.0,38.9,11.4,4.3,1024,1024,1024,1024,0,0,0,0,58,4.402,80.06,30.511812,P-GPS,,9.3
205,647000,2026-01-08 12:39:31,0.0,5,7.377,0.0,0.0,-0.223694,38.9,10.5,5.3,1024,1024,1024,1024,0,0,0,0,58,4.402,80.06,30.183728,P-GPS,,9.2
206,647100,2026-01-08 12:39:31,0.0,5,7.377,0.0,0.0,0.0,38.9,10.3,6.2,1024,1024,1024,1024,0,0,0,0,58,4.402,80.06,30.183728,P-GPS,,9.2
207,647200,2026-01-08 12:39:32,0.0,5,7.377,0.0,0.0,0.0,39.1,10.0,5.5,1024,1024,1024,1024,0,0,0,0,58,4.402,80.06,30.183728,P-GPS,,9.2
208,647300,2026-01-08 12:39:32,0.0,5,7.377,0.0,0.0,0.0,39.1,10.0,5.7,1024,1024,1024,1024,0,0,0,0,58,4.402,80.06,29.855644,P-GPS,,9.1
209,647400,2026-01-08 12:39:32,0.0,5,7.377,0.0,0.0,0.0,39.1,9.4,5.2,1024,1024,1024,1024,0,0,0,0,58,4.402,80.06,29.855644,P-GPS,,9.1
210,647500,2026-01-08 12:39:32,0.0,5,7.377,0.0,0.0,0.0,38.9,9.7,5.0,1024,1024,1024,1024,0,0,0,0,58,4.402,80.06,29.52756,P-GPS,,9.0
211,647600,2026-01-08 12:39:32,0.0,5,7.361,0.0,0.0,0.0,39.1,10.2,4.7,1024,1024,1024,1024,0,0,0,0,58,4.797,80.24,29.52756,P-GPS,,9.0
212,647700,2026-01-08 12:39:32,0.0,5,7.361,0.0,0.0,0.0,39.1,10.7,4.7,1024,1024,1024,1024,0,0,0,0,58,4.797,80.24,29.52756,P-GPS,,9.0
213,647800,2026-01-08 12:39:32,0.0,5,7.361,0.0,0.0,0.0,39.1,10.2,4.2,1024,1024,1024,1024,0,0,0,0,58,4.797,80.24,29.199476,P-GPS,,8.9
214,647900,2026-01-08 12:39:32,0.0,5,7.361,0.0,0.0,0.0,39.0,10.5,3.8,1024,1024,1024,1024,0,0,0,0,58,4.797,80.24,29.199476,P-GPS,,8.9
215,648000,2026-01-08 12:39:32,0.0,5,7.361,0.0,0.0,0.0,39.0,10.3,4.0,1024,1024,1024,1024,0,0,0,0,58,4.797,80.24,29.199476,P-GPS,,8.9
216,648100,2026-01-08 12:39:32,0.0,5,7.361,0.0,0.0,0.0,38.9,9.2,4.6,1024,1024,1024,1024,0,0,0,0,58,4.797,80.24,29.199476,P-GPS,,8.9
217,648200,2026-01-08 12:39:33,0.0,5,7.361,0.0,0.0,0.0,38.9,8.8,5.1,1024,1024,1024,1024,0,0,0,0,58,4.797,80.24,28.871392,P-GPS,,8.8
218,648300,2026-01-08 12:39:33,0.0,5,7.361,0.0,0.0,0.0,38.9,8.4,5.4,1024,1024,1024,1024,0,0,0,0,58,4.797,80.24,28.871392,P-GPS,,8.8
219,648400,2026-01-08 12:39:33,0.0,5,7.361,0.0,0.0,0.0,38.9,8.5,5.2,1024,1024,1024,1024,0,0,0,0,58,4.797,80.24,28.871392,P-GPS,,8.8
220,648500,2026-01-08 12:39:33,0.0,5,7.361,0.0,0.0,0.0,38.8,8.2,5.1,1024,1024,1024,1024,0,0,0,0,58,4.797,80.24,28.871392,P-GPS,,8.8
221,648600,2026-01-08 12:39:33,0.0,5,7.361,0.0,0.0,0.0,38.8,7.9,4.6,1024,1024,1024,1024,0,0,0,0,58,4.797,80.24,28.871392,P-GPS,,8.8
222,648700,2026-01-08 12:39:33,0.0,5,7.362,0.0,0.0,0.0,38.9,7.5,4.8,1024,1024,1024,1024,0,0,0,0,57,4.72,80.24,28.871392,P-GPS,,8.8
223,648800,2026-01-08 12:39:33,0.0,5,7.362,0.0,0.0,0.0,38.9,7.5,5.0,1024,1024,1024,1024,0,0,0,0,57,4.72,80.24,28.871392,P-GPS,,8.8
224,648900,2026-01-08 12:39:33,0.0,5,7.362,0.0,0.0,0.0,38.8,6.8,4.9,1024,1024,1024,1024,0,0,0,0,57,4.72,80.24,28.871392,P-GPS,,8.8
225,649000,2026-01-08 12:39:33,0.0,5,7.362,0.0,0.0,0.0,39.0,7.4,5.5,1024,1024,1024,1024,0,0,0,0,57,4.72,80.24,28.871392,P-GPS,,8.8
226,649100,2026-01-08 12:39:33,0.0,5,7.362,0.0,0.0,0.0,39.1,7.9,5.3,1024,1024,1024,1024,0,0,0,0,57,4.72,80.24,28.543308,P-GPS,,8.7
227,649200,2026-01-08 12:39:34,0.0,5,7.362,0.0,0.0,0.0,39.0,7.7,5.0,1024,1024,1024,1024,0,0,0,0,57,4.72,80.24,28.543308,P-GPS,,8.7
228,649300,2026-01-08 12:39:34,0.0,5,7.362,0.0,0.0,0.0,39.0,8.0,5.5,1024,1024,1024,1024,0,0,0,0,57,4.72,80.24,28.543308,P-GPS,,8.7
229,649400,2026-01-08 12:39:34,0.0,5,7.362,0.0,0.0,0.0,38.9,7.9,5.2,1024,1024,1024,1024,0,0,0,0,57,4.72,80.24,28.871392,P-GPS,,8.8
230,649500,2026-01-08 12:39:34,0.0,5,7.362,0.0,0.0,0.0,38.9,7.7,5.2,1024,1024,1024,1024,0,0,0,0,57,4.72,80.24,28.871392,P-GPS,,8.8
231,649600,2026-01-08 12:39:34,0.0,5,7.362,0.0,0.0,0.0,38.9,8.0,5.2,1024,1024,1024,1024,0,0,0,0,57,4.72,80.24,28.871392,P-GPS,,8.8
232,649700,2026-01-08 12:39:34,0.0,5,7.362,0.0,0.0,0.0,39.0,8.1,5.1,1024,1024,1024,1024,0,0,0,0,57,4.72,80.24,28.871392,P-GPS,,8.8
233,649800,2026-01-08 12:39:34,0.0,5,7.363,0.0,0.0,0.0,39.0,8.1,4.8,1024,1024,1024,1024,0,0,0,0,57,4.599,80.24,28.871392,P-GPS,,8.8
234,649900,2026-01-08 12:39:34,0.0,5,7.363,0.0,0.0,0.0,38.9,7.6,4.4,1024,1024,1024,1024,0,0,0,0,57,4.599,80.24,28.871392,P-GPS,,8.8
235,650000,2026-01-08 12:39:34,0.0,5,7.363,0.0,0.0,0.0,38.9,7.3,4.7,1024,1024,1024,1024,0,0,0,0,57,4.599,80.24,28.871392,P-GPS,,8.8
236,650100,2026-01-08 12:39:34,0.0,5,7.363,0.0,0.0,0.0,38.9,6.8,4.6,1024,1024,1024,1024,0,0,0,0,57,4.599,80.24,28.871392,P-GPS,,8.8
237,650200,2026-01-08 12:39:34,0.0,5,7.363,0.0,0.0,0.0,38.8,6.0,4.0,1024,1024,1024,1024,0,0,0,0,57,4.599,80.24,28.871392,P-GPS,,8.8
238,650300,2026-01-08 12:39:35,0.0,5,7.363,0.0,0.0,-0.223694,38.8,5.6,4.0,1024,1024,1024,1024,0,0,0,0,57,4.599,80.24,28.871392,P-GPS,,8.8
239,650400,2026-01-08 12:39:35,0.0,5,7.363,0.0,0.0,-0.223694,38.9,6.4,4.3,1024,1024,1024,1024,0,0,0,0,57,4.599,80.24,28.871392,P-GPS,,8.8
240,650500,2026-01-08 12:39:35,0.0,5,7.363,0.0,0.0,0.0,38.9,7.3,4.3,1024,1024,1024,1024,0,0,0,0,57,4.599,80.24,29.199476,P-GPS,,8.9
241,650600,2026-01-08 12:39:35,0.0,5,7.363,0.0,0.0,0.0,38.9,7.0,4.3,1024,1024,1024,1024,0,0,0,0,57,4.599,80.24,29.199476,P-GPS,,8.9
242,650700,2026-01-08 12:39:35,0.0,5,7.363,0.0,0.0,0.0,38.8,7.0,4.2,1024,1024,1024,1024,0,0,0,0,57,4.599,80.24,29.199476,P-GPS,,8.9
243,650800,2026-01-08 12:39:35,0.0,5,7.363,0.0,0.0,0.0,38.7,5.0,3.9,1024,1024,1024,1024,0,0,0,0,57,4.599,80.24,29.199476,P-GPS,,8.9
244,650900,2026-01-08 12:39:35,0.0,5,7.355,0.0,0.0,-0.223694,38.9,6.0,4.7,1024,1024,1024,1024,0,0,0,0,57,4.922,80.24,29.199476,P-GPS,,8.9
245,651000,2026-01-08 12:39:35,0.0,5,7.355,0.0,0.0,-0.223694,39.0,6.4,4.9,1024,1024,1024,1024,0,0,0,0,57,4.922,80.24,29.199476,P-GPS,,8.9
246,651100,2026-01-08 12:39:35,0.0,5,7.355,0.0,0.0,0.0,39.2,7.8,4.7,1024,1024,1024,1024,0,0,0,0,57,4.922,80.24,29.199476,P-GPS,,8.9
247,651200,2026-01-08 12:39:36,0.0,5,7.355,0.0,0.0,0.0,39.0,7.8,4.8,1024,1024,1024,1024,0,0,0,0,57,4.922,80.24,29.199476,P-GPS,,8.9
248,651300,2026-01-08 12:39:36,0.0,5,7.355,0.0,0.0,0.0,39.0,8.5,4.5,1024,1024,1024,1024,0,0,0,0,57,4.922,80.24,29.199476,P-GPS,,8.9
249,651400,2026-01-08 12:39:36,0.0,5,7.355,0.0,0.0,0.223694,38.9,7.9,4.6,1024,1024,1024,1024,0,0,0,0,57,4.922,80.24,29.199476,P-GPS,,8.9
250,651500,2026-01-08 12:39:36,0.0,5,7.355,0.0,0.0,0.0,38.8,7.7,3.9,1024,1024,1024,1024,0,0,0,0,57,4.922,80.24,29.199476,P-GPS,,8.9
251,651600,2026-01-08 12:39:36,0.0,5,7.355,0.0,0.0,0.0,38.7,6.1,4.0,1024,1024,1024,1024,0,0,0,0,57,4.922,80.24,29.199476,P-GPS,,8.9
252,651700,2026-01-08 12:39:36,0.0,5,7.355,0.0,0.0,0.0,38.8,5.7,5.0,1024,1024,1024,1024,0,0,0,0,57,4.922,80.24,29.199476,P-GPS,,8.9
253,651800,2026-01-08 12:39:36,0.0,5,7.355,0.0,0.0,0.0,39.0,6.5,4.9,1024,1024,1024,1024,0,0,0,0,57,4.922,80.24,29.199476,P-GPS,,8.9
254,651900,2026-01-08 12:39:36,0.0,5,7.355,0.0,0.0,0.0,39.0,7.8,4.6,1024,1024,1024,1024,0,0,0,0,57,4.922,80.24,29.199476,P-GPS,,8.9
255,652000,2026-01-08 12:39:36,0.0,5,7.323,0.0,0.0,0.0,38.9,7.7,3.6,1024,1024,1024,1024,0,0,0,0,57,4.882,80.24,29.199476,P-GPS,,8.9
256,652100,2026-01-08 12:39:36,0.0,5,7.323,0.0,0.0,0.0,38.9,7.6,3.3,1024,1024,1024,1024,0,0,0,0,57,4.882,80.24,29.199476,P-GPS,,8.9
257,652200,2026-01-08 12:39:37,0.0,5,7.323,0.0,0.0,0.0,38.8,7.2,3.7,1024,1024,1024,1024,0,0,0,0,57,4.882,80.24,29.199476,P-GPS,,8.9
258,652300,2026-01-08 12:39:37,0.0,5,7.323,0.0,0.0,0.0,38.8,7.1,3.3,1024,1024,1024,1024,0,0,0,0,57,4.882,80.24,29.199476,P-GPS,,8.9
259,652400,2026-01-08 12:39:37,0.0,5,7.323,0.0,0.0,0.0,38.6,5.9,3.8,1024,1024,1024,1024,0,0,0,0,57,4.882,80.24,29.199476,P-GPS,,8.9
260,652500,2026-01-08 12:39:37,0.0,5,7.323,0.0,0.0,0.0,38.8,5.7,4.3,1024,1024,1024,1024,0,0,0,0,57,4.882,80.24,29.199476,P-GPS,,8.9
261,652600,2026-01-08 12:39:37,0.0,5,7.323,0.0,0.0,0.0,38.8,6.2,4.1,1024,1024,1024,1024,0,0,0,0,57,4.882,80.24,29.199476,P-GPS,,8.9
262,652700,2026-01-08 12:39:37,0.0,5,7.323,0.0,0.0,0.0,38.8,7.1,3.3,1024,1024,1024,1024,0,0,0,0,57,4.882,80.24,29.199476,P-GPS,,8.9
263,652800,2026-01-08 12:39:37,0.223694,5,7.323,0.0,0.223694,0.0,38.8,8.0,2.9,1024,1024,1024,1024,0,0,0,0,57,4.882,80.24,29.52756,P-GPS,,9.0
264,652900,2026-01-08 12:39:37,0.223694,5,7.323,0.0,0.223694,0.0,38.7,7.4,2.2,1024,1024,1024,1024,0,0,0,0,57,4.882,80.24,29.52756,P-GPS,,9.0
265,653000,2026-01-08 12:39:37,0.0,5,7.323,0.0,0.0,-0.223694,38.7,7.9,2.0,1024,1024,1024,1024,0,0,0,0,57,4.882,80.24,29.52756,P-GPS,,9.0
266,653100,2026-01-08 12:39:37,0.0,5,7.334,0.0,0.0,-0.223694,38.8,7.2,2.7,1024,1024,1024,1024,0,0,0,0,57,5.247,80.42,29.52756,P-GPS,,9.0
267,653200,2026-01-08 12:39:37,0.0,5,7.334,0.0,0.0,-0.223694,38.9,7.1,3.8,1024,1024,1024,1024,0,0,0,0,57,5.247,80.42,29.855644,P-GPS,,9.1
268,653300,2026-01-08 12:39:38,0.0,5,7.334,0.0,0.0,-0.223694,39.0,7.2,4.2,1024,1024,1024,1024,0,0,0,0,57,5.247,80.42,29.855644,P-GPS,,9.1
269,653400,2026-01-08 12:39:38,0.0,5,7.334,0.0,0.0,0.0,39.0,8.3,4.6,1024,1024,1024,1024,0,0,0,0,57,5.247,80.42,29.855644,P-GPS,,9.1
270,653500,2026-01-08 12:39:38,0.0,5,7.334,0.0,0.0,0.0,39.0,8.1,4.9,1024,1024,1024,1024,0,0,0,0,57,5.247,80.42,29.855644,P-GPS,,9.1
271,653600,2026-01-08 12:39:38,0.0,5,7.334,0.0,0.0,0.0,39.0,7.8,4.7,1024,1024,1024,1024,0,0,0,0,57,5.247,80.42,29.855644,P-GPS,,9.1
272,653700,2026-01-08 12:39:38,0.0,5,7.334,0.0,0.0,0.0,38.9,6.9,4.7,1024,1024,1024,1024,0,0,0,0,57,5.247,80.42,29.855644,P-GPS,,9.1
273,653800,2026-01-08 12:39:38,0.0,5,7.334,0.0,0.0,0.0,38.8,6.6,4.5,1024,1024,1024,1024,0,0,0,0,57,5.247,80.42,30.183728,P-GPS,,9.2
274,653900,2026-01-08 12:39:38,0.0,5,7.334,0.0,0.0,0.0,38.8,6.1,4.4,1024,1024,1024,1024,0,0,0,0,57,5.247,80.42,30.183728,P-GPS,,9.2
275,654000,2026-01-08 12:39:38,0.0,5,7.334,0.0,0.0,0.0,38.7,5.5,4.2,1024,1024,1024,1024,0,0,0,0,57,5.247,80.42,30.183728,P-GPS,,9.2
276,654100,2026-01-08 12:39:38,0.0,5,7.334,0.0,0.0,0.0,38.9,5.6,4.1,1024,1024,1024,1024,0,0,0,0,57,5.247,80.42,29.855644,P-GPS,,9.1
277,654200,2026-01-08 12:39:39,0.0,5,7.365,0.0,0.0,0.0,38.8,5.3,4.1,1024,1024,1024,1024,0,0,0,0,57,4.412,80.42,29.855644,P-GPS,,9.1
278,654300,2026-01-08 12:39:39,0.0,5,7.365,0.0,0.0,0.0,38.9,5.3,3.7,1024,1024,1024,1024,0,0,0,0,57,4.412,80.42,29.855644,P-GPS,,9.1
279,654400,2026-01-08 12:39:39,0.0,5,7.365,0.0,0.0,0.0,38.9,5.4,4.0,1024,1024,1024,1024,0,0,0,0,57,4.412,80.42,29.855644,P-GPS,,9.1
280,654500,2026-01-08 12:39:39,0.0,5,7.365,0.0,0.0,0.0,38.8,5.6,3.8,1024,1024,1024,1024,0,0,0,0,57,4.412,80.42,29.855644,P-GPS,,9.1
281,654600,2026-01-08 12:39:39,0.0,5,7.365,0.0,0.0,0.0,38.9,5.1,3.8,1024,1024,1024,1024,0,0,0,0,57,4.412,80.42,29.855644,P-GPS,,9.1
282,654700,2026-01-08 12:39:39,0.223694,5,7.365,-0.223694,0.0,0.0,38.8,4.5,3.4,1024,1024,1024,1024,0,0,0,0,57,4.412,80.42,30.183728,P-GPS,,9.2
283,654800,2026-01-08 12:39:39,0.0,5,7.365,0.0,0.0,0.0,38.8,4.6,2.7,1024,1024,1024,1024,0,0,0,0,57,4.412,80.42,30.183728,P-GPS,,9.2
284,654900,2026-01-08 12:39:39,0.0,5,7.365,0.0,0.0,0.0,38.8,4.1,3.4,1024,1024,1024,1024,0,0,0,0,57,4.412,80.42,30.183728,P-GPS,,9.2
285,655000,2026-01-08 12:39:39,0.0,5,7.365,0.0,0.0,0.0,38.8,3.9,3.8,1024,1024,1024,1024,0,0,0,0,57,4.412,80.42,30.511812,P-GPS,,9.3
286,655100,2026-01-08 12:39:39,0.0,5,7.365,0.0,0.0,0.0,38.8,4.0,4.2,1024,1024,1024,1024,0,0,0,0,57,4.412,80.42,30.511812,P-GPS,,9.3
287,655200,2026-01-08 12:39:40,0.0,5,7.365,0.0,0.0,0.0,38.6,3.6,3.7,1024,1024,1024,1024,0,0,0,0,57,4.412,80.42,30.839896,P-GPS,,9.4
288,655300,2026-01-08 12:39:40,0.0,5,7.365,0.0,0.0,0.0,38.6,3.5,4.2,1024,1024,1024,1024,0,0,0,0,57,4.412,80.42,30.839896,P-GPS,,9.4
289,655400,2026-01-08 12:39:40,0.0,5,7.365,0.0,0.0,0.0,38.6,3.3,4.1,1024,1024,1024,1024,0,0,0,0,57,4.412,80.42,30.839896,P-GPS,,9.4
290,655500,2026-01-08 12:39:40,0.0,5,7.365,0.0,0.0,0.0,38.6,3.5,3.9,1024,1024,1024,1024,0,0,0,0,57,4.412,80.42,30.839896,P-GPS,,9.4
291,655600,2026-01-08 12:39:40,0.0,5,7.365,0.0,0.0,0.0,38.7,3.9,4.1,1024,1024,1024,1024,0,0,0,0,57,4.412,80.42,31.16798,P-GPS,,9.5
292,655700,2026-01-08 12:39:40,0.0,5,7.365,0.0,0.0,0.0,38.7,3.9,4.0,1024,1024,1024,1024,0,0,0,0,57,4.412,80.42,31.16798,P-GPS,,9.5
293,655800,2026-01-08 12:39:40,0.0,5,7.365,0.0,0.0,0.0,38.6,3.5,4.1,1024,1024,1024,1024,0,0,0,0,57,4.412,80.42,31.16798,P-GPS,,9.5
294,655900,2026-01-08 12:39:40,0.0,5,7.365,0.0,0.0,0.0,38.5,3.0,3.6,1024,1024,1024,1024,0,0,0,0,57,4.412,80.42,31.16798,P-GPS,,9.5
295,656000,2026-01-08 12:39:40,0.0,5,7.365,0.0,0.0,0.0,38.6,3.2,3.3,1024,1024,1024,1024,0,0,0,0,57,4.412,80.42,31.16798,P-GPS,,9.5
296,656100,2026-01-08 12:39:40,0.0,5,7.365,0.0,0.0,0.0,38.7,3.5,3.0,1024,1024,1024,1024,0,0,0,0,57,4.412,80.42,31.16798,P-GPS,,9.5
297,656200,2026-01-08 12:39:41,0.0,5,7.365,0.0,0.0,0.0,38.7,2.9,3.5,1024,1024,1024,1024,0,0,0,0,57,4.412,80.42,31.16798,P-GPS,,9.5
298,656300,2026-01-08 12:39:41,0.0,5,7.349,0.0,0.0,0.0,39.0,3.6,4.4,1024,1024,1024,1024,0,0,0,0,57,4.613,80.42,31.16798,P-GPS,,9.5
299,656400,2026-01-08 12:39:41,0.0,5,7.349,0.0,0.0,0.0,38.9,4.2,3.9,1024,1024,1024,1024,0,0,0,0,57,4.613,80.42,31.496064,P-GPS,,9.6
300,656500,2026-01-08 12:39:41,0.0,5,7.349,0.0,0.0,0.0,38.8,4.9,3.0,1024,1024,1024,1024,0,0,0,0,57,4.613,80.42,31.496064,P-GPS,,9.6
301,656600,2026-01-08 12:39:41,0.0,5,7.349,0.0,0.0,0.0,38.7,4.4,3.0,1024,1024,1024,1024,0,0,0,0,57,4.613,80.42,31.496064,P-GPS,,9.6
302,656700,2026-01-08 12:39:41,0.0,5,7.349,0.0,0.0,0.0,38.7,4.4,2.7,1024,1024,1024,1024,0,0,0,0,57,4.613,80.42,31.496064,P-GPS,,9.6
303,656800,2026-01-08 12:39:41,0.0,5,7.349,0.0,0.0,0.0,38.7,4.0,2.3,1024,1024,1024,1024,0,0,0,0,57,4.613,80.42,31.496064,P-GPS,,9.6
304,656900,2026-01-08 12:39:41,0.0,5,7.349,0.0,0.0,0.0,38.6,3.6,2.5,1024,1024,1024,1024,0,0,0,0,57,4.613,80.42,31.496064,P-GPS,,9.6
305,657000,2026-01-08 12:39:41,0.0,5,7.349,0.0,0.0,0.0,38.6,3.7,2.6,1024,1024,1024,1024,0,0,0,0,57,4.613,80.42,31.824148,P-GPS,,9.7
306,657100,2026-01-08 12:39:41,0.0,5,7.349,0.0,0.0,0.0,38.6,4.3,2.7,1024,1024,1024,1024,0,0,0,0,57,4.613,80.42,31.824148,P-GPS,,9.7
307,657200,2026-01-08 12:39:42,0.0,5,7.349,0.0,0.0,0.0,38.6,4.8,2.9,1024,1024,1024,1024,0,0,0,0,57,4.613,80.42,31.824148,P-GPS,,9.7
308,657300,2026-01-08 12:39:42,0.0,5,7.349,0.0,0.0,0.0,38.7,4.8,3.2,1024,1024,1024,1024,0,0,0,0,57,4.613,80.42,31.824148,P-GPS,,9.7
309,657400,2026-01-08 12:39:42,0.0,5,7.349,0.0,0.0,0.0,38.7,5.5,3.5,1024,1024,1024,1024,0,0,0,0,57,4.613,80.42,32.152232,P-GPS,,9.8
310,657500,2026-01-08 12:39:42,0.0,5,7.356,0.0,0.0,0.0,38.7,5.8,3.4,1024,1024,1024,1024,0,0,0,0,57,4.703,80.42,32.152232,P-GPS,,9.8
311,657600,2026-01-08 12:39:42,0.0,5,7.356,0.0,0.0,0.0,38.8,5.8,3.8,1024,1024,1024,1024,0,0,0,0,57,4.703,80.42,32.152232,P-GPS,,9.8
312,657700,2026-01-08 12:39:42,0.0,5,7.356,0.0,0.0,0.0,38.9,5.6,3.8,1024,1024,1024,1024,0,0,0,0,57,4.703,80.42,32.152232,P-GPS,,9.8
313,657800,2026-01-08 12:39:42,0.0,5,7.356,0.0,0.0,0.0,38.8,5.4,4.0,1024,1024,1024,1024,0,0,0,0,57,4.703,80.42,32.480316,P-GPS,,9.9
314,657900,2026-01-08 12:39:42,0.0,5,7.356,0.0,0.0,0.0,38.7,5.0,4.2,1024,1024,1024,1024,0,0,0,0,57,4.703,80.42,32.480316,P-GPS,,9.9
315,658000,2026-01-08 12:39:42,0.0,5,7.356,0.0,0.0,0.0,38.8,4.6,3.8,1024,1024,1024,1024,0,0,0,0,57,4.703,80.42,32.480316,P-GPS,,9.9
316,658100,2026-01-08 12:39:42,0.0,5,7.356,0.0,0.0,0.0,38.9,4.6,3.8,1024,1024,1024,1024,0,0,0,0,57,4.703,80.42,32.480316,P-GPS,,9.9
317,658200,2026-01-08 12:39:43,0.0,5,7.356,0.0,0.0,0.0,38.9,5.0,3.6,1024,1024,1024,1024,0,0,0,0,57,4.703,80.42,32.480316,P-GPS,,9.9
318,658300,2026-01-08 12:39:43,0.0,5,7.356,0.0,0.0,0.0,38.9,4.5,3.5,1024,1024,1024,1024,0,0,0,0,57,4.703,80.42,32.480316,P-GPS,,9.9
319,658400,2026-01-08 12:39:43,0.0,5,7.356,0.0,0.0,0.0,38.7,4.2,3.2,1024,1024,1024,1024,0,0,0,0,57,4.703,80.42,32.480316,P-GPS,,9.9
320,658500,2026-01-08 12:39:43,0.0,5,7.356,0.0,0.0,0.0,38.7,4.0,2.9,1024,1024,1024,1024,0,0,0,0,57,4.703,80.42,32.480316,P-GPS,,9.9
321,658600,2026-01-08 12:39:43,0.0,5,7.345,0.0,0.0,0.0,38.6,3.4,3.1,1024,1024,1024,1024,0,0,0,0,57,4.816,80.42,32.480316,P-GPS,,9.9
322,658700,2026-01-08 12:39:43,0.0,5,7.345,0.0,0.0,0.0,38.5,3.0,3.3,1024,1024,1024,1024,0,0,0,0,57,4.816,80.42,32.480316,P-GPS,,9.9
323,658800,2026-01-08 12:39:43,0.0,5,7.345,0.0,0.0,0.0,38.7,3.6,2.8,1024,1024,1024,1024,0,0,0,0,57,4.816,80.42,32.480316,P-GPS,,9.9
324,658900,2026-01-08 12:39:43,0.0,5,7.345,0.0,0.0,0.0,38.8,4.1,2.5,1024,1024,1024,1024,0,0,0,0,57,4.816,80.42,32.480316,P-GPS,,9.9
325,659000,2026-01-08 12:39:43,0.0,5,7.345,0.0,0.0,0.0,38.9,4.9,2.4,1024,1024,1024,1024,0,0,0,0,57,4.816,80.42,32.480316,P-GPS,,9.9
326,659100,2026-01-08 12:39:43,0.0,5,7.345,0.0,0.0,0.0,38.7,5.7,1.9,1024,1024,1024,1024,0,0,0,0,57,4.816,80.42,32.480316,P-GPS,,9.9
327,659200,2026-01-08 12:39:44,0.0,5,7.345,0.0,0.0,0.0,38.5,4.4,1.7,1024,1024,1024,1024,0,0,0,0,57,4.816,80.42,32.480316,P-GPS,,9.9
328,659300,2026-01-08 12:39:44,0.223694,5,7.345,0.223694,0.0,-0.223694,38.5,5.3,2.6,1024,1024,1024,1024,0,0,0,0,57,4.816,80.42,32.480316,P-GPS,,9.9
329,659400,2026-01-08 12:39:44,0.223694,5,7.345,0.223694,0.0,0.0,38.6,7.1,3.8,1024,1024,1024,1024,0,0,0,0,57,4.816,80.42,32.480316,P-GPS,,9.9
330,659500,2026-01-08 12:39:44,0.223694,5,7.345,0.223694,0.0,0.0,38.7,7.9,4.3,1024,1024,1024,1024,0,0,0,0,57,4.816,80.42,32.480316,P-GPS,,9.9
331,659600,2026-01-08 12:39:44,0.223694,5,7.345,0.223694,0.0,0.0,38.9,8.4,4.4,1024,1024,1024,1024,0,0,0,0,57,4.816,80.42,32.480316,P-GPS,,9.9
332,659700,2026-01-08 12:39:44,0.0,5,7.383,0.0,0.0,0.0,39.0,8.1,4.7,1024,1024,1024,1024,0,0,0,0,57,4.287,80.42,32.480316,P-GPS,,9.9
333,659800,2026-01-08 12:39:44,0.0,5,7.383,0.0,0.0,0.223694,39.1,8.3,4.2,1024,1024,1024,1024,0,0,0,0,57,4.287,80.42,32.480316,P-GPS,,9.9
334,659900,2026-01-08 12:39:44,0.0,5,7.383,0.0,0.0,0.0,38.9,8.3,4.1,1024,1024,1024,1024,0,0,0,0,57,4.287,80.42,32.480316,P-GPS,,9.9
335,660000,2026-01-08 12:39:44,0.0,5,7.383,0.0,0.0,0.0,38.8,6.9,3.8,1024,1024,1024,1024,0,0,0,0,57,4.287,80.42,32.8084,P-GPS,,10.0
336,660100,2026-01-08 12:39:44,0.0,5,7.383,0.0,0.0,0.0,38.8,7.8,4.1,1024,1024,1024,1024,0,0,0,0,57,4.287,80.42,32.8084,P-GPS,,10.0
337,660200,2026-01-08 12:39:45,0.0,5,7.383,0.0,0.0,0.0,38.8,8.4,4.0,1024,1024,1024,1024,0,0,0,0,57,4.287,80.42,32.8084,P-GPS,,10.0
338,660300,2026-01-08 12:39:45,0.0,5,7.383,0.0,0.0,0.0,38.8,7.6,3.6,1024,1024,1024,1024,0,0,0,0,57,4.287,80.42,32.8084,P-GPS,,10.0
339,660400,2026-01-08 12:39:45,0.0,5,7.383,0.0,0.0,-0.223694,38.7,7.7,3.7,1024,1024,1024,1024,0,0,0,0,57,4.287,80.42,33.136484,P-GPS,,10.1
340,660500,2026-01-08 12:39:45,0.0,5,7.383,0.0,0.0,0.0,38.8,8.7,3.8,1024,1024,1024,1024,0,0,0,0,57,4.287,80.42,33.136484,P-GPS,,10.1
341,660600,2026-01-08 12:39:45,0.0,5,7.383,0.0,0.0,0.0,38.9,8.7,4.2,1024,1024,1024,1024,0,0,0,0,57,4.287,80.42,33.136484,P-GPS,,10.1
342,660700,2026-01-08 12:39:45,0.0,5,7.383,0.0,0.0,0.0,38.9,8.2,4.4,1024,1024,1024,1024,0,0,0,0,57,4.287,80.42,33.136484,P-GPS,,10.1
343,660800,2026-01-08 12:39:45,0.0,5,7.356,0.0,0.0,0.0,38.9,8.7,4.5,1024,1024,1024,1024,0,0,0,0,57,5.154,80.42,33.136484,P-GPS,,10.1
344,660900,2026-01-08 12:39:45,0.0,5,7.356,0.0,0.0,0.0,38.6,8.0,4.1,1024,1024,1024,1024,0,0,0,0,57,5.154,80.42,33.136484,P-GPS,,10.1
345,661000,2026-01-08 12:39:45,0.0,5,7.356,0.0,0.0,0.0,38.8,8.9,4.0,1024,1024,1024,1024,0,0,0,0,57,5.154,80.42,33.464568,P-GPS,,10.2
346,661100,2026-01-08 12:39:45,0.223694,5,7.356,0.223694,0.0,0.0,38.9,9.2,5.0,1024,1024,1024,1024,0,0,0,0,57,5.154,80.42,33.464568,P-GPS,,10.2
347,661200,2026-01-08 12:39:46,0.223694,5,7.356,0.223694,0.0,0.0,39.1,9.5,5.6,1024,1024,1024,1024,0,0,0,0,57,5.154,80.42,33.464568,P-GPS,,10.2
348,661300,2026-01-08 12:39:46,0.223694,5,7.356,0.223694,0.0,0.0,39.1,10.4,5.8,1024,1024,1024,1024,0,0,0,0,57,5.154,80.42,33.464568,P-GPS,,10.2
349,661400,2026-01-08 12:39:46,0.223694,5,7.356,0.223694,0.0,0.0,39.1,11.0,5.7,1024,1024,1024,1024,0,0,0,0,57,5.154,80.42,33.792652,P-GPS,,10.3
350,661500,2026-01-08 12:39:46,0.223694,5,7.356,0.223694,0.0,0.0,39.2,11.3,5.6,1024,1024,1024,1024,0,0,0,0,57,5.154,80.42,33.792652,P-GPS,,10.3
351,661600,2026-01-08 12:39:46,0.223694,5,7.356,0.223694,0.0,0.0,39.2,11.6,5.3,1024,1024,1024,1024,0,0,0,0,57,5.154,80.42,33.792652,P-GPS,,10.3
352,661700,2026-01-08 12:39:46,0.223694,5,7.356,0.223694,0.0,0.0,39.2,11.6,5.3,1024,1024,1024,1024,0,0,0,0,57,5.154,80.42,33.792652,P-GPS,,10.3
353,661800,2026-01-08 12:39:46,0.223694,5,7.356,0.223694,0.0,0.0,39.2,12.0,5.5,1024,1024,1024,1024,0,0,0,0,57,5.154,80.42,33.792652,P-GPS,,10.3
354,661900,2026-01-08 12:39:46,0.223694,5,7.296,0.223694,0.0,0.0,39.1,11.6,6.0,1024,1024,1024,1024,0,0,0,0,57,5.78,80.42,34.120736,P-GPS,,10.4
355,662000,2026-01-08 12:39:46,0.223694,5,7.296,0.223694,0.0,0.0,39.3,11.6,6.2,1024,1024,1024,1024,0,0,0,0,57,5.78,80.42,34.120736,P-GPS,,10.4
356,662100,2026-01-08 12:39:46,0.0,5,7.296,0.0,0.0,0.0,39.5,13.3,6.1,1024,1024,1024,1024,0,0,0,0,57,5.78,80.42,33.792652,P-GPS,,10.3
357,662200,2026-01-08 12:39:46,0.0,5,7.296,0.0,0.0,0.0,39.6,12.5,5.7,1024,1024,1024,1024,0,0,0,0,57,5.78,80.42,33.792652,P-GPS,,10.3
358,662300,2026-01-08 12:39:47,0.0,5,7.296,0.0,0.0,0.0,39.4,11.2,5.0,1024,1024,1024,1024,0,0,0,0,57,5.78,80.42,33.792652,P-GPS,,10.3
359,662400,2026-01-08 12:39:47,0.0,5,7.296,0.0,0.0,0.0,39.3,11.6,4.7,1024,1024,1024,1024,0,0,0,0,57,5.78,80.42,33.792652,P-GPS,,10.3
360,662500,2026-01-08 12:39:47,0.0,5,7.296,0.0,0.0,0.0,39.1,11.6,4.1,1024,1024,1024,1024,0,0,0,0,57,5.78,80.42,33.792652,P-GPS,,10.3
361,662600,2026-01-08 12:39:47,0.0,5,7.296,0.0,0.0,0.0,39.0,11.8,4.2,1024,1024,1024,1024,0,0,0,0,57,5.78,80.42,33.792652,P-GPS,,10.3
362,662700,2026-01-08 12:39:47,0.0,5,7.296,0.0,0.0,0.0,38.9,11.3,4.4,1024,1024,1024,1024,0,0,0,0,57,5.78,80.42,33.464568,P-GPS,,10.2
363,662800,2026-01-08 12:39:47,0.0,5,7.296,0.0,0.0,0.0,38.9,11.0,4.4,1024,1024,1024,1024,0,0,0,0,57,5.78,80.42,33.464568,P-GPS,,10.2
364,662900,2026-01-08 12:39:47,0.0,5,7.296,0.0,0.0,0.0,38.8,10.2,3.8,1024,1024,1024,1024,0,0,0,0,57,5.78,80.42,33.464568,P-GPS,,10.2
365,663000,2026-01-08 12:39:47,0.0,5,7.328,0.0,0.0,0.0,38.7,8.9,5.1,1024,1024,1024,1024,0,0,0,0,57,5.392,80.42,33.464568,P-GPS,,10.2
366,663100,2026-01-08 12:39:47,0.0,5,7.328,0.0,0.0,-0.223694,39.0,10.0,5.7,1024,1024,1024,1024,0,0,0,0,57,5.392,80.42,33.136484,P-GPS,,10.1
367,663200,2026-01-08 12:39:48,0.0,5,7.328,0.0,0.0,0.0,39.1,9.3,6.3,1024,1024,1024,1024,0,0,0,0,57,5.392,80.42,33.136484,P-GPS,,10.1
368,663300,2026-01-08 12:39:48,0.223694,5,7.328,0.0,-0.223694,0.0,39.2,9.7,7.0,1024,1024,1024,1024,0,0,0,0,57,5.392,80.42,33.136484,P-GPS,,10.1
369,663400,2026-01-08 12:39:48,0.0,5,7.328,0.0,0.0,0.0,39.0,8.9,7.0,1024,1024,1024,1024,0,0,0,0,57,5.392,80.42,33.136484,P-GPS,,10.1
370,663500,2026-01-08 12:39:48,0.0,5,7.328,0.0,0.0,0.0,39.1,9.6,7.4,1024,1024,1024,1024,0,0,0,0,57,5.392,80.42,33.136484,P-GPS,,10.1
371,663600,2026-01-08 12:39:48,0.0,5,7.328,0.0,0.0,0.0,39.2,9.2,7.7,1024,1024,1024,1024,0,0,0,0,57,5.392,80.42,32.8084,P-GPS,,10.0
372,663700,2026-01-08 12:39:48,0.0,5,7.328,0.0,0.0,0.0,39.0,8.6,6.3,1024,1024,1024,1024,0,0,0,0,57,5.392,80.42,32.8084,P-GPS,,10.0
373,663800,2026-01-08 12:39:48,0.0,5,7.328,0.0,0.0,-0.223694,39.3,8.3,6.1,1024,1024,1024,1024,0,0,0,0,57,5.392,80.42,32.480316,P-GPS,,9.9
374,663900,2026-01-08 12:39:48,0.223694,5,7.328,-0.223694,0.0,-0.223694,39.5,7.9,5.4,1024,1024,1024,1024,0,0,0,0,57,5.392,80.42,32.480316,P-GPS,,9.9
375,664000,2026-01-08 12:39:48,0.3131716,5,7.328,-0.223694,-0.223694,0.0,39.5,5.7,6.0,1024,1024,1024,1024,0,0,0,0,57,5.392,80.42,32.152232,P-GPS,,9.8
376,664100,2026-01-08 12:39:48,0.3131716,5,7.378,-0.223694,0.0,0.0,39.4,5.2,5.6,1024,1024,1024,1024,0,0,0,0,57,4.348,80.42,32.152232,P-GPS,,9.8
377,664200,2026-01-08 12:39:49,0.223694,5,7.378,-0.223694,0.0,0.0,39.0,4.1,5.5,1024,1024,1024,1024,0,0,0,0,57,4.348,80.42,31.824148,P-GPS,,9.7
378,664300,2026-01-08 12:39:49,0.223694,5,7.378,-0.223694,0.0,0.0,38.8,4.3,4.9,1024,1024,1024,1024,0,0,0,0,57,4.348,80.42,31.496064,P-GPS,,9.6
379,664400,2026-01-08 12:39:49,0.223694,5,7.378,-0.223694,0.0,0.0,38.7,4.9,3.8,1024,1024,1024,1024,0,0,0,0,57,4.348,80.42,31.16798,P-GPS,,9.5
380,664500,2026-01-08 12:39:49,0.223694,5,7.378,-0.223694,0.0,0.0,38.9,4.9,3.8,1024,1024,1024,1024,0,0,0,0,57,4.348,80.42,30.839896,P-GPS,,9.4
381,664600,2026-01-08 12:39:49,0.223694,5,7.378,-0.223694,0.0,0.0,38.9,3.7,5.0,1024,1024,1024,1024,0,0,0,0,57,4.348,80.42,30.839896,P-GPS,,9.4
382,664700,2026-01-08 12:39:49,0.223694,5,7.378,-0.223694,0.0,0.0,38.8,3.8,4.5,1024,1024,1024,1024,0,0,0,0,57,4.348,80.42,30.511812,P-GPS,,9.3
383,664800,2026-01-08 12:39:49,0.223694,5,7.378,-0.223694,0.0,0.0,38.7,4.1,3.6,1024,1024,1024,1024,0,0,0,0,57,4.348,80.42,30.183728,P-GPS,,9.2
384,664900,2026-01-08 12:39:49,0.223694,5,7.378,-0.223694,0.0,0.0,38.6,2.9,4.2,1024,1024,1024,1024,0,0,0,0,57,4.348,80.42,29.855644,P-GPS,,9.1
385,665000,2026-01-08 12:39:49,0.0,5,7.378,0.0,0.0,0.0,38.6,5.3,3.8,1024,1024,1024,1024,0,0,0,0,57,4.348,80.42,29.855644,P-GPS,,9.1
386,665100,2026-01-08 12:39:49,0.0,5,7.378,0.0,0.0,0.0,38.7,7.0,4.1,1024,1024,1024,1024,0,0,0,0,57,4.348,80.42,29.52756,P-GPS,,9.0
387,665200,2026-01-08 12:39:50,0.0,5,7.375,0.0,0.0,0.0,38.6,5.1,4.2,1024,1024,1024,1024,0,0,0,0,56,3.656,80.6,29.52756,P-GPS,,9.0
388,665300,2026-01-08 12:39:50,0.0,5,7.375,0.0,0.0,0.0,38.4,5.6,4.9,1024,1024,1024,1024,0,0,0,0,56,3.656,80.6,29.199476,P-GPS,,8.9
389,665400,2026-01-08 12:39:50,0.0,5,7.375,0.0,0.0,0.0,38.6,7.3,4.7,1024,1024,1024,1024,0,0,0,0,56,3.656,80.6,29.199476,P-GPS,,8.9
390,665500,2026-01-08 12:39:50,0.0,5,7.375,0.0,0.0,0.0,38.9,8.4,4.7,1024,1024,1024,1024,0,0,0,0,56,3.656,80.6,29.199476,P-GPS,,8.9
391,665600,2026-01-08 12:39:50,0.0,5,7.375,0.0,0.0,0.0,38.8,8.1,4.4,1024,1024,1024,1024,0,0,0,0,56,3.656,80.6,29.199476,P-GPS,,8.9
392,665700,2026-01-08 12:39:50,0.0,5,7.375,0.0,0.0,0.0,38.9,7.4,5.4,1024,1024,1024,1024,0,0,0,0,56,3.656,80.6,29.199476,P-GPS,,8.9
393,665800,2026-01-08 12:39:50,0.0,5,7.375,0.0,0.0,0.0,39.3,8.7,6.3,1024,1024,1024,1024,0,0,0,0,56,3.656,80.6,29.199476,P-GPS,,8.9
394,665900,2026-01-08 12:39:50,0.0,5,7.375,0.0,0.0,0.0,39.3,9.0,6.1,1024,1024,1024,1024,0,0,0,0,56,3.656,80.6,29.199476,P-GPS,,8.9
395,666000,2026-01-08 12:39:50,0.223694,5,7.375,0.223694,0.0,0.0,39.3,8.0,6.8,1024,1024,1024,1024,0,0,0,0,56,3.656,80.6,29.52756,P-GPS,,9.0
396,666100,2026-01-08 12:39:50,0.223694,5,7.375,0.223694,0.0,0.0,39.2,9.3,7.9,1024,1024,1024,1024,0,0,0,0,56,3.656,80.6,29.52756,P-GPS,,9.0
397,666200,2026-01-08 12:39:51,0.223694,5,7.375,0.223694,0.0,0.223694,39.1,9.1,7.4,1024,1024,1024,1024,0,0,0,0,56,3.656,80.6,29.855644,P-GPS,,9.1
398,666300,2026-01-08 12:39:51,0.223694,5,7.375,0.223694,0.0,0.223694,39.1,9.6,6.8,1024,1024,1024,1024,0,0,0,0,56,3.656,80.6,29.855644,P-GPS,,9.1
399,666400,2026-01-08 12:39:51,0.223694,5,7.375,0.223694,0.0,0.0,39.1,9.6,7.6,1024,1024,1024,1024,0,0,0,0,56,3.656,80.6,29.855644,P-GPS,,9.1
400,666500,2026-01-08 12:39:51,0.223694,5,7.375,0.223694,0.0,0.0,39.2,11.2,7.7,1024,1024,1024,1024,0,0,0,0,56,3.656,80.6,30.183728,P-GPS,,9.2
401,666600,2026-01-08 12:39:51,0.223694,5,7.375,0.223694,0.0,0.0,39.2,10.5,8.1,1024,1024,1024,1024,0,0,0,0,56,3.656,80.6,30.183728,P-GPS,,9.2
402,666700,2026-01-08 12:39:51,0.223694,5,7.375,0.223694,0.0,0.0,39.3,11.4,8.4,1024,1024,1024,1024,0,0,0,0,56,3.656,80.6,30.511812,P-GPS,,9.3
403,666800,2026-01-08 12:39:51,0.0,5,7.375,0.0,0.0,0.0,39.2,11.2,7.8,1024,1024,1024,1024,0,0,0,0,56,3.656,80.6,30.511812,P-GPS,,9.3
404,666900,2026-01-08 12:39:51,0.0,5,7.375,0.0,0.0,0.0,39.2,10.2,6.3,1024,1024,1024,1024,0,0,0,0,56,3.656,80.6,30.511812,P-GPS,,9.3
405,667000,2026-01-08 12:39:51,0.0,5,7.375,0.0,0.0,0.0,39.1,8.3,6.6,1024,1024,1024,1024,0,0,0,0,56,3.656,80.6,30.511812,P-GPS,,9.3
406,667100,2026-01-08 12:39:51,0.0,5,7.375,0.0,0.0,-0.223694,39.0,8.2,6.7,1024,1024,1024,1024,0,0,0,0,56,3.656,80.6,30.511812,P-GPS,,9.3
407,667200,2026-01-08 12:39:52,0.0,5,7.375,0.0,0.0,-0.223694,39.2,9.6,6.8,1024,1024,1024,1024,0,0,0,0,56,3.656,80.6,30.511812,P-GPS,,9.3
408,667300,2026-01-08 12:39:52,0.0,5,7.365,0.0,0.0,0.0,38.9,8.5,6.1,1024,1024,1024,1024,0,0,0,0,56,4.401,80.6,30.511812,P-GPS,,9.3
409,667400,2026-01-08 12:39:52,0.0,5,7.365,0.0,0.0,0.0,38.9,8.0,6.1,1024,1024,1024,1024,0,0,0,0,56,4.401,80.6,30.511812,P-GPS,,9.3
410,667500,2026-01-08 12:39:52,0.0,5,7.365,0.0,0.0,0.0,39.1,8.4,5.9,1024,1024,1024,1024,0,0,0,0,56,4.401,80.6,30.511812,P-GPS,,9.3
411,667600,2026-01-08 12:39:52,0.0,5,7.365,0.0,0.0,0.0,39.1,8.6,5.8,1024,1024,1024,1024,0,0,0,0,56,4.401,80.6,30.511812,P-GPS,,9.3
412,667700,2026-01-08 12:39:52,0.0,5,7.365,0.0,0.0,0.0,39.1,7.8,5.3,1024,1024,1024,1024,0,0,0,0,56,4.401,80.6,30.511812,P-GPS,,9.3
413,667800,2026-01-08 12:39:52,0.0,5,7.365,0.0,0.0,0.0,39.1,7.3,4.9,1024,1024,1024,1024,0,0,0,0,56,4.401,80.6,30.511812,P-GPS,,9.3
414,667900,2026-01-08 12:39:52,0.0,5,7.365,0.0,0.0,0.0,39.0,7.0,5.1,1024,1024,1024,1024,0,0,0,0,56,4.401,80.6,30.511812,P-GPS,,9.3
415,668000,2026-01-08 12:39:52,0.0,5,7.365,0.0,0.0,0.0,39.1,7.3,5.0,1024,1024,1024,1024,0,0,0,0,56,4.401,80.6,30.511812,P-GPS,,9.3
416,668100,2026-01-08 12:39:52,0.0,5,7.365,0.0,0.0,0.0,39.1,7.5,5.0,1024,1024,1024,1024,0,0,0,0,56,4.401,80.6,30.511812,P-GPS,,9.3
417,668200,2026-01-08 12:39:53,0.0,5,7.365,0.0,0.0,0.0,39.1,7.5,5.2,1024,1024,1024,1024,0,0,0,0,56,4.401,80.6,30.183728,P-GPS,,9.2
418,668300,2026-01-08 12:39:53,0.0,5,7.365,0.0,0.0,0.0,39.1,6.9,5.1,1024,1024,1024,1024,0,0,0,0,56,4.401,80.6,30.183728,P-GPS,,9.2
419,668400,2026-01-08 12:39:53,0.0,5,7.365,0.0,0.0,0.0,39.1,6.1,5.4,1024,1024,1024,1024,0,0,0,0,56,4.401,80.6,30.183728,P-GPS,,9.2
420,668500,2026-01-08 12:39:53,0.0,5,7.346,0.0,0.0,0.0,39.1,6.1,6.1,1024,1024,1024,1024,0,0,0,0,56,4.747,80.6,30.183728,P-GPS,,9.2
421,668600,2026-01-08 12:39:53,0.0,5,7.346,0.0,0.0,0.0,39.0,5.6,5.8,1024,1024,1024,1024,0,0,0,0,56,4.747,80.6,30.183728,P-GPS,,9.2
422,668700,2026-01-08 12:39:53,0.0,5,7.346,0.0,0.0,0.0,39.0,6.6,6.1,1024,1024,1024,1024,0,0,0,0,56,4.747,80.6,30.183728,P-GPS,,9.2
423,668800,2026-01-08 12:39:53,0.0,5,7.346,0.0,0.0,0.0,39.0,6.5,5.8,1024,1024,1024,1024,0,0,0,0,56,4.747,80.6,29.855644,P-GPS,,9.1
424,668900,2026-01-08 12:39:53,0.0,5,7.346,0.0,0.0,0.0,39.0,6.2,6.3,1024,1024,1024,1024,0,0,0,0,56,4.747,80.6,29.855644,P-GPS,,9.1
425,669000,2026-01-08 12:39:53,0.0,5,7.346,0.0,0.0,0.0,38.8,5.3,6.1,1024,1024,1024,1024,0,0,0,0,56,4.747,80.6,29.855644,P-GPS,,9.1
426,669100,2026-01-08 12:39:53,0.0,5,7.346,0.0,0.0,0.0,38.6,5.1,5.8,1024,1024,1024,1024,0,0,0,0,56,4.747,80.6,29.855644,P-GPS,,9.1
427,669200,2026-01-08 12:39:54,0.0,5,7.346,0.0,0.0,0.0,38.7,5.9,5.7,1024,1024,1024,1024,0,0,0,0,56,4.747,80.6,29.855644,P-GPS,,9.1
428,669300,2026-01-08 12:39:54,0.0,5,7.346,0.0,0.0,0.0,38.8,7.1,5.3,1024,1024,1024,1024,0,0,0,0,56,4.747,80.6,29.52756,P-GPS,,9.0
429,669400,2026-01-08 12:39:54,0.0,5,7.346,0.0,0.0,0.0,38.9,7.4,5.4,1024,1024,1024,1024,0,0,0,0,56,4.747,80.6,29.52756,P-GPS,,9.0
430,669500,2026-01-08 12:39:54,0.0,5,7.346,0.0,0.0,0.0,38.8,7.6,5.3,1024,1024,1024,1024,0,0,0,0,56,4.747,80.6,29.52756,P-GPS,,9.0
431,669600,2026-01-08 12:39:54,0.0,5,7.33,0.0,0.0,0.0,38.7,6.7,5.9,1024,1024,1024,1024,0,0,0,0,56,5.009,80.6,29.52756,P-GPS,,9.0
432,669700,2026-01-08 12:39:54,0.0,5,7.33,0.0,0.0,0.0,38.8,7.3,5.9,1024,1024,1024,1024,0,0,0,0,56,5.009,80.6,29.52756,P-GPS,,9.0
433,669800,2026-01-08 12:39:54,0.223694,5,7.33,0.223694,0.0,0.0,38.9,8.6,6.1,1024,1024,1024,1024,0,0,0,0,56,5.009,80.6,29.855644,P-GPS,,9.1
434,669900,2026-01-08 12:39:54,0.223694,5,7.33,0.223694,0.0,0.0,39.0,8.8,6.7,1024,1024,1024,1024,0,0,0,0,56,5.009,80.6,29.855644,P-GPS,,9.1
435,670000,2026-01-08 12:39:54,0.223694,5,7.33,0.223694,0.0,0.0,39.2,9.2,6.7,1024,1024,1024,1024,0,0,0,0,56,5.009,80.6,29.855644,P-GPS,,9.1
436,670100,2026-01-08 12:39:54,0.223694,5,7.33,0.223694,0.0,0.0,39.2,9.2,7.5,1024,1024,1024,1024,0,0,0,0,56,5.009,80.6,29.855644,P-GPS,,9.1
437,670200,2026-01-08 12:39:55,0.0,5,7.33,0.0,0.0,0.0,39.0,8.2,7.1,1024,1024,1024,1024,0,0,0,0,56,5.009,80.6,29.855644,P-GPS,,9.1
438,670300,2026-01-08 12:39:55,0.0,5,7.33,0.0,0.0,0.0,39.2,8.6,7.2,1024,1024,1024,1024,0,0,0,0,56,5.009,80.6,29.855644,P-GPS,,9.1
439,670400,2026-01-08 12:39:55,0.0,5,7.33,0.0,0.0,0.0,39.5,9.8,6.8,1024,1024,1024,1024,0,0,0,0,56,5.009,80.6,29.855644,P-GPS,,9.1
440,670500,2026-01-08 12:39:55,0.0,5,7.33,0.0,0.0,0.0,39.4,8.1,6.9,1024,1024,1024,1024,0,0,0,0,56,5.009,80.6,29.855644,P-GPS,,9.1
441,670600,2026-01-08 12:39:55,0.0,5,7.33,0.0,0.0,0.0,39.2,6.8,6.8,1024,1024,1024,1024,0,0,0,0,56,5.009,80.6,29.855644,P-GPS,,9.1
442,670700,2026-01-08 12:39:55,0.0,5,7.329,0.0,0.0,0.0,39.2,6.1,7.1,1024,1024,1024,1024,0,0,0,0,56,4.89,80.78,29.855644,P-GPS,,9.1
443,670800,2026-01-08 12:39:55,0.0,5,7.329,0.0,0.0,0.0,39.1,5.4,6.8,1024,1024,1024,1024,0,0,0,0,56,4.89,80.78,29.855644,P-GPS,,9.1
444,670900,2026-01-08 12:39:55,0.0,5,7.329,0.0,0.0,0.0,38.9,5.5,6.7,1024,1024,1024,1024,0,0,0,0,56,4.89,80.78,29.855644,P-GPS,,9.1
445,671000,2026-01-08 12:39:55,0.0,5,7.329,0.0,0.0,0.0,39.0,5.8,6.3,1024,1024,1024,1024,0,0,0,0,56,4.89,80.78,29.855644,P-GPS,,9.1
446,671100,2026-01-08 12:39:55,0.0,5,7.329,0.0,0.0,0.0,39.1,6.3,6.9,1024,1024,1024,1024,0,0,0,0,56,4.89,80.78,29.855644,P-GPS,,9.1
447,671200,2026-01-08 12:39:55,0.0,5,7.329,0.0,0.0,0.0,39.2,6.8,6.8,1024,1024,1024,1024,0,0,0,0,56,4.89,80.78,29.855644,P-GPS,,9.1
448,671300,2026-01-08 12:39:56,0.0,5,7.329,0.0,0.0,0.0,39.0,6.2,7.4,1024,1024,1024,1024,0,0,0,0,56,4.89,80.78,29.855644,P-GPS,,9.1
449,671400,2026-01-08 12:39:56,0.0,5,7.329,0.0,0.0,0.0,39.0,6.0,7.2,1024,1024,1024,1024,0,0,0,0,56,4.89,80.78,29.855644,P-GPS,,9.1
450,671500,2026-01-08 12:39:56,0.0,5,7.329,0.0,0.0,0.0,38.9,6.0,7.6,1024,1024,1024,1024,0,0,0,0,56,4.89,80.78,29.855644,P-GPS,,9.1
451,671600,2026-01-08 12:39:56,0.0,5,7.329,0.0,0.0,0.0,38.8,6.1,8.2,1024,1024,1024,1024,0,0,0,0,56,4.89,80.78,30.183728,P-GPS,,9.2
452,671700,2026-01-08 12:39:56,0.0,5,7.329,0.0,0.0,0.0,38.9,7.2,7.9,1024,1024,1024,1024,0,0,0,0,56,4.89,80.78,30.183728,P-GPS,,9.2
