index,time(millisecond),timestamp,speed(mph),gpslevel,voltage(v),xSpeed(mph),ySpeed(mph),zSpeed(mph),compass_heading(degrees),pitch(degrees),roll(degrees),rc_elevator,rc_aileron,rc_throttle,rc_rudder,rc_elevator(percent),rc_aileron(percent),rc_throttle(percent),rc_rudder(percent),battery_percent,current(A),battery_temperature(f),ascent(feet),flycState,message,height_above_takeoff(meters)
494,374200,2026-01-08 12:34:20,0.223694,5,7.561,0.0,-0.223694,0.0,23.8,6.6,5.6,1024,1024,1024,1024,0,0,0,0,75,5.346,75.74,97.769032,P-GPS,,29.8
495,374300,2026-01-08 12:34:20,0.223694,5,7.561,0.0,0.0,0.0,23.8,6.2,5.9,1024,1024,1024,1024,0,0,0,0,75,5.346,75.74,97.769032,P-GPS,,29.8
496,374400,2026-01-08 12:34:20,0.0,5,7.561,0.0,0.0,-0.223694,23.9,5.9,5.7,1024,1024,1024,1024,0,0,0,0,75,5.346,75.74,97.769032,P-GPS,,29.8
497,374500,2026-01-08 12:34:21,0.0,5,7.619,0.0,0.0,-0.223694,24.0,6.2,6.2,1024,1024,1024,1024,0,0,0,0,75,4.429,75.74,97.769032,P-GPS,,29.8
498,374600,2026-01-08 12:34:21,0.0,5,7.619,0.0,0.0,0.0,24.1,6.8,6.1,1024,1024,1024,1024,0,0,0,0,75,4.429,75.74,97.769032,P-GPS,,29.8
499,374700,2026-01-08 12:34:21,0.0,5,7.619,0.0,0.0,0.0,24.1,6.5,5.4,1024,1024,1024,1024,0,0,0,0,75,4.429,75.74,97.769032,P-GPS,,29.8
500,374800,2026-01-08 12:34:21,0.0,5,7.619,0.0,0.0,0.0,24.0,5.2,5.0,1024,1024,1024,1024,0,0,0,0,75,4.429,75.74,97.769032,P-GPS,,29.8
501,374900,2026-01-08 12:34:21,0.0,5,7.619,0.0,0.0,0.0,24.1,5.7,4.9,1024,1024,1024,1024,0,0,0,0,75,4.429,75.74,97.440948,P-GPS,,29.7
502,375000,2026-01-08 12:34:21,0.0,5,7.619,0.0,0.0,0.0,24.0,6.3,4.9,1024,1024,1024,1024,0,0,0,0,75,4.429,75.74,97.440948,P-GPS,,29.7
503,375100,2026-01-08 12:34:21,0.0,5,7.619,0.0,0.0,0.0,23.9,6.6,5.1,1024,1024,1024,1024,0,0,0,0,75,4.429,75.74,97.440948,P-GPS,,29.7
504,375200,2026-01-08 12:34:21,0.0,5,7.619,0.0,0.0,0.0,23.9,6.5,4.2,1024,1024,1024,1024,0,0,0,0,75,4.429,75.74,97.440948,P-GPS,,29.7
505,375300,2026-01-08 12:34:21,0.0,5,7.619,0.0,0.0,0.0,23.9,6.9,4.2,1024,1024,1024,1024,0,0,0,0,75,4.429,75.74,97.769032,P-GPS,,29.8
506,375400,2026-01-08 12:34:21,0.0,5,7.619,0.0,0.0,0.0,24.0,6.8,4.0,1024,1024,1024,1024,0,0,0,0,75,4.429,75.74,97.769032,P-GPS,,29.8
507,375500,2026-01-08 12:34:22,0.0,5,7.63,0.0,0.0,0.0,24.0,6.5,4.3,1024,1024,1024,1024,0,0,0,0,75,4.098,75.74,97.769032,P-GPS,,29.8
508,375600,2026-01-08 12:34:22,0.0,5,7.63,0.0,0.0,0.0,24.0,6.4,4.3,1024,1024,1024,1024,0,0,0,0,75,4.098,75.74,98.097116,P-GPS,,29.9
509,375700,2026-01-08 12:34:22,0.0,5,7.63,0.0,0.0,0.0,24.1,7.1,4.8,1024,1024,1024,1024,0,0,0,0,75,4.098,75.74,98.097116,P-GPS,,29.9
510,375800,2026-01-08 12:34:22,0.0,5,7.63,0.0,0.0,0.0,24.1,6.7,4.9,1024,1024,1024,1024,0,0,0,0,75,4.098,75.74,98.097116,P-GPS,,29.9
511,375900,2026-01-08 12:34:22,0.0,5,7.63,0.0,0.0,0.0,24.1,6.6,5.1,1024,1024,1024,1024,0,0,0,0,75,4.098,75.74,98.4252,P-GPS,,30.0
512,376000,2026-01-08 12:34:22,0.0,5,7.63,0.0,0.0,0.0,24.1,6.5,5.4,1024,1024,1024,1024,0,0,0,0,75,4.098,75.74,98.4252,P-GPS,,30.0
513,376100,2026-01-08 12:34:22,0.0,5,7.63,0.0,0.0,0.0,24.2,7.2,5.6,1024,1024,1024,1024,0,0,0,0,75,4.098,75.74,98.4252,P-GPS,,30.0
514,376200,2026-01-08 12:34:22,0.0,5,7.63,0.0,0.0,0.0,24.1,6.5,5.5,1024,1024,1024,1024,0,0,0,0,75,4.098,75.74,98.4252,P-GPS,,30.0
515,376300,2026-01-08 12:34:22,0.0,5,7.63,0.0,0.0,0.0,24.1,5.9,5.2,1024,1024,1024,1024,0,0,0,0,75,4.098,75.74,98.4252,P-GPS,,30.0
516,376400,2026-01-08 12:34:22,0.0,5,7.63,0.0,0.0,0.0,24.1,5.9,5.4,1024,1024,1024,1024,0,0,0,0,75,4.098,75.74,98.753284,P-GPS,,30.1
517,376500,2026-01-08 12:34:22,0.0,5,7.602,0.0,0.0,0.0,24.1,5.9,5.2,1024,1024,1024,1024,0,0,0,0,75,4.356,75.74,98.753284,P-GPS,,30.1
518,376600,2026-01-08 12:34:23,0.0,5,7.602,0.0,0.0,0.0,24.1,5.8,5.1,1024,1024,1024,1024,0,0,0,0,75,4.356,75.74,98.753284,P-GPS,,30.1
519,376700,2026-01-08 12:34:23,0.0,5,7.602,0.0,0.0,0.0,24.0,6.3,5.0,1024,1024,1024,1024,0,0,0,0,75,4.356,75.74,98.753284,P-GPS,,30.1
520,376800,2026-01-08 12:34:23,0.0,5,7.602,0.0,0.0,0.0,23.9,6.3,4.8,1024,1024,1024,1024,0,0,0,0,75,4.356,75.74,98.753284,P-GPS,,30.1
521,376900,2026-01-08 12:34:23,0.0,5,7.602,0.0,0.0,0.0,23.8,6.1,4.9,1024,1024,1024,1024,0,0,0,0,75,4.356,75.74,98.753284,P-GPS,,30.1
522,377000,2026-01-08 12:34:23,0.0,5,7.602,0.0,0.0,0.0,23.7,6.4,4.8,1024,1024,1024,1024,0,0,0,0,75,4.356,75.74,98.753284,P-GPS,,30.1
523,377100,2026-01-08 12:34:23,0.0,5,7.602,0.0,0.0,0.0,23.7,6.8,4.6,1024,1024,1024,1024,0,0,0,0,75,4.356,75.74,98.753284,P-GPS,,30.1
524,377200,2026-01-08 12:34:23,0.0,5,7.602,0.0,0.0,0.0,23.7,6.7,4.6,1024,1024,1024,1024,0,0,0,0,75,4.356,75.74,98.753284,P-GPS,,30.1
525,377300,2026-01-08 12:34:23,0.0,5,7.602,0.0,0.0,0.0,23.7,6.7,4.4,1024,1024,1024,1024,0,0,0,0,75,4.356,75.74,98.753284,P-GPS,,30.1
526,377400,2026-01-08 12:34:23,0.0,5,7.602,0.0,0.0,0.0,23.6,6.8,4.3,1024,1024,1024,1024,0,0,0,0,75,4.356,75.74,98.753284,P-GPS,,30.1
527,377500,2026-01-08 12:34:24,0.0,5,7.6,0.0,0.0,0.0,23.5,7.3,4.5,1024,1024,1024,1024,0,0,0,0,75,4.371,75.92,98.4252,P-GPS,,30.0
528,377600,2026-01-08 12:34:24,0.0,5,7.6,0.0,0.0,0.0,23.6,7.1,4.7,1024,1024,1024,1024,0,0,0,0,75,4.371,75.92,98.4252,P-GPS,,30.0
529,377700,2026-01-08 12:34:24,0.0,5,7.6,0.0,0.0,0.0,23.6,6.7,4.9,1024,1024,1024,1024,0,0,0,0,75,4.371,75.92,98.4252,P-GPS,,30.0
530,377800,2026-01-08 12:34:24,0.0,5,7.6,0.0,0.0,0.0,23.7,7.1,5.1,1024,1024,1024,1024,0,0,0,0,75,4.371,75.92,98.4252,P-GPS,,30.0
531,377900,2026-01-08 12:34:24,0.0,5,7.6,0.0,0.0,0.0,23.8,7.3,5.1,1024,1024,1024,1024,0,0,0,0,75,4.371,75.92,98.4252,P-GPS,,30.0
532,378000,2026-01-08 12:34:24,0.0,5,7.6,0.0,0.0,0.0,23.9,7.7,5.4,1024,1024,1024,1024,0,0,0,0,75,4.371,75.92,98.4252,P-GPS,,30.0
533,378100,2026-01-08 12:34:24,0.0,5,7.6,0.0,0.0,0.0,23.9,8.2,5.8,1024,1024,1024,1024,0,0,0,0,75,4.371,75.92,98.4252,P-GPS,,30.0
534,378200,2026-01-08 12:34:24,0.0,5,7.6,0.0,0.0,0.0,23.9,8.0,5.8,1024,1024,1024,1024,0,0,0,0,75,4.371,75.92,98.4252,P-GPS,,30.0
535,378300,2026-01-08 12:34:24,0.0,5,7.6,0.0,0.0,0.0,24.0,8.2,6.1,1024,1024,1024,1024,0,0,0,0,75,4.371,75.92,98.4252,P-GPS,,30.0
536,378400,2026-01-08 12:34:24,0.0,5,7.6,0.0,0.0,0.0,24.0,8.1,6.3,1024,1024,1024,1024,0,0,0,0,75,4.371,75.92,98.4252,P-GPS,,30.0
537,378500,2026-01-08 12:34:24,0.0,5,7.595,0.0,0.0,0.0,24.0,8.2,6.3,1024,1024,1024,1024,0,0,0,0,75,4.562,75.74,98.4252,P-GPS,,30.0
538,378600,2026-01-08 12:34:25,0.0,5,7.595,0.0,0.0,0.0,24.0,8.1,6.2,1024,1024,1024,1024,0,0,0,0,75,4.562,75.74,98.4252,P-GPS,,30.0
539,378700,2026-01-08 12:34:25,0.0,5,7.595,0.0,0.0,0.0,24.0,7.9,6.2,1024,1024,1024,1024,0,0,0,0,75,4.562,75.74,98.4252,P-GPS,,30.0
540,378800,2026-01-08 12:34:25,0.0,5,7.595,0.0,0.0,0.0,24.0,7.8,6.2,1024,1024,1024,1024,0,0,0,0,75,4.562,75.74,98.097116,P-GPS,,29.9
541,378900,2026-01-08 12:34:25,0.0,5,7.595,0.0,0.0,0.0,24.0,7.8,6.0,1024,1024,1024,1024,0,0,0,0,75,4.562,75.74,98.097116,P-GPS,,29.9
542,379000,2026-01-08 12:34:25,0.0,5,7.595,0.0,0.0,0.0,23.9,7.7,6.0,1024,1024,1024,1024,0,0,0,0,75,4.562,75.74,98.097116,P-GPS,,29.9
543,379100,2026-01-08 12:34:25,0.0,5,7.595,0.0,0.0,0.0,23.9,7.7,6.0,1024,1024,1024,1024,0,0,0,0,75,4.562,75.74,98.097116,P-GPS,,29.9
544,379200,2026-01-08 12:34:25,0.0,5,7.595,0.0,0.0,0.0,23.9,7.9,6.1,1024,1024,1024,1024,0,0,0,0,75,4.562,75.74,98.097116,P-GPS,,29.9
545,379300,2026-01-08 12:34:25,0.0,5,7.595,0.0,0.0,0.0,24.0,7.9,6.1,1024,1024,1024,1024,0,0,0,0,75,4.562,75.74,98.097116,P-GPS,,29.9
546,379400,2026-01-08 12:34:25,0.0,5,7.595,0.0,0.0,0.0,23.9,7.8,6.1,1024,1024,1024,1024,0,0,0,0,75,4.562,75.74,97.769032,P-GPS,,29.8
547,379500,2026-01-08 12:34:26,0.0,5,7.605,0.0,0.0,0.0,23.9,8.5,5.7,1024,1024,1024,1024,0,0,0,0,75,4.316,75.74,97.769032,P-GPS,,29.8
548,379600,2026-01-08 12:34:26,0.0,5,7.605,0.0,0.0,0.0,23.9,8.6,5.6,1024,1024,1024,1024,0,0,0,0,75,4.316,75.74,97.769032,P-GPS,,29.8
549,379700,2026-01-08 12:34:26,0.0,5,7.605,0.0,0.0,0.0,23.8,8.5,5.8,1024,1024,1024,1024,0,0,0,0,75,4.316,75.74,97.769032,P-GPS,,29.8
550,379800,2026-01-08 12:34:26,0.0,5,7.605,0.0,0.0,0.0,23.8,7.7,5.7,1024,1024,1024,1024,0,0,0,0,75,4.316,75.74,97.769032,P-GPS,,29.8
551,379900,2026-01-08 12:34:26,0.0,5,7.605,0.0,0.0,0.0,24.0,7.4,5.7,1024,1024,1024,1024,0,0,0,0,75,4.316,75.74,97.440948,P-GPS,,29.7
552,380000,2026-01-08 12:34:26,0.0,5,7.605,0.0,0.0,0.0,24.1,7.8,5.6,1024,1024,1024,1024,0,0,0,0,75,4.316,75.74,97.440948,P-GPS,,29.7
553,380100,2026-01-08 12:34:26,0.0,5,7.605,0.0,0.0,0.0,23.9,7.1,5.1,1024,1024,1024,1024,0,0,0,0,75,4.316,75.74,97.440948,P-GPS,,29.7
554,380200,2026-01-08 12:34:26,0.0,5,7.605,0.0,0.0,0.0,24.0,7.3,5.0,1024,1024,1024,1024,0,0,0,0,75,4.316,75.74,97.440948,P-GPS,,29.7
555,380300,2026-01-08 12:34:26,0.0,5,7.605,0.0,0.0,0.0,24.0,7.1,4.8,1024,1024,1024,1024,0,0,0,0,75,4.316,75.74,97.440948,P-GPS,,29.7
556,380400,2026-01-08 12:34:26,0.0,5,7.593,0.0,0.0,0.0,24.0,7.3,4.9,1024,1024,1024,1024,0,0,0,0,75,4.438,75.74,97.112864,P-GPS,,29.6
557,380500,2026-01-08 12:34:27,0.0,5,7.593,0.0,0.0,0.0,24.2,8.5,5.5,1024,1024,1024,1024,0,0,0,0,75,4.438,75.74,97.112864,P-GPS,,29.6
558,380600,2026-01-08 12:34:27,0.0,5,7.593,0.0,0.0,0.0,24.0,7.9,5.3,1024,1024,1024,1024,0,0,0,0,75,4.438,75.74,97.112864,P-GPS,,29.6
559,380700,2026-01-08 12:34:27,0.0,5,7.593,0.0,0.0,0.0,23.9,7.9,5.1,1024,1024,1024,1024,0,0,0,0,75,4.438,75.74,97.112864,P-GPS,,29.6
560,380800,2026-01-08 12:34:27,0.0,5,7.593,0.0,0.0,0.0,23.9,8.2,5.0,1024,1024,1024,1024,0,0,0,0,75,4.438,75.74,97.112864,P-GPS,,29.6
561,380900,2026-01-08 12:34:27,0.0,5,7.593,0.0,0.0,0.0,23.8,7.8,4.8,1024,1024,1024,1024,0,0,0,0,75,4.438,75.74,97.112864,P-GPS,,29.6
562,381000,2026-01-08 12:34:27,0.0,5,7.593,0.0,0.0,0.0,23.8,7.9,5.0,1024,1024,1024,1024,0,0,0,0,75,4.438,75.74,96.78478,P-GPS,,29.5
563,381100,2026-01-08 12:34:27,0.0,5,7.593,0.0,0.0,0.0,23.8,8.1,5.0,1024,1024,1024,1024,0,0,0,0,75,4.438,75.74,96.78478,P-GPS,,29.5
564,381200,2026-01-08 12:34:27,0.0,5,7.593,0.0,0.0,0.0,23.8,7.6,4.7,1024,1024,1024,1024,0,0,0,0,75,4.438,75.74,96.78478,P-GPS,,29.5
565,381300,2026-01-08 12:34:27,0.0,5,7.593,0.0,0.0,0.0,23.8,7.9,4.9,1024,1024,1024,1024,0,0,0,0,75,4.438,75.74,96.78478,P-GPS,,29.5
566,381400,2026-01-08 12:34:27,0.0,5,7.593,0.0,0.0,0.0,23.9,7.4,5.1,1024,1024,1024,1024,0,0,0,0,75,4.438,75.74,96.78478,P-GPS,,29.5
567,381500,2026-01-08 12:34:28,0.0,5,7.593,0.0,0.0,0.0,24.0,7.7,4.8,1024,1024,1024,1024,0,0,0,0,75,4.438,75.74,96.78478,P-GPS,,29.5
568,381600,2026-01-08 12:34:28,0.0,5,7.593,0.0,0.0,0.0,23.9,7.6,4.9,1024,1024,1024,1024,0,0,0,0,75,4.438,75.74,96.78478,P-GPS,,29.5
569,381700,2026-01-08 12:34:28,0.0,5,7.593,0.0,0.0,0.0,23.9,6.7,4.8,1024,1024,1024,1024,0,0,0,0,75,4.438,75.74,96.78478,P-GPS,,29.5
570,381800,2026-01-08 12:34:28,0.0,5,7.593,0.0,0.0,0.0,23.9,6.9,5.2,1024,1024,1024,1024,0,0,0,0,75,4.438,75.74,96.78478,P-GPS,,29.5
571,381900,2026-01-08 12:34:28,0.0,5,7.593,0.0,0.0,0.0,24.0,7.8,5.1,1024,1024,1024,1024,0,0,0,0,75,4.438,75.74,96.78478,P-GPS,,29.5
572,382000,2026-01-08 12:34:28,0.0,5,7.593,0.0,0.0,0.0,23.9,7.1,4.6,1024,1024,1024,1024,0,0,0,0,75,4.438,75.74,96.78478,P-GPS,,29.5
573,382100,2026-01-08 12:34:28,0.0,5,7.593,0.0,0.0,0.0,23.9,7.3,5.0,1024,1024,1024,1024,0,0,0,0,75,4.438,75.74,96.78478,P-GPS,,29.5
574,382200,2026-01-08 12:34:28,0.0,5,7.593,0.0,0.0,0.0,24.0,8.2,4.9,1024,1024,1024,1024,0,0,0,0,75,4.438,75.74,96.456696,P-GPS,,29.4
575,382300,2026-01-08 12:34:28,0.0,5,7.593,0.0,0.0,0.0,24.0,8.8,4.9,1024,1024,1024,1024,0,0,0,0,75,4.438,75.74,96.456696,P-GPS,,29.4
576,382400,2026-01-08 12:34:28,0.0,5,7.593,0.0,0.0,0.0,23.9,8.2,4.7,1024,1024,1024,1024,0,0,0,0,75,4.438,75.74,96.456696,P-GPS,,29.4
577,382500,2026-01-08 12:34:29,0.0,5,7.593,0.0,0.0,0.0,23.9,8.4,5.1,1024,1024,1024,1024,0,0,0,0,75,4.438,75.74,96.456696,P-GPS,,29.4
578,382600,2026-01-08 12:34:29,0.0,5,7.591,0.0,0.0,0.0,24.0,8.7,5.0,1024,1024,1024,1024,0,0,0,0,75,4.483,75.74,96.456696,P-GPS,,29.4
579,382700,2026-01-08 12:34:29,0.0,5,7.591,0.0,0.0,0.0,24.0,9.6,5.1,1024,1024,1024,1024,0,0,0,0,75,4.483,75.74,96.456696,P-GPS,,29.4
580,382800,2026-01-08 12:34:29,0.0,5,7.591,0.0,0.0,0.0,23.9,9.4,4.9,1024,1024,1024,1024,0,0,0,0,75,4.483,75.74,96.456696,P-GPS,,29.4
581,382900,2026-01-08 12:34:29,0.0,5,7.591,0.0,0.0,0.0,23.8,9.2,4.7,1024,1024,1024,1024,0,0,0,0,75,4.483,75.74,96.456696,P-GPS,,29.4
582,383000,2026-01-08 12:34:29,0.0,5,7.591,0.0,0.0,0.0,23.9,8.7,5.1,1024,1024,1024,1024,0,0,0,0,75,4.483,75.74,96.456696,P-GPS,,29.4
583,383100,2026-01-08 12:34:29,0.0,5,7.591,0.0,0.0,0.0,23.9,8.3,5.3,1024,1024,1024,1024,0,0,0,0,75,4.483,75.74,96.456696,P-GPS,,29.4
584,383200,2026-01-08 12:34:29,0.0,5,7.591,0.0,0.0,0.0,23.9,8.2,5.6,1024,1024,1024,1024,0,0,0,0,75,4.483,75.74,96.456696,P-GPS,,29.4
585,383300,2026-01-08 12:34:29,0.0,5,7.591,0.0,0.0,0.0,24.0,8.7,5.6,1024,1024,1024,1024,0,0,0,0,75,4.483,75.74,96.456696,P-GPS,,29.4
586,383400,2026-01-08 12:34:29,0.0,5,7.591,0.0,0.0,0.0,24.0,9.1,5.4,1024,1024,1024,1024,0,0,0,0,75,4.483,75.74,96.456696,P-GPS,,29.4
587,383500,2026-01-08 12:34:29,0.0,5,7.591,0.0,0.0,0.0,24.0,9.4,5.6,1024,1024,1024,1024,0,0,0,0,75,4.483,75.74,96.78478,P-GPS,,29.5
588,383600,2026-01-08 12:34:30,0.0,5,7.591,0.0,0.0,0.0,24.0,9.3,5.9,1024,1024,1024,1024,0,0,0,0,75,4.483,75.74,96.78478,P-GPS,,29.5
589,383700,2026-01-08 12:34:30,0.0,5,7.595,0.0,0.0,0.0,24.0,9.6,5.8,1024,1024,1024,1024,0,0,0,0,75,4.529,75.92,96.78478,P-GPS,,29.5
590,383800,2026-01-08 12:34:30,0.0,5,7.595,0.0,0.0,0.0,23.9,9.3,5.5,1024,1024,1024,1024,0,0,0,0,75,4.529,75.92,96.78478,P-GPS,,29.5
591,383900,2026-01-08 12:34:30,0.0,5,7.595,0.0,0.0,0.0,24.0,9.6,5.7,1024,1024,1024,1024,0,0,0,0,75,4.529,75.92,96.78478,P-GPS,,29.5
592,384000,2026-01-08 12:34:30,0.0,5,7.595,0.0,0.0,0.0,24.1,9.8,5.5,1024,1024,1024,1024,0,0,0,0,75,4.529,75.92,96.78478,P-GPS,,29.5
593,384100,2026-01-08 12:34:30,0.0,5,7.595,0.0,0.0,0.0,24.0,9.7,5.5,1024,1024,1024,1024,0,0,0,0,75,4.529,75.92,96.78478,P-GPS,,29.5
594,384200,2026-01-08 12:34:30,0.0,5,7.595,0.0,0.0,0.0,23.9,9.6,5.1,1024,1024,1024,1024,0,0,0,0,75,4.529,75.92,96.78478,P-GPS,,29.5
595,384300,2026-01-08 12:34:30,0.0,5,7.595,0.0,0.0,0.0,24.0,9.5,4.6,1024,1024,1024,1024,0,0,0,0,75,4.529,75.92,96.78478,P-GPS,,29.5
596,384400,2026-01-08 12:34:30,0.0,5,7.595,0.0,0.0,0.0,24.0,9.7,4.8,1024,1024,1024,1024,0,0,0,0,75,4.529,75.92,96.78478,P-GPS,,29.5
597,384500,2026-01-08 12:34:31,0.0,5,7.595,0.0,0.0,0.0,24.0,9.2,5.0,1024,1024,1024,1024,0,0,0,0,75,4.529,75.92,96.78478,P-GPS,,29.5
598,384600,2026-01-08 12:34:31,0.0,5,7.595,0.0,0.0,0.0,24.0,8.9,4.7,1024,1024,1024,1024,0,0,0,0,75,4.529,75.92,96.78478,P-GPS,,29.5
599,384700,2026-01-08 12:34:31,0.0,5,7.595,0.0,0.0,0.0,23.9,8.4,5.0,1024,1024,1024,1024,0,0,0,0,75,4.529,75.92,96.78478,P-GPS,,29.5
600,384800,2026-01-08 12:34:31,0.0,5,7.577,0.0,0.0,0.0,23.9,7.4,4.9,1024,1024,1024,1024,0,0,0,0,75,4.703,75.92,96.78478,P-GPS,,29.5
601,384900,2026-01-08 12:34:31,0.0,5,7.577,0.0,0.0,0.0,24.1,7.8,5.1,1024,1024,1024,1024,0,0,0,0,75,4.703,75.92,96.78478,P-GPS,,29.5
602,385000,2026-01-08 12:34:31,0.0,5,7.577,0.0,0.0,0.0,24.1,8.2,5.4,1024,1024,1024,1024,0,0,0,0,75,4.703,75.92,96.456696,P-GPS,,29.4
603,385100,2026-01-08 12:34:31,0.0,5,7.577,0.0,0.0,0.0,24.2,8.4,5.4,1024,1024,1024,1024,0,0,0,0,75,4.703,75.92,96.456696,P-GPS,,29.4
604,385200,2026-01-08 12:34:31,0.0,5,7.577,0.0,0.0,0.0,24.2,8.0,5.3,1024,1024,1024,1024,0,0,0,0,75,4.703,75.92,96.456696,P-GPS,,29.4
605,385300,2026-01-08 12:34:31,0.0,5,7.577,0.0,0.0,0.0,24.2,8.0,5.6,1024,1024,1024,1024,0,0,0,0,75,4.703,75.92,96.456696,P-GPS,,29.4
606,385400,2026-01-08 12:34:31,0.0,5,7.577,0.0,0.0,0.0,24.1,7.7,5.5,1024,1024,1024,1024,0,0,0,0,75,4.703,75.92,96.456696,P-GPS,,29.4
607,385500,2026-01-08 12:34:31,0.0,5,7.577,0.0,0.0,0.0,24.1,8.1,5.3,1024,1024,1024,1024,0,0,0,0,75,4.703,75.92,96.456696,P-GPS,,29.4
608,385600,2026-01-08 12:34:32,0.0,5,7.577,0.0,0.0,0.0,24.0,7.9,4.8,1024,1024,1024,1024,0,0,0,0,75,4.703,75.92,96.456696,P-GPS,,29.4
609,385700,2026-01-08 12:34:32,0.0,5,7.577,0.0,0.0,0.0,23.9,7.2,4.8,1024,1024,1024,1024,0,0,0,0,75,4.703,75.92,96.456696,P-GPS,,29.4
610,385800,2026-01-08 12:34:32,0.0,5,7.577,0.0,0.0,0.0,24.0,7.1,5.1,1024,1024,1024,1024,0,0,0,0,75,4.703,75.92,96.456696,P-GPS,,29.4
611,385900,2026-01-08 12:34:32,0.0,5,7.596,0.0,0.0,0.0,24.0,7.9,5.3,1024,1024,1024,1024,0,0,0,0,74,4.31,75.92,96.456696,P-GPS,,29.4
612,386000,2026-01-08 12:34:32,0.0,5,7.596,0.0,0.0,0.0,23.9,7.9,5.1,1024,1024,1024,1024,0,0,0,0,74,4.31,75.92,96.456696,P-GPS,,29.4
613,386100,2026-01-08 12:34:32,0.0,5,7.596,0.0,0.0,0.0,23.9,7.6,5.5,1024,1024,1024,1024,0,0,0,0,74,4.31,75.92,96.456696,P-GPS,,29.4
614,386200,2026-01-08 12:34:32,0.0,5,7.596,0.0,0.0,0.0,23.9,7.5,5.5,1024,1024,1024,1024,0,0,0,0,74,4.31,75.92,96.78478,P-GPS,,29.5
615,386300,2026-01-08 12:34:32,0.0,5,7.596,0.0,0.0,0.0,23.9,8.2,5.4,1024,1024,1024,1024,0,0,0,0,74,4.31,75.92,96.78478,P-GPS,,29.5
616,386400,2026-01-08 12:34:32,0.0,5,7.596,0.0,0.0,0.0,24.1,8.3,5.3,1024,1024,1024,1024,0,0,0,0,74,4.31,75.92,96.78478,P-GPS,,29.5
617,386500,2026-01-08 12:34:33,0.0,5,7.596,0.0,0.0,0.0,24.1,7.1,5.8,1024,1024,1024,1024,0,0,0,0,74,4.31,75.92,96.78478,P-GPS,,29.5
618,386600,2026-01-08 12:34:33,0.0,5,7.596,0.0,0.0,0.0,24.1,7.1,5.5,1024,1024,1024,1024,0,0,0,0,74,4.31,75.92,96.78478,P-GPS,,29.5
619,386700,2026-01-08 12:34:33,0.0,5,7.596,0.0,0.0,0.0,24.2,7.5,5.2,1024,1024,1024,1024,0,0,0,0,74,4.31,75.92,97.112864,P-GPS,,29.6
620,386800,2026-01-08 12:34:33,0.0,5,7.596,0.0,0.0,0.0,24.3,7.3,5.0,1024,1024,1024,1024,0,0,0,0,74,4.31,75.92,97.112864,P-GPS,,29.6
621,386900,2026-01-08 12:34:33,0.0,5,7.596,0.0,0.0,0.0,24.1,7.3,5.4,1024,1024,1024,1024,0,0,0,0,74,4.31,75.92,97.112864,P-GPS,,29.6
622,387000,2026-01-08 12:34:33,0.0,5,7.597,0.0,0.0,0.0,24.1,7.0,5.3,1024,1024,1024,1024,0,0,0,0,74,4.421,75.92,97.112864,P-GPS,,29.6
623,387100,2026-01-08 12:34:33,0.0,5,7.597,0.0,0.0,0.0,24.1,7.0,5.5,1024,1024,1024,1024,0,0,0,0,74,4.421,75.92,97.112864,P-GPS,,29.6
624,387200,2026-01-08 12:34:33,0.0,5,7.597,0.0,0.0,0.0,24.1,7.4,5.6,1024,1024,1024,1024,0,0,0,0,74,4.421,75.92,97.112864,P-GPS,,29.6
625,387300,2026-01-08 12:34:33,0.0,5,7.597,0.0,0.0,0.0,24.1,7.8,5.7,1024,1024,1024,1024,0,0,0,0,74,4.421,75.92,97.112864,P-GPS,,29.6
626,387400,2026-01-08 12:34:33,0.0,5,7.597,0.0,0.0,0.0,24.0,7.4,5.5,1024,1024,1024,1024,0,0,0,0,74,4.421,75.92,97.440948,P-GPS,,29.7
627,387500,2026-01-08 12:34:34,0.0,5,7.597,0.0,0.0,0.0,24.0,8.1,5.8,1024,1024,1024,1024,0,0,0,0,74,4.421,75.92,97.440948,P-GPS,,29.7
628,387600,2026-01-08 12:34:34,0.0,5,7.597,0.0,0.0,0.0,24.0,8.1,5.9,1024,1024,1024,1024,0,0,0,0,74,4.421,75.92,97.440948,P-GPS,,29.7
629,387700,2026-01-08 12:34:34,0.0,5,7.597,0.0,0.0,0.0,24.0,8.1,5.8,1024,1024,1024,1024,0,0,0,0,74,4.421,75.92,97.440948,P-GPS,,29.7
630,387800,2026-01-08 12:34:34,0.0,5,7.597,0.0,0.0,0.0,23.9,8.1,5.9,1024,1024,1024,1024,0,0,0,0,74,4.421,75.92,97.440948,P-GPS,,29.7
631,387900,2026-01-08 12:34:34,0.0,5,7.597,0.0,0.0,0.0,24.0,8.3,5.9,1024,1024,1024,1024,0,0,0,0,74,4.421,75.92,97.440948,P-GPS,,29.7
632,388000,2026-01-08 12:34:34,0.0,5,7.597,0.0,0.0,0.0,23.9,8.2,5.7,1024,1024,1024,1024,0,0,0,0,74,4.421,75.92,97.440948,P-GPS,,29.7
633,388100,2026-01-08 12:34:34,0.0,5,7.59,0.0,0.0,0.0,24.0,8.5,6.1,1024,1024,1024,1024,0,0,0,0,74,4.403,75.92,97.112864,P-GPS,,29.6
634,388200,2026-01-08 12:34:34,0.0,5,7.59,0.0,0.0,0.0,24.0,8.2,6.0,1024,1024,1024,1024,0,0,0,0,74,4.403,75.92,97.112864,P-GPS,,29.6
635,388300,2026-01-08 12:34:34,0.0,5,7.59,0.0,0.0,0.0,23.9,8.1,6.0,1024,1024,1024,1024,0,0,0,0,74,4.403,75.92,97.112864,P-GPS,,29.6
636,388400,2026-01-08 12:34:34,0.0,5,7.59,0.0,0.0,0.0,23.9,8.6,5.8,1024,1024,1024,1024,0,0,0,0,74,4.403,75.92,97.112864,P-GPS,,29.6
637,388500,2026-01-08 12:34:35,0.0,5,7.59,0.0,0.0,0.0,23.9,8.3,5.7,1024,1024,1024,1024,0,0,0,0,74,4.403,75.92,97.112864,P-GPS,,29.6
638,388600,2026-01-08 12:34:35,0.0,5,7.59,0.0,0.0,0.0,23.9,8.7,5.4,1024,1024,1024,1024,0,0,0,0,74,4.403,75.92,97.112864,P-GPS,,29.6
639,388700,2026-01-08 12:34:35,0.0,5,7.59,0.0,0.0,0.0,24.0,8.8,5.9,1024,1024,1024,1024,0,0,0,0,74,4.403,75.92,97.112864,P-GPS,,29.6
640,388800,2026-01-08 12:34:35,0.0,5,7.59,0.0,0.0,0.0,24.0,9.0,6.1,1024,1024,1024,1024,0,0,0,0,74,4.403,75.92,97.112864,P-GPS,,29.6
641,388900,2026-01-08 12:34:35,0.0,5,7.59,0.0,0.0,0.0,24.0,9.3,6.1,1024,1024,1024,1024,0,0,0,0,74,4.403,75.92,97.112864,P-GPS,,29.6
642,389000,2026-01-08 12:34:35,0.0,5,7.59,0.0,0.0,0.0,24.0,9.3,5.9,1024,1024,1024,1024,0,0,0,0,74,4.403,75.92,97.112864,P-GPS,,29.6
643,389100,2026-01-08 12:34:35,0.0,5,7.59,0.0,0.0,0.0,24.0,9.5,5.7,1024,1024,1024,1024,0,0,0,0,74,4.403,75.92,97.112864,P-GPS,,29.6
644,389200,2026-01-08 12:34:35,0.0,5,7.566,0.0,0.0,0.0,24.1,9.8,5.1,1024,1024,1024,1024,0,0,0,0,74,4.94,75.92,96.78478,P-GPS,,29.5
645,389300,2026-01-08 12:34:35,0.0,5,7.566,0.0,0.0,0.0,24.1,9.9,5.3,1024,1024,1024,1024,0,0,0,0,74,4.94,75.92,96.78478,P-GPS,,29.5
646,389400,2026-01-08 12:34:35,0.0,5,7.566,0.0,0.0,0.0,24.1,9.8,5.4,1024,1024,1024,1024,0,0,0,0,74,4.94,75.92,96.78478,P-GPS,,29.5
647,389500,2026-01-08 12:34:36,0.0,5,7.566,0.0,0.0,0.0,24.1,9.5,5.3,1024,1024,1024,1024,0,0,0,0,74,4.94,75.92,96.78478,P-GPS,,29.5
648,389600,2026-01-08 12:34:36,0.0,5,7.566,0.0,0.0,0.0,24.1,9.3,5.5,1024,1024,1024,1024,0,0,0,0,74,4.94,75.92,96.78478,P-GPS,,29.5
649,389700,2026-01-08 12:34:36,0.0,5,7.566,0.0,0.0,0.0,24.1,10.0,5.2,1024,1024,1024,1024,0,0,0,0,74,4.94,75.92,96.78478,P-GPS,,29.5
650,389800,2026-01-08 12:34:36,0.0,5,7.566,0.0,0.0,0.0,24.1,9.8,5.3,1024,1024,1024,1024,0,0,0,0,74,4.94,75.92,96.78478,P-GPS,,29.5
651,389900,2026-01-08 12:34:36,0.0,5,7.566,0.0,0.0,0.0,24.1,10.1,5.0,1024,1024,1024,1024,0,0,0,0,74,4.94,75.92,96.78478,P-GPS,,29.5
652,390000,2026-01-08 12:34:36,0.0,5,7.566,0.0,0.0,0.0,24.1,9.7,5.1,1024,1024,1024,1024,0,0,0,0,74,4.94,75.92,96.78478,P-GPS,,29.5
653,390100,2026-01-08 12:34:36,0.0,5,7.566,0.0,0.0,0.0,24.1,9.9,4.9,1024,1024,1024,1024,0,0,0,0,74,4.94,75.92,96.456696,P-GPS,,29.4
654,390200,2026-01-08 12:34:36,0.0,5,7.566,0.0,0.0,0.0,24.0,8.8,4.7,1024,1024,1024,1024,0,0,0,0,74,4.94,75.92,96.456696,P-GPS,,29.4
655,390300,2026-01-08 12:34:36,0.0,5,7.559,0.0,0.0,0.0,23.8,8.4,4.5,1024,1024,1024,1024,0,0,0,0,74,5.051,76.1,96.456696,P-GPS,,29.4
656,390400,2026-01-08 12:34:36,0.0,5,7.559,0.0,0.0,-0.223694,23.9,8.4,4.7,1024,1024,1024,1024,0,0,0,0,74,5.051,76.1,96.456696,P-GPS,,29.4
657,390500,2026-01-08 12:34:37,0.0,5,7.559,0.0,0.0,-0.223694,24.0,8.0,5.0,1024,1024,1024,1024,0,0,0,0,74,5.051,76.1,96.456696,P-GPS,,29.4
658,390600,2026-01-08 12:34:37,0.0,5,7.559,0.0,0.0,-0.223694,24.1,9.0,5.6,1024,1024,1024,1024,0,0,0,0,74,5.051,76.1,96.456696,P-GPS,,29.4
659,390700,2026-01-08 12:34:37,0.0,5,7.559,0.0,0.0,0.0,24.1,8.9,5.5,1024,1024,1024,1024,0,0,0,0,74,5.051,76.1,96.456696,P-GPS,,29.4
660,390800,2026-01-08 12:34:37,0.0,5,7.559,0.0,0.0,0.0,24.1,8.6,5.5,1024,1024,1024,1024,0,0,0,0,74,5.051,76.1,96.456696,P-GPS,,29.4
661,390900,2026-01-08 12:34:37,0.0,5,7.559,0.0,0.0,0.0,24.2,9.1,5.8,1024,1024,1024,1024,0,0,0,0,74,5.051,76.1,96.456696,P-GPS,,29.4
662,391000,2026-01-08 12:34:37,0.0,5,7.559,0.0,0.0,0.0,24.0,8.7,5.7,1024,1024,1024,1024,0,0,0,0,74,5.051,76.1,96.456696,P-GPS,,29.4
663,391100,2026-01-08 12:34:37,0.0,5,7.559,0.0,0.0,0.0,24.0,8.6,5.8,1024,1024,1024,1024,0,0,0,0,74,5.051,76.1,96.456696,P-GPS,,29.4
664,391200,2026-01-08 12:34:37,0.0,5,7.559,0.0,0.0,0.0,24.0,8.6,6.0,1024,1024,1024,1024,0,0,0,0,74,5.051,76.1,96.456696,P-GPS,,29.4
665,391300,2026-01-08 12:34:37,0.0,5,7.559,0.0,0.0,0.0,24.1,8.7,6.2,1024,1024,1024,1024,0,0,0,0,74,5.051,76.1,96.456696,P-GPS,,29.4
666,391400,2026-01-08 12:34:37,0.0,5,7.585,0.0,0.0,0.0,24.0,8.5,6.1,1024,1024,1024,1024,0,0,0,0,74,4.361,76.1,96.456696,P-GPS,,29.4
667,391500,2026-01-08 12:34:38,0.0,5,7.585,0.0,0.0,0.0,24.0,8.7,6.3,1024,1024,1024,1024,0,0,0,0,74,4.361,76.1,96.456696,P-GPS,,29.4
668,391600,2026-01-08 12:34:38,0.0,5,7.585,0.0,0.0,0.0,24.1,8.5,6.2,1024,1024,1024,1024,0,0,0,0,74,4.361,76.1,96.456696,P-GPS,,29.4
669,391700,2026-01-08 12:34:38,0.0,5,7.585,0.0,0.0,0.0,24.1,9.0,6.6,1024,1024,1024,1024,0,0,0,0,74,4.361,76.1,96.456696,P-GPS,,29.4
670,391800,2026-01-08 12:34:38,0.0,5,7.585,0.0,0.0,0.0,24.1,8.8,6.5,1024,1024,1024,1024,0,0,0,0,74,4.361,76.1,96.456696,P-GPS,,29.4
671,391900,2026-01-08 12:34:38,0.0,5,7.585,0.0,0.0,0.0,24.1,8.4,6.3,1024,1024,1024,1024,0,0,0,0,74,4.361,76.1,96.456696,P-GPS,,29.4
672,392000,2026-01-08 12:34:38,0.0,5,7.585,0.0,0.0,0.0,24.1,8.3,6.4,1024,1024,1024,1024,0,0,0,0,74,4.361,76.1,96.456696,P-GPS,,29.4
673,392100,2026-01-08 12:34:38,0.0,5,7.585,0.0,0.0,0.0,24.2,8.9,6.7,1024,1024,1024,1024,0,0,0,0,74,4.361,76.1,96.456696,P-GPS,,29.4
674,392200,2026-01-08 12:34:38,0.0,5,7.585,0.0,0.0,0.0,24.2,9.1,6.9,1024,1024,1024,1024,0,0,0,0,74,4.361,76.1,96.456696,P-GPS,,29.4
675,392300,2026-01-08 12:34:38,0.0,5,7.585,0.0,0.0,0.0,24.2,9.0,6.8,1024,1024,1024,1024,0,0,0,0,74,4.361,76.1,96.78478,P-GPS,,29.5
676,392400,2026-01-08 12:34:38,0.0,5,7.585,0.0,0.0,0.0,24.0,9.1,7.0,1024,1024,1024,1024,0,0,0,0,74,4.361,76.1,96.78478,P-GPS,,29.5
677,392500,2026-01-08 12:34:38,0.0,5,7.574,0.0,0.0,0.0,24.0,8.7,7.1,1024,1024,1024,1024,0,0,0,0,74,4.499,76.1,96.78478,P-GPS,,29.5
678,392600,2026-01-08 12:34:39,0.0,5,7.574,0.0,0.0,0.0,24.2,8.7,7.0,1024,1024,1024,1024,0,0,0,0,74,4.499,76.1,96.78478,P-GPS,,29.5
679,392700,2026-01-08 12:34:39,0.0,5,7.574,0.0,0.0,0.0,24.2,8.8,6.7,1024,1024,1024,1024,0,0,0,0,74,4.499,76.1,96.78478,P-GPS,,29.5
680,392800,2026-01-08 12:34:39,0.0,5,7.574,0.0,0.0,0.0,24.2,8.9,6.7,1024,1024,1024,1024,0,0,0,0,74,4.499,76.1,96.78478,P-GPS,,29.5
681,392900,2026-01-08 12:34:39,0.0,5,7.574,0.0,0.0,0.0,24.1,8.4,6.7,1024,1024,1024,1024,0,0,0,0,74,4.499,76.1,96.78478,P-GPS,,29.5
682,393000,2026-01-08 12:34:39,0.0,5,7.574,0.0,0.0,0.0,24.1,8.4,6.4,1024,1024,1024,1024,0,0,0,0,74,4.499,76.1,96.78478,P-GPS,,29.5
683,393100,2026-01-08 12:34:39,0.0,5,7.574,0.0,0.0,0.0,24.1,8.5,6.6,1024,1024,1024,1024,0,0,0,0,74,4.499,76.1,96.78478,P-GPS,,29.5
684,393200,2026-01-08 12:34:39,0.0,5,7.574,0.0,0.0,0.0,24.0,8.4,6.6,1024,1024,1024,1024,0,0,0,0,74,4.499,76.1,96.78478,P-GPS,,29.5
685,393300,2026-01-08 12:34:39,0.0,5,7.574,0.0,0.0,0.0,24.1,8.6,6.6,1024,1024,1024,1024,0,0,0,0,74,4.499,76.1,96.78478,P-GPS,,29.5
686,393400,2026-01-08 12:34:39,0.0,5,7.574,0.0,0.0,0.0,24.2,8.7,6.3,1024,1024,1024,1024,0,0,0,0,74,4.499,76.1,96.78478,P-GPS,,29.5
687,393500,2026-01-08 12:34:40,0.0,5,7.574,0.0,0.0,0.0,24.1,8.7,6.7,1024,1024,1024,1024,0,0,0,0,74,4.499,76.1,96.78478,P-GPS,,29.5
688,393600,2026-01-08 12:34:40,0.0,5,7.574,0.0,0.0,0.0,24.0,8.5,6.6,1024,1024,1024,1024,0,0,0,0,74,4.499,76.1,96.78478,P-GPS,,29.5
689,393700,2026-01-08 12:34:40,0.0,5,7.583,0.0,0.0,0.0,24.1,8.5,6.6,1024,1024,1024,1024,0,0,0,0,74,4.459,76.1,96.78478,P-GPS,,29.5
690,393800,2026-01-08 12:34:40,0.0,5,7.583,0.0,0.0,0.0,24.0,8.6,6.2,1024,1024,1024,1024,0,0,0,0,74,4.459,76.1,96.78478,P-GPS,,29.5
691,393900,2026-01-08 12:34:40,0.0,5,7.583,0.0,0.0,0.0,24.0,7.9,5.6,1024,1024,1024,1024,0,0,0,0,74,4.459,76.1,96.78478,P-GPS,,29.5
692,394000,2026-01-08 12:34:40,0.0,5,7.583,0.0,0.0,0.0,24.0,8.2,5.3,1024,1024,1024,1024,0,0,0,0,74,4.459,76.1,96.78478,P-GPS,,29.5
693,394100,2026-01-08 12:34:40,0.0,5,7.583,0.0,0.0,0.0,24.0,8.7,5.5,1024,1024,1024,1024,0,0,0,0,74,4.459,76.1,96.78478,P-GPS,,29.5
694,394200,2026-01-08 12:34:40,0.0,5,7.583,0.0,0.0,0.0,24.0,8.6,5.5,1024,1024,1024,1024,0,0,0,0,74,4.459,76.1,96.78478,P-GPS,,29.5
695,394300,2026-01-08 12:34:40,0.0,5,7.583,0.0,0.0,0.0,24.1,8.5,5.5,1024,1024,1024,1024,0,0,0,0,74,4.459,76.1,96.78478,P-GPS,,29.5
696,394400,2026-01-08 12:34:40,0.0,5,7.583,0.0,0.0,0.0,24.1,8.6,5.3,1024,1024,1024,1024,0,0,0,0,74,4.459,76.1,96.456696,P-GPS,,29.4
697,394500,2026-01-08 12:34:40,0.0,5,7.583,0.0,0.0,0.0,24.0,8.9,4.6,1024,1024,1024,1024,0,0,0,0,74,4.459,76.1,96.456696,P-GPS,,29.4
698,394600,2026-01-08 12:34:41,0.0,5,7.583,0.0,0.0,0.0,24.0,9.0,4.1,1024,1024,1024,1024,0,0,0,0,74,4.459,76.1,96.456696,P-GPS,,29.4
699,394700,2026-01-08 12:34:41,0.0,5,7.583,0.0,0.0,0.0,24.0,9.4,4.5,1024,1024,1024,1024,0,0,0,0,74,4.459,76.1,96.456696,P-GPS,,29.4
700,394800,2026-01-08 12:34:41,0.0,5,7.559,0.0,0.0,0.0,24.0,9.7,4.6,1024,1024,1024,1024,0,0,0,0,74,4.939,76.1,96.456696,P-GPS,,29.4
701,394900,2026-01-08 12:34:41,0.0,5,7.559,0.0,0.0,0.0,24.0,9.6,4.7,1024,1024,1024,1024,0,0,0,0,74,4.939,76.1,96.78478,P-GPS,,29.5
702,395000,2026-01-08 12:34:41,0.0,5,7.559,0.0,0.0,0.0,24.1,9.5,4.7,1024,1024,1024,1024,0,0,0,0,74,4.939,76.1,96.78478,P-GPS,,29.5
703,395100,2026-01-08 12:34:41,0.0,5,7.559,0.0,0.0,0.0,24.1,9.8,4.8,1024,1024,1024,1024,0,0,0,0,74,4.939,76.1,96.78478,P-GPS,,29.5
704,395200,2026-01-08 12:34:41,0.0,5,7.559,0.0,0.0,-0.223694,24.1,9.6,5.0,1024,1024,1024,1024,0,0,0,0,74,4.939,76.1,96.78478,P-GPS,,29.5
705,395300,2026-01-08 12:34:41,0.0,5,7.559,0.0,0.0,0.0,24.0,9.7,5.0,1024,1024,1024,1024,0,0,0,0,74,4.939,76.1,96.78478,P-GPS,,29.5
706,395400,2026-01-08 12:34:41,0.0,5,7.559,0.0,0.0,0.0,24.0,9.6,5.1,1024,1024,1024,1024,0,0,0,0,74,4.939,76.1,96.78478,P-GPS,,29.5
707,395500,2026-01-08 12:34:42,0.0,5,7.559,0.0,0.0,0.0,24.0,9.3,4.9,1024,1024,1024,1024,0,0,0,0,74,4.939,76.1,96.78478,P-GPS,,29.5
708,395600,2026-01-08 12:34:42,0.0,5,7.559,0.0,0.0,0.0,24.1,9.5,4.9,1024,1024,1024,1024,0,0,0,0,74,4.939,76.1,96.78478,P-GPS,,29.5
709,395700,2026-01-08 12:34:42,0.0,5,7.559,0.0,0.0,0.0,24.0,9.7,5.2,1024,1024,1024,1024,0,0,0,0,74,4.939,76.1,96.78478,P-GPS,,29.5
710,395800,2026-01-08 12:34:42,0.0,5,7.559,0.0,0.0,0.0,24.1,9.1,5.3,1024,1024,1024,1024,0,0,0,0,74,4.939,76.1,96.78478,P-GPS,,29.5
711,395900,2026-01-08 12:34:42,0.0,5,7.566,0.0,0.0,0.0,24.0,9.2,5.0,1024,1024,1024,1024,0,0,0,0,74,4.975,76.1,96.78478,P-GPS,,29.5
712,396000,2026-01-08 12:34:42,0.0,5,7.566,0.0,0.0,0.0,24.0,9.2,4.8,1024,1024,1024,1024,0,0,0,0,74,4.975,76.1,97.112864,P-GPS,,29.6
713,396100,2026-01-08 12:34:42,0.0,5,7.566,0.0,0.0,0.0,23.8,8.3,4.9,1024,1024,1024,1024,0,0,0,0,74,4.975,76.1,97.112864,P-GPS,,29.6
714,396200,2026-01-08 12:34:42,0.0,5,7.566,0.0,0.0,0.0,23.9,8.7,4.5,1024,1024,1024,1024,0,0,0,0,74,4.975,76.1,97.112864,P-GPS,,29.6
715,396300,2026-01-08 12:34:42,0.0,5,7.566,0.0,0.0,0.0,24.0,8.7,4.3,1024,1024,1024,1024,0,0,0,0,74,4.975,76.1,97.112864,P-GPS,,29.6
716,396400,2026-01-08 12:34:42,0.0,5,7.566,0.0,0.0,0.0,24.0,8.8,4.2,1024,1024,1024,1024,0,0,0,0,74,4.975,76.1,97.112864,P-GPS,,29.6
717,396500,2026-01-08 12:34:42,0.0,5,7.566,0.0,0.0,0.0,24.1,9.2,4.4,1024,1024,1024,1024,0,0,0,0,74,4.975,76.1,97.112864,P-GPS,,29.6
718,396600,2026-01-08 12:34:43,0.0,5,7.566,0.0,0.0,0.0,24.1,9.1,3.8,1024,1024,1024,1024,0,0,0,0,74,4.975,76.1,97.112864,P-GPS,,29.6
719,396700,2026-01-08 12:34:43,0.0,5,7.566,0.0,0.0,0.0,24.0,9.0,4.2,1024,1024,1024,1024,0,0,0,0,74,4.975,76.1,97.112864,P-GPS,,29.6
720,396800,2026-01-08 12:34:43,0.0,5,7.566,0.0,0.0,0.0,23.9,8.5,4.5,1024,1024,1024,1024,0,0,0,0,74,4.975,76.1,97.112864,P-GPS,,29.6
721,396900,2026-01-08 12:34:43,0.0,5,7.566,0.0,0.0,0.0,23.9,8.8,4.6,1024,1024,1024,1024,0,0,0,0,74,4.975,76.1,97.112864,P-GPS,,29.6
722,397000,2026-01-08 12:34:43,0.0,5,7.541,0.0,0.0,0.0,24.0,8.5,4.9,1024,1024,1024,1024,0,0,0,0,74,5.024,76.1,97.112864,P-GPS,,29.6
723,397100,2026-01-08 12:34:43,0.0,5,7.541,0.0,0.0,0.0,24.0,8.6,4.7,1024,1024,1024,1024,0,0,0,0,74,5.024,76.1,97.112864,P-GPS,,29.6
724,397200,2026-01-08 12:34:43,0.0,5,7.541,0.0,0.0,0.0,23.9,8.3,4.8,1024,1024,1024,1024,0,0,0,0,74,5.024,76.1,97.440948,P-GPS,,29.7
725,397300,2026-01-08 12:34:43,0.0,5,7.541,0.0,0.0,0.0,24.1,9.5,5.1,1024,1024,1024,1024,0,0,0,0,74,5.024,76.1,97.440948,P-GPS,,29.7
726,397400,2026-01-08 12:34:43,0.0,5,7.541,0.0,0.0,0.0,24.2,10.0,5.1,1024,1024,1024,1024,0,0,0,0,74,5.024,76.1,97.440948,P-GPS,,29.7
727,397500,2026-01-08 12:34:44,0.0,5,7.541,0.0,0.0,0.0,24.2,10.0,5.0,1024,1024,1024,1024,0,0,0,0,74,5.024,76.1,97.440948,P-GPS,,29.7
728,397600,2026-01-08 12:34:44,0.0,5,7.541,0.0,0.0,0.0,24.2,9.5,5.1,1024,1024,1024,1024,0,0,0,0,74,5.024,76.1,97.440948,P-GPS,,29.7
729,397700,2026-01-08 12:34:44,0.0,5,7.541,0.0,0.0,0.0,24.2,9.8,4.5,1024,1024,1024,1024,0,0,0,0,74,5.024,76.1,97.440948,P-GPS,,29.7
730,397800,2026-01-08 12:34:44,0.0,5,7.541,0.0,0.0,0.0,24.2,10.2,4.3,1024,1024,1024,1024,0,0,0,0,74,5.024,76.1,97.440948,P-GPS,,29.7
731,397900,2026-01-08 12:34:44,0.0,5,7.541,0.0,0.0,0.0,24.1,10.0,4.2,1024,1024,1024,1024,0,0,0,0,74,5.024,76.1,97.769032,P-GPS,,29.8
732,398000,2026-01-08 12:34:44,0.0,5,7.541,0.0,0.0,0.0,24.0,9.5,3.8,1024,1024,1024,1024,0,0,0,0,74,5.024,76.1,97.769032,P-GPS,,29.8
733,398100,2026-01-08 12:34:44,0.0,5,7.538,0.0,0.0,0.0,24.0,8.9,3.9,1024,1024,1024,1024,0,0,0,0,74,5.379,76.28,97.769032,P-GPS,,29.8
734,398200,2026-01-08 12:34:44,0.0,5,7.538,0.0,0.0,0.0,24.1,8.0,4.1,1024,1024,1024,1024,0,0,0,0,74,5.379,76.28,97.769032,P-GPS,,29.8
735,398300,2026-01-08 12:34:44,0.0,5,7.538,0.0,0.0,0.0,24.1,8.6,4.0,1024,1024,1024,1024,0,0,0,0,74,5.379,76.28,97.769032,P-GPS,,29.8
736,398400,2026-01-08 12:34:44,0.0,5,7.538,0.0,0.0,0.0,24.1,8.8,4.0,1024,1024,1024,1024,0,0,0,0,74,5.379,76.28,97.769032,P-GPS,,29.8
737,398500,2026-01-08 12:34:45,0.0,5,7.538,0.0,0.0,0.0,24.0,9.1,3.5,1024,1024,1024,1024,0,0,0,0,74,5.379,76.28,97.769032,P-GPS,,29.8
738,398600,2026-01-08 12:34:45,0.0,5,7.538,0.0,0.0,0.0,24.0,9.4,3.5,1024,1024,1024,1024,0,0,0,0,74,5.379,76.28,97.769032,P-GPS,,29.8
739,398700,2026-01-08 12:34:45,0.0,5,7.538,0.0,0.0,0.0,24.0,9.6,2.9,1024,1024,1024,1024,0,0,0,0,74,5.379,76.28,97.769032,P-GPS,,29.8
740,398800,2026-01-08 12:34:45,0.0,5,7.538,0.0,0.0,0.0,23.9,9.3,3.0,1024,1024,1024,1024,0,0,0,0,74,5.379,76.28,97.769032,P-GPS,,29.8
741,398900,2026-01-08 12:34:45,0.0,5,7.538,0.0,0.0,0.0,24.0,9.6,3.0,1024,1024,1024,1024,0,0,0,0,74,5.379,76.28,97.769032,P-GPS,,29.8
742,399000,2026-01-08 12:34:45,0.0,5,7.538,0.0,0.0,0.0,23.9,9.2,2.8,1024,1024,1024,1024,0,0,0,0,74,5.379,76.28,97.769032,P-GPS,,29.8
743,399100,2026-01-08 12:34:45,0.0,5,7.538,0.0,0.0,0.0,23.8,9.3,2.6,1024,1024,1024,1024,0,0,0,0,74,5.379,76.28,97.769032,P-GPS,,29.8
744,399200,2026-01-08 12:34:45,0.0,5,7.564,0.0,0.0,0.0,23.8,8.7,3.0,1024,1024,1024,1024,0,0,0,0,74,4.987,76.1,98.097116,P-GPS,,29.9
745,399300,2026-01-08 12:34:45,0.0,5,7.564,0.0,0.0,0.0,23.9,8.6,3.0,1024,1024,1024,1024,0,0,0,0,74,4.987,76.1,98.097116,P-GPS,,29.9
746,399400,2026-01-08 12:34:45,0.0,5,7.564,0.0,0.0,0.0,23.8,8.8,3.2,1024,1024,1024,1024,0,0,0,0,74,4.987,76.1,98.097116,P-GPS,,29.9
747,399500,2026-01-08 12:34:46,0.0,5,7.564,0.0,0.0,0.0,23.8,8.8,3.0,1024,1024,1024,1024,0,0,0,0,74,4.987,76.1,98.097116,P-GPS,,29.9
748,399600,2026-01-08 12:34:46,0.0,5,7.564,0.0,0.0,0.0,23.8,9.0,3.2,1024,1024,1024,1024,0,0,0,0,74,4.987,76.1,98.097116,P-GPS,,29.9
749,399700,2026-01-08 12:34:46,0.0,5,7.564,0.0,0.0,0.0,23.9,9.0,3.5,1024,1024,1024,1024,0,0,0,0,74,4.987,76.1,98.097116,P-GPS,,29.9
750,399800,2026-01-08 12:34:46,0.0,5,7.564,0.0,0.0,0.0,23.9,8.8,3.4,1024,1024,1024,1024,0,0,0,0,74,4.987,76.1,98.4252,P-GPS,,30.0
751,399900,2026-01-08 12:34:46,0.0,5,7.564,0.0,0.0,0.0,24.0,8.8,3.9,1024,1024,1024,1024,0,0,0,0,74,4.987,76.1,98.4252,P-GPS,,30.0
752,400000,2026-01-08 12:34:46,0.0,5,7.564,0.0,0.0,0.0,24.0,8.9,3.9,1024,1024,1024,1024,0,0,0,0,74,4.987,76.1,98.4252,P-GPS,,30.0
753,400100,2026-01-08 12:34:46,0.0,5,7.564,0.0,0.0,0.0,24.0,8.7,3.7,1024,1024,1024,1024,0,0,0,0,74,4.987,76.1,98.4252,P-GPS,,30.0
754,400200,2026-01-08 12:34:46,0.0,5,7.564,0.0,0.0,0.0,24.0,9.1,3.8,1024,1024,1024,1024,0,0,0,0,74,4.987,76.1,98.4252,P-GPS,,30.0
755,400300,2026-01-08 12:34:46,0.0,5,7.544,0.0,0.0,0.0,24.0,8.8,4.0,1024,1024,1024,1024,0,0,0,0,74,5.06,76.28,98.4252,P-GPS,,30.0
756,400400,2026-01-08 12:34:46,0.0,5,7.544,0.0,0.0,0.0,23.9,8.3,4.0,1024,1024,1024,1024,0,0,0,0,74,5.06,76.28,98.4252,P-GPS,,30.0
757,400500,2026-01-08 12:34:47,0.0,5,7.544,0.0,0.0,0.0,23.9,8.3,4.1,1024,1024,1024,1024,0,0,0,0,74,5.06,76.28,98.4252,P-GPS,,30.0
758,400600,2026-01-08 12:34:47,0.0,5,7.544,0.0,0.0,0.0,23.9,8.7,3.7,1024,1024,1024,1024,0,0,0,0,74,5.06,76.28,98.753284,P-GPS,,30.1
759,400700,2026-01-08 12:34:47,0.0,5,7.544,0.0,0.0,0.0,23.8,8.2,3.8,1024,1024,1024,1024,0,0,0,0,74,5.06,76.28,98.753284,P-GPS,,30.1
760,400800,2026-01-08 12:34:47,0.0,5,7.544,0.0,0.0,0.0,23.9,8.8,4.2,1024,1024,1024,1024,0,0,0,0,74,5.06,76.28,98.753284,P-GPS,,30.1
761,400900,2026-01-08 12:34:47,0.0,5,7.544,0.0,0.0,0.0,23.9,8.8,4.2,1024,1024,1024,1024,0,0,0,0,74,5.06,76.28,98.753284,P-GPS,,30.1
762,401000,2026-01-08 12:34:47,0.0,5,7.544,0.0,0.0,0.0,23.9,8.3,4.9,1024,1024,1024,1024,0,0,0,0,74,5.06,76.28,98.753284,P-GPS,,30.1
763,401100,2026-01-08 12:34:47,0.0,5,7.544,0.0,0.0,0.0,24.0,7.7,4.8,1024,1024,1024,1024,0,0,0,0,74,5.06,76.28,98.753284,P-GPS,,30.1
764,401200,2026-01-08 12:34:47,0.0,5,7.544,0.0,0.0,0.0,24.0,8.7,4.7,1024,1024,1024,1024,0,0,0,0,74,5.06,76.28,98.753284,P-GPS,,30.1
765,401300,2026-01-08 12:34:47,0.0,5,7.544,0.0,0.0,0.0,23.9,8.2,4.8,1024,1024,1024,1024,0,0,0,0,74,5.06,76.28,98.753284,P-GPS,,30.1
766,401400,2026-01-08 12:34:47,0.0,5,7.548,0.0,0.0,0.0,23.9,7.5,5.0,1024,1024,1024,1024,0,0,0,0,74,5.054,76.28,98.753284,P-GPS,,30.1
767,401500,2026-01-08 12:34:47,0.0,5,7.548,0.0,0.0,0.0,23.8,7.4,5.3,1024,1024,1024,1024,0,0,0,0,74,5.054,76.28,98.753284,P-GPS,,30.1
768,401600,2026-01-08 12:34:48,0.0,5,7.548,0.0,0.0,0.0,23.9,8.5,4.8,1024,1024,1024,1024,0,0,0,0,74,5.054,76.28,98.753284,P-GPS,,30.1
769,401700,2026-01-08 12:34:48,0.0,5,7.548,0.0,0.0,0.0,23.9,7.7,4.7,1024,1024,1024,1024,0,0,0,0,74,5.054,76.28,98.753284,P-GPS,,30.1
