index,time(millisecond),timestamp,speed(mph),gpslevel,voltage(v),xSpeed(mph),ySpeed(mph),zSpeed(mph),compass_heading(degrees),pitch(degrees),roll(degrees),rc_elevator,rc_aileron,rc_throttle,rc_rudder,rc_elevator(percent),rc_aileron(percent),rc_throttle(percent),rc_rudder(percent),battery_percent,current(A),battery_temperature(f),ascent(feet),flycState,message,height_above_takeoff(meters)
96,171400,2026-01-08 12:30:46,0.0,5,7.746,0.0,0.0,1.342164,12.1,9.4,3.3,1024,1024,1024,1024,0,0,0,0,88,4.417,69.44,33.792652,P-GPS,,10.3
97,171500,2026-01-08 12:30:46,0.0,5,7.746,0.0,0.0,1.11847,11.8,8.5,2.3,1024,1024,1024,1024,0,0,0,0,88,4.417,69.44,33.464568,P-GPS,,10.2
98,171600,2026-01-08 12:30:46,0.0,5,7.746,0.0,0.0,0.671082,11.7,8.3,2.6,1024,1024,1024,1024,0,0,0,0,88,4.417,69.44,33.136484,P-GPS,,10.1
99,171700,2026-01-08 12:30:46,0.0,5,7.746,0.0,0.0,0.447388,11.9,9.6,3.3,1024,1024,1024,1024,0,0,0,0,88,4.417,69.44,32.8084,P-GPS,,10.0
100,171800,2026-01-08 12:30:46,0.0,5,7.746,0.0,0.0,0.447388,12.3,9.8,3.3,1024,1024,1024,1024,0,0,0,0,88,4.417,69.44,32.8084,P-GPS,,10.0
101,171900,2026-01-08 12:30:46,0.0,5,7.746,0.0,0.0,0.223694,12.2,8.5,2.1,1024,1024,1024,1024,0,0,0,0,88,4.417,69.44,32.480316,P-GPS,,9.9
102,172000,2026-01-08 12:30:46,0.0,5,7.746,0.0,0.0,0.0,12.0,9.2,1.7,1024,1024,1024,1024,0,0,0,0,88,4.417,69.44,32.480316,P-GPS,,9.9
103,172100,2026-01-08 12:30:46,0.0,5,7.746,0.0,0.0,0.0,12.1,9.3,1.4,1024,1024,1024,1024,0,0,0,0,88,4.417,69.44,32.152232,P-GPS,,9.8
104,172200,2026-01-08 12:30:47,0.0,5,7.746,0.0,0.0,0.0,12.1,9.5,2.1,1024,1024,1024,1024,0,0,0,0,88,4.417,69.44,32.152232,P-GPS,,9.8
105,172300,2026-01-08 12:30:47,0.0,5,7.746,0.0,0.0,0.0,12.3,10.6,1.8,1024,1024,1024,1024,0,0,0,0,88,4.417,69.44,31.824148,P-GPS,,9.7
106,172400,2026-01-08 12:30:47,0.223694,5,7.746,0.0,0.223694,0.0,12.3,12.3,0.9,1024,1024,1024,1024,0,0,0,0,88,4.417,69.44,31.824148,P-GPS,,9.7
107,172500,2026-01-08 12:30:47,0.223694,5,7.746,0.0,0.0,0.0,12.2,9.6,0.5,1024,1024,1024,1024,0,0,0,0,88,4.417,69.44,31.824148,P-GPS,,9.7
108,172600,2026-01-08 12:30:47,0.0,5,7.746,0.0,0.0,-0.223694,12.1,10.5,1.5,1024,1024,1024,1024,0,0,0,0,88,4.417,69.44,31.496064,P-GPS,SD card speed low. Normal use may be affected. Replace SD card (Code: 10028). Gimbal stuck. Make sure gimbal cover is removed and manually check whether gimbal can rotate freely (Code: 40002),9.6
109,172700,2026-01-08 12:30:47,0.0,5,7.746,0.0,0.0,0.0,12.0,10.3,1.5,1024,1024,1024,1024,0,0,0,0,88,4.417,69.44,31.496064,P-GPS,,9.6
110,172800,2026-01-08 12:30:47,0.0,5,7.746,0.0,0.0,0.0,12.0,10.4,1.8,1024,1024,1024,1024,0,0,0,0,88,4.417,69.44,31.16798,P-GPS,,9.5
111,172900,2026-01-08 12:30:47,0.0,5,7.746,0.0,0.0,0.0,12.0,10.5,2.8,1024,1024,1024,1024,0,0,0,0,88,4.417,69.44,31.16798,P-GPS,,9.5
112,173000,2026-01-08 12:30:47,0.0,5,7.746,0.0,0.0,0.0,12.3,12.1,3.0,1024,1024,1024,1024,0,0,0,0,88,4.417,69.44,31.16798,P-GPS,,9.5
113,173100,2026-01-08 12:30:47,0.0,5,7.746,0.0,0.0,0.223694,12.3,11.0,2.2,1024,1024,1024,1024,0,0,0,0,88,4.417,69.44,30.839896,P-GPS,,9.4
114,173200,2026-01-08 12:30:47,0.0,5,7.746,0.0,0.0,0.0,12.2,10.5,1.3,1024,1024,1024,1024,0,0,0,0,88,4.417,69.44,30.839896,P-GPS,,9.4
115,173300,2026-01-08 12:30:48,0.0,5,7.746,0.0,0.0,0.0,12.2,10.5,2.1,1024,1024,1024,1024,0,0,0,0,88,4.417,69.44,30.839896,P-GPS,,9.4
116,173400,2026-01-08 12:30:48,0.0,5,7.758,0.0,0.0,0.0,12.1,11.0,1.9,1024,1024,1024,1024,0,0,0,0,88,4.83,69.44,30.839896,P-GPS,,9.4
117,173500,2026-01-08 12:30:48,0.0,5,7.758,0.0,0.0,0.0,12.1,10.9,2.3,1024,1024,1024,1024,0,0,0,0,88,4.83,69.44,30.511812,P-GPS,,9.3
118,173600,2026-01-08 12:30:48,0.0,5,7.758,0.0,0.0,0.0,12.0,10.9,2.5,1024,1024,1024,1024,0,0,0,0,88,4.83,69.44,30.511812,P-GPS,,9.3
119,173700,2026-01-08 12:30:48,0.0,5,7.758,0.0,0.0,0.0,12.0,11.0,2.9,1024,1024,1024,1024,0,0,0,0,88,4.83,69.44,30.511812,P-GPS,,9.3
120,173800,2026-01-08 12:30:48,0.0,5,7.758,0.0,0.0,0.0,12.2,10.7,3.2,1024,1024,1024,1024,0,0,0,0,88,4.83,69.44,30.511812,P-GPS,,9.3
121,173900,2026-01-08 12:30:48,0.0,5,7.758,0.0,0.0,0.0,12.2,11.2,2.9,1024,1024,1024,1024,0,0,0,0,88,4.83,69.44,30.511812,P-GPS,,9.3
122,174000,2026-01-08 12:30:48,0.0,5,7.758,0.0,0.0,0.0,12.2,11.1,2.9,1024,1024,1024,1024,0,0,0,0,88,4.83,69.44,30.511812,P-GPS,,9.3
123,174100,2026-01-08 12:30:48,0.0,5,7.758,0.0,0.0,0.0,12.3,11.7,2.8,1024,1024,1024,1024,0,0,0,0,88,4.83,69.44,30.183728,P-GPS,,9.2
124,174200,2026-01-08 12:30:49,0.0,5,7.758,0.0,0.0,0.0,12.1,10.9,2.5,1024,1024,1024,1024,0,0,0,0,88,4.83,69.44,30.183728,P-GPS,,9.2
125,174300,2026-01-08 12:30:49,0.0,5,7.758,0.0,0.0,0.0,12.3,11.0,2.0,1024,1024,1024,1024,0,0,0,0,88,4.83,69.44,30.183728,P-GPS,,9.2
126,174400,2026-01-08 12:30:49,0.0,5,7.758,0.0,0.0,0.0,12.1,10.4,1.2,1024,1024,1024,1024,0,0,0,0,88,4.83,69.44,30.183728,P-GPS,,9.2
127,174500,2026-01-08 12:30:49,0.0,5,7.758,0.0,0.0,0.0,12.0,10.2,1.3,1024,1024,1024,1024,0,0,0,0,88,4.83,69.44,30.183728,P-GPS,,9.2
128,174600,2026-01-08 12:30:49,0.0,5,7.758,0.0,0.0,0.0,12.0,9.7,1.3,1024,1024,1024,1024,0,0,0,0,88,4.83,69.44,30.183728,P-GPS,,9.2
129,174700,2026-01-08 12:30:49,0.0,5,7.758,0.0,0.0,0.0,12.0,9.4,1.2,1024,1024,1024,1024,0,0,0,0,88,4.83,69.44,29.855644,P-GPS,,9.1
130,174800,2026-01-08 12:30:49,0.0,5,7.758,0.0,0.0,0.0,12.1,9.4,1.5,1024,1024,1024,1024,0,0,0,0,88,4.83,69.44,29.855644,P-GPS,,9.1
131,174900,2026-01-08 12:30:49,0.0,5,7.758,0.0,0.0,0.0,12.3,9.2,1.8,1024,1024,1024,1024,0,0,0,0,88,4.83,69.44,29.855644,P-GPS,,9.1
132,175000,2026-01-08 12:30:49,0.0,5,7.758,0.0,0.0,0.0,12.3,9.6,0.8,1024,1024,1024,1024,0,0,0,0,88,4.83,69.44,29.855644,P-GPS,,9.1
133,175100,2026-01-08 12:30:49,0.0,5,7.758,0.0,0.0,0.0,12.2,9.3,0.5,1024,1024,1024,1024,0,0,0,0,88,4.83,69.44,29.855644,P-GPS,,9.1
134,175200,2026-01-08 12:30:50,0.0,5,7.758,0.0,0.0,0.0,12.1,8.5,0.1,1024,1024,1024,1024,0,0,0,0,88,4.83,69.44,29.855644,P-GPS,,9.1
135,175300,2026-01-08 12:30:50,0.0,5,7.747,0.0,0.0,0.0,12.2,9.4,0.2,1024,1024,1024,1024,0,0,0,0,88,4.767,69.44,29.52756,P-GPS,,9.0
136,175400,2026-01-08 12:30:50,0.0,5,7.747,0.0,0.0,0.0,12.1,10.1,-0.6,1024,1024,1024,1024,0,0,0,0,88,4.767,69.44,29.52756,P-GPS,,9.0
137,175500,2026-01-08 12:30:50,0.223694,5,7.747,-0.223694,0.0,0.0,12.0,9.8,-0.3,1024,1024,1024,1024,0,0,0,0,88,4.767,69.44,29.52756,P-GPS,,9.0
138,175600,2026-01-08 12:30:50,0.223694,5,7.747,-0.223694,0.0,0.0,11.9,7.9,-0.2,1024,1024,1024,1024,0,0,0,0,88,4.767,69.44,29.52756,P-GPS,,9.0
139,175700,2026-01-08 12:30:50,0.3131716,5,7.747,-0.223694,-0.223694,0.0,11.9,6.4,1.7,1024,1024,1024,1024,0,0,0,0,88,4.767,69.44,29.855644,P-GPS,,9.1
140,175800,2026-01-08 12:30:50,0.223694,5,7.747,0.0,-0.223694,-0.223694,11.9,6.7,2.7,1024,1024,1024,1024,0,0,0,0,88,4.767,69.44,29.855644,P-GPS,,9.1
141,175900,2026-01-08 12:30:50,0.223694,5,7.747,0.0,-0.223694,0.0,11.9,7.2,3.8,1024,1024,1024,1024,0,0,0,0,88,4.767,69.44,29.855644,P-GPS,,9.1
142,176000,2026-01-08 12:30:50,0.223694,5,7.747,0.0,-0.223694,-0.223694,12.1,7.8,4.3,1024,1024,1024,1024,0,0,0,0,88,4.767,69.44,29.855644,P-GPS,,9.1
143,176100,2026-01-08 12:30:50,0.223694,5,7.747,0.0,-0.223694,-0.223694,12.3,8.0,5.5,1024,1024,1024,1024,0,0,0,0,88,4.767,69.44,29.855644,P-GPS,,9.1
144,176200,2026-01-08 12:30:51,0.223694,5,7.778,0.0,-0.223694,0.0,12.4,8.8,6.1,1024,1024,1024,1024,0,0,0,0,88,4.772,69.62,29.855644,P-GPS,,9.1
145,176300,2026-01-08 12:30:51,0.223694,5,7.778,0.0,-0.223694,0.0,12.2,8.3,5.4,1024,1024,1024,1024,0,0,0,0,88,4.772,69.62,29.855644,P-GPS,,9.1
146,176400,2026-01-08 12:30:51,0.223694,5,7.778,0.0,-0.223694,0.0,12.4,8.5,5.7,1024,1024,1024,1024,0,0,0,0,88,4.772,69.62,30.183728,P-GPS,,9.2
147,176500,2026-01-08 12:30:51,0.223694,5,7.778,0.0,-0.223694,0.0,12.4,8.5,6.2,1024,1024,1024,1024,0,0,0,0,88,4.772,69.62,30.183728,P-GPS,,9.2
148,176600,2026-01-08 12:30:51,0.223694,5,7.778,0.0,-0.223694,0.0,12.3,7.3,6.0,1024,1024,1024,1024,0,0,0,0,88,4.772,69.62,30.183728,P-GPS,,9.2
149,176700,2026-01-08 12:30:51,0.223694,5,7.778,0.0,-0.223694,0.0,12.3,7.1,6.0,1024,1024,1024,1024,0,0,0,0,88,4.772,69.62,30.183728,P-GPS,,9.2
150,176800,2026-01-08 12:30:51,0.223694,5,7.778,0.0,-0.223694,0.0,12.3,6.8,6.2,1024,1024,1024,1024,0,0,0,0,88,4.772,69.62,30.511812,P-GPS,,9.3
151,176900,2026-01-08 12:30:51,0.0,5,7.778,0.0,0.0,0.0,12.1,6.4,6.0,1024,1024,1024,1024,0,0,0,0,88,4.772,69.62,30.511812,P-GPS,,9.3
152,177000,2026-01-08 12:30:51,0.0,5,7.778,0.0,0.0,0.0,12.0,5.6,5.4,1024,1024,1024,1024,0,0,0,0,88,4.772,69.62,30.511812,P-GPS,,9.3
153,177100,2026-01-08 12:30:51,0.0,5,7.778,0.0,0.0,-0.223694,12.0,4.8,5.7,1024,1024,1024,1024,0,0,0,0,88,4.772,69.62,30.183728,P-GPS,,9.2
154,177200,2026-01-08 12:30:52,0.0,5,7.778,0.0,0.0,0.0,12.1,6.6,5.6,1024,1024,1024,1024,0,0,0,0,88,4.772,69.62,30.183728,P-GPS,,9.2
155,177300,2026-01-08 12:30:52,0.0,5,7.775,0.0,0.0,0.0,12.2,6.8,5.1,1024,1024,1024,1024,0,0,0,0,88,4.141,69.62,30.183728,P-GPS,,9.2
156,177400,2026-01-08 12:30:52,0.0,5,7.775,0.0,0.0,0.0,12.3,6.7,5.1,1024,1024,1024,1024,0,0,0,0,88,4.141,69.62,29.855644,P-GPS,,9.1
157,177500,2026-01-08 12:30:52,0.0,5,7.775,0.0,0.0,0.0,12.3,7.0,5.4,1024,1024,1024,1024,0,0,0,0,88,4.141,69.62,29.855644,P-GPS,,9.1
158,177600,2026-01-08 12:30:52,0.0,5,7.775,0.0,0.0,0.0,12.2,6.6,5.3,1024,1024,1024,1024,0,0,0,0,88,4.141,69.62,29.855644,P-GPS,,9.1
159,177700,2026-01-08 12:30:52,0.0,5,7.775,0.0,0.0,0.0,12.3,6.6,5.4,1024,1024,1024,1024,0,0,0,0,88,4.141,69.62,29.855644,P-GPS,,9.1
160,177800,2026-01-08 12:30:52,0.0,5,7.775,0.0,0.0,0.0,12.2,6.3,4.7,1024,1024,1024,1024,0,0,0,0,88,4.141,69.62,29.855644,P-GPS,,9.1
161,177900,2026-01-08 12:30:52,0.0,5,7.775,0.0,0.0,0.0,12.3,7.3,4.8,1024,1024,1024,1024,0,0,0,0,88,4.141,69.62,29.855644,P-GPS,,9.1
162,178000,2026-01-08 12:30:52,0.0,5,7.775,0.0,0.0,0.0,12.3,7.1,5.0,1024,1024,1024,1024,0,0,0,0,88,4.141,69.62,29.855644,P-GPS,,9.1
163,178100,2026-01-08 12:30:52,0.0,5,7.775,0.0,0.0,0.0,12.3,7.5,4.9,1024,1024,1024,1024,0,0,0,0,88,4.141,69.62,29.855644,P-GPS,,9.1
164,178200,2026-01-08 12:30:52,0.0,5,7.776,0.0,0.0,0.0,12.3,7.3,5.0,1024,1024,1024,1024,0,0,0,0,88,4.103,69.62,29.855644,P-GPS,,9.1
165,178300,2026-01-08 12:30:53,0.0,5,7.776,0.0,0.0,0.0,12.4,7.8,5.1,1024,1024,1024,1024,0,0,0,0,88,4.103,69.62,29.855644,P-GPS,,9.1
166,178400,2026-01-08 12:30:53,0.0,5,7.776,0.0,0.0,0.0,12.3,8.2,4.6,1024,1024,1024,1024,0,0,0,0,88,4.103,69.62,29.855644,P-GPS,,9.1
167,178500,2026-01-08 12:30:53,0.0,5,7.776,0.0,0.0,0.0,12.2,7.0,4.4,1024,1024,1024,1024,0,0,0,0,88,4.103,69.62,30.183728,P-GPS,,9.2
168,178600,2026-01-08 12:30:53,0.0,5,7.776,0.0,0.0,0.0,12.0,6.4,4.2,1024,1024,1024,1024,0,0,0,0,88,4.103,69.62,29.855644,P-GPS,,9.1
169,178700,2026-01-08 12:30:53,0.0,5,7.776,0.0,0.0,0.0,12.0,5.9,4.1,1024,1024,1024,1024,0,0,0,0,88,4.103,69.62,29.855644,P-GPS,,9.1
170,178800,2026-01-08 12:30:53,0.0,5,7.776,0.0,0.0,0.0,12.1,5.9,4.1,1024,1024,1024,1024,0,0,0,0,88,4.103,69.62,29.855644,P-GPS,,9.1
171,178900,2026-01-08 12:30:53,0.0,5,7.776,0.0,0.0,0.0,12.1,6.1,4.3,1024,1024,1024,1024,0,0,0,0,88,4.103,69.62,29.52756,P-GPS,,9.0
172,179000,2026-01-08 12:30:53,0.0,5,7.776,0.0,0.0,0.0,12.1,6.0,4.4,1024,1024,1024,1024,0,0,0,0,88,4.103,69.62,29.52756,P-GPS,,9.0
173,179100,2026-01-08 12:30:53,0.0,5,7.776,0.0,0.0,0.0,12.2,5.9,4.5,1024,1024,1024,1024,0,0,0,0,88,4.103,69.62,29.199476,P-GPS,,8.9
174,179200,2026-01-08 12:30:54,0.0,5,7.799,0.0,0.0,0.0,12.0,5.8,4.6,1024,1024,1024,1024,0,0,0,0,87,4.121,69.62,29.199476,P-GPS,,8.9
175,179300,2026-01-08 12:30:54,0.0,5,7.799,0.0,0.0,0.0,12.0,6.4,4.7,1024,1024,1024,1024,0,0,0,0,87,4.121,69.62,28.871392,P-GPS,,8.8
176,179400,2026-01-08 12:30:54,0.0,5,7.799,0.0,0.0,0.0,12.0,6.7,4.8,1024,1024,1024,1024,0,0,0,0,87,4.121,69.62,28.871392,P-GPS,,8.8
177,179500,2026-01-08 12:30:54,0.0,5,7.799,0.0,0.0,0.0,12.0,6.6,4.6,1024,1024,1024,1024,0,0,0,0,87,4.121,69.62,28.871392,P-GPS,,8.8
178,179600,2026-01-08 12:30:54,0.0,5,7.799,0.0,0.0,0.0,12.2,7.2,5.0,1024,1024,1024,1024,0,0,0,0,87,4.121,69.62,28.543308,P-GPS,,8.7
179,179700,2026-01-08 12:30:54,0.0,5,7.799,0.0,0.0,0.0,12.3,7.1,5.2,1024,1024,1024,1024,0,0,0,0,87,4.121,69.62,28.543308,P-GPS,,8.7
180,179800,2026-01-08 12:30:54,0.0,5,7.799,0.0,0.0,0.0,12.3,6.5,5.0,1024,1024,1024,1024,0,0,0,0,87,4.121,69.62,28.871392,P-GPS,,8.8
181,179900,2026-01-08 12:30:54,0.0,5,7.799,0.0,0.0,0.0,12.4,6.7,4.5,1024,1024,1024,1024,0,0,0,0,87,4.121,69.62,28.871392,P-GPS,,8.8
182,180000,2026-01-08 12:30:54,0.0,5,7.799,0.0,0.0,0.0,12.3,5.5,4.2,1024,1024,1024,1024,0,0,0,0,87,4.121,69.62,28.871392,P-GPS,,8.8
183,180100,2026-01-08 12:30:54,0.0,5,7.776,0.0,0.0,0.0,12.4,5.5,4.3,1024,1024,1024,1024,0,0,0,0,87,4.105,69.62,28.871392,P-GPS,,8.8
184,180200,2026-01-08 12:30:54,0.0,5,7.776,0.0,0.0,0.0,12.3,5.2,4.1,1024,1024,1024,1024,0,0,0,0,87,4.105,69.62,28.871392,P-GPS,,8.8
185,180300,2026-01-08 12:30:55,0.0,5,7.776,0.0,0.0,0.0,12.2,5.3,3.9,1024,1024,1024,1024,0,0,0,0,87,4.105,69.62,28.871392,P-GPS,,8.8
186,180400,2026-01-08 12:30:55,0.0,5,7.776,0.0,0.0,0.0,12.2,5.8,4.1,1024,1024,1024,1024,0,0,0,0,87,4.105,69.62,28.871392,P-GPS,,8.8
187,180500,2026-01-08 12:30:55,0.0,5,7.776,0.0,0.0,0.0,12.2,6.2,3.7,1024,1024,1024,1024,0,0,0,0,87,4.105,69.62,28.871392,P-GPS,,8.8
188,180600,2026-01-08 12:30:55,0.0,5,7.776,0.0,0.0,0.0,12.2,6.2,3.5,1024,1024,1024,1024,0,0,0,0,87,4.105,69.62,28.871392,P-GPS,,8.8
189,180700,2026-01-08 12:30:55,0.0,5,7.776,0.0,0.0,0.0,12.1,6.0,3.0,1024,1024,1024,1024,0,0,0,0,87,4.105,69.62,28.871392,P-GPS,,8.8
190,180800,2026-01-08 12:30:55,0.0,5,7.776,0.0,0.0,0.0,12.2,6.0,2.7,1024,1024,1024,1024,0,0,0,0,87,4.105,69.62,28.871392,P-GPS,,8.8
191,180900,2026-01-08 12:30:55,0.0,5,7.776,0.0,0.0,0.0,12.2,5.0,2.7,1024,1024,1024,1024,0,0,0,0,87,4.105,69.62,28.871392,P-GPS,,8.8
192,181000,2026-01-08 12:30:55,0.0,5,7.776,0.0,0.0,0.0,12.1,3.4,2.8,1024,1024,1024,1024,0,0,0,0,87,4.105,69.62,28.871392,P-GPS,,8.8
193,181100,2026-01-08 12:30:55,0.0,5,7.776,0.0,0.0,-0.223694,11.9,4.9,4.0,1024,1024,1024,1024,0,0,0,0,87,4.105,69.62,28.871392,P-GPS,,8.8
194,181200,2026-01-08 12:30:56,0.0,5,7.785,0.0,0.0,0.0,11.9,6.0,4.6,1024,1024,1024,1024,0,0,0,0,87,4.2,69.8,28.871392,P-GPS,,8.8
195,181300,2026-01-08 12:30:56,0.0,5,7.785,0.0,0.0,0.0,12.2,7.4,5.3,1024,1024,1024,1024,0,0,0,0,87,4.2,69.8,28.871392,P-GPS,,8.8
196,181400,2026-01-08 12:30:56,0.223694,5,7.785,0.223694,0.0,0.0,12.2,8.3,5.1,1024,1024,1024,1024,0,0,0,0,87,4.2,69.8,28.543308,P-GPS,,8.7
197,181500,2026-01-08 12:30:56,0.223694,5,7.785,0.223694,0.0,0.0,12.4,8.8,5.1,1024,1024,1024,1024,0,0,0,0,87,4.2,69.8,28.543308,P-GPS,,8.7
198,181600,2026-01-08 12:30:56,0.223694,5,7.785,0.223694,0.0,0.0,12.3,9.1,4.5,1024,1024,1024,1024,0,0,0,0,87,4.2,69.8,28.543308,P-GPS,,8.7
199,181700,2026-01-08 12:30:56,0.223694,5,7.785,0.223694,0.0,0.0,12.2,9.5,4.1,1024,1024,1024,1024,0,0,0,0,87,4.2,69.8,28.871392,P-GPS,,8.8
200,181800,2026-01-08 12:30:56,0.0,5,7.785,0.0,0.0,0.0,12.1,9.9,3.3,1024,1024,1024,1024,0,0,0,0,87,4.2,69.8,28.871392,P-GPS,,8.8
201,181900,2026-01-08 12:30:56,0.0,5,7.785,0.0,0.0,0.0,12.0,9.2,2.7,1024,1024,1024,1024,0,0,0,0,87,4.2,69.8,28.871392,P-GPS,,8.8
202,182000,2026-01-08 12:30:56,0.0,5,7.785,0.0,0.0,-0.223694,12.0,7.7,2.6,1024,1024,1024,1024,0,0,0,0,87,4.2,69.8,28.871392,P-GPS,,8.8
203,182100,2026-01-08 12:30:56,0.0,5,7.785,0.0,0.0,-0.223694,11.9,6.9,3.2,1024,1024,1024,1024,0,0,0,0,87,4.2,69.8,28.871392,P-GPS,,8.8
204,182200,2026-01-08 12:30:57,0.0,5,7.785,0.0,0.0,-0.223694,11.9,6.8,3.9,1024,1024,1024,1024,0,0,0,0,87,4.2,69.8,28.871392,P-GPS,,8.8
205,182300,2026-01-08 12:30:57,0.0,5,7.785,0.0,0.0,-0.223694,12.0,6.2,4.6,1024,1024,1024,1024,0,0,0,0,87,4.2,69.8,28.543308,P-GPS,,8.7
206,182400,2026-01-08 12:30:57,0.0,5,7.785,0.0,0.0,-0.223694,12.3,7.7,4.9,1024,1024,1024,1024,0,0,0,0,87,4.2,69.8,28.543308,P-GPS,,8.7
207,182500,2026-01-08 12:30:57,0.0,5,7.785,0.0,0.0,0.0,12.5,8.0,5.3,1024,1024,1024,1024,0,0,0,0,87,4.2,69.8,28.543308,P-GPS,,8.7
208,182600,2026-01-08 12:30:57,0.223694,5,7.785,0.0,0.223694,0.0,12.6,9.3,3.8,1024,1024,1024,1024,0,0,0,0,87,4.2,69.8,28.215224,P-GPS,,8.6
209,182700,2026-01-08 12:30:57,0.223694,5,7.785,0.0,0.223694,0.0,12.4,8.9,2.2,1024,1024,1024,1024,0,0,0,0,87,4.2,69.8,27.88714,P-GPS,,8.5
210,182800,2026-01-08 12:30:57,0.223694,5,7.785,0.0,0.223694,0.0,12.3,8.6,1.0,1024,1024,1024,1024,0,0,0,0,87,4.2,69.8,27.88714,P-GPS,,8.5
211,182900,2026-01-08 12:30:57,0.223694,5,7.785,0.0,0.223694,0.0,12.1,10.5,0.1,1024,1024,1024,1024,0,0,0,0,87,4.2,69.8,27.559056,P-GPS,,8.4
212,183000,2026-01-08 12:30:57,0.223694,5,7.785,0.0,0.223694,0.0,11.9,10.4,0.6,1024,1024,1024,1024,0,0,0,0,87,4.2,69.8,27.559056,P-GPS,,8.4
213,183100,2026-01-08 12:30:57,0.0,5,7.785,0.0,0.0,0.0,11.9,9.6,1.2,1024,1024,1024,1024,0,0,0,0,87,4.2,69.8,27.559056,P-GPS,,8.4
214,183200,2026-01-08 12:30:58,0.0,5,7.785,0.0,0.0,0.0,12.1,9.6,2.1,1024,1024,1024,1024,0,0,0,0,87,4.2,69.8,27.559056,P-GPS,,8.4
215,183300,2026-01-08 12:30:58,0.0,5,7.785,0.0,0.0,0.0,12.1,8.9,1.6,1024,1024,1024,1024,0,0,0,0,87,4.2,69.8,27.559056,P-GPS,,8.4
216,183400,2026-01-08 12:30:58,0.0,5,7.771,0.0,0.0,0.0,12.0,7.8,2.6,1024,1024,1024,1024,0,0,0,0,87,3.865,69.8,27.88714,P-GPS,,8.5
217,183500,2026-01-08 12:30:58,0.0,5,7.771,0.0,0.0,0.0,12.0,7.6,2.1,1024,1024,1024,1024,0,0,0,0,87,3.865,69.8,27.88714,P-GPS,,8.5
218,183600,2026-01-08 12:30:58,0.0,5,7.771,0.0,0.0,0.0,12.1,7.8,2.1,1024,1024,1024,1024,0,0,0,0,87,3.865,69.8,27.88714,P-GPS,,8.5
219,183700,2026-01-08 12:30:58,0.0,5,7.771,0.0,0.0,0.0,12.1,7.7,2.5,1024,1024,1024,1024,0,0,0,0,87,3.865,69.8,27.88714,P-GPS,,8.5
220,183800,2026-01-08 12:30:58,0.0,5,7.771,0.0,0.0,0.0,12.0,7.9,2.6,1024,1024,1024,1024,0,0,0,0,87,3.865,69.8,28.215224,P-GPS,,8.6
221,183900,2026-01-08 12:30:58,0.0,5,7.771,0.0,0.0,0.0,12.0,8.4,2.5,1024,1024,1024,1024,0,0,0,0,87,3.865,69.8,28.215224,P-GPS,,8.6
222,184000,2026-01-08 12:30:58,0.0,5,7.771,0.0,0.0,0.0,12.0,8.1,2.5,1024,1024,1024,1024,0,0,0,0,87,3.865,69.8,28.215224,P-GPS,,8.6
223,184100,2026-01-08 12:30:58,0.0,5,7.771,0.0,0.0,0.0,12.2,9.1,2.8,1024,1024,1024,1024,0,0,0,0,87,3.865,69.8,28.543308,P-GPS,,8.7
224,184200,2026-01-08 12:30:58,0.0,5,7.771,0.0,0.0,0.0,12.1,8.7,3.1,1024,1024,1024,1024,0,0,0,0,87,3.865,69.8,28.543308,P-GPS,,8.7
225,184300,2026-01-08 12:30:59,0.0,5,7.771,0.0,0.0,0.0,12.1,8.6,3.5,1024,1024,1024,1024,0,0,0,0,87,3.865,69.8,28.543308,P-GPS,,8.7
226,184400,2026-01-08 12:30:59,0.0,5,7.771,0.0,0.0,0.0,12.3,9.1,4.0,1024,1024,1024,1024,0,0,0,0,87,3.865,69.8,28.871392,P-GPS,,8.8
227,184500,2026-01-08 12:30:59,0.0,5,7.776,0.0,0.0,0.0,12.3,9.6,4.3,1024,1024,1024,1024,0,0,0,0,87,4.552,69.8,28.871392,P-GPS,,8.8
228,184600,2026-01-08 12:30:59,0.0,5,7.776,0.0,0.0,0.0,12.3,9.7,4.0,1024,1024,1024,1024,0,0,0,0,87,4.552,69.8,28.871392,P-GPS,,8.8
229,184700,2026-01-08 12:30:59,0.0,5,7.776,0.0,0.0,0.0,12.3,9.9,4.2,1024,1024,1024,1024,0,0,0,0,87,4.552,69.8,28.871392,P-GPS,,8.8
230,184800,2026-01-08 12:30:59,0.0,5,7.776,0.0,0.0,0.0,12.2,9.5,4.2,1024,1024,1024,1024,0,0,0,0,87,4.552,69.8,29.199476,P-GPS,,8.9
231,184900,2026-01-08 12:30:59,0.0,5,7.776,0.0,0.0,0.0,12.2,9.3,3.9,1024,1024,1024,1024,0,0,0,0,87,4.552,69.8,29.199476,P-GPS,,8.9
232,185000,2026-01-08 12:30:59,0.0,5,7.776,0.0,0.0,0.0,12.3,9.0,4.6,1024,1024,1024,1024,0,0,0,0,87,4.552,69.8,29.199476,P-GPS,,8.9
233,185100,2026-01-08 12:30:59,0.0,5,7.776,0.0,0.0,0.0,12.5,9.3,4.1,1024,1024,1024,1024,0,0,0,0,87,4.552,69.8,29.199476,P-GPS,,8.9
234,185200,2026-01-08 12:31:00,0.0,5,7.776,0.0,0.0,0.0,12.5,8.3,3.6,1024,1024,1024,1024,0,0,0,0,87,4.552,69.8,29.199476,P-GPS,,8.9
235,185300,2026-01-08 12:31:00,0.0,5,7.776,0.0,0.0,0.0,12.4,8.7,2.7,1024,1024,1024,1024,0,0,0,0,87,4.552,69.8,29.199476,P-GPS,,8.9
236,185400,2026-01-08 12:31:00,0.0,5,7.776,0.0,0.0,0.0,12.3,9.0,2.4,1024,1024,1024,1024,0,0,0,0,87,4.552,69.8,29.199476,P-GPS,,8.9
237,185500,2026-01-08 12:31:00,0.0,5,7.776,0.0,0.0,0.0,12.2,9.0,2.4,1024,1024,1024,1024,0,0,0,0,87,4.552,69.8,29.199476,P-GPS,,8.9
238,185600,2026-01-08 12:31:00,0.0,5,7.761,0.0,0.0,0.0,12.1,8.5,2.1,1024,1024,1024,1024,0,0,0,0,87,4.679,69.8,29.199476,P-GPS,,8.9
239,185700,2026-01-08 12:31:00,0.0,5,7.761,0.0,0.0,0.0,12.1,8.3,2.3,1024,1024,1024,1024,0,0,0,0,87,4.679,69.8,29.199476,P-GPS,,8.9
240,185800,2026-01-08 12:31:00,0.0,5,7.761,0.0,0.0,0.0,12.1,8.6,2.5,1024,1024,1024,1024,0,0,0,0,87,4.679,69.8,29.199476,P-GPS,,8.9
241,185900,2026-01-08 12:31:00,0.0,5,7.761,0.0,0.0,0.0,12.1,8.7,2.7,1024,1024,1024,1024,0,0,0,0,87,4.679,69.8,29.199476,P-GPS,,8.9
242,186000,2026-01-08 12:31:00,0.0,5,7.761,0.0,0.0,0.0,12.1,8.2,3.0,1024,1024,1024,1024,0,0,0,0,87,4.679,69.8,29.199476,P-GPS,,8.9
243,186100,2026-01-08 12:31:00,0.0,5,7.761,0.0,0.0,0.0,12.2,8.8,2.8,1024,1024,1024,1024,0,0,0,0,87,4.679,69.8,29.199476,P-GPS,,8.9
244,186200,2026-01-08 12:31:00,0.0,5,7.761,0.0,0.0,0.0,12.2,9.3,3.2,1024,1024,1024,1024,0,0,0,0,87,4.679,69.8,29.199476,P-GPS,,8.9
245,186300,2026-01-08 12:31:01,0.0,5,7.761,0.0,0.0,0.0,12.3,9.3,3.4,1024,1024,1024,1024,0,0,0,0,87,4.679,69.8,29.52756,P-GPS,,9.0
246,186400,2026-01-08 12:31:01,0.0,5,7.761,0.0,0.0,0.0,12.3,9.7,3.2,1024,1024,1024,1024,0,0,0,0,87,4.679,69.8,29.52756,P-GPS,,9.0
247,186500,2026-01-08 12:31:01,0.0,5,7.761,0.0,0.0,0.0,12.3,9.6,3.0,1024,1024,1024,1024,0,0,0,0,87,4.679,69.8,29.52756,P-GPS,,9.0
248,186600,2026-01-08 12:31:01,0.0,5,7.761,0.0,0.0,0.0,12.2,8.8,3.1,1024,1024,1024,1024,0,0,0,0,87,4.679,69.8,29.52756,P-GPS,,9.0
249,186700,2026-01-08 12:31:01,0.0,5,7.749,0.0,0.0,0.0,12.1,8.8,3.5,1024,1024,1024,1024,0,0,0,0,87,4.72,69.98,29.52756,P-GPS,,9.0
250,186800,2026-01-08 12:31:01,0.0,5,7.749,0.0,0.0,0.0,12.2,9.0,4.2,1024,1024,1024,1024,0,0,0,0,87,4.72,69.98,29.52756,P-GPS,,9.0
251,186900,2026-01-08 12:31:01,0.0,5,7.749,0.0,0.0,0.0,12.3,9.1,4.3,1024,1024,1024,1024,0,0,0,0,87,4.72,69.98,29.855644,P-GPS,,9.1
252,187000,2026-01-08 12:31:01,0.0,5,7.749,0.0,0.0,0.0,12.3,9.6,4.8,1024,1024,1024,1024,0,0,0,0,87,4.72,69.98,29.855644,P-GPS,,9.1
253,187100,2026-01-08 12:31:01,0.0,5,7.749,0.0,0.0,0.0,12.4,9.5,5.0,1024,1024,1024,1024,0,0,0,0,87,4.72,69.98,29.855644,P-GPS,,9.1
254,187200,2026-01-08 12:31:02,0.0,5,7.749,0.0,0.0,0.0,12.3,9.4,4.5,1024,1024,1024,1024,0,0,0,0,87,4.72,69.98,29.855644,P-GPS,,9.1
255,187300,2026-01-08 12:31:02,0.0,5,7.749,0.0,0.0,0.0,12.3,10.1,4.3,1024,1024,1024,1024,0,0,0,0,87,4.72,69.98,29.52756,P-GPS,,9.0
256,187400,2026-01-08 12:31:02,0.0,5,7.749,0.0,0.0,0.0,12.3,10.3,3.8,1024,1024,1024,1024,0,0,0,0,87,4.72,69.98,29.52756,P-GPS,,9.0
257,187500,2026-01-08 12:31:02,0.0,5,7.749,0.0,0.0,0.0,12.3,10.1,3.4,1024,1024,1024,1024,0,0,0,0,87,4.72,69.98,29.52756,P-GPS,,9.0
258,187600,2026-01-08 12:31:02,0.0,5,7.749,0.0,0.0,0.0,12.2,9.7,3.0,1024,1024,1024,1024,0,0,0,0,87,4.72,69.98,29.52756,P-GPS,,9.0
259,187700,2026-01-08 12:31:02,0.0,5,7.749,0.0,0.0,0.0,12.1,10.2,2.9,1024,1024,1024,1024,0,0,0,0,87,4.72,69.98,29.52756,P-GPS,,9.0
260,187800,2026-01-08 12:31:02,0.0,5,7.744,0.0,0.0,0.0,12.2,9.9,3.1,1024,1024,1024,1024,0,0,0,0,87,4.679,69.98,29.52756,P-GPS,,9.0
261,187900,2026-01-08 12:31:02,0.0,5,7.744,0.0,0.0,0.0,12.4,10.4,2.8,1024,1024,1024,1024,0,0,0,0,87,4.679,69.98,29.52756,P-GPS,,9.0
262,188000,2026-01-08 12:31:02,0.0,5,7.744,0.0,0.0,0.0,12.4,10.9,2.4,1024,1024,1024,1024,0,0,0,0,87,4.679,69.98,29.199476,P-GPS,,8.9
263,188100,2026-01-08 12:31:02,0.223694,5,7.744,0.0,0.223694,0.0,12.4,11.6,1.6,1024,1024,1024,1024,0,0,0,0,87,4.679,69.98,29.199476,P-GPS,,8.9
264,188200,2026-01-08 12:31:02,0.223694,5,7.744,0.0,0.223694,0.0,12.3,11.6,1.3,1024,1024,1024,1024,0,0,0,0,87,4.679,69.98,29.199476,P-GPS,,8.9
265,188300,2026-01-08 12:31:03,0.223694,5,7.744,0.0,0.223694,0.0,12.2,11.4,0.6,1024,1024,1024,1024,0,0,0,0,87,4.679,69.98,29.199476,P-GPS,,8.9
266,188400,2026-01-08 12:31:03,0.223694,5,7.744,0.0,0.223694,0.0,12.0,11.6,0.2,1024,1024,1024,1024,0,0,0,0,87,4.679,69.98,29.199476,P-GPS,,8.9
267,188500,2026-01-08 12:31:03,0.0,5,7.744,0.0,0.0,0.0,12.0,12.0,0.4,1024,1024,1024,1024,0,0,0,0,87,4.679,69.98,28.871392,P-GPS,,8.8
268,188600,2026-01-08 12:31:03,0.0,5,7.744,0.0,0.0,0.0,12.1,11.7,1.0,1024,1024,1024,1024,0,0,0,0,87,4.679,69.98,28.871392,P-GPS,,8.8
269,188700,2026-01-08 12:31:03,0.0,5,7.744,0.0,0.0,-0.223694,12.2,12.4,1.2,1024,1024,1024,1024,0,0,0,0,87,4.679,69.98,28.871392,P-GPS,,8.8
270,188800,2026-01-08 12:31:03,0.0,5,7.744,0.0,0.0,0.0,12.4,13.5,1.7,1024,1024,1024,1024,0,0,0,0,87,4.679,69.98,28.871392,P-GPS,,8.8
271,188900,2026-01-08 12:31:03,0.0,5,7.752,0.0,0.0,0.0,12.4,12.1,2.4,1024,1024,1024,1024,0,0,0,0,87,4.691,69.98,28.871392,P-GPS,,8.8
272,189000,2026-01-08 12:31:03,0.0,5,7.752,0.0,0.0,0.0,12.4,12.1,2.3,1024,1024,1024,1024,0,0,0,0,87,4.691,69.98,28.871392,P-GPS,,8.8
273,189100,2026-01-08 12:31:03,0.0,5,7.752,0.0,0.0,0.0,12.2,11.9,2.0,1024,1024,1024,1024,0,0,0,0,87,4.691,69.98,28.871392,P-GPS,,8.8
274,189200,2026-01-08 12:31:04,0.0,5,7.752,0.0,0.0,0.0,12.1,11.8,2.5,1024,1024,1024,1024,0,0,0,0,87,4.691,69.98,28.871392,P-GPS,,8.8
275,189300,2026-01-08 12:31:04,0.0,5,7.752,0.0,0.0,0.0,12.2,11.3,3.3,1024,1024,1024,1024,0,0,0,0,87,4.691,69.98,28.871392,P-GPS,,8.8
276,189400,2026-01-08 12:31:04,0.223694,5,7.752,0.0,-0.223694,0.0,12.1,10.3,3.9,1024,1024,1024,1024,0,0,0,0,87,4.691,69.98,28.871392,P-GPS,,8.8
277,189500,2026-01-08 12:31:04,0.223694,5,7.752,0.0,-0.223694,-0.223694,12.2,9.7,3.9,1024,1024,1024,1024,0,0,0,0,87,4.691,69.98,28.871392,P-GPS,,8.8
278,189600,2026-01-08 12:31:04,0.223694,5,7.752,0.0,-0.223694,-0.223694,12.3,8.9,4.5,1024,1024,1024,1024,0,0,0,0,87,4.691,69.98,28.871392,P-GPS,,8.8
279,189700,2026-01-08 12:31:04,0.223694,5,7.752,0.0,-0.223694,0.0,12.5,10.3,5.4,1024,1024,1024,1024,0,0,0,0,87,4.691,69.98,28.871392,P-GPS,,8.8
280,189800,2026-01-08 12:31:04,0.0,5,7.752,0.0,0.0,0.0,12.5,10.8,4.8,1024,1024,1024,1024,0,0,0,0,87,4.691,69.98,28.871392,P-GPS,,8.8
281,189900,2026-01-08 12:31:04,0.0,5,7.752,0.0,0.0,0.0,12.4,10.9,5.3,1024,1024,1024,1024,0,0,0,0,87,4.691,69.98,28.871392,P-GPS,,8.8
282,190000,2026-01-08 12:31:04,0.0,5,7.769,0.0,0.0,0.0,12.4,10.8,5.1,1024,1024,1024,1024,0,0,0,0,87,4.441,69.98,28.871392,P-GPS,,8.8
283,190100,2026-01-08 12:31:04,0.0,5,7.769,0.0,0.0,0.0,12.4,11.0,5.7,1024,1024,1024,1024,0,0,0,0,87,4.441,69.98,28.871392,P-GPS,,8.8
284,190200,2026-01-08 12:31:04,0.0,5,7.769,0.0,0.0,0.223694,12.4,10.5,5.1,1024,1024,1024,1024,0,0,0,0,87,4.441,69.98,28.871392,P-GPS,,8.8
285,190300,2026-01-08 12:31:05,0.0,5,7.769,0.0,0.0,0.0,12.4,9.7,4.5,1024,1024,1024,1024,0,0,0,0,87,4.441,69.98,28.871392,P-GPS,,8.8
286,190400,2026-01-08 12:31:05,0.0,5,7.769,0.0,0.0,0.0,12.3,9.6,3.6,1024,1024,1024,1024,0,0,0,0,87,4.441,69.98,28.871392,P-GPS,,8.8
287,190500,2026-01-08 12:31:05,0.0,5,7.769,0.0,0.0,0.0,12.1,9.5,3.8,1024,1024,1024,1024,0,0,0,0,87,4.441,69.98,28.871392,P-GPS,,8.8
288,190600,2026-01-08 12:31:05,0.0,5,7.769,0.0,0.0,0.0,12.3,10.1,4.5,1024,1024,1024,1024,0,0,0,0,87,4.441,69.98,28.871392,P-GPS,,8.8
289,190700,2026-01-08 12:31:05,0.0,5,7.769,0.0,0.0,0.0,12.3,10.5,4.7,1024,1024,1024,1024,0,0,0,0,87,4.441,69.98,28.871392,P-GPS,,8.8
290,190800,2026-01-08 12:31:05,0.0,5,7.769,0.0,0.0,0.0,12.2,10.7,4.3,1024,1024,1024,1024,0,0,0,0,87,4.441,69.98,28.871392,P-GPS,,8.8
291,190900,2026-01-08 12:31:05,0.0,5,7.769,0.0,0.0,0.0,12.3,10.8,4.3,1024,1024,1024,1024,0,0,0,0,87,4.441,69.98,28.871392,P-GPS,,8.8
292,191000,2026-01-08 12:31:05,0.0,5,7.769,0.0,0.0,0.0,12.4,11.6,4.6,1024,1024,1024,1024,0,0,0,0,87,4.441,69.98,28.871392,P-GPS,,8.8
293,191100,2026-01-08 12:31:05,0.0,5,7.745,0.0,0.0,0.0,12.6,12.4,4.8,1024,1024,1024,1024,0,0,0,0,87,4.984,69.98,28.871392,P-GPS,,8.8
294,191200,2026-01-08 12:31:06,0.0,5,7.745,0.0,0.0,0.0,12.7,13.1,4.9,1024,1024,1024,1024,0,0,0,0,87,4.984,69.98,28.871392,P-GPS,,8.8
295,191300,2026-01-08 12:31:06,0.0,5,7.745,0.0,0.0,0.0,12.7,13.5,4.2,1024,1024,1024,1024,0,0,0,0,87,4.984,69.98,28.871392,P-GPS,,8.8
296,191400,2026-01-08 12:31:06,0.0,5,7.745,0.0,0.0,0.0,12.6,13.1,3.7,1024,1024,1024,1024,0,0,0,0,87,4.984,69.98,28.871392,P-GPS,,8.8
297,191500,2026-01-08 12:31:06,0.0,5,7.745,0.0,0.0,0.0,12.6,12.9,3.7,1024,1024,1024,1024,0,0,0,0,87,4.984,69.98,28.871392,P-GPS,,8.8
298,191600,2026-01-08 12:31:06,0.0,5,7.745,0.0,0.0,0.0,12.5,12.8,3.3,1024,1024,1024,1024,0,0,0,0,87,4.984,69.98,28.871392,P-GPS,,8.8
299,191700,2026-01-08 12:31:06,0.0,5,7.745,0.0,0.0,0.0,12.4,12.1,3.5,1024,1024,1024,1024,0,0,0,0,87,4.984,69.98,28.871392,P-GPS,,8.8
300,191800,2026-01-08 12:31:06,0.0,5,7.745,0.0,0.0,-0.223694,12.3,11.5,3.4,1024,1024,1024,1024,0,0,0,0,87,4.984,69.98,28.871392,P-GPS,,8.8
301,191900,2026-01-08 12:31:06,0.0,5,7.745,0.0,0.0,-0.447388,12.4,11.3,4.8,1024,1024,1024,1024,0,0,0,0,87,4.984,69.98,28.871392,P-GPS,,8.8
302,192000,2026-01-08 12:31:06,0.0,5,7.745,0.0,0.0,-0.223694,12.4,11.0,5.4,1024,1024,1024,1024,0,0,0,0,87,4.984,69.98,28.871392,P-GPS,,8.8
303,192100,2026-01-08 12:31:06,0.0,5,7.745,0.0,0.0,-0.223694,12.6,12.0,5.6,1024,1024,1024,1024,0,0,0,0,87,4.984,69.98,28.543308,P-GPS,,8.7
304,192200,2026-01-08 12:31:06,0.0,5,7.745,0.0,0.0,0.0,12.6,12.3,5.8,1024,1024,1024,1024,0,0,0,0,87,4.984,69.98,28.543308,P-GPS,,8.7
305,192300,2026-01-08 12:31:07,0.0,5,7.745,0.0,0.0,0.0,12.6,13.0,5.4,1024,1024,1024,1024,0,0,0,0,87,4.984,69.98,28.543308,P-GPS,,8.7
306,192400,2026-01-08 12:31:07,0.0,5,7.745,0.0,0.0,0.0,12.5,12.9,5.4,1024,1024,1024,1024,0,0,0,0,87,4.984,69.98,28.543308,P-GPS,,8.7
307,192500,2026-01-08 12:31:07,0.0,5,7.745,0.0,0.0,0.0,12.3,12.0,5.7,1024,1024,1024,1024,0,0,0,0,87,4.984,69.98,28.215224,P-GPS,,8.6
308,192600,2026-01-08 12:31:07,0.0,5,7.745,0.0,0.0,0.0,12.5,12.4,6.3,1024,1024,1024,1024,0,0,0,0,87,4.984,69.98,28.215224,P-GPS,,8.6
309,192700,2026-01-08 12:31:07,0.0,5,7.745,0.0,0.0,0.0,12.7,12.7,6.2,1024,1024,1024,1024,0,0,0,0,87,4.984,69.98,28.215224,P-GPS,,8.6
310,192800,2026-01-08 12:31:07,0.0,5,7.745,0.0,0.0,0.0,12.8,13.4,6.0,1024,1024,1024,1024,0,0,0,0,87,4.984,69.98,28.215224,P-GPS,,8.6
311,192900,2026-01-08 12:31:07,0.0,5,7.745,0.0,0.0,0.0,12.8,13.6,5.3,1024,1024,1024,1024,0,0,0,0,87,4.984,69.98,27.88714,P-GPS,,8.5
312,193000,2026-01-08 12:31:07,0.0,5,7.745,0.0,0.0,0.0,12.7,13.8,4.3,1024,1024,1024,1024,0,0,0,0,87,4.984,69.98,27.88714,P-GPS,,8.5
313,193100,2026-01-08 12:31:07,0.0,5,7.745,0.0,0.0,0.0,12.6,13.5,3.7,1024,1024,1024,1024,0,0,0,0,87,4.984,69.98,27.88714,P-GPS,,8.5
314,193200,2026-01-08 12:31:08,0.0,5,7.745,0.0,0.0,0.0,12.4,13.1,3.3,1024,1024,1024,1024,0,0,0,0,87,4.984,69.98,27.88714,P-GPS,,8.5
315,193300,2026-01-08 12:31:08,0.0,5,7.782,0.0,0.0,0.0,12.3,12.6,3.8,1024,1024,1024,1024,0,0,0,0,87,4.684,70.16,27.88714,P-GPS,,8.5
316,193400,2026-01-08 12:31:08,0.0,5,7.782,0.0,0.0,0.0,12.3,12.1,4.1,1024,1024,1024,1024,0,0,0,0,87,4.684,70.16,27.88714,P-GPS,,8.5
317,193500,2026-01-08 12:31:08,0.0,5,7.782,0.0,0.0,0.0,12.3,11.8,4.6,1024,1024,1024,1024,0,0,0,0,87,4.684,70.16,27.88714,P-GPS,,8.5
318,193600,2026-01-08 12:31:08,0.0,5,7.782,0.0,0.0,0.0,12.3,11.3,4.7,1024,1024,1024,1024,0,0,0,0,87,4.684,70.16,27.88714,P-GPS,,8.5
319,193700,2026-01-08 12:31:08,0.0,5,7.782,0.0,0.0,0.0,12.3,11.3,5.0,1024,1024,1024,1024,0,0,0,0,87,4.684,70.16,27.88714,P-GPS,,8.5
320,193800,2026-01-08 12:31:08,0.0,5,7.782,0.0,0.0,0.0,12.2,11.1,5.0,1024,1024,1024,1024,0,0,0,0,87,4.684,70.16,27.559056,P-GPS,,8.4
321,193900,2026-01-08 12:31:08,0.0,5,7.782,0.0,0.0,0.0,12.3,11.2,3.7,1024,1024,1024,1024,0,0,0,0,87,4.684,70.16,27.559056,P-GPS,,8.4
322,194000,2026-01-08 12:31:08,0.0,5,7.782,0.0,0.0,0.0,12.2,11.8,3.2,1024,1024,1024,1024,0,0,0,0,87,4.684,70.16,27.559056,P-GPS,,8.4
323,194100,2026-01-08 12:31:08,0.0,5,7.782,0.0,0.0,0.0,12.2,11.6,3.5,1024,1024,1024,1024,0,0,0,0,87,4.684,70.16,27.559056,P-GPS,,8.4
324,194200,2026-01-08 12:31:08,0.0,5,7.782,0.0,0.0,0.0,12.4,11.5,3.2,1024,1024,1024,1024,0,0,0,0,87,4.684,70.16,27.559056,P-GPS,,8.4
325,194300,2026-01-08 12:31:09,0.0,5,7.782,0.0,0.0,0.0,12.4,11.1,3.1,1024,1024,1024,1024,0,0,0,0,87,4.684,70.16,27.559056,P-GPS,,8.4
326,194400,2026-01-08 12:31:09,0.0,5,7.743,0.0,0.0,0.0,12.3,10.7,2.5,1024,1024,1024,1024,0,0,0,0,87,4.745,70.16,27.559056,P-GPS,,8.4
327,194500,2026-01-08 12:31:09,0.0,5,7.743,0.0,0.0,0.0,12.4,10.8,2.5,1024,1024,1024,1024,0,0,0,0,87,4.745,70.16,27.559056,P-GPS,,8.4
328,194600,2026-01-08 12:31:09,0.0,5,7.743,0.0,0.0,0.0,12.5,11.7,2.6,1024,1024,1024,1024,0,0,0,0,87,4.745,70.16,27.559056,P-GPS,,8.4
329,194700,2026-01-08 12:31:09,0.0,5,7.743,0.0,0.0,0.0,12.5,11.6,1.8,1024,1024,1024,1024,0,0,0,0,87,4.745,70.16,27.559056,P-GPS,,8.4
330,194800,2026-01-08 12:31:09,0.0,5,7.743,0.0,0.0,0.0,12.5,11.6,1.5,1024,1024,1024,1024,0,0,0,0,87,4.745,70.16,27.559056,P-GPS,,8.4
331,194900,2026-01-08 12:31:09,0.223694,5,7.743,0.0,0.223694,0.0,12.5,12.6,1.4,1024,1024,1024,1024,0,0,0,0,87,4.745,70.16,27.559056,P-GPS,,8.4
332,195000,2026-01-08 12:31:09,0.223694,5,7.743,0.0,0.0,0.0,12.3,13.0,1.3,1024,1024,1024,1024,0,0,0,0,87,4.745,70.16,27.559056,P-GPS,,8.4
333,195100,2026-01-08 12:31:09,0.0,5,7.743,0.0,0.0,0.0,12.3,12.5,0.5,1024,1024,1024,1024,0,0,0,0,87,4.745,70.16,27.559056,P-GPS,,8.4
334,195200,2026-01-08 12:31:09,0.0,5,7.743,0.0,0.0,0.0,12.2,13.5,1.0,1024,1024,1024,1024,0,0,0,0,87,4.745,70.16,27.88714,P-GPS,,8.5
335,195300,2026-01-08 12:31:10,0.0,5,7.743,0.0,0.0,0.0,12.4,13.9,2.3,1024,1024,1024,1024,0,0,0,0,87,4.745,70.16,27.88714,P-GPS,,8.5
336,195400,2026-01-08 12:31:10,0.223694,5,7.743,0.223694,0.0,0.0,12.5,13.5,2.4,1024,1024,1024,1024,0,0,0,0,87,4.745,70.16,28.215224,P-GPS,,8.6
337,195500,2026-01-08 12:31:10,0.223694,5,7.743,0.223694,0.0,0.0,12.6,15.6,3.5,1024,1024,1024,1024,0,0,0,0,87,4.745,70.16,28.215224,P-GPS,,8.6
338,195600,2026-01-08 12:31:10,0.4921268,5,7.743,0.447388,-0.223694,0.0,12.6,17.2,4.1,1024,1024,1024,1024,0,0,0,0,87,4.745,70.16,28.543308,P-GPS,,8.7
339,195700,2026-01-08 12:31:10,0.223694,5,7.743,0.223694,0.0,0.223694,12.9,17.5,5.5,1024,1024,1024,1024,0,0,0,0,87,4.745,70.16,28.871392,P-GPS,,8.8
340,195800,2026-01-08 12:31:10,0.223694,5,7.743,0.223694,0.0,0.223694,12.8,15.8,4.1,1024,1024,1024,1024,0,0,0,0,87,4.745,70.16,28.871392,P-GPS,,8.8
341,195900,2026-01-08 12:31:10,0.223694,5,7.743,0.223694,0.0,0.0,12.5,14.9,3.3,1024,1024,1024,1024,0,0,0,0,87,4.745,70.16,29.199476,P-GPS,,8.9
342,196000,2026-01-08 12:31:10,0.0,5,7.743,0.0,0.0,0.0,12.2,15.9,3.1,1024,1024,1024,1024,0,0,0,0,87,4.745,70.16,29.199476,P-GPS,,8.9
343,196100,2026-01-08 12:31:10,0.0,5,7.743,0.0,0.0,-0.223694,12.1,15.7,3.3,1024,1024,1024,1024,0,0,0,0,87,4.745,70.16,29.52756,P-GPS,,9.0
344,196200,2026-01-08 12:31:11,0.0,5,7.696,0.0,0.0,0.0,12.4,16.1,4.8,1024,1024,1024,1024,0,0,0,0,87,5.708,70.16,29.855644,P-GPS,,9.1
345,196300,2026-01-08 12:31:11,0.223694,5,7.696,-0.223694,0.0,0.0,12.5,13.7,3.8,1024,1024,1024,1024,0,0,0,0,87,5.708,70.16,29.855644,P-GPS,,9.1
346,196400,2026-01-08 12:31:11,0.223694,5,7.696,-0.223694,0.0,-0.223694,12.3,11.4,1.1,1024,1024,1024,1024,0,0,0,0,87,5.708,70.16,29.855644,P-GPS,,9.1
347,196500,2026-01-08 12:31:11,0.223694,5,7.696,-0.223694,0.0,-0.447388,12.3,11.3,1.2,1024,1024,1024,1024,0,0,0,0,87,5.708,70.16,29.855644,P-GPS,,9.1
348,196600,2026-01-08 12:31:11,0.223694,5,7.696,-0.223694,0.0,-0.223694,12.3,12.0,2.7,1024,1024,1024,1024,0,0,0,0,87,5.708,70.16,29.855644,P-GPS,Strong wind warning Strong wind warning. Aircraft unable to return to home automatically. Lower altitude immediately and return to home manually (Code: 30149). SD card speed low. Normal use may be affected. Replace SD card (Code: 10028). Gimbal stuck. Make sure gimbal c,9.1
349,196700,2026-01-08 12:31:11,0.223694,5,7.696,-0.223694,0.0,-0.223694,12.4,11.2,3.0,1024,1024,1024,1024,0,0,0,0,87,5.708,70.16,29.855644,P-GPS,,9.1
350,196800,2026-01-08 12:31:11,0.3131716,5,7.696,-0.223694,0.223694,-0.223694,12.3,10.7,1.8,1024,1024,1024,1024,0,0,0,0,87,5.708,70.16,29.855644,P-GPS,,9.1
351,196900,2026-01-08 12:31:11,0.3131716,5,7.696,-0.223694,0.223694,0.0,12.0,10.6,-0.3,1024,1024,1024,1024,0,0,0,0,87,5.708,70.16,29.52756,P-GPS,,9.0
352,197000,2026-01-08 12:31:11,0.3131716,5,7.696,-0.223694,0.223694,0.0,12.1,9.8,-1.2,1024,1024,1024,1024,0,0,0,0,87,5.708,70.16,29.52756,P-GPS,,9.0
353,197100,2026-01-08 12:31:11,0.3131716,5,7.696,-0.223694,0.447388,0.0,12.1,9.8,-1.8,1024,1024,1024,1024,0,0,0,0,87,5.708,70.16,29.52756,P-GPS,,9.0
354,197200,2026-01-08 12:31:11,0.4921268,5,7.592,-0.223694,0.447388,0.0,12.0,10.2,-2.8,1024,1024,1024,1024,0,0,0,0,86,7.319,70.16,29.199476,P-GPS,,8.9
355,197300,2026-01-08 12:31:12,0.3131716,5,7.592,-0.223694,0.223694,0.0,11.8,10.6,-3.3,1024,1024,1024,1024,0,0,0,0,86,7.319,70.16,29.199476,P-GPS,,8.9
356,197400,2026-01-08 12:31:12,0.3131716,5,7.592,-0.223694,0.223694,0.0,11.9,9.8,-3.4,1024,1024,1024,1024,0,0,0,0,86,7.319,70.16,29.199476,P-GPS,,8.9
357,197500,2026-01-08 12:31:12,0.0,5,7.592,0.0,0.0,0.0,11.9,9.8,-2.3,1024,1024,1024,1024,0,0,0,0,86,7.319,70.16,29.199476,P-GPS,,8.9
358,197600,2026-01-08 12:31:12,0.0,5,7.592,0.0,0.0,0.0,11.9,10.5,-1.9,1024,1024,1024,1024,0,0,0,0,86,7.319,70.16,29.199476,P-GPS,,8.9
359,197700,2026-01-08 12:31:12,0.0,5,7.592,0.0,0.0,0.0,11.8,10.7,-1.3,1024,1024,1024,1024,0,0,0,0,86,7.319,70.16,29.199476,P-GPS,,8.9
360,197800,2026-01-08 12:31:12,0.0,5,7.592,0.0,0.0,0.0,11.8,10.7,-0.8,1024,1024,1024,1024,0,0,0,0,86,7.319,70.16,29.199476,P-GPS,,8.9
361,197900,2026-01-08 12:31:12,0.0,5,7.592,0.0,0.0,0.0,11.8,11.1,0.1,1024,1024,1024,1024,0,0,0,0,86,7.319,70.16,29.199476,P-GPS,,8.9
362,198000,2026-01-08 12:31:12,0.0,5,7.592,0.0,0.0,0.0,11.8,11.5,-0.2,1024,1024,1024,1024,0,0,0,0,86,7.319,70.16,29.199476,P-GPS,,8.9
363,198100,2026-01-08 12:31:12,0.223694,5,7.592,0.0,-0.223694,0.0,11.9,10.3,1.0,1024,1024,1024,1024,0,0,0,0,86,7.319,70.16,29.52756,P-GPS,,9.0
364,198200,2026-01-08 12:31:13,0.223694,5,7.592,0.0,-0.223694,0.0,12.0,9.7,1.2,1024,1024,1024,1024,0,0,0,0,86,7.319,70.16,29.52756,P-GPS,,9.0
365,198300,2026-01-08 12:31:13,0.0,5,7.718,0.0,0.0,-0.223694,12.1,9.9,1.1,1024,1024,1024,1024,0,0,0,0,86,5.098,70.34,29.855644,P-GPS,,9.1
366,198400,2026-01-08 12:31:13,0.0,5,7.718,0.0,0.0,-0.223694,12.3,9.2,1.2,1024,1024,1024,1024,0,0,0,0,86,5.098,70.34,29.855644,P-GPS,,9.1
367,198500,2026-01-08 12:31:13,0.0,5,7.718,0.0,0.0,-0.223694,12.5,9.9,-0.4,1024,1024,1024,1024,0,0,0,0,86,5.098,70.34,30.183728,P-GPS,,9.2
368,198600,2026-01-08 12:31:13,0.0,5,7.718,0.0,0.0,0.0,12.4,10.2,-1.7,1024,1024,1024,1024,0,0,0,0,86,5.098,70.34,30.183728,P-GPS,,9.2
369,198700,2026-01-08 12:31:13,0.0,5,7.718,-0.223694,0.0,0.0,12.3,9.3,-1.7,1024,1024,1024,1024,0,0,0,0,86,5.098,70.34,30.183728,P-GPS,,9.2
370,198800,2026-01-08 12:31:13,0.3131716,5,7.718,-0.223694,0.223694,0.0,12.3,6.3,-1.7,1024,1024,1024,1024,0,0,0,0,86,5.098,70.34,30.511812,P-GPS,,9.3
371,198900,2026-01-08 12:31:13,0.3131716,5,7.718,-0.223694,0.223694,-0.223694,12.1,7.4,-3.5,1024,1024,1024,1024,0,0,0,0,86,5.098,70.34,30.511812,P-GPS,,9.3
372,199000,2026-01-08 12:31:13,0.3131716,5,7.718,-0.223694,0.223694,0.0,12.1,7.7,-5.4,1024,1024,1024,1024,0,0,0,0,86,5.098,70.34,30.511812,P-GPS,,9.3
373,199100,2026-01-08 12:31:13,0.223694,5,7.718,-0.223694,0.0,0.0,12.1,6.0,-4.8,1024,1024,1024,1024,0,0,0,0,86,5.098,70.34,30.511812,P-GPS,,9.3
374,199200,2026-01-08 12:31:13,0.0,5,7.753,0.0,0.0,-0.223694,12.2,5.6,-5.0,1024,1024,1024,1024,0,0,0,0,86,5.088,70.34,30.183728,P-GPS,,9.2
375,199300,2026-01-08 12:31:14,0.0,5,7.753,0.0,0.0,0.0,11.8,8.8,-4.6,1024,1024,1024,1024,0,0,0,0,86,5.088,70.34,30.183728,P-GPS,,9.2
376,199400,2026-01-08 12:31:14,0.0,5,7.753,0.0,0.0,0.0,11.9,9.1,-3.6,1024,1024,1024,1024,0,0,0,0,86,5.088,70.34,30.183728,P-GPS,,9.2
377,199500,2026-01-08 12:31:14,0.0,5,7.753,0.0,0.0,0.223694,12.0,9.9,-4.2,1024,1024,1024,1024,0,0,0,0,86,5.088,70.34,30.183728,P-GPS,,9.2
378,199600,2026-01-08 12:31:14,0.0,5,7.753,0.0,0.0,0.223694,11.9,9.8,-3.6,1024,1024,1024,1024,0,0,0,0,86,5.088,70.34,30.183728,P-GPS,,9.2
379,199700,2026-01-08 12:31:14,0.223694,5,7.753,0.0,-0.223694,0.223694,11.7,9.6,-2.7,1024,1024,1024,1024,0,0,0,0,86,5.088,70.34,30.183728,P-GPS,,9.2
380,199800,2026-01-08 12:31:14,0.3131716,5,7.753,0.223694,-0.223694,0.223694,11.7,11.0,-1.4,1024,1024,1024,1024,0,0,0,0,86,5.088,70.34,30.183728,P-GPS,,9.2
381,199900,2026-01-08 12:31:14,0.4921268,5,7.753,0.223694,-0.447388,0.0,11.8,12.0,0.5,1024,1024,1024,1024,0,0,0,0,86,5.088,70.34,30.183728,P-GPS,,9.2
382,200000,2026-01-08 12:31:14,0.4921268,5,7.753,0.223694,-0.447388,0.0,11.9,12.5,1.6,1024,1024,1024,1024,0,0,0,0,86,5.088,70.34,30.511812,P-GPS,,9.3
383,200100,2026-01-08 12:31:14,0.4921268,5,7.753,0.223694,-0.447388,0.0,12.0,12.9,2.5,1024,1024,1024,1024,0,0,0,0,86,5.088,70.34,30.511812,P-GPS,,9.3
384,200200,2026-01-08 12:31:15,0.4921268,5,7.753,0.223694,-0.447388,0.0,12.2,13.1,3.1,1024,1024,1024,1024,0,0,0,0,86,5.088,70.34,30.839896,P-GPS,,9.4
385,200300,2026-01-08 12:31:15,0.4921268,5,7.705,0.223694,-0.447388,0.0,12.3,13.4,3.6,1024,1024,1024,1024,0,0,0,0,86,4.449,70.34,30.839896,P-GPS,,9.4
386,200400,2026-01-08 12:31:15,0.3131716,5,7.705,0.223694,-0.223694,0.0,12.4,13.0,3.7,1024,1024,1024,1024,0,0,0,0,86,4.449,70.34,30.839896,P-GPS,,9.4
387,200500,2026-01-08 12:31:15,0.3131716,5,7.705,0.223694,-0.223694,0.0,12.2,13.1,3.3,1024,1024,1024,1024,0,0,0,0,86,4.449,70.34,31.16798,P-GPS,,9.5
388,200600,2026-01-08 12:31:15,0.223694,5,7.705,0.0,-0.223694,0.0,12.2,12.8,2.9,1024,1024,1024,1024,0,0,0,0,86,4.449,70.34,31.16798,P-GPS,,9.5
389,200700,2026-01-08 12:31:15,0.223694,5,7.705,0.0,0.0,0.0,12.2,12.9,2.7,1024,1024,1024,1024,0,0,0,0,86,4.449,70.34,31.496064,P-GPS,,9.6
