time(millisecond),timestamp,speed(mph),gpslevel,voltage(v),xSpeed(mph),ySpeed(mph),zSpeed(mph),compass_heading(degrees),pitch(degrees),roll(degrees),rc_elevator,rc_aileron,rc_throttle,rc_rudder,rc_elevator(percent),rc_aileron(percent),rc_throttle(percent),rc_rudder(percent),battery_percent,current(A),battery_temperature(f),ascent(feet),flycState,message,height_above_takeoff(meters)
633600,2026-01-08 12:39:18,0.223694,5,7.291,0.223694,0.0,-4.026492,25.6,10.1,6.7,1024,1024,1684,1024,0,0,100,0,59,7.01,79.88,26.574804,P-GPS,,8.1
633700,2026-01-08 12:39:18,0.223694,5,7.291,0.223694,0.0,-4.026492,25.5,9.5,6.2,1024,1024,1684,1024,0,0,100,0,59,7.01,79.88,26.902888,P-GPS,,8.2
633800,2026-01-08 12:39:18,0.223694,5,7.291,0.223694,0.0,-4.026492,25.5,9.2,5.0,1024,1024,1684,1024,0,0,100,0,59,7.01,79.88,27.230972,P-GPS,,8.3
633900,2026-01-08 12:39:18,0.223694,5,7.291,0.223694,0.0,-4.250186,25.5,10.2,4.8,1024,1024,1684,1024,0,0,100,0,59,7.01,79.88,27.88714,P-GPS,,8.5
634000,2026-01-08 12:39:18,0.223694,5,7.291,0.223694,0.0,-4.250186,25.5,9.1,5.6,1024,1024,1684,1024,0,0,100,0,59,7.01,79.88,28.543308,P-GPS,,8.7
634100,2026-01-08 12:39:18,0.223694,5,7.291,0.223694,0.0,-4.250186,25.7,9.3,4.6,1024,1024,1684,1024,0,0,100,0,59,7.01,79.88,28.871392,P-GPS,,8.8
634200,2026-01-08 12:39:18,0.4921268,5,7.291,0.447388,0.223694,-4.47388,25.8,10.4,4.7,1024,1024,1684,1024,0,0,100,0,59,7.01,79.88,29.52756,P-GPS,,9.0
634300,2026-01-08 12:39:19,0.4921268,5,7.424,0.447388,0.223694,-4.250186,25.7,13.5,3.8,1024,1024,1684,1024,0,0,100,0,59,6.317,80.06,29.855644,P-GPS,,9.1
634400,2026-01-08 12:39:19,0.4921268,5,7.424,0.447388,0.223694,-4.47388,25.7,15.6,3.9,1024,1024,1684,1024,0,0,100,0,59,6.317,80.06,30.511812,P-GPS,,9.3
634500,2026-01-08 12:39:19,0.4921268,5,7.424,0.447388,0.223694,-4.250186,25.8,16.7,5.9,1024,1024,1684,1024,0,0,100,0,59,6.317,80.06,31.16798,P-GPS,,9.5
634600,2026-01-08 12:39:19,0.3131716,5,7.424,0.223694,0.223694,-4.250186,26.0,15.0,5.8,1024,1024,1024,1024,0,0,0,0,59,6.317,80.06,31.824148,P-GPS,,9.7
634700,2026-01-08 12:39:19,0.3131716,5,7.424,0.223694,0.223694,-4.250186,26.0,14.3,6.5,1024,1024,1024,1024,0,0,0,0,59,6.317,80.06,32.152232,P-GPS,,9.8
634800,2026-01-08 12:39:19,0.447388,5,7.424,0.0,0.447388,-4.026492,25.9,16.8,3.3,1024,1024,1024,1024,0,0,0,0,59,6.317,80.06,32.8084,P-GPS,,10.0
634900,2026-01-08 12:39:19,0.447388,5,7.424,0.0,0.447388,-3.802798,25.6,16.3,1.6,1024,1024,1024,1024,0,0,0,0,59,6.317,80.06,33.136484,P-GPS,,10.1
635000,2026-01-08 12:39:19,0.447388,5,7.424,0.0,0.447388,-3.35541,25.3,14.5,1.1,1024,1024,1024,1024,0,0,0,0,59,6.317,80.06,33.464568,P-GPS,,10.2
635100,2026-01-08 12:39:19,0.223694,5,7.424,0.0,0.223694,-2.908022,25.0,13.5,1.5,1024,1024,1024,1024,0,0,0,0,59,6.317,80.06,33.792652,P-GPS,,10.3
635200,2026-01-08 12:39:20,0.223694,5,7.424,0.0,0.223694,-2.460634,25.1,13.9,2.2,1024,1024,1024,1024,0,0,0,0,59,6.317,80.06,34.120736,P-GPS,,10.4
635300,2026-01-08 12:39:20,0.223694,5,7.424,0.0,0.223694,-1.789552,25.2,14.5,2.6,1024,1024,1024,1024,0,0,0,0,59,6.317,80.06,34.120736,P-GPS,,10.4
635400,2026-01-08 12:39:20,0.223694,5,7.424,0.0,0.223694,-1.11847,25.2,14.6,2.3,1024,1024,1024,1024,0,0,0,0,59,6.317,80.06,34.120736,P-GPS,,10.4
635500,2026-01-08 12:39:20,0.0,5,7.325,0.0,0.0,-0.671082,25.3,14.9,2.1,1024,1024,1024,1024,0,0,0,0,59,7.474,80.06,33.792652,P-GPS,,10.3
635600,2026-01-08 12:39:20,0.0,5,7.325,0.0,0.0,-0.223694,25.4,14.6,2.5,1024,1024,1024,1024,0,0,0,0,59,7.474,80.06,33.792652,P-GPS,,10.3
635700,2026-01-08 12:39:20,0.0,5,7.325,0.0,0.0,0.0,25.2,12.7,1.5,1024,1024,1024,1024,0,0,0,0,59,7.474,80.06,33.464568,P-GPS,,10.2
635800,2026-01-08 12:39:20,0.0,5,7.325,0.0,0.0,0.0,25.3,12.4,2.5,1024,1024,1024,1024,0,0,0,0,59,7.474,80.06,33.464568,P-GPS,,10.2
635900,2026-01-08 12:39:20,0.223694,5,7.325,-0.223694,0.0,0.0,25.4,10.9,2.5,1024,1024,1024,1684,0,0,0,100,59,7.474,80.06,33.136484,P-GPS,,10.1
636000,2026-01-08 12:39:20,0.223694,5,7.325,-0.223694,0.0,0.0,25.4,9.5,3.7,1024,1024,1024,1024,0,0,0,0,59,7.474,80.06,33.136484,P-GPS,,10.1
636100,2026-01-08 12:39:20,0.0,5,7.325,0.0,0.0,-0.223694,25.7,9.7,4.1,1024,1024,1024,1024,0,0,0,0,59,7.474,80.06,32.8084,P-GPS,,10.0
636200,2026-01-08 12:39:20,0.0,5,7.325,0.0,0.0,-0.223694,36.4,10.5,4.7,1024,1024,1024,1024,0,0,0,0,59,7.474,80.06,32.8084,P-GPS,,10.0
636300,2026-01-08 12:39:21,0.223694,5,7.325,-0.223694,0.0,-0.223694,39.1,9.0,6.4,1024,1024,1024,1024,0,0,0,0,59,7.474,80.06,32.480316,P-GPS,,9.9
636400,2026-01-08 12:39:21,0.223694,5,7.325,-0.223694,0.0,-0.223694,38.9,8.7,4.5,1024,1024,1024,1024,0,0,0,0,59,7.474,80.06,32.152232,P-GPS,,9.8
636500,2026-01-08 12:39:21,0.223694,5,7.325,-0.223694,0.0,-0.223694,38.8,10.3,3.6,1024,1024,1024,1024,0,0,0,0,59,7.474,80.06,32.152232,P-GPS,,9.8
636600,2026-01-08 12:39:21,0.223694,5,7.344,-0.223694,0.0,0.0,38.7,9.4,2.9,1024,1024,1024,1024,0,0,0,0,58,5.924,80.06,31.824148,P-GPS,,9.7
636700,2026-01-08 12:39:21,0.223694,5,7.344,-0.223694,0.0,0.0,38.6,7.8,2.6,1024,1024,1024,1024,0,0,0,0,58,5.924,80.06,31.496064,P-GPS,,9.6
636800,2026-01-08 12:39:21,0.223694,5,7.344,-0.223694,0.0,0.0,38.6,9.3,1.5,1024,1024,1024,1024,0,0,0,0,58,5.924,80.06,31.16798,P-GPS,,9.5
636900,2026-01-08 12:39:21,0.223694,5,7.344,-0.223694,0.0,0.0,38.5,8.4,1.3,1024,1024,1024,1024,0,0,0,0,58,5.924,80.06,30.839896,P-GPS,,9.4
637000,2026-01-08 12:39:21,0.223694,5,7.344,-0.223694,0.0,0.0,38.5,8.8,1.5,1024,1024,1024,1024,0,0,0,0,58,5.924,80.06,30.511812,P-GPS,,9.3
637100,2026-01-08 12:39:21,0.223694,5,7.344,-0.223694,0.0,0.0,38.6,9.0,1.7,1024,1024,1024,1024,0,0,0,0,58,5.924,80.06,30.511812,P-GPS,,9.3
637200,2026-01-08 12:39:22,0.223694,5,7.344,-0.223694,0.0,0.0,38.5,9.3,0.3,1024,1024,1024,1024,0,0,0,0,58,5.924,80.06,30.183728,P-GPS,,9.2
637300,2026-01-08 12:39:22,0.0,5,7.344,0.0,0.0,0.0,38.7,8.8,0.6,1024,1024,1024,1024,0,0,0,0,58,5.924,80.06,29.855644,P-GPS,,9.1
637400,2026-01-08 12:39:22,0.0,5,7.344,0.0,0.0,0.0,38.6,8.6,0.4,1024,1024,1024,1024,0,0,0,0,58,5.924,80.06,29.855644,P-GPS,,9.1
637500,2026-01-08 12:39:22,0.0,5,7.344,0.0,0.0,0.0,38.6,8.4,0.5,1024,1024,1024,1024,0,0,0,0,58,5.924,80.06,29.52756,P-GPS,,9.0
637600,2026-01-08 12:39:22,0.0,5,7.344,0.0,0.0,-0.223694,38.7,7.4,1.2,1024,1024,1024,1024,0,0,0,0,58,5.924,80.06,29.52756,P-GPS,,9.0
637700,2026-01-08 12:39:22,0.0,5,7.366,0.0,0.0,-0.223694,38.8,8.4,1.4,1024,1024,1024,1024,0,0,0,0,58,5.092,80.06,29.199476,P-GPS,,8.9
637800,2026-01-08 12:39:22,0.0,5,7.366,0.0,0.0,0.0,38.9,8.5,1.2,1024,1024,1024,1024,0,0,0,0,58,5.092,80.06,28.871392,P-GPS,,8.8
637900,2026-01-08 12:39:22,0.0,5,7.366,0.0,0.0,0.0,39.0,8.3,1.2,1024,1024,1024,1024,0,0,0,0,58,5.092,80.06,28.871392,P-GPS,,8.8
638000,2026-01-08 12:39:22,0.0,5,7.366,0.0,0.0,0.0,39.1,8.7,0.9,1024,1024,1024,1024,0,0,0,0,58,5.092,80.06,28.871392,P-GPS,,8.8
638100,2026-01-08 12:39:22,0.0,5,7.366,0.0,0.0,0.0,39.0,9.6,1.7,1024,1024,1024,1024,0,0,0,0,58,5.092,80.06,28.543308,P-GPS,,8.7
638200,2026-01-08 12:39:22,0.0,5,7.366,0.0,0.0,0.0,38.8,9.8,1.0,1024,1024,1024,1024,0,0,0,0,58,5.092,80.06,28.543308,P-GPS,,8.7
638300,2026-01-08 12:39:23,0.0,5,7.366,0.0,0.0,0.0,38.6,10.2,1.5,1024,1024,1024,1024,0,0,0,0,58,5.092,80.06,28.543308,P-GPS,,8.7
638400,2026-01-08 12:39:23,0.0,5,7.366,0.0,0.0,0.0,38.9,10.6,3.4,1024,1024,1024,1024,0,0,0,0,58,5.092,80.06,28.215224,P-GPS,,8.6
638500,2026-01-08 12:39:23,0.0,5,7.366,0.0,0.0,0.0,39.1,10.2,3.4,1024,1024,1024,1024,0,0,0,0,58,5.092,80.06,28.215224,P-GPS,,8.6
638600,2026-01-08 12:39:23,0.0,5,7.366,0.0,0.0,0.0,39.0,8.6,2.6,1024,1024,1024,1024,0,0,0,0,58,5.092,80.06,28.215224,P-GPS,,8.6
638700,2026-01-08 12:39:23,0.0,5,7.366,0.0,0.0,0.0,38.8,8.4,2.0,1024,1024,1024,1024,0,0,0,0,58,5.092,80.06,28.215224,P-GPS,,8.6
638800,2026-01-08 12:39:23,0.0,5,7.394,0.0,0.0,0.0,38.8,7.7,1.7,1024,1024,1024,1024,0,0,0,0,58,4.624,80.06,28.215224,P-GPS,,8.6
638900,2026-01-08 12:39:23,0.0,5,7.394,0.0,0.0,0.0,38.7,6.4,1.4,1024,1024,1024,1024,0,0,0,0,58,4.624,80.06,28.215224,P-GPS,,8.6
639000,2026-01-08 12:39:23,0.0,5,7.394,0.0,0.0,0.0,38.6,6.3,1.2,1024,1024,1024,1024,0,0,0,0,58,4.624,80.06,28.215224,P-GPS,,8.6
639100,2026-01-08 12:39:23,0.0,5,7.394,0.0,0.0,0.0,38.8,6.4,2.1,1024,1024,1024,1024,0,0,0,0,58,4.624,80.06,28.215224,P-GPS,,8.6
639200,2026-01-08 12:39:24,0.0,5,7.394,0.0,0.0,-0.223694,38.7,5.1,1.4,1024,1024,1024,1024,0,0,0,0,58,4.624,80.06,28.215224,P-GPS,,8.6
639300,2026-01-08 12:39:24,0.0,5,7.394,0.0,0.0,-0.223694,38.5,3.8,1.8,1024,1024,1024,1024,0,0,0,0,58,4.624,80.06,28.215224,P-GPS,,8.6
639400,2026-01-08 12:39:24,0.0,5,7.394,0.0,0.0,0.0,38.6,6.1,1.7,1024,1024,1024,1024,0,0,0,0,58,4.624,80.06,27.88714,P-GPS,,8.5
639500,2026-01-08 12:39:24,0.0,5,7.394,0.0,0.0,0.0,38.6,5.9,1.8,1024,1024,1024,1024,0,0,0,0,58,4.624,80.06,27.88714,P-GPS,,8.5
639600,2026-01-08 12:39:24,0.0,5,7.394,0.0,0.0,0.0,38.5,5.3,2.5,1024,1024,1024,1024,0,0,0,0,58,4.624,80.06,27.88714,P-GPS,,8.5
639700,2026-01-08 12:39:24,0.0,5,7.394,0.0,0.0,0.0,38.6,5.9,2.9,1024,1024,1024,1024,0,0,0,0,58,4.624,80.06,27.88714,P-GPS,,8.5
639800,2026-01-08 12:39:24,0.0,5,7.394,0.0,0.0,0.0,38.7,6.3,2.6,1024,1024,1024,1024,0,0,0,0,58,4.624,80.06,27.88714,P-GPS,,8.5
639900,2026-01-08 12:39:24,0.223694,5,7.421,0.0,-0.223694,0.0,38.9,5.5,2.3,1024,1024,1024,1024,0,0,0,0,58,3.906,80.06,27.88714,P-GPS,,8.5
640000,2026-01-08 12:39:24,0.3131716,5,7.421,-0.223694,-0.223694,0.0,39.1,4.4,2.7,1024,1024,1024,1024,0,0,0,0,58,3.906,80.06,27.88714,P-GPS,,8.5
640100,2026-01-08 12:39:24,0.3131716,5,7.421,-0.223694,-0.223694,0.0,39.0,4.0,3.1,1024,1024,1024,1024,0,0,0,0,58,3.906,80.06,27.88714,P-GPS,,8.5
640200,2026-01-08 12:39:25,0.3131716,5,7.421,-0.223694,-0.223694,0.0,38.9,3.9,3.8,1024,1024,1024,1024,0,0,0,0,58,3.906,80.06,27.88714,P-GPS,,8.5
640300,2026-01-08 12:39:25,0.3131716,5,7.421,-0.223694,-0.223694,0.0,38.8,1.9,3.6,1024,1024,1024,1024,0,0,0,0,58,3.906,80.06,27.88714,P-GPS,,8.5
640400,2026-01-08 12:39:25,0.3131716,5,7.421,-0.223694,-0.223694,0.0,38.8,2.0,2.5,1024,1024,1024,1024,0,0,0,0,58,3.906,80.06,27.88714,P-GPS,,8.5
640500,2026-01-08 12:39:25,0.3131716,5,7.421,-0.223694,-0.223694,0.0,38.7,1.5,2.3,1024,1024,1024,1024,0,0,0,0,58,3.906,80.06,27.88714,P-GPS,,8.5
640600,2026-01-08 12:39:25,0.223694,5,7.421,-0.223694,0.0,0.0,38.5,1.0,2.3,1024,1024,1024,1024,0,0,0,0,58,3.906,80.06,27.88714,P-GPS,,8.5
640700,2026-01-08 12:39:25,0.223694,5,7.421,-0.223694,0.0,0.0,38.5,-1.1,3.5,1024,1024,1024,1024,0,0,0,0,58,3.906,80.06,27.88714,P-GPS,,8.5
640800,2026-01-08 12:39:25,0.0,5,7.421,0.0,0.0,0.0,38.4,1.9,3.3,1024,1024,1024,1024,0,0,0,0,58,3.906,80.06,27.88714,P-GPS,,8.5
640900,2026-01-08 12:39:25,0.0,5,7.421,0.0,0.0,0.0,38.4,4.1,2.6,1024,1024,1024,1024,0,0,0,0,58,3.906,80.06,28.215224,P-GPS,,8.6
641000,2026-01-08 12:39:25,0.0,5,7.415,0.0,0.0,0.0,38.4,4.7,2.5,1024,1024,1024,1024,0,0,0,0,58,3.43,80.06,28.215224,P-GPS,,8.6
641100,2026-01-08 12:39:25,0.0,5,7.415,0.0,0.0,0.0,38.5,5.2,3.1,1024,1024,1024,1024,0,0,0,0,58,3.43,80.06,28.215224,P-GPS,,8.6
641200,2026-01-08 12:39:26,0.0,5,7.415,0.0,0.0,0.0,38.5,5.8,3.4,1024,1024,1024,1024,0,0,0,0,58,3.43,80.06,28.215224,P-GPS,,8.6
641300,2026-01-08 12:39:26,0.0,5,7.415,0.0,0.0,0.0,38.5,6.2,3.0,1024,1024,1024,1024,0,0,0,0,58,3.43,80.06,28.543308,P-GPS,,8.7
641400,2026-01-08 12:39:26,0.0,5,7.415,0.0,0.0,0.0,38.5,6.7,1.8,1024,1024,1024,1024,0,0,0,0,58,3.43,80.06,28.543308,P-GPS,,8.7
641500,2026-01-08 12:39:26,0.0,5,7.415,0.0,0.0,0.0,38.5,6.5,1.6,1024,1024,1024,1024,0,0,0,0,58,3.43,80.06,28.543308,P-GPS,,8.7
641600,2026-01-08 12:39:26,0.0,5,7.415,0.0,0.0,0.0,38.6,6.3,1.1,1024,1024,1024,1024,0,0,0,0,58,3.43,80.06,28.871392,P-GPS,,8.8
641700,2026-01-08 12:39:26,0.0,5,7.415,0.0,0.0,0.0,38.8,6.6,1.3,1024,1024,1024,1024,0,0,0,0,58,3.43,80.06,28.871392,P-GPS,,8.8
641800,2026-01-08 12:39:26,0.0,5,7.415,0.0,0.0,0.0,38.8,4.5,1.4,1024,1024,1024,1024,0,0,0,0,58,3.43,80.06,29.199476,P-GPS,,8.9
641900,2026-01-08 12:39:26,0.0,5,7.415,0.0,0.0,-0.223694,38.5,3.4,0.9,1024,1024,1024,1024,0,0,0,0,58,3.43,80.06,29.199476,P-GPS,,8.9
642000,2026-01-08 12:39:26,0.223694,5,7.415,0.223694,0.0,-0.223694,38.5,4.1,1.6,1024,1024,1024,1024,0,0,0,0,58,3.43,80.06,29.199476,P-GPS,,8.9
642100,2026-01-08 12:39:26,0.223694,5,7.398,0.223694,0.0,-0.223694,38.3,6.8,1.9,1024,1024,1024,1024,0,0,0,0,58,4.295,80.06,29.52756,P-GPS,,9.0
642200,2026-01-08 12:39:27,0.223694,5,7.398,0.223694,0.0,0.0,38.5,8.6,3.0,1024,1024,1024,1024,0,0,0,0,58,4.295,80.06,29.52756,P-GPS,,9.0
642300,2026-01-08 12:39:27,0.223694,5,7.398,0.223694,0.0,0.0,38.5,8.0,4.1,1024,1024,1024,1024,0,0,0,0,58,4.295,80.06,29.52756,P-GPS,,9.0
642400,2026-01-08 12:39:27,0.223694,5,7.398,0.223694,0.0,0.0,39.0,9.4,4.6,1024,1024,1024,1024,0,0,0,0,58,4.295,80.06,29.52756,P-GPS,,9.0
642500,2026-01-08 12:39:27,0.223694,5,7.398,0.223694,0.0,0.0,39.0,8.7,4.5,1024,1024,1024,1024,0,0,0,0,58,4.295,80.06,29.52756,P-GPS,,9.0
642600,2026-01-08 12:39:27,0.223694,5,7.398,0.223694,0.0,0.0,39.1,9.3,4.5,1024,1024,1024,1024,0,0,0,0,58,4.295,80.06,29.52756,P-GPS,,9.0
642700,2026-01-08 12:39:27,0.0,5,7.398,0.0,0.0,0.0,39.0,10.3,3.7,1024,1024,1024,1024,0,0,0,0,58,4.295,80.06,29.52756,P-GPS,,9.0
642800,2026-01-08 12:39:27,0.0,5,7.398,0.0,0.0,0.0,38.8,10.0,2.7,1024,1024,1024,1024,0,0,0,0,58,4.295,80.06,29.52756,P-GPS,,9.0
642900,2026-01-08 12:39:27,0.0,5,7.398,0.0,0.0,0.0,38.6,9.4,2.2,1024,1024,1024,1024,0,0,0,0,58,4.295,80.06,29.52756,P-GPS,,9.0
643000,2026-01-08 12:39:27,0.0,5,7.398,0.0,0.0,0.0,38.5,9.5,2.3,1024,1024,1024,1024,0,0,0,0,58,4.295,80.06,29.52756,P-GPS,,9.0
643100,2026-01-08 12:39:27,0.0,5,7.398,0.0,0.0,0.0,38.6,9.8,2.4,1024,1024,1024,1024,0,0,0,0,58,4.295,80.06,29.855644,P-GPS,,9.1
643200,2026-01-08 12:39:27,0.0,5,7.38,0.0,0.0,0.0,38.7,9.3,2.9,1024,1024,1024,1024,0,0,0,0,58,4.33,80.06,29.855644,P-GPS,,9.1
643300,2026-01-08 12:39:28,0.0,5,7.38,0.0,0.0,0.0,38.8,8.5,3.6,1024,1024,1024,1024,0,0,0,0,58,4.33,80.06,30.183728,P-GPS,,9.2
643400,2026-01-08 12:39:28,0.0,5,7.38,0.0,0.0,0.0,38.8,8.1,3.9,1024,1024,1024,1024,0,0,0,0,58,4.33,80.06,30.183728,P-GPS,,9.2
643500,2026-01-08 12:39:28,0.0,5,7.38,0.0,0.0,0.0,38.8,7.8,3.5,1024,1024,1024,1024,0,0,0,0,58,4.33,80.06,30.511812,P-GPS,,9.3
643600,2026-01-08 12:39:28,0.0,5,7.38,0.0,0.0,0.0,38.8,8.1,3.4,1024,1024,1024,1024,0,0,0,0,58,4.33,80.06,30.511812,P-GPS,,9.3
643700,2026-01-08 12:39:28,0.0,5,7.38,0.0,0.0,0.0,38.8,8.7,3.3,1024,1024,1024,1024,0,0,0,0,58,4.33,80.06,30.511812,P-GPS,,9.3
643800,2026-01-08 12:39:28,0.0,5,7.38,0.0,0.0,0.0,38.7,8.5,3.5,1024,1024,1024,1024,0,0,0,0,58,4.33,80.06,30.839896,P-GPS,,9.4
643900,2026-01-08 12:39:28,0.0,5,7.38,0.0,0.0,0.0,38.7,8.7,3.4,1024,1024,1024,1024,0,0,0,0,58,4.33,80.06,30.839896,P-GPS,,9.4
644000,2026-01-08 12:39:28,0.0,5,7.38,0.0,0.0,0.0,38.7,9.1,3.8,1024,1024,1024,1024,0,0,0,0,58,4.33,80.06,30.839896,P-GPS,,9.4
644100,2026-01-08 12:39:28,0.0,5,7.38,0.0,0.0,0.0,38.8,9.4,4.0,1024,1024,1024,1024,0,0,0,0,58,4.33,80.06,31.16798,P-GPS,,9.5
644200,2026-01-08 12:39:29,0.0,5,7.38,0.0,0.0,0.0,38.8,9.8,4.1,1024,1024,1024,1024,0,0,0,0,58,4.33,80.06,31.16798,P-GPS,,9.5
644300,2026-01-08 12:39:29,0.0,5,7.38,0.0,0.0,0.0,38.8,9.6,4.6,1024,1024,1024,1024,0,0,0,0,58,4.33,80.06,31.16798,P-GPS,,9.5
644400,2026-01-08 12:39:29,0.0,5,7.38,0.0,0.0,0.0,38.9,10.0,4.8,1024,1024,1024,1024,0,0,0,0,58,4.33,80.06,31.496064,P-GPS,,9.6
644500,2026-01-08 12:39:29,0.0,5,7.38,0.0,0.0,0.0,38.9,10.0,4.7,1024,1024,1024,1024,0,0,0,0,58,4.33,80.06,31.496064,P-GPS,,9.6
644600,2026-01-08 12:39:29,0.0,5,7.38,0.0,0.0,0.0,38.9,9.3,4.8,1024,1024,1024,1024,0,0,0,0,58,4.33,80.06,31.496064,P-GPS,,9.6
644700,2026-01-08 12:39:29,0.0,5,7.38,0.0,0.0,-0.223694,38.9,8.8,5.6,1024,1024,1024,1024,0,0,0,0,58,4.33,80.06,31.496064,P-GPS,,9.6
644800,2026-01-08 12:39:29,0.0,5,7.38,0.0,0.0,0.0,39.0,9.1,5.3,1024,1024,1024,1024,0,0,0,0,58,4.33,80.06,31.824148,P-GPS,,9.7
644900,2026-01-08 12:39:29,0.0,5,7.38,0.0,0.0,0.0,39.0,9.2,5.5,1024,1024,1024,1024,0,0,0,0,58,4.33,80.06,31.824148,P-GPS,,9.7
645000,2026-01-08 12:39:29,0.0,5,7.38,0.0,0.0,0.0,39.1,9.3,5.6,1024,1024,1024,1024,0,0,0,0,58,4.33,80.06,31.824148,P-GPS,,9.7
645100,2026-01-08 12:39:29,0.0,5,7.38,0.0,0.0,0.0,38.9,9.1,5.0,1024,1024,1024,1024,0,0,0,0,58,4.33,80.06,31.824148,P-GPS,,9.7
645200,2026-01-08 12:39:29,0.0,5,7.38,0.0,0.0,0.0,38.9,8.6,5.5,1024,1024,1024,1024,0,0,0,0,58,4.33,80.06,31.824148,P-GPS,,9.7
645300,2026-01-08 12:39:30,0.0,5,7.366,0.0,0.0,0.0,38.9,8.2,6.0,1024,1024,1024,1024,0,0,0,0,58,4.978,80.06,31.824148,P-GPS,,9.7
645400,2026-01-08 12:39:30,0.0,5,7.366,0.0,0.0,0.0,39.1,9.0,6.2,1024,1024,1024,1024,0,0,0,0,58,4.978,80.06,31.824148,P-GPS,,9.7
645500,2026-01-08 12:39:30,0.0,5,7.366,0.0,0.0,0.0,39.2,9.5,6.8,1024,1024,1024,1024,0,0,0,0,58,4.978,80.06,31.824148,P-GPS,,9.7
645600,2026-01-08 12:39:30,0.0,5,7.366,0.0,0.0,0.0,39.1,8.3,7.1,1024,1024,1024,1024,0,0,0,0,58,4.978,80.06,31.824148,P-GPS,,9.7
645700,2026-01-08 12:39:30,0.0,5,7.366,0.0,0.0,0.0,38.9,7.4,7.2,1024,1024,1024,1024,0,0,0,0,58,4.978,80.06,31.824148,P-GPS,,9.7
645800,2026-01-08 12:39:30,0.0,5,7.366,0.0,0.0,0.0,39.0,7.9,7.0,1024,1024,1024,1024,0,0,0,0,58,4.978,80.06,31.824148,P-GPS,,9.7
645900,2026-01-08 12:39:30,0.0,5,7.366,0.0,0.0,0.0,39.0,8.7,6.3,1024,1024,1024,1024,0,0,0,0,58,4.978,80.06,31.496064,P-GPS,,9.6
646000,2026-01-08 12:39:30,0.0,5,7.366,0.0,0.0,0.0,39.1,9.5,6.2,1024,1024,1024,1024,0,0,0,0,58,4.978,80.06,31.496064,P-GPS,,9.6
646100,2026-01-08 12:39:30,0.0,5,7.366,0.0,0.0,0.0,39.2,10.2,6.3,1024,1024,1024,1024,0,0,0,0,58,4.978,80.06,31.16798,P-GPS,,9.5
646200,2026-01-08 12:39:30,0.0,5,7.366,0.0,0.0,0.0,39.2,11.3,5.9,1024,1024,1024,1024,0,0,0,0,58,4.978,80.06,31.16798,P-GPS,,9.5
646300,2026-01-08 12:39:31,0.0,5,7.366,0.0,0.0,0.0,39.1,11.2,5.9,1024,1024,1024,1024,0,0,0,0,58,4.978,80.06,30.839896,P-GPS,,9.4
646400,2026-01-08 12:39:31,0.0,5,7.366,0.0,0.0,0.0,39.1,10.6,5.9,1024,1024,1024,1024,0,0,0,0,58,4.978,80.06,30.839896,P-GPS,,9.4
646500,2026-01-08 12:39:31,0.0,5,7.377,0.0,0.0,0.0,39.1,11.0,6.0,1024,1024,1024,1024,0,0,0,0,58,4.402,80.06,30.839896,P-GPS,,9.4
646600,2026-01-08 12:39:31,0.0,5,7.377,0.0,0.0,0.0,39.2,10.9,6.1,1024,1024,1024,1024,0,0,0,0,58,4.402,80.06,30.511812,P-GPS,,9.3
646700,2026-01-08 12:39:31,0.0,5,7.377,0.0,0.0,0.0,39.1,10.3,6.0,1024,1024,1024,1024,0,0,0,0,58,4.402,80.06,30.511812,P-GPS,,9.3
646800,2026-01-08 12:39:31,0.0,5,7.377,0.0,0.0,0.0,39.2,11.4,4.6,1024,1024,1024,1024,0,0,0,0,58,4.402,80.06,30.511812,P-GPS,,9.3
646900,2026-01-08 12:39:31,0.0,5,7.377,0.0,0.0,0.0,38.9,11.4,4.3,1024,1024,1024,1024,0,0,0,0,58,4.402,80.06,30.511812,P-GPS,,9.3
647000,2026-01-08 12:39:31,0.0,5,7.377,0.0,0.0,-0.223694,38.9,10.5,5.3,1024,1024,1024,1024,0,0,0,0,58,4.402,80.06,30.183728,P-GPS,,9.2
647100,2026-01-08 12:39:31,0.0,5,7.377,0.0,0.0,0.0,38.9,10.3,6.2,1024,1024,1024,1024,0,0,0,0,58,4.402,80.06,30.183728,P-GPS,,9.2
647200,2026-01-08 12:39:32,0.0,5,7.377,0.0,0.0,0.0,39.1,10.0,5.5,1024,1024,1024,1024,0,0,0,0,58,4.402,80.06,30.183728,P-GPS,,9.2
647300,2026-01-08 12:39:32,0.0,5,7.377,0.0,0.0,0.0,39.1,10.0,5.7,1024,1024,1024,1024,0,0,0,0,58,4.402,80.06,29.855644,P-GPS,,9.1
647400,2026-01-08 12:39:32,0.0,5,7.377,0.0,0.0,0.0,39.1,9.4,5.2,1024,1024,1024,1024,0,0,0,0,58,4.402,80.06,29.855644,P-GPS,,9.1
647500,2026-01-08 12:39:32,0.0,5,7.377,0.0,0.0,0.0,38.9,9.7,5.0,1024,1024,1024,1024,0,0,0,0,58,4.402,80.06,29.52756,P-GPS,,9.0
647600,2026-01-08 12:39:32,0.0,5,7.361,0.0,0.0,0.0,39.1,10.2,4.7,1024,1024,1024,1024,0,0,0,0,58,4.797,80.24,29.52756,P-GPS,,9.0
647700,2026-01-08 12:39:32,0.0,5,7.361,0.0,0.0,0.0,39.1,10.7,4.7,1024,1024,1024,1024,0,0,0,0,58,4.797,80.24,29.52756,P-GPS,,9.0
647800,2026-01-08 12:39:32,0.0,5,7.361,0.0,0.0,0.0,39.1,10.2,4.2,1024,1024,1024,1024,0,0,0,0,58,4.797,80.24,29.199476,P-GPS,,8.9
647900,2026-01-08 12:39:32,0.0,5,7.361,0.0,0.0,0.0,39.0,10.5,3.8,1024,1024,1024,1024,0,0,0,0,58,4.797,80.24,29.199476,P-GPS,,8.9
648000,2026-01-08 12:39:32,0.0,5,7.361,0.0,0.0,0.0,39.0,10.3,4.0,1024,1024,1024,1024,0,0,0,0,58,4.797,80.24,29.199476,P-GPS,,8.9
648100,2026-01-08 12:39:32,0.0,5,7.361,0.0,0.0,0.0,38.9,9.2,4.6,1024,1024,1024,1024,0,0,0,0,58,4.797,80.24,29.199476,P-GPS,,8.9
648200,2026-01-08 12:39:33,0.0,5,7.361,0.0,0.0,0.0,38.9,8.8,5.1,1024,1024,1024,1024,0,0,0,0,58,4.797,80.24,28.871392,P-GPS,,8.8
648300,2026-01-08 12:39:33,0.0,5,7.361,0.0,0.0,0.0,38.9,8.4,5.4,1024,1024,1024,1024,0,0,0,0,58,4.797,80.24,28.871392,P-GPS,,8.8
648400,2026-01-08 12:39:33,0.0,5,7.361,0.0,0.0,0.0,38.9,8.5,5.2,1024,1024,1024,1024,0,0,0,0,58,4.797,80.24,28.871392,P-GPS,,8.8
648500,2026-01-08 12:39:33,0.0,5,7.361,0.0,0.0,0.0,38.8,8.2,5.1,1024,1024,1024,1024,0,0,0,0,58,4.797,80.24,28.871392,P-GPS,,8.8
648600,2026-01-08 12:39:33,0.0,5,7.361,0.0,0.0,0.0,38.8,7.9,4.6,1024,1024,1024,1024,0,0,0,0,58,4.797,80.24,28.871392,P-GPS,,8.8
648700,2026-01-08 12:39:33,0.0,5,7.362,0.0,0.0,0.0,38.9,7.5,4.8,1024,1024,1024,1024,0,0,0,0,57,4.72,80.24,28.871392,P-GPS,,8.8
648800,2026-01-08 12:39:33,0.0,5,7.362,0.0,0.0,0.0,38.9,7.5,5.0,1024,1024,1024,1024,0,0,0,0,57,4.72,80.24,28.871392,P-GPS,,8.8
648900,2026-01-08 12:39:33,0.0,5,7.362,0.0,0.0,0.0,38.8,6.8,4.9,1024,1024,1024,1024,0,0,0,0,57,4.72,80.24,28.871392,P-GPS,,8.8
649000,2026-01-08 12:39:33,0.0,5,7.362,0.0,0.0,0.0,39.0,7.4,5.5,1024,1024,1024,1024,0,0,0,0,57,4.72,80.24,28.871392,P-GPS,,8.8
649100,2026-01-08 12:39:33,0.0,5,7.362,0.0,0.0,0.0,39.1,7.9,5.3,1024,1024,1024,1024,0,0,0,0,57,4.72,80.24,28.543308,P-GPS,,8.7
649200,2026-01-08 12:39:34,0.0,5,7.362,0.0,0.0,0.0,39.0,7.7,5.0,1024,1024,1024,1024,0,0,0,0,57,4.72,80.24,28.543308,P-GPS,,8.7
649300,2026-01-08 12:39:34,0.0,5,7.362,0.0,0.0,0.0,39.0,8.0,5.5,1024,1024,1024,1024,0,0,0,0,57,4.72,80.24,28.543308,P-GPS,,8.7
649400,2026-01-08 12:39:34,0.0,5,7.362,0.0,0.0,0.0,38.9,7.9,5.2,1024,1024,1024,1024,0,0,0,0,57,4.72,80.24,28.871392,P-GPS,,8.8
649500,2026-01-08 12:39:34,0.0,5,7.362,0.0,0.0,0.0,38.9,7.7,5.2,1024,1024,1024,1024,0,0,0,0,57,4.72,80.24,28.871392,P-GPS,,8.8
649600,2026-01-08 12:39:34,0.0,5,7.362,0.0,0.0,0.0,38.9,8.0,5.2,1024,1024,1024,1024,0,0,0,0,57,4.72,80.24,28.871392,P-GPS,,8.8
649700,2026-01-08 12:39:34,0.0,5,7.362,0.0,0.0,0.0,39.0,8.1,5.1,1024,1024,1024,1024,0,0,0,0,57,4.72,80.24,28.871392,P-GPS,,8.8
649800,2026-01-08 12:39:34,0.0,5,7.363,0.0,0.0,0.0,39.0,8.1,4.8,1024,1024,1024,1024,0,0,0,0,57,4.599,80.24,28.871392,P-GPS,,8.8
649900,2026-01-08 12:39:34,0.0,5,7.363,0.0,0.0,0.0,38.9,7.6,4.4,1024,1024,1024,1024,0,0,0,0,57,4.599,80.24,28.871392,P-GPS,,8.8
650000,2026-01-08 12:39:34,0.0,5,7.363,0.0,0.0,0.0,38.9,7.3,4.7,1024,1024,1024,1024,0,0,0,0,57,4.599,80.24,28.871392,P-GPS,,8.8
650100,2026-01-08 12:39:34,0.0,5,7.363,0.0,0.0,0.0,38.9,6.8,4.6,1024,1024,1024,1024,0,0,0,0,57,4.599,80.24,28.871392,P-GPS,,8.8
650200,2026-01-08 12:39:34,0.0,5,7.363,0.0,0.0,0.0,38.8,6.0,4.0,1024,1024,1024,1024,0,0,0,0,57,4.599,80.24,28.871392,P-GPS,,8.8
650300,2026-01-08 12:39:35,0.0,5,7.363,0.0,0.0,-0.223694,38.8,5.6,4.0,1024,1024,1024,1024,0,0,0,0,57,4.599,80.24,28.871392,P-GPS,,8.8
650400,2026-01-08 12:39:35,0.0,5,7.363,0.0,0.0,-0.223694,38.9,6.4,4.3,1024,1024,1024,1024,0,0,0,0,57,4.599,80.24,28.871392,P-GPS,,8.8
650500,2026-01-08 12:39:35,0.0,5,7.363,0.0,0.0,0.0,38.9,7.3,4.3,1024,1024,1024,1024,0,0,0,0,57,4.599,80.24,29.199476,P-GPS,,8.9
650600,2026-01-08 12:39:35,0.0,5,7.363,0.0,0.0,0.0,38.9,7.0,4.3,1024,1024,1024,1024,0,0,0,0,57,4.599,80.24,29.199476,P-GPS,,8.9
650700,2026-01-08 12:39:35,0.0,5,7.363,0.0,0.0,0.0,38.8,7.0,4.2,1024,1024,1024,1024,0,0,0,0,57,4.599,80.24,29.199476,P-GPS,,8.9
650800,2026-01-08 12:39:35,0.0,5,7.363,0.0,0.0,0.0,38.7,5.0,3.9,1024,1024,1024,1024,0,0,0,0,57,4.599,80.24,29.199476,P-GPS,,8.9
650900,2026-01-08 12:39:35,0.0,5,7.355,0.0,0.0,-0.223694,38.9,6.0,4.7,1024,1024,1024,1024,0,0,0,0,57,4.922,80.24,29.199476,P-GPS,,8.9
651000,2026-01-08 12:39:35,0.0,5,7.355,0.0,0.0,-0.223694,39.0,6.4,4.9,1024,1024,1024,1024,0,0,0,0,57,4.922,80.24,29.199476,P-GPS,,8.9
651100,2026-01-08 12:39:35,0.0,5,7.355,0.0,0.0,0.0,39.2,7.8,4.7,1024,1024,1024,1024,0,0,0,0,57,4.922,80.24,29.199476,P-GPS,,8.9
651200,2026-01-08 12:39:36,0.0,5,7.355,0.0,0.0,0.0,39.0,7.8,4.8,1024,1024,1024,1024,0,0,0,0,57,4.922,80.24,29.199476,P-GPS,,8.9
651300,2026-01-08 12:39:36,0.0,5,7.355,0.0,0.0,0.0,39.0,8.5,4.5,1024,1024,1024,1024,0,0,0,0,57,4.922,80.24,29.199476,P-GPS,,8.9
651400,2026-01-08 12:39:36,0.0,5,7.355,0.0,0.0,0.223694,38.9,7.9,4.6,1024,1024,1024,1024,0,0,0,0,57,4.922,80.24,29.199476,P-GPS,,8.9
651500,2026-01-08 12:39:36,0.0,5,7.355,0.0,0.0,0.0,38.8,7.7,3.9,1024,1024,1024,1024,0,0,0,0,57,4.922,80.24,29.199476,P-GPS,,8.9
651600,2026-01-08 12:39:36,0.0,5,7.355,0.0,0.0,0.0,38.7,6.1,4.0,1024,1024,1024,1024,0,0,0,0,57,4.922,80.24,29.199476,P-GPS,,8.9
651700,2026-01-08 12:39:36,0.0,5,7.355,0.0,0.0,0.0,38.8,5.7,5.0,1024,1024,1024,1024,0,0,0,0,57,4.922,80.24,29.199476,P-GPS,,8.9
651800,2026-01-08 12:39:36,0.0,5,7.355,0.0,0.0,0.0,39.0,6.5,4.9,1024,1024,1024,1024,0,0,0,0,57,4.922,80.24,29.199476,P-GPS,,8.9
651900,2026-01-08 12:39:36,0.0,5,7.355,0.0,0.0,0.0,39.0,7.8,4.6,1024,1024,1024,1024,0,0,0,0,57,4.922,80.24,29.199476,P-GPS,,8.9
652000,2026-01-08 12:39:36,0.0,5,7.323,0.0,0.0,0.0,38.9,7.7,3.6,1024,1024,1024,1024,0,0,0,0,57,4.882,80.24,29.199476,P-GPS,,8.9
652100,2026-01-08 12:39:36,0.0,5,7.323,0.0,0.0,0.0,38.9,7.6,3.3,1024,1024,1024,1024,0,0,0,0,57,4.882,80.24,29.199476,P-GPS,,8.9
652200,2026-01-08 12:39:37,0.0,5,7.323,0.0,0.0,0.0,38.8,7.2,3.7,1024,1024,1024,1024,0,0,0,0,57,4.882,80.24,29.199476,P-GPS,,8.9
652300,2026-01-08 12:39:37,0.0,5,7.323,0.0,0.0,0.0,38.8,7.1,3.3,1024,1024,1024,1024,0,0,0,0,57,4.882,80.24,29.199476,P-GPS,,8.9
652400,2026-01-08 12:39:37,0.0,5,7.323,0.0,0.0,0.0,38.6,5.9,3.8,1024,1024,1024,1024,0,0,0,0,57,4.882,80.24,29.199476,P-GPS,,8.9
652500,2026-01-08 12:39:37,0.0,5,7.323,0.0,0.0,0.0,38.8,5.7,4.3,1024,1024,1024,1024,0,0,0,0,57,4.882,80.24,29.199476,P-GPS,,8.9
652600,2026-01-08 12:39:37,0.0,5,7.323,0.0,0.0,0.0,38.8,6.2,4.1,1024,1024,1024,1024,0,0,0,0,57,4.882,80.24,29.199476,P-GPS,,8.9
652700,2026-01-08 12:39:37,0.0,5,7.323,0.0,0.0,0.0,38.8,7.1,3.3,1024,1024,1024,1024,0,0,0,0,57,4.882,80.24,29.199476,P-GPS,,8.9
652800,2026-01-08 12:39:37,0.223694,5,7.323,0.0,0.223694,0.0,38.8,8.0,2.9,1024,1024,1024,1024,0,0,0,0,57,4.882,80.24,29.52756,P-GPS,,9.0
652900,2026-01-08 12:39:37,0.223694,5,7.323,0.0,0.223694,0.0,38.7,7.4,2.2,1024,1024,1024,1024,0,0,0,0,57,4.882,80.24,29.52756,P-GPS,,9.0
653000,2026-01-08 12:39:37,0.0,5,7.323,0.0,0.0,-0.223694,38.7,7.9,2.0,1024,1024,1024,1024,0,0,0,0,57,4.882,80.24,29.52756,P-GPS,,9.0
653100,2026-01-08 12:39:37,0.0,5,7.334,0.0,0.0,-0.223694,38.8,7.2,2.7,1024,1024,1024,1024,0,0,0,0,57,5.247,80.42,29.52756,P-GPS,,9.0
653200,2026-01-08 12:39:37,0.0,5,7.334,0.0,0.0,-0.223694,38.9,7.1,3.8,1024,1024,1024,1024,0,0,0,0,57,5.247,80.42,29.855644,P-GPS,,9.1
653300,2026-01-08 12:39:38,0.0,5,7.334,0.0,0.0,-0.223694,39.0,7.2,4.2,1024,1024,1024,1024,0,0,0,0,57,5.247,80.42,29.855644,P-GPS,,9.1
653400,2026-01-08 12:39:38,0.0,5,7.334,0.0,0.0,0.0,39.0,8.3,4.6,1024,1024,1024,1024,0,0,0,0,57,5.247,80.42,29.855644,P-GPS,,9.1
653500,2026-01-08 12:39:38,0.0,5,7.334,0.0,0.0,0.0,39.0,8.1,4.9,1024,1024,1024,1024,0,0,0,0,57,5.247,80.42,29.855644,P-GPS,,9.1
653600,2026-01-08 12:39:38,0.0,5,7.334,0.0,0.0,0.0,39.0,7.8,4.7,1024,1024,1024,1024,0,0,0,0,57,5.247,80.42,29.855644,P-GPS,,9.1
653700,2026-01-08 12:39:38,0.0,5,7.334,0.0,0.0,0.0,38.9,6.9,4.7,1024,1024,1024,1024,0,0,0,0,57,5.247,80.42,29.855644,P-GPS,,9.1
653800,2026-01-08 12:39:38,0.0,5,7.334,0.0,0.0,0.0,38.8,6.6,4.5,1024,1024,1024,1024,0,0,0,0,57,5.247,80.42,30.183728,P-GPS,,9.2
653900,2026-01-08 12:39:38,0.0,5,7.334,0.0,0.0,0.0,38.8,6.1,4.4,1024,1024,1024,1024,0,0,0,0,57,5.247,80.42,30.183728,P-GPS,,9.2
654000,2026-01-08 12:39:38,0.0,5,7.334,0.0,0.0,0.0,38.7,5.5,4.2,1024,1024,1024,1024,0,0,0,0,57,5.247,80.42,30.183728,P-GPS,,9.2
654100,2026-01-08 12:39:38,0.0,5,7.334,0.0,0.0,0.0,38.9,5.6,4.1,1024,1024,1024,1024,0,0,0,0,57,5.247,80.42,29.855644,P-GPS,,9.1
654200,2026-01-08 12:39:39,0.0,5,7.365,0.0,0.0,0.0,38.8,5.3,4.1,1024,1024,1024,1024,0,0,0,0,57,4.412,80.42,29.855644,P-GPS,,9.1
654300,2026-01-08 12:39:39,0.0,5,7.365,0.0,0.0,0.0,38.9,5.3,3.7,1024,1024,1024,1024,0,0,0,0,57,4.412,80.42,29.855644,P-GPS,,9.1
654400,2026-01-08 12:39:39,0.0,5,7.365,0.0,0.0,0.0,38.9,5.4,4.0,1024,1024,1024,1024,0,0,0,0,57,4.412,80.42,29.855644,P-GPS,,9.1
654500,2026-01-08 12:39:39,0.0,5,7.365,0.0,0.0,0.0,38.8,5.6,3.8,1024,1024,1024,1024,0,0,0,0,57,4.412,80.42,29.855644,P-GPS,,9.1
654600,2026-01-08 12:39:39,0.0,5,7.365,0.0,0.0,0.0,38.9,5.1,3.8,1024,1024,1024,1024,0,0,0,0,57,4.412,80.42,29.855644,P-GPS,,9.1
654700,2026-01-08 12:39:39,0.223694,5,7.365,-0.223694,0.0,0.0,38.8,4.5,3.4,1024,1024,1024,1024,0,0,0,0,57,4.412,80.42,30.183728,P-GPS,,9.2
654800,2026-01-08 12:39:39,0.0,5,7.365,0.0,0.0,0.0,38.8,4.6,2.7,1024,1024,1024,1024,0,0,0,0,57,4.412,80.42,30.183728,P-GPS,,9.2
654900,2026-01-08 12:39:39,0.0,5,7.365,0.0,0.0,0.0,38.8,4.1,3.4,1024,1024,1024,1024,0,0,0,0,57,4.412,80.42,30.183728,P-GPS,,9.2
655000,2026-01-08 12:39:39,0.0,5,7.365,0.0,0.0,0.0,38.8,3.9,3.8,1024,1024,1024,1024,0,0,0,0,57,4.412,80.42,30.511812,P-GPS,,9.3
655100,2026-01-08 12:39:39,0.0,5,7.365,0.0,0.0,0.0,38.8,4.0,4.2,1024,1024,1024,1024,0,0,0,0,57,4.412,80.42,30.511812,P-GPS,,9.3
655200,2026-01-08 12:39:40,0.0,5,7.365,0.0,0.0,0.0,38.6,3.6,3.7,1024,1024,1024,1024,0,0,0,0,57,4.412,80.42,30.839896,P-GPS,,9.4
655300,2026-01-08 12:39:40,0.0,5,7.365,0.0,0.0,0.0,38.6,3.5,4.2,1024,1024,1024,1024,0,0,0,0,57,4.412,80.42,30.839896,P-GPS,,9.4
655400,2026-01-08 12:39:40,0.0,5,7.365,0.0,0.0,0.0,38.6,3.3,4.1,1024,1024,1024,1024,0,0,0,0,57,4.412,80.42,30.839896,P-GPS,,9.4
655500,2026-01-08 12:39:40,0.0,5,7.365,0.0,0.0,0.0,38.6,3.5,3.9,1024,1024,1024,1024,0,0,0,0,57,4.412,80.42,30.839896,P-GPS,,9.4
655600,2026-01-08 12:39:40,0.0,5,7.365,0.0,0.0,0.0,38.7,3.9,4.1,1024,1024,1024,1024,0,0,0,0,57,4.412,80.42,31.16798,P-GPS,,9.5
655700,2026-01-08 12:39:40,0.0,5,7.365,0.0,0.0,0.0,38.7,3.9,4.0,1024,1024,1024,1024,0,0,0,0,57,4.412,80.42,31.16798,P-GPS,,9.5
655800,2026-01-08 12:39:40,0.0,5,7.365,0.0,0.0,0.0,38.6,3.5,4.1,1024,1024,1024,1024,0,0,0,0,57,4.412,80.42,31.16798,P-GPS,,9.5
655900,2026-01-08 12:39:40,0.0,5,7.365,0.0,0.0,0.0,38.5,3.0,3.6,1024,1024,1024,1024,0,0,0,0,57,4.412,80.42,31.16798,P-GPS,,9.5
656000,2026-01-08 12:39:40,0.0,5,7.365,0.0,0.0,0.0,38.6,3.2,3.3,1024,1024,1024,1024,0,0,0,0,57,4.412,80.42,31.16798,P-GPS,,9.5
656100,2026-01-08 12:39:40,0.0,5,7.365,0.0,0.0,0.0,38.7,3.5,3.0,1024,1024,1024,1024,0,0,0,0,57,4.412,80.42,31.16798,P-GPS,,9.5
656200,2026-01-08 12:39:41,0.0,5,7.365,0.0,0.0,0.0,38.7,2.9,3.5,1024,1024,1024,1024,0,0,0,0,57,4.412,80.42,31.16798,P-GPS,,9.5
656300,2026-01-08 12:39:41,0.0,5,7.349,0.0,0.0,0.0,39.0,3.6,4.4,1024,1024,1024,1024,0,0,0,0,57,4.613,80.42,31.16798,P-GPS,,9.5
656400,2026-01-08 12:39:41,0.0,5,7.349,0.0,0.0,0.0,38.9,4.2,3.9,1024,1024,1024,1024,0,0,0,0,57,4.613,80.42,31.496064,P-GPS,,9.6
656500,2026-01-08 12:39:41,0.0,5,7.349,0.0,0.0,0.0,38.8,4.9,3.0,1024,1024,1024,1024,0,0,0,0,57,4.613,80.42,31.496064,P-GPS,,9.6
656600,2026-01-08 12:39:41,0.0,5,7.349,0.0,0.0,0.0,38.7,4.4,3.0,1024,1024,1024,1024,0,0,0,0,57,4.613,80.42,31.496064,P-GPS,,9.6
656700,2026-01-08 12:39:41,0.0,5,7.349,0.0,0.0,0.0,38.7,4.4,2.7,1024,1024,1024,1024,0,0,0,0,57,4.613,80.42,31.496064,P-GPS,,9.6
656800,2026-01-08 12:39:41,0.0,5,7.349,0.0,0.0,0.0,38.7,4.0,2.3,1024,1024,1024,1024,0,0,0,0,57,4.613,80.42,31.496064,P-GPS,,9.6
656900,2026-01-08 12:39:41,0.0,5,7.349,0.0,0.0,0.0,38.6,3.6,2.5,1024,1024,1024,1024,0,0,0,0,57,4.613,80.42,31.496064,P-GPS,,9.6
657000,2026-01-08 12:39:41,0.0,5,7.349,0.0,0.0,0.0,38.6,3.7,2.6,1024,1024,1024,1024,0,0,0,0,57,4.613,80.42,31.824148,P-GPS,,9.7
657100,2026-01-08 12:39:41,0.0,5,7.349,0.0,0.0,0.0,38.6,4.3,2.7,1024,1024,1024,1024,0,0,0,0,57,4.613,80.42,31.824148,P-GPS,,9.7
657200,2026-01-08 12:39:42,0.0,5,7.349,0.0,0.0,0.0,38.6,4.8,2.9,1024,1024,1024,1024,0,0,0,0,57,4.613,80.42,31.824148,P-GPS,,9.7
657300,2026-01-08 12:39:42,0.0,5,7.349,0.0,0.0,0.0,38.7,4.8,3.2,1024,1024,1024,1024,0,0,0,0,57,4.613,80.42,31.824148,P-GPS,,9.7
657400,2026-01-08 12:39:42,0.0,5,7.349,0.0,0.0,0.0,38.7,5.5,3.5,1024,1024,1024,1024,0,0,0,0,57,4.613,80.42,32.152232,P-GPS,,9.8
657500,2026-01-08 12:39:42,0.0,5,7.356,0.0,0.0,0.0,38.7,5.8,3.4,1024,1024,1024,1024,0,0,0,0,57,4.703,80.42,32.152232,P-GPS,,9.8
657600,2026-01-08 12:39:42,0.0,5,7.356,0.0,0.0,0.0,38.8,5.8,3.8,1024,1024,1024,1024,0,0,0,0,57,4.703,80.42,32.152232,P-GPS,,9.8
657700,2026-01-08 12:39:42,0.0,5,7.356,0.0,0.0,0.0,38.9,5.6,3.8,1024,1024,1024,1024,0,0,0,0,57,4.703,80.42,32.152232,P-GPS,,9.8
657800,2026-01-08 12:39:42,0.0,5,7.356,0.0,0.0,0.0,38.8,5.4,4.0,1024,1024,1024,1024,0,0,0,0,57,4.703,80.42,32.480316,P-GPS,,9.9
657900,2026-01-08 12:39:42,0.0,5,7.356,0.0,0.0,0.0,38.7,5.0,4.2,1024,1024,1024,1024,0,0,0,0,57,4.703,80.42,32.480316,P-GPS,,9.9
658000,2026-01-08 12:39:42,0.0,5,7.356,0.0,0.0,0.0,38.8,4.6,3.8,1024,1024,1024,1024,0,0,0,0,57,4.703,80.42,32.480316,P-GPS,,9.9
658100,2026-01-08 12:39:42,0.0,5,7.356,0.0,0.0,0.0,38.9,4.6,3.8,1024,1024,1024,1024,0,0,0,0,57,4.703,80.42,32.480316,P-GPS,,9.9
658200,2026-01-08 12:39:43,0.0,5,7.356,0.0,0.0,0.0,38.9,5.0,3.6,1024,1024,1024,1024,0,0,0,0,57,4.703,80.42,32.480316,P-GPS,,9.9
658300,2026-01-08 12:39:43,0.0,5,7.356,0.0,0.0,0.0,38.9,4.5,3.5,1024,1024,1024,1024,0,0,0,0,57,4.703,80.42,32.480316,P-GPS,,9.9
658400,2026-01-08 12:39:43,0.0,5,7.356,0.0,0.0,0.0,38.7,4.2,3.2,1024,1024,1024,1024,0,0,0,0,57,4.703,80.42,32.480316,P-GPS,,9.9
658500,2026-01-08 12:39:43,0.0,5,7.356,0.0,0.0,0.0,38.7,4.0,2.9,1024,1024,1024,1024,0,0,0,0,57,4.703,80.42,32.480316,P-GPS,,9.9
658600,2026-01-08 12:39:43,0.0,5,7.345,0.0,0.0,0.0,38.6,3.4,3.1,1024,1024,1024,1024,0,0,0,0,57,4.816,80.42,32.480316,P-GPS,,9.9
658700,2026-01-08 12:39:43,0.0,5,7.345,0.0,0.0,0.0,38.5,3.0,3.3,1024,1024,1024,1024,0,0,0,0,57,4.816,80.42,32.480316,P-GPS,,9.9
658800,2026-01-08 12:39:43,0.0,5,7.345,0.0,0.0,0.0,38.7,3.6,2.8,1024,1024,1024,1024,0,0,0,0,57,4.816,80.42,32.480316,P-GPS,,9.9
658900,2026-01-08 12:39:43,0.0,5,7.345,0.0,0.0,0.0,38.8,4.1,2.5,1024,1024,1024,1024,0,0,0,0,57,4.816,80.42,32.480316,P-GPS,,9.9
659000,2026-01-08 12:39:43,0.0,5,7.345,0.0,0.0,0.0,38.9,4.9,2.4,1024,1024,1024,1024,0,0,0,0,57,4.816,80.42,32.480316,P-GPS,,9.9
659100,2026-01-08 12:39:43,0.0,5,7.345,0.0,0.0,0.0,38.7,5.7,1.9,1024,1024,1024,1024,0,0,0,0,57,4.816,80.42,32.480316,P-GPS,,9.9
659200,2026-01-08 12:39:44,0.0,5,7.345,0.0,0.0,0.0,38.5,4.4,1.7,1024,1024,1024,1024,0,0,0,0,57,4.816,80.42,32.480316,P-GPS,,9.9
659300,2026-01-08 12:39:44,0.223694,5,7.345,0.223694,0.0,-0.223694,38.5,5.3,2.6,1024,1024,1024,1024,0,0,0,0,57,4.816,80.42,32.480316,P-GPS,,9.9
659400,2026-01-08 12:39:44,0.223694,5,7.345,0.223694,0.0,0.0,38.6,7.1,3.8,1024,1024,1024,1024,0,0,0,0,57,4.816,80.42,32.480316,P-GPS,,9.9
659500,2026-01-08 12:39:44,0.223694,5,7.345,0.223694,0.0,0.0,38.7,7.9,4.3,1024,1024,1024,1024,0,0,0,0,57,4.816,80.42,32.480316,P-GPS,,9.9
659600,2026-01-08 12:39:44,0.223694,5,7.345,0.223694,0.0,0.0,38.9,8.4,4.4,1024,1024,1024,1024,0,0,0,0,57,4.816,80.42,32.480316,P-GPS,,9.9
659700,2026-01-08 12:39:44,0.0,5,7.383,0.0,0.0,0.0,39.0,8.1,4.7,1024,1024,1024,1024,0,0,0,0,57,4.287,80.42,32.480316,P-GPS,,9.9
659800,2026-01-08 12:39:44,0.0,5,7.383,0.0,0.0,0.223694,39.1,8.3,4.2,1024,1024,1024,1024,0,0,0,0,57,4.287,80.42,32.480316,P-GPS,,9.9
659900,2026-01-08 12:39:44,0.0,5,7.383,0.0,0.0,0.0,38.9,8.3,4.1,1024,1024,1024,1024,0,0,0,0,57,4.287,80.42,32.480316,P-GPS,,9.9
660000,2026-01-08 12:39:44,0.0,5,7.383,0.0,0.0,0.0,38.8,6.9,3.8,1024,1024,1024,1024,0,0,0,0,57,4.287,80.42,32.8084,P-GPS,,10.0
660100,2026-01-08 12:39:44,0.0,5,7.383,0.0,0.0,0.0,38.8,7.8,4.1,1024,1024,1024,1024,0,0,0,0,57,4.287,80.42,32.8084,P-GPS,,10.0
660200,2026-01-08 12:39:45,0.0,5,7.383,0.0,0.0,0.0,38.8,8.4,4.0,1024,1024,1024,1024,0,0,0,0,57,4.287,80.42,32.8084,P-GPS,,10.0
660300,2026-01-08 12:39:45,0.0,5,7.383,0.0,0.0,0.0,38.8,7.6,3.6,1024,1024,1024,1024,0,0,0,0,57,4.287,80.42,32.8084,P-GPS,,10.0
660400,2026-01-08 12:39:45,0.0,5,7.383,0.0,0.0,-0.223694,38.7,7.7,3.7,1024,1024,1024,1024,0,0,0,0,57,4.287,80.42,33.136484,P-GPS,,10.1
660500,2026-01-08 12:39:45,0.0,5,7.383,0.0,0.0,0.0,38.8,8.7,3.8,1024,1024,1024,1024,0,0,0,0,57,4.287,80.42,33.136484,P-GPS,,10.1
660600,2026-01-08 12:39:45,0.0,5,7.383,0.0,0.0,0.0,38.9,8.7,4.2,1024,1024,1024,1024,0,0,0,0,57,4.287,80.42,33.136484,P-GPS,,10.1
660700,2026-01-08 12:39:45,0.0,5,7.383,0.0,0.0,0.0,38.9,8.2,4.4,1024,1024,1024,1024,0,0,0,0,57,4.287,80.42,33.136484,P-GPS,,10.1
660800,2026-01-08 12:39:45,0.0,5,7.356,0.0,0.0,0.0,38.9,8.7,4.5,1024,1024,1024,1024,0,0,0,0,57,5.154,80.42,33.136484,P-GPS,,10.1
660900,2026-01-08 12:39:45,0.0,5,7.356,0.0,0.0,0.0,38.6,8.0,4.1,1024,1024,1024,1024,0,0,0,0,57,5.154,80.42,33.136484,P-GPS,,10.1
661000,2026-01-08 12:39:45,0.0,5,7.356,0.0,0.0,0.0,38.8,8.9,4.0,1024,1024,1024,1024,0,0,0,0,57,5.154,80.42,33.464568,P-GPS,,10.2
661100,2026-01-08 12:39:45,0.223694,5,7.356,0.223694,0.0,0.0,38.9,9.2,5.0,1024,1024,1024,1024,0,0,0,0,57,5.154,80.42,33.464568,P-GPS,,10.2
661200,2026-01-08 12:39:46,0.223694,5,7.356,0.223694,0.0,0.0,39.1,9.5,5.6,1024,1024,1024,1024,0,0,0,0,57,5.154,80.42,33.464568,P-GPS,,10.2
661300,2026-01-08 12:39:46,0.223694,5,7.356,0.223694,0.0,0.0,39.1,10.4,5.8,1024,1024,1024,1024,0,0,0,0,57,5.154,80.42,33.464568,P-GPS,,10.2
661400,2026-01-08 12:39:46,0.223694,5,7.356,0.223694,0.0,0.0,39.1,11.0,5.7,1024,1024,1024,1024,0,0,0,0,57,5.154,80.42,33.792652,P-GPS,,10.3
661500,2026-01-08 12:39:46,0.223694,5,7.356,0.223694,0.0,0.0,39.2,11.3,5.6,1024,1024,1024,1024,0,0,0,0,57,5.154,80.42,33.792652,P-GPS,,10.3
661600,2026-01-08 12:39:46,0.223694,5,7.356,0.223694,0.0,0.0,39.2,11.6,5.3,1024,1024,1024,1024,0,0,0,0,57,5.154,80.42,33.792652,P-GPS,,10.3
661700,2026-01-08 12:39:46,0.223694,5,7.356,0.223694,0.0,0.0,39.2,11.6,5.3,1024,1024,1024,1024,0,0,0,0,57,5.154,80.42,33.792652,P-GPS,,10.3
661800,2026-01-08 12:39:46,0.223694,5,7.356,0.223694,0.0,0.0,39.2,12.0,5.5,1024,1024,1024,1024,0,0,0,0,57,5.154,80.42,33.792652,P-GPS,,10.3
661900,2026-01-08 12:39:46,0.223694,5,7.296,0.223694,0.0,0.0,39.1,11.6,6.0,1024,1024,1024,1024,0,0,0,0,57,5.78,80.42,34.120736,P-GPS,,10.4
662000,2026-01-08 12:39:46,0.223694,5,7.296,0.223694,0.0,0.0,39.3,11.6,6.2,1024,1024,1024,1024,0,0,0,0,57,5.78,80.42,34.120736,P-GPS,,10.4
662100,2026-01-08 12:39:46,0.0,5,7.296,0.0,0.0,0.0,39.5,13.3,6.1,1024,1024,1024,1024,0,0,0,0,57,5.78,80.42,33.792652,P-GPS,,10.3
662200,2026-01-08 12:39:46,0.0,5,7.296,0.0,0.0,0.0,39.6,12.5,5.7,1024,1024,1024,1024,0,0,0,0,57,5.78,80.42,33.792652,P-GPS,,10.3
662300,2026-01-08 12:39:47,0.0,5,7.296,0.0,0.0,0.0,39.4,11.2,5.0,1024,1024,1024,1024,0,0,0,0,57,5.78,80.42,33.792652,P-GPS,,10.3
662400,2026-01-08 12:39:47,0.0,5,7.296,0.0,0.0,0.0,39.3,11.6,4.7,1024,1024,1024,1024,0,0,0,0,57,5.78,80.42,33.792652,P-GPS,,10.3
662500,2026-01-08 12:39:47,0.0,5,7.296,0.0,0.0,0.0,39.1,11.6,4.1,1024,1024,1024,1024,0,0,0,0,57,5.78,80.42,33.792652,P-GPS,,10.3
662600,2026-01-08 12:39:47,0.0,5,7.296,0.0,0.0,0.0,39.0,11.8,4.2,1024,1024,1024,1024,0,0,0,0,57,5.78,80.42,33.792652,P-GPS,,10.3
662700,2026-01-08 12:39:47,0.0,5,7.296,0.0,0.0,0.0,38.9,11.3,4.4,1024,1024,1024,1024,0,0,0,0,57,5.78,80.42,33.464568,P-GPS,,10.2
662800,2026-01-08 12:39:47,0.0,5,7.296,0.0,0.0,0.0,38.9,11.0,4.4,1024,1024,1024,1024,0,0,0,0,57,5.78,80.42,33.464568,P-GPS,,10.2
662900,2026-01-08 12:39:47,0.0,5,7.296,0.0,0.0,0.0,38.8,10.2,3.8,1024,1024,1024,1024,0,0,0,0,57,5.78,80.42,33.464568,P-GPS,,10.2
663000,2026-01-08 12:39:47,0.0,5,7.328,0.0,0.0,0.0,38.7,8.9,5.1,1024,1024,1024,1024,0,0,0,0,57,5.392,80.42,33.464568,P-GPS,,10.2
663100,2026-01-08 12:39:47,0.0,5,7.328,0.0,0.0,-0.223694,39.0,10.0,5.7,1024,1024,1024,1024,0,0,0,0,57,5.392,80.42,33.136484,P-GPS,,10.1
663200,2026-01-08 12:39:48,0.0,5,7.328,0.0,0.0,0.0,39.1,9.3,6.3,1024,1024,1024,1024,0,0,0,0,57,5.392,80.42,33.136484,P-GPS,,10.1
663300,2026-01-08 12:39:48,0.223694,5,7.328,0.0,-0.223694,0.0,39.2,9.7,7.0,1024,1024,1024,1024,0,0,0,0,57,5.392,80.42,33.136484,P-GPS,,10.1
663400,2026-01-08 12:39:48,0.0,5,7.328,0.0,0.0,0.0,39.0,8.9,7.0,1024,1024,1024,1024,0,0,0,0,57,5.392,80.42,33.136484,P-GPS,,10.1
663500,2026-01-08 12:39:48,0.0,5,7.328,0.0,0.0,0.0,39.1,9.6,7.4,1024,1024,1024,1024,0,0,0,0,57,5.392,80.42,33.136484,P-GPS,,10.1
663600,2026-01-08 12:39:48,0.0,5,7.328,0.0,0.0,0.0,39.2,9.2,7.7,1024,1024,1024,1024,0,0,0,0,57,5.392,80.42,32.8084,P-GPS,,10.0
663700,2026-01-08 12:39:48,0.0,5,7.328,0.0,0.0,0.0,39.0,8.6,6.3,1024,1024,1024,1024,0,0,0,0,57,5.392,80.42,32.8084,P-GPS,,10.0
663800,2026-01-08 12:39:48,0.0,5,7.328,0.0,0.0,-0.223694,39.3,8.3,6.1,1024,1024,1024,1024,0,0,0,0,57,5.392,80.42,32.480316,P-GPS,,9.9
663900,2026-01-08 12:39:48,0.223694,5,7.328,-0.223694,0.0,-0.223694,39.5,7.9,5.4,1024,1024,1024,1024,0,0,0,0,57,5.392,80.42,32.480316,P-GPS,,9.9
664000,2026-01-08 12:39:48,0.3131716,5,7.328,-0.223694,-0.223694,0.0,39.5,5.7,6.0,1024,1024,1024,1024,0,0,0,0,57,5.392,80.42,32.152232,P-GPS,,9.8
664100,2026-01-08 12:39:48,0.3131716,5,7.378,-0.223694,0.0,0.0,39.4,5.2,5.6,1024,1024,1024,1024,0,0,0,0,57,4.348,80.42,32.152232,P-GPS,,9.8
664200,2026-01-08 12:39:49,0.223694,5,7.378,-0.223694,0.0,0.0,39.0,4.1,5.5,1024,1024,1024,1024,0,0,0,0,57,4.348,80.42,31.824148,P-GPS,,9.7
664300,2026-01-08 12:39:49,0.223694,5,7.378,-0.223694,0.0,0.0,38.8,4.3,4.9,1024,1024,1024,1024,0,0,0,0,57,4.348,80.42,31.496064,P-GPS,,9.6
664400,2026-01-08 12:39:49,0.223694,5,7.378,-0.223694,0.0,0.0,38.7,4.9,3.8,1024,1024,1024,1024,0,0,0,0,57,4.348,80.42,31.16798,P-GPS,,9.5
664500,2026-01-08 12:39:49,0.223694,5,7.378,-0.223694,0.0,0.0,38.9,4.9,3.8,1024,1024,1024,1024,0,0,0,0,57,4.348,80.42,30.839896,P-GPS,,9.4
664600,2026-01-08 12:39:49,0.223694,5,7.378,-0.223694,0.0,0.0,38.9,3.7,5.0,1024,1024,1024,1024,0,0,0,0,57,4.348,80.42,30.839896,P-GPS,,9.4
664700,2026-01-08 12:39:49,0.223694,5,7.378,-0.223694,0.0,0.0,38.8,3.8,4.5,1024,1024,1024,1024,0,0,0,0,57,4.348,80.42,30.511812,P-GPS,,9.3
664800,2026-01-08 12:39:49,0.223694,5,7.378,-0.223694,0.0,0.0,38.7,4.1,3.6,1024,1024,1024,1024,0,0,0,0,57,4.348,80.42,30.183728,P-GPS,,9.2
664900,2026-01-08 12:39:49,0.223694,5,7.378,-0.223694,0.0,0.0,38.6,2.9,4.2,1024,1024,1024,1024,0,0,0,0,57,4.348,80.42,29.855644,P-GPS,,9.1
665000,2026-01-08 12:39:49,0.0,5,7.378,0.0,0.0,0.0,38.6,5.3,3.8,1024,1024,1024,1024,0,0,0,0,57,4.348,80.42,29.855644,P-GPS,,9.1
665100,2026-01-08 12:39:49,0.0,5,7.378,0.0,0.0,0.0,38.7,7.0,4.1,1024,1024,1024,1024,0,0,0,0,57,4.348,80.42,29.52756,P-GPS,,9.0
665200,2026-01-08 12:39:50,0.0,5,7.375,0.0,0.0,0.0,38.6,5.1,4.2,1024,1024,1024,1024,0,0,0,0,56,3.656,80.6,29.52756,P-GPS,,9.0
665300,2026-01-08 12:39:50,0.0,5,7.375,0.0,0.0,0.0,38.4,5.6,4.9,1024,1024,1024,1024,0,0,0,0,56,3.656,80.6,29.199476,P-GPS,,8.9
665400,2026-01-08 12:39:50,0.0,5,7.375,0.0,0.0,0.0,38.6,7.3,4.7,1024,1024,1024,1024,0,0,0,0,56,3.656,80.6,29.199476,P-GPS,,8.9
665500,2026-01-08 12:39:50,0.0,5,7.375,0.0,0.0,0.0,38.9,8.4,4.7,1024,1024,1024,1024,0,0,0,0,56,3.656,80.6,29.199476,P-GPS,,8.9
665600,2026-01-08 12:39:50,0.0,5,7.375,0.0,0.0,0.0,38.8,8.1,4.4,1024,1024,1024,1024,0,0,0,0,56,3.656,80.6,29.199476,P-GPS,,8.9
665700,2026-01-08 12:39:50,0.0,5,7.375,0.0,0.0,0.0,38.9,7.4,5.4,1024,1024,1024,1024,0,0,0,0,56,3.656,80.6,29.199476,P-GPS,,8.9
665800,2026-01-08 12:39:50,0.0,5,7.375,0.0,0.0,0.0,39.3,8.7,6.3,1024,1024,1024,1024,0,0,0,0,56,3.656,80.6,29.199476,P-GPS,,8.9
665900,2026-01-08 12:39:50,0.0,5,7.375,0.0,0.0,0.0,39.3,9.0,6.1,1024,1024,1024,1024,0,0,0,0,56,3.656,80.6,29.199476,P-GPS,,8.9
666000,2026-01-08 12:39:50,0.223694,5,7.375,0.223694,0.0,0.0,39.3,8.0,6.8,1024,1024,1024,1024,0,0,0,0,56,3.656,80.6,29.52756,P-GPS,,9.0
666100,2026-01-08 12:39:50,0.223694,5,7.375,0.223694,0.0,0.0,39.2,9.3,7.9,1024,1024,1024,1024,0,0,0,0,56,3.656,80.6,29.52756,P-GPS,,9.0
666200,2026-01-08 12:39:51,0.223694,5,7.375,0.223694,0.0,0.223694,39.1,9.1,7.4,1024,1024,1024,1024,0,0,0,0,56,3.656,80.6,29.855644,P-GPS,,9.1
666300,2026-01-08 12:39:51,0.223694,5,7.375,0.223694,0.0,0.223694,39.1,9.6,6.8,1024,1024,1024,1024,0,0,0,0,56,3.656,80.6,29.855644,P-GPS,,9.1
666400,2026-01-08 12:39:51,0.223694,5,7.375,0.223694,0.0,0.0,39.1,9.6,7.6,1024,1024,1024,1024,0,0,0,0,56,3.656,80.6,29.855644,P-GPS,,9.1
666500,2026-01-08 12:39:51,0.223694,5,7.375,0.223694,0.0,0.0,39.2,11.2,7.7,1024,1024,1024,1024,0,0,0,0,56,3.656,80.6,30.183728,P-GPS,,9.2
666600,2026-01-08 12:39:51,0.223694,5,7.375,0.223694,0.0,0.0,39.2,10.5,8.1,1024,1024,1024,1024,0,0,0,0,56,3.656,80.6,30.183728,P-GPS,,9.2
666700,2026-01-08 12:39:51,0.223694,5,7.375,0.223694,0.0,0.0,39.3,11.4,8.4,1024,1024,1024,1024,0,0,0,0,56,3.656,80.6,30.511812,P-GPS,,9.3
666800,2026-01-08 12:39:51,0.0,5,7.375,0.0,0.0,0.0,39.2,11.2,7.8,1024,1024,1024,1024,0,0,0,0,56,3.656,80.6,30.511812,P-GPS,,9.3
666900,2026-01-08 12:39:51,0.0,5,7.375,0.0,0.0,0.0,39.2,10.2,6.3,1024,1024,1024,1024,0,0,0,0,56,3.656,80.6,30.511812,P-GPS,,9.3
667000,2026-01-08 12:39:51,0.0,5,7.375,0.0,0.0,0.0,39.1,8.3,6.6,1024,1024,1024,1024,0,0,0,0,56,3.656,80.6,30.511812,P-GPS,,9.3
667100,2026-01-08 12:39:51,0.0,5,7.375,0.0,0.0,-0.223694,39.0,8.2,6.7,1024,1024,1024,1024,0,0,0,0,56,3.656,80.6,30.511812,P-GPS,,9.3
667200,2026-01-08 12:39:52,0.0,5,7.375,0.0,0.0,-0.223694,39.2,9.6,6.8,1024,1024,1024,1024,0,0,0,0,56,3.656,80.6,30.511812,P-GPS,,9.3
667300,2026-01-08 12:39:52,0.0,5,7.365,0.0,0.0,0.0,38.9,8.5,6.1,1024,1024,1024,1024,0,0,0,0,56,4.401,80.6,30.511812,P-GPS,,9.3
667400,2026-01-08 12:39:52,0.0,5,7.365,0.0,0.0,0.0,38.9,8.0,6.1,1024,1024,1024,1024,0,0,0,0,56,4.401,80.6,30.511812,P-GPS,,9.3
667500,2026-01-08 12:39:52,0.0,5,7.365,0.0,0.0,0.0,39.1,8.4,5.9,1024,1024,1024,1024,0,0,0,0,56,4.401,80.6,30.511812,P-GPS,,9.3
667600,2026-01-08 12:39:52,0.0,5,7.365,0.0,0.0,0.0,39.1,8.6,5.8,1024,1024,1024,1024,0,0,0,0,56,4.401,80.6,30.511812,P-GPS,,9.3
667700,2026-01-08 12:39:52,0.0,5,7.365,0.0,0.0,0.0,39.1,7.8,5.3,1024,1024,1024,1024,0,0,0,0,56,4.401,80.6,30.511812,P-GPS,,9.3
667800,2026-01-08 12:39:52,0.0,5,7.365,0.0,0.0,0.0,39.1,7.3,4.9,1024,1024,1024,1024,0,0,0,0,56,4.401,80.6,30.511812,P-GPS,,9.3
667900,2026-01-08 12:39:52,0.0,5,7.365,0.0,0.0,0.0,39.0,7.0,5.1,1024,1024,1024,1024,0,0,0,0,56,4.401,80.6,30.511812,P-GPS,,9.3
668000,2026-01-08 12:39:52,0.0,5,7.365,0.0,0.0,0.0,39.1,7.3,5.0,1024,1024,1024,1024,0,0,0,0,56,4.401,80.6,30.511812,P-GPS,,9.3
668100,2026-01-08 12:39:52,0.0,5,7.365,0.0,0.0,0.0,39.1,7.5,5.0,1024,1024,1024,1024,0,0,0,0,56,4.401,80.6,30.511812,P-GPS,,9.3
668200,2026-01-08 12:39:53,0.0,5,7.365,0.0,0.0,0.0,39.1,7.5,5.2,1024,1024,1024,1024,0,0,0,0,56,4.401,80.6,30.183728,P-GPS,,9.2
668300,2026-01-08 12:39:53,0.0,5,7.365,0.0,0.0,0.0,39.1,6.9,5.1,1024,1024,1024,1024,0,0,0,0,56,4.401,80.6,30.183728,P-GPS,,9.2
668400,2026-01-08 12:39:53,0.0,5,7.365,0.0,0.0,0.0,39.1,6.1,5.4,1024,1024,1024,1024,0,0,0,0,56,4.401,80.6,30.183728,P-GPS,,9.2
668500,2026-01-08 12:39:53,0.0,5,7.346,0.0,0.0,0.0,39.1,6.1,6.1,1024,1024,1024,1024,0,0,0,0,56,4.747,80.6,30.183728,P-GPS,,9.2
668600,2026-01-08 12:39:53,0.0,5,7.346,0.0,0.0,0.0,39.0,5.6,5.8,1024,1024,1024,1024,0,0,0,0,56,4.747,80.6,30.183728,P-GPS,,9.2
668700,2026-01-08 12:39:53,0.0,5,7.346,0.0,0.0,0.0,39.0,6.6,6.1,1024,1024,1024,1024,0,0,0,0,56,4.747,80.6,30.183728,P-GPS,,9.2
668800,2026-01-08 12:39:53,0.0,5,7.346,0.0,0.0,0.0,39.0,6.5,5.8,1024,1024,1024,1024,0,0,0,0,56,4.747,80.6,29.855644,P-GPS,,9.1
668900,2026-01-08 12:39:53,0.0,5,7.346,0.0,0.0,0.0,39.0,6.2,6.3,1024,1024,1024,1024,0,0,0,0,56,4.747,80.6,29.855644,P-GPS,,9.1
669000,2026-01-08 12:39:53,0.0,5,7.346,0.0,0.0,0.0,38.8,5.3,6.1,1024,1024,1024,1024,0,0,0,0,56,4.747,80.6,29.855644,P-GPS,,9.1
669100,2026-01-08 12:39:53,0.0,5,7.346,0.0,0.0,0.0,38.6,5.1,5.8,1024,1024,1024,1024,0,0,0,0,56,4.747,80.6,29.855644,P-GPS,,9.1
669200,2026-01-08 12:39:54,0.0,5,7.346,0.0,0.0,0.0,38.7,5.9,5.7,1024,1024,1024,1024,0,0,0,0,56,4.747,80.6,29.855644,P-GPS,,9.1
669300,2026-01-08 12:39:54,0.0,5,7.346,0.0,0.0,0.0,38.8,7.1,5.3,1024,1024,1024,1024,0,0,0,0,56,4.747,80.6,29.52756,P-GPS,,9.0
669400,2026-01-08 12:39:54,0.0,5,7.346,0.0,0.0,0.0,38.9,7.4,5.4,1024,1024,1024,1024,0,0,0,0,56,4.747,80.6,29.52756,P-GPS,,9.0
669500,2026-01-08 12:39:54,0.0,5,7.346,0.0,0.0,0.0,38.8,7.6,5.3,1024,1024,1024,1024,0,0,0,0,56,4.747,80.6,29.52756,P-GPS,,9.0
669600,2026-01-08 12:39:54,0.0,5,7.33,0.0,0.0,0.0,38.7,6.7,5.9,1024,1024,1024,1024,0,0,0,0,56,5.009,80.6,29.52756,P-GPS,,9.0
669700,2026-01-08 12:39:54,0.0,5,7.33,0.0,0.0,0.0,38.8,7.3,5.9,1024,1024,1024,1024,0,0,0,0,56,5.009,80.6,29.52756,P-GPS,,9.0
669800,2026-01-08 12:39:54,0.223694,5,7.33,0.223694,0.0,0.0,38.9,8.6,6.1,1024,1024,1024,1024,0,0,0,0,56,5.009,80.6,29.855644,P-GPS,,9.1
669900,2026-01-08 12:39:54,0.223694,5,7.33,0.223694,0.0,0.0,39.0,8.8,6.7,1024,1024,1024,1024,0,0,0,0,56,5.009,80.6,29.855644,P-GPS,,9.1
670000,2026-01-08 12:39:54,0.223694,5,7.33,0.223694,0.0,0.0,39.2,9.2,6.7,1024,1024,1024,1024,0,0,0,0,56,5.009,80.6,29.855644,P-GPS,,9.1
670100,2026-01-08 12:39:54,0.223694,5,7.33,0.223694,0.0,0.0,39.2,9.2,7.5,1024,1024,1024,1024,0,0,0,0,56,5.009,80.6,29.855644,P-GPS,,9.1
670200,2026-01-08 12:39:55,0.0,5,7.33,0.0,0.0,0.0,39.0,8.2,7.1,1024,1024,1024,1024,0,0,0,0,56,5.009,80.6,29.855644,P-GPS,,9.1
670300,2026-01-08 12:39:55,0.0,5,7.33,0.0,0.0,0.0,39.2,8.6,7.2,1024,1024,1024,1024,0,0,0,0,56,5.009,80.6,29.855644,P-GPS,,9.1
670400,2026-01-08 12:39:55,0.0,5,7.33,0.0,0.0,0.0,39.5,9.8,6.8,1024,1024,1024,1024,0,0,0,0,56,5.009,80.6,29.855644,P-GPS,,9.1
670500,2026-01-08 12:39:55,0.0,5,7.33,0.0,0.0,0.0,39.4,8.1,6.9,1024,1024,1024,1024,0,0,0,0,56,5.009,80.6,29.855644,P-GPS,,9.1
670600,2026-01-08 12:39:55,0.0,5,7.33,0.0,0.0,0.0,39.2,6.8,6.8,1024,1024,1024,1024,0,0,0,0,56,5.009,80.6,29.855644,P-GPS,,9.1
670700,2026-01-08 12:39:55,0.0,5,7.329,0.0,0.0,0.0,39.2,6.1,7.1,1024,1024,1024,1024,0,0,0,0,56,4.89,80.78,29.855644,P-GPS,,9.1
670800,2026-01-08 12:39:55,0.0,5,7.329,0.0,0.0,0.0,39.1,5.4,6.8,1024,1024,1024,1024,0,0,0,0,56,4.89,80.78,29.855644,P-GPS,,9.1
670900,2026-01-08 12:39:55,0.0,5,7.329,0.0,0.0,0.0,38.9,5.5,6.7,1024,1024,1024,1024,0,0,0,0,56,4.89,80.78,29.855644,P-GPS,,9.1
671000,2026-01-08 12:39:55,0.0,5,7.329,0.0,0.0,0.0,39.0,5.8,6.3,1024,1024,1024,1024,0,0,0,0,56,4.89,80.78,29.855644,P-GPS,,9.1
671100,2026-01-08 12:39:55,0.0,5,7.329,0.0,0.0,0.0,39.1,6.3,6.9,1024,1024,1024,1024,0,0,0,0,56,4.89,80.78,29.855644,P-GPS,,9.1
671200,2026-01-08 12:39:55,0.0,5,7.329,0.0,0.0,0.0,39.2,6.8,6.8,1024,1024,1024,1024,0,0,0,0,56,4.89,80.78,29.855644,P-GPS,,9.1
671300,2026-01-08 12:39:56,0.0,5,7.329,0.0,0.0,0.0,39.0,6.2,7.4,1024,1024,1024,1024,0,0,0,0,56,4.89,80.78,29.855644,P-GPS,,9.1
671400,2026-01-08 12:39:56,0.0,5,7.329,0.0,0.0,0.0,39.0,6.0,7.2,1024,1024,1024,1024,0,0,0,0,56,4.89,80.78,29.855644,P-GPS,,9.1
671500,2026-01-08 12:39:56,0.0,5,7.329,0.0,0.0,0.0,38.9,6.0,7.6,1024,1024,1024,1024,0,0,0,0,56,4.89,80.78,29.855644,P-GPS,,9.1
671600,2026-01-08 12:39:56,0.0,5,7.329,0.0,0.0,0.0,38.8,6.1,8.2,1024,1024,1024,1024,0,0,0,0,56,4.89,80.78,30.183728,P-GPS,,9.2
671700,2026-01-08 12:39:56,0.0,5,7.329,0.0,0.0,0.0,38.9,7.2,7.9,1024,1024,1024,1024,0,0,0,0,56,4.89,80.78,30.183728,P-GPS,,9.2
671800,2026-01-08 12:39:56,0.0,5,7.306,0.0,0.0,0.0,38.8,6.9,7.3,1024,1024,1684,1024,0,0,100,0,56,5.311,80.78,30.183728,P-GPS,,9.2
671900,2026-01-08 12:39:56,0.0,5,7.306,0.0,0.0,-0.223694,38.7,7.4,7.4,1024,1024,1684,1024,0,0,100,0,56,5.311,80.78,30.183728,P-GPS,,9.2
672000,2026-01-08 12:39:56,0.3131716,5,7.306,0.223694,0.223694,0.0,38.9,8.9,7.1,1024,1024,1684,1024,0,0,100,0,56,5.311,80.78,30.511812,P-GPS,,9.3
672100,2026-01-08 12:39:56,0.3131716,5,7.306,0.223694,0.223694,0.0,38.8,9.0,6.8,1024,1024,1684,1024,0,0,100,0,56,5.311,80.78,30.511812,P-GPS,,9.3
672200,2026-01-08 12:39:57,0.3131716,5,7.306,0.223694,0.223694,-0.671082,38.9,9.7,5.3,1024,1024,1684,1024,0,0,100,0,56,5.311,80.78,30.511812,P-GPS,,9.3
672300,2026-01-08 12:39:57,0.3131716,5,7.306,0.223694,0.223694,-1.565858,38.9,10.2,5.6,1024,1024,1684,1024,0,0,100,0,56,5.311,80.78,30.511812,P-GPS,,9.3
672400,2026-01-08 12:39:57,0.3131716,5,7.306,0.223694,0.223694,-2.460634,38.9,10.6,6.0,1024,1024,1684,1024,0,0,100,0,56,5.311,80.78,30.839896,P-GPS,,9.4
672500,2026-01-08 12:39:57,0.223694,5,7.306,0.0,0.223694,-3.131716,39.0,10.7,5.9,1024,1024,1684,1024,0,0,100,0,56,5.311,80.78,31.16798,P-GPS,,9.5
672600,2026-01-08 12:39:57,0.223694,5,7.306,0.0,0.223694,-3.802798,39.2,11.6,6.2,1024,1024,1684,1024,0,0,100,0,56,5.311,80.78,31.824148,P-GPS,,9.7
672700,2026-01-08 12:39:57,0.223694,5,7.306,0.0,0.223694,-4.026492,39.2,11.8,5.8,1024,1024,1684,1024,0,0,100,0,56,5.311,80.78,32.152232,P-GPS,,9.8
672800,2026-01-08 12:39:57,0.223694,5,7.306,0.0,0.223694,-4.250186,39.2,11.8,5.3,1024,1024,1684,1024,0,0,100,0,56,5.311,80.78,32.8084,P-GPS,,10.0
672900,2026-01-08 12:39:57,0.223694,5,7.257,0.0,0.223694,-4.250186,39.2,11.4,4.6,1024,1024,1684,1024,0,0,100,0,56,6.503,80.78,33.136484,P-GPS,,10.1
673000,2026-01-08 12:39:57,0.223694,5,7.257,0.0,0.223694,-4.250186,38.9,10.6,3.0,1024,1024,1684,1024,0,0,100,0,56,6.503,80.78,33.792652,P-GPS,,10.3
673100,2026-01-08 12:39:57,0.223694,5,7.257,0.0,0.223694,-4.250186,39.0,10.5,2.6,1024,1024,1684,1024,0,0,100,0,56,6.503,80.78,34.120736,P-GPS,,10.4
673200,2026-01-08 12:39:58,0.223694,5,7.257,0.0,0.223694,-4.250186,39.0,12.7,3.2,1024,1024,1684,1024,0,0,100,0,56,6.503,80.78,34.776904,P-GPS,,10.6
673300,2026-01-08 12:39:58,0.223694,5,7.257,0.0,0.223694,-4.026492,38.8,12.8,2.9,1024,1024,1684,1024,0,0,100,0,56,6.503,80.78,35.433072,P-GPS,,10.8
673400,2026-01-08 12:39:58,0.0,5,7.257,0.0,0.0,-4.026492,38.9,13.1,3.0,1024,1024,1684,1024,0,0,100,0,56,6.503,80.78,36.08924,P-GPS,,11.0
673500,2026-01-08 12:39:58,0.0,5,7.257,0.0,0.0,-4.026492,39.1,12.8,3.7,1024,1024,1684,1024,0,0,100,0,56,6.503,80.78,36.745408,P-GPS,,11.2
673600,2026-01-08 12:39:58,0.0,5,7.257,0.0,0.0,-4.250186,39.3,12.8,4.9,1024,1024,1684,1024,0,0,100,0,56,6.503,80.78,37.401576,P-GPS,,11.4
673700,2026-01-08 12:39:58,0.0,5,7.257,0.0,0.0,-4.47388,39.4,12.9,5.5,1024,1024,1684,1024,0,0,100,0,56,6.503,80.78,38.057744,P-GPS,,11.6
673800,2026-01-08 12:39:58,0.0,5,7.257,0.0,0.0,-4.47388,39.2,13.7,5.2,1024,1024,1684,1024,0,0,100,0,56,6.503,80.78,38.713912,P-GPS,,11.8
772100,2026-01-08 12:41:36,7.5608572,5,7.216,-6.263432,-4.250186,4.026492,212.9,-17.8,-2.6,1684,1024,364,1024,100,0,-100,0,49,4.753,82.04,38.713912,P-GPS,,11.8
772200,2026-01-08 12:41:36,7.5608572,5,7.216,-6.487126,-4.250186,4.026492,212.9,-17.9,-2.5,1684,1024,364,1024,100,0,-100,0,49,4.753,82.04,38.057744,P-GPS,,11.6
772300,2026-01-08 12:41:37,8.2543086,5,7.216,-6.934514,-4.47388,4.026492,212.9,-17.2,-2.4,1684,1024,364,1024,100,0,-100,0,49,4.753,82.04,37.72966,P-GPS,,11.5
772400,2026-01-08 12:41:37,8.5674802,5,7.216,-7.158208,-4.697574,4.026492,212.7,-16.4,-2.8,1684,1024,364,1024,100,0,-100,0,49,4.753,82.04,37.073492,P-GPS,,11.3
772500,2026-01-08 12:41:37,9.059607,5,7.216,-7.605596,-4.921268,3.802798,212.5,-14.6,-2.6,1684,1024,364,1024,100,0,-100,0,49,4.753,82.04,36.745408,P-GPS,,11.2
772600,2026-01-08 12:41:37,9.2385622,5,7.216,-7.82929,-4.921268,3.802798,212.4,-16.3,-2.4,1684,1024,364,1024,100,0,-100,0,49,4.753,82.04,36.08924,P-GPS,,11.0
772700,2026-01-08 12:41:37,9.5517338,5,7.216,-8.052984,-5.144962,3.802798,212.4,-16.6,-1.9,1684,1024,364,1024,100,0,-100,0,49,4.753,82.04,35.433072,P-GPS,,10.8
772800,2026-01-08 12:41:37,9.7530584,5,7.216,-8.276678,-5.144962,4.026492,212.6,-17.9,-1.6,1684,1024,364,1024,100,0,-100,0,49,4.753,82.04,35.104988,P-GPS,,10.7
772900,2026-01-08 12:41:37,10.0438606,5,7.216,-8.500372,-5.368656,4.026492,212.7,-18.3,-1.5,1684,1024,364,1024,100,0,-100,0,49,4.753,82.04,34.44882,P-GPS,,10.5
773000,2026-01-08 12:41:37,10.3570322,5,7.209,-8.724066,-5.59235,4.026492,212.6,-17.5,-1.8,1684,1024,364,1024,100,0,-100,0,49,4.882,82.04,34.120736,P-GPS,,10.4
773100,2026-01-08 12:41:37,10.6702038,5,7.209,-8.94776,-5.816044,4.026492,212.6,-16.7,-2.0,1684,1024,364,1024,100,0,-100,0,49,4.882,82.04,33.464568,P-GPS,,10.2
773200,2026-01-08 12:41:38,11.0504836,5,7.209,-9.395148,-5.816044,3.802798,212.6,-16.3,-2.0,1107,1024,364,1141,13,0,-100,18,49,4.882,82.04,33.136484,P-GPS,,10.1
773300,2026-01-08 12:41:38,11.3636552,5,7.209,-9.618842,-6.039738,3.802798,212.7,-16.2,-1.8,1024,1024,364,1532,0,0,-100,77,49,4.882,82.04,32.480316,P-GPS,,9.9
773400,2026-01-08 12:41:38,11.4755022,5,7.209,-9.618842,-6.263432,3.802798,212.6,-8.9,-1.9,1024,1024,364,1684,0,0,-100,100,49,4.882,82.04,32.152232,P-GPS,,9.8
773500,2026-01-08 12:41:38,11.4755022,5,7.209,-9.395148,-6.039738,3.579104,215.4,9.4,-1.3,1024,1024,364,1684,0,0,-100,100,49,4.882,82.04,31.496064,P-GPS,,9.6
773600,2026-01-08 12:41:38,10.2451852,5,7.209,-8.724066,-5.368656,3.131716,226.0,15.6,4.0,1024,1024,364,1684,0,0,-100,100,49,4.882,82.04,31.16798,P-GPS,,9.5
773700,2026-01-08 12:41:38,9.5517338,5,7.209,-8.052984,-5.144962,3.131716,238.3,12.0,7.8,1024,1024,364,1684,0,0,-100,100,49,4.882,82.04,30.511812,P-GPS,,9.3
773800,2026-01-08 12:41:38,8.7464354,5,7.209,-7.381902,-4.697574,3.35541,251.8,10.4,12.6,1024,1024,364,1684,0,0,-100,100,49,4.882,82.04,29.855644,P-GPS,,9.1
773900,2026-01-08 12:41:38,8.0753534,5,7.209,-6.71082,-4.47388,3.579104,265.0,7.8,16.5,1024,1024,364,1684,0,0,-100,100,49,4.882,82.04,29.199476,P-GPS,,8.9
774000,2026-01-08 12:41:38,7.2029468,5,7.209,-5.816044,-4.250186,3.802798,278.0,4.6,19.1,1024,1024,364,1684,0,0,-100,100,49,4.882,82.04,28.215224,P-GPS,,8.6
774100,2026-01-08 12:41:38,6.5318648,5,7.273,-5.144962,-4.026492,4.026492,290.7,1.0,21.4,1024,1024,364,1684,0,0,-100,100,49,3.987,82.04,27.559056,P-GPS,,8.4
774200,2026-01-08 12:41:39,5.704197,5,7.273,-4.250186,-3.802798,4.250186,303.3,-2.6,21.6,1024,1024,364,1684,0,0,-100,100,49,3.987,82.04,26.902888,P-GPS,,8.2
