time(millisecond),timestamp,speed(mph),gpslevel,voltage(v),xSpeed(mph),ySpeed(mph),zSpeed(mph),compass_heading(degrees),pitch(degrees),roll(degrees),rc_elevator,rc_aileron,rc_throttle,rc_rudder,rc_elevator(percent),rc_aileron(percent),rc_throttle(percent),rc_rudder(percent),battery_percent,current(A),battery_temperature(f),ascent(feet),flycState,message,height_above_takeoff(meters)
373900,2026-01-08 12:34:20,0.223694,5,7.561,0.0,-0.223694,0.0,23.9,8.4,5.2,1024,1024,1024,1024,0,0,0,0,75,5.346,75.74,97.769032,P-GPS,,29.8
374000,2026-01-08 12:34:20,0.223694,5,7.561,0.0,-0.223694,0.0,23.8,8.3,5.0,1024,1024,1024,1024,0,0,0,0,75,5.346,75.74,97.769032,P-GPS,,29.8
374100,2026-01-08 12:34:20,0.223694,5,7.561,0.0,-0.223694,0.0,23.7,7.6,5.2,1024,1024,1024,1024,0,0,0,0,75,5.346,75.74,97.769032,P-GPS,,29.8
374200,2026-01-08 12:34:20,0.223694,5,7.561,0.0,-0.223694,0.0,23.8,6.6,5.6,1024,1024,1024,1024,0,0,0,0,75,5.346,75.74,97.769032,P-GPS,,29.8
374300,2026-01-08 12:34:20,0.223694,5,7.561,0.0,0.0,0.0,23.8,6.2,5.9,1024,1024,1024,1024,0,0,0,0,75,5.346,75.74,97.769032,P-GPS,,29.8
374600,2026-01-08 12:34:21,0.0,5,7.619,0.0,0.0,0.0,24.1,6.8,6.1,1024,1024,1024,1024,0,0,0,0,75,4.429,75.74,97.769032,P-GPS,,29.8
374700,2026-01-08 12:34:21,0.0,5,7.619,0.0,0.0,0.0,24.1,6.5,5.4,1024,1024,1024,1024,0,0,0,0,75,4.429,75.74,97.769032,P-GPS,,29.8
374800,2026-01-08 12:34:21,0.0,5,7.619,0.0,0.0,0.0,24.0,5.2,5.0,1024,1024,1024,1024,0,0,0,0,75,4.429,75.74,97.769032,P-GPS,,29.8
374900,2026-01-08 12:34:21,0.0,5,7.619,0.0,0.0,0.0,24.1,5.7,4.9,1024,1024,1024,1024,0,0,0,0,75,4.429,75.74,97.440948,P-GPS,,29.7
375000,2026-01-08 12:34:21,0.0,5,7.619,0.0,0.0,0.0,24.0,6.3,4.9,1024,1024,1024,1024,0,0,0,0,75,4.429,75.74,97.440948,P-GPS,,29.7
375100,2026-01-08 12:34:21,0.0,5,7.619,0.0,0.0,0.0,23.9,6.6,5.1,1024,1024,1024,1024,0,0,0,0,75,4.429,75.74,97.440948,P-GPS,,29.7
375200,2026-01-08 12:34:21,0.0,5,7.619,0.0,0.0,0.0,23.9,6.5,4.2,1024,1024,1024,1024,0,0,0,0,75,4.429,75.74,97.440948,P-GPS,,29.7
375300,2026-01-08 12:34:21,0.0,5,7.619,0.0,0.0,0.0,23.9,6.9,4.2,1024,1024,1024,1024,0,0,0,0,75,4.429,75.74,97.769032,P-GPS,,29.8
375400,2026-01-08 12:34:21,0.0,5,7.619,0.0,0.0,0.0,24.0,6.8,4.0,1024,1024,1024,1024,0,0,0,0,75,4.429,75.74,97.769032,P-GPS,,29.8
375500,2026-01-08 12:34:22,0.0,5,7.63,0.0,0.0,0.0,24.0,6.5,4.3,1024,1024,1024,1024,0,0,0,0,75,4.098,75.74,97.769032,P-GPS,,29.8
375600,2026-01-08 12:34:22,0.0,5,7.63,0.0,0.0,0.0,24.0,6.4,4.3,1024,1024,1024,1024,0,0,0,0,75,4.098,75.74,98.097116,P-GPS,,29.9
375700,2026-01-08 12:34:22,0.0,5,7.63,0.0,0.0,0.0,24.1,7.1,4.8,1024,1024,1024,1024,0,0,0,0,75,4.098,75.74,98.097116,P-GPS,,29.9
375800,2026-01-08 12:34:22,0.0,5,7.63,0.0,0.0,0.0,24.1,6.7,4.9,1024,1024,1024,1024,0,0,0,0,75,4.098,75.74,98.097116,P-GPS,,29.9
375900,2026-01-08 12:34:22,0.0,5,7.63,0.0,0.0,0.0,24.1,6.6,5.1,1024,1024,1024,1024,0,0,0,0,75,4.098,75.74,98.4252,P-GPS,,30.0
376000,2026-01-08 12:34:22,0.0,5,7.63,0.0,0.0,0.0,24.1,6.5,5.4,1024,1024,1024,1024,0,0,0,0,75,4.098,75.74,98.4252,P-GPS,,30.0
376100,2026-01-08 12:34:22,0.0,5,7.63,0.0,0.0,0.0,24.2,7.2,5.6,1024,1024,1024,1024,0,0,0,0,75,4.098,75.74,98.4252,P-GPS,,30.0
376200,2026-01-08 12:34:22,0.0,5,7.63,0.0,0.0,0.0,24.1,6.5,5.5,1024,1024,1024,1024,0,0,0,0,75,4.098,75.74,98.4252,P-GPS,,30.0
376300,2026-01-08 12:34:22,0.0,5,7.63,0.0,0.0,0.0,24.1,5.9,5.2,1024,1024,1024,1024,0,0,0,0,75,4.098,75.74,98.4252,P-GPS,,30.0
376400,2026-01-08 12:34:22,0.0,5,7.63,0.0,0.0,0.0,24.1,5.9,5.4,1024,1024,1024,1024,0,0,0,0,75,4.098,75.74,98.753284,P-GPS,,30.1
376500,2026-01-08 12:34:22,0.0,5,7.602,0.0,0.0,0.0,24.1,5.9,5.2,1024,1024,1024,1024,0,0,0,0,75,4.356,75.74,98.753284,P-GPS,,30.1
376600,2026-01-08 12:34:23,0.0,5,7.602,0.0,0.0,0.0,24.1,5.8,5.1,1024,1024,1024,1024,0,0,0,0,75,4.356,75.74,98.753284,P-GPS,,30.1
376700,2026-01-08 12:34:23,0.0,5,7.602,0.0,0.0,0.0,24.0,6.3,5.0,1024,1024,1024,1024,0,0,0,0,75,4.356,75.74,98.753284,P-GPS,,30.1
376800,2026-01-08 12:34:23,0.0,5,7.602,0.0,0.0,0.0,23.9,6.3,4.8,1024,1024,1024,1024,0,0,0,0,75,4.356,75.74,98.753284,P-GPS,,30.1
376900,2026-01-08 12:34:23,0.0,5,7.602,0.0,0.0,0.0,23.8,6.1,4.9,1024,1024,1024,1024,0,0,0,0,75,4.356,75.74,98.753284,P-GPS,,30.1
377000,2026-01-08 12:34:23,0.0,5,7.602,0.0,0.0,0.0,23.7,6.4,4.8,1024,1024,1024,1024,0,0,0,0,75,4.356,75.74,98.753284,P-GPS,,30.1
377100,2026-01-08 12:34:23,0.0,5,7.602,0.0,0.0,0.0,23.7,6.8,4.6,1024,1024,1024,1024,0,0,0,0,75,4.356,75.74,98.753284,P-GPS,,30.1
377200,2026-01-08 12:34:23,0.0,5,7.602,0.0,0.0,0.0,23.7,6.7,4.6,1024,1024,1024,1024,0,0,0,0,75,4.356,75.74,98.753284,P-GPS,,30.1
377300,2026-01-08 12:34:23,0.0,5,7.602,0.0,0.0,0.0,23.7,6.7,4.4,1024,1024,1024,1024,0,0,0,0,75,4.356,75.74,98.753284,P-GPS,,30.1
377400,2026-01-08 12:34:23,0.0,5,7.602,0.0,0.0,0.0,23.6,6.8,4.3,1024,1024,1024,1024,0,0,0,0,75,4.356,75.74,98.753284,P-GPS,,30.1
377500,2026-01-08 12:34:24,0.0,5,7.6,0.0,0.0,0.0,23.5,7.3,4.5,1024,1024,1024,1024,0,0,0,0,75,4.371,75.92,98.4252,P-GPS,,30.0
377600,2026-01-08 12:34:24,0.0,5,7.6,0.0,0.0,0.0,23.6,7.1,4.7,1024,1024,1024,1024,0,0,0,0,75,4.371,75.92,98.4252,P-GPS,,30.0
377700,2026-01-08 12:34:24,0.0,5,7.6,0.0,0.0,0.0,23.6,6.7,4.9,1024,1024,1024,1024,0,0,0,0,75,4.371,75.92,98.4252,P-GPS,,30.0
377800,2026-01-08 12:34:24,0.0,5,7.6,0.0,0.0,0.0,23.7,7.1,5.1,1024,1024,1024,1024,0,0,0,0,75,4.371,75.92,98.4252,P-GPS,,30.0
377900,2026-01-08 12:34:24,0.0,5,7.6,0.0,0.0,0.0,23.8,7.3,5.1,1024,1024,1024,1024,0,0,0,0,75,4.371,75.92,98.4252,P-GPS,,30.0
378000,2026-01-08 12:34:24,0.0,5,7.6,0.0,0.0,0.0,23.9,7.7,5.4,1024,1024,1024,1024,0,0,0,0,75,4.371,75.92,98.4252,P-GPS,,30.0
378100,2026-01-08 12:34:24,0.0,5,7.6,0.0,0.0,0.0,23.9,8.2,5.8,1024,1024,1024,1024,0,0,0,0,75,4.371,75.92,98.4252,P-GPS,,30.0
378200,2026-01-08 12:34:24,0.0,5,7.6,0.0,0.0,0.0,23.9,8.0,5.8,1024,1024,1024,1024,0,0,0,0,75,4.371,75.92,98.4252,P-GPS,,30.0
378300,2026-01-08 12:34:24,0.0,5,7.6,0.0,0.0,0.0,24.0,8.2,6.1,1024,1024,1024,1024,0,0,0,0,75,4.371,75.92,98.4252,P-GPS,,30.0
378400,2026-01-08 12:34:24,0.0,5,7.6,0.0,0.0,0.0,24.0,8.1,6.3,1024,1024,1024,1024,0,0,0,0,75,4.371,75.92,98.4252,P-GPS,,30.0
378500,2026-01-08 12:34:24,0.0,5,7.595,0.0,0.0,0.0,24.0,8.2,6.3,1024,1024,1024,1024,0,0,0,0,75,4.562,75.74,98.4252,P-GPS,,30.0
378600,2026-01-08 12:34:25,0.0,5,7.595,0.0,0.0,0.0,24.0,8.1,6.2,1024,1024,1024,1024,0,0,0,0,75,4.562,75.74,98.4252,P-GPS,,30.0
378700,2026-01-08 12:34:25,0.0,5,7.595,0.0,0.0,0.0,24.0,7.9,6.2,1024,1024,1024,1024,0,0,0,0,75,4.562,75.74,98.4252,P-GPS,,30.0
378800,2026-01-08 12:34:25,0.0,5,7.595,0.0,0.0,0.0,24.0,7.8,6.2,1024,1024,1024,1024,0,0,0,0,75,4.562,75.74,98.097116,P-GPS,,29.9
378900,2026-01-08 12:34:25,0.0,5,7.595,0.0,0.0,0.0,24.0,7.8,6.0,1024,1024,1024,1024,0,0,0,0,75,4.562,75.74,98.097116,P-GPS,,29.9
379000,2026-01-08 12:34:25,0.0,5,7.595,0.0,0.0,0.0,23.9,7.7,6.0,1024,1024,1024,1024,0,0,0,0,75,4.562,75.74,98.097116,P-GPS,,29.9
379100,2026-01-08 12:34:25,0.0,5,7.595,0.0,0.0,0.0,23.9,7.7,6.0,1024,1024,1024,1024,0,0,0,0,75,4.562,75.74,98.097116,P-GPS,,29.9
379200,2026-01-08 12:34:25,0.0,5,7.595,0.0,0.0,0.0,23.9,7.9,6.1,1024,1024,1024,1024,0,0,0,0,75,4.562,75.74,98.097116,P-GPS,,29.9
379300,2026-01-08 12:34:25,0.0,5,7.595,0.0,0.0,0.0,24.0,7.9,6.1,1024,1024,1024,1024,0,0,0,0,75,4.562,75.74,98.097116,P-GPS,,29.9
379400,2026-01-08 12:34:25,0.0,5,7.595,0.0,0.0,0.0,23.9,7.8,6.1,1024,1024,1024,1024,0,0,0,0,75,4.562,75.74,97.769032,P-GPS,,29.8
379500,2026-01-08 12:34:26,0.0,5,7.605,0.0,0.0,0.0,23.9,8.5,5.7,1024,1024,1024,1024,0,0,0,0,75,4.316,75.74,97.769032,P-GPS,,29.8
379600,2026-01-08 12:34:26,0.0,5,7.605,0.0,0.0,0.0,23.9,8.6,5.6,1024,1024,1024,1024,0,0,0,0,75,4.316,75.74,97.769032,P-GPS,,29.8
379700,2026-01-08 12:34:26,0.0,5,7.605,0.0,0.0,0.0,23.8,8.5,5.8,1024,1024,1024,1024,0,0,0,0,75,4.316,75.74,97.769032,P-GPS,,29.8
379800,2026-01-08 12:34:26,0.0,5,7.605,0.0,0.0,0.0,23.8,7.7,5.7,1024,1024,1024,1024,0,0,0,0,75,4.316,75.74,97.769032,P-GPS,,29.8
379900,2026-01-08 12:34:26,0.0,5,7.605,0.0,0.0,0.0,24.0,7.4,5.7,1024,1024,1024,1024,0,0,0,0,75,4.316,75.74,97.440948,P-GPS,,29.7
380000,2026-01-08 12:34:26,0.0,5,7.605,0.0,0.0,0.0,24.1,7.8,5.6,1024,1024,1024,1024,0,0,0,0,75,4.316,75.74,97.440948,P-GPS,,29.7
380100,2026-01-08 12:34:26,0.0,5,7.605,0.0,0.0,0.0,23.9,7.1,5.1,1024,1024,1024,1024,0,0,0,0,75,4.316,75.74,97.440948,P-GPS,,29.7
380200,2026-01-08 12:34:26,0.0,5,7.605,0.0,0.0,0.0,24.0,7.3,5.0,1024,1024,1024,1024,0,0,0,0,75,4.316,75.74,97.440948,P-GPS,,29.7
380300,2026-01-08 12:34:26,0.0,5,7.605,0.0,0.0,0.0,24.0,7.1,4.8,1024,1024,1024,1024,0,0,0,0,75,4.316,75.74,97.440948,P-GPS,,29.7
380400,2026-01-08 12:34:26,0.0,5,7.593,0.0,0.0,0.0,24.0,7.3,4.9,1024,1024,1024,1024,0,0,0,0,75,4.438,75.74,97.112864,P-GPS,,29.6
380500,2026-01-08 12:34:27,0.0,5,7.593,0.0,0.0,0.0,24.2,8.5,5.5,1024,1024,1024,1024,0,0,0,0,75,4.438,75.74,97.112864,P-GPS,,29.6
380600,2026-01-08 12:34:27,0.0,5,7.593,0.0,0.0,0.0,24.0,7.9,5.3,1024,1024,1024,1024,0,0,0,0,75,4.438,75.74,97.112864,P-GPS,,29.6
380700,2026-01-08 12:34:27,0.0,5,7.593,0.0,0.0,0.0,23.9,7.9,5.1,1024,1024,1024,1024,0,0,0,0,75,4.438,75.74,97.112864,P-GPS,,29.6
380800,2026-01-08 12:34:27,0.0,5,7.593,0.0,0.0,0.0,23.9,8.2,5.0,1024,1024,1024,1024,0,0,0,0,75,4.438,75.74,97.112864,P-GPS,,29.6
380900,2026-01-08 12:34:27,0.0,5,7.593,0.0,0.0,0.0,23.8,7.8,4.8,1024,1024,1024,1024,0,0,0,0,75,4.438,75.74,97.112864,P-GPS,,29.6
381000,2026-01-08 12:34:27,0.0,5,7.593,0.0,0.0,0.0,23.8,7.9,5.0,1024,1024,1024,1024,0,0,0,0,75,4.438,75.74,96.78478,P-GPS,,29.5
381100,2026-01-08 12:34:27,0.0,5,7.593,0.0,0.0,0.0,23.8,8.1,5.0,1024,1024,1024,1024,0,0,0,0,75,4.438,75.74,96.78478,P-GPS,,29.5
381200,2026-01-08 12:34:27,0.0,5,7.593,0.0,0.0,0.0,23.8,7.6,4.7,1024,1024,1024,1024,0,0,0,0,75,4.438,75.74,96.78478,P-GPS,,29.5
381300,2026-01-08 12:34:27,0.0,5,7.593,0.0,0.0,0.0,23.8,7.9,4.9,1024,1024,1024,1024,0,0,0,0,75,4.438,75.74,96.78478,P-GPS,,29.5
381400,2026-01-08 12:34:27,0.0,5,7.593,0.0,0.0,0.0,23.9,7.4,5.1,1024,1024,1024,1024,0,0,0,0,75,4.438,75.74,96.78478,P-GPS,,29.5
381500,2026-01-08 12:34:28,0.0,5,7.593,0.0,0.0,0.0,24.0,7.7,4.8,1024,1024,1024,1024,0,0,0,0,75,4.438,75.74,96.78478,P-GPS,,29.5
381600,2026-01-08 12:34:28,0.0,5,7.593,0.0,0.0,0.0,23.9,7.6,4.9,1024,1024,1024,1024,0,0,0,0,75,4.438,75.74,96.78478,P-GPS,,29.5
381700,2026-01-08 12:34:28,0.0,5,7.593,0.0,0.0,0.0,23.9,6.7,4.8,1024,1024,1024,1024,0,0,0,0,75,4.438,75.74,96.78478,P-GPS,,29.5
381800,2026-01-08 12:34:28,0.0,5,7.593,0.0,0.0,0.0,23.9,6.9,5.2,1024,1024,1024,1024,0,0,0,0,75,4.438,75.74,96.78478,P-GPS,,29.5
381900,2026-01-08 12:34:28,0.0,5,7.593,0.0,0.0,0.0,24.0,7.8,5.1,1024,1024,1024,1024,0,0,0,0,75,4.438,75.74,96.78478,P-GPS,,29.5
382000,2026-01-08 12:34:28,0.0,5,7.593,0.0,0.0,0.0,23.9,7.1,4.6,1024,1024,1024,1024,0,0,0,0,75,4.438,75.74,96.78478,P-GPS,,29.5
382100,2026-01-08 12:34:28,0.0,5,7.593,0.0,0.0,0.0,23.9,7.3,5.0,1024,1024,1024,1024,0,0,0,0,75,4.438,75.74,96.78478,P-GPS,,29.5
382200,2026-01-08 12:34:28,0.0,5,7.593,0.0,0.0,0.0,24.0,8.2,4.9,1024,1024,1024,1024,0,0,0,0,75,4.438,75.74,96.456696,P-GPS,,29.4
382300,2026-01-08 12:34:28,0.0,5,7.593,0.0,0.0,0.0,24.0,8.8,4.9,1024,1024,1024,1024,0,0,0,0,75,4.438,75.74,96.456696,P-GPS,,29.4
382400,2026-01-08 12:34:28,0.0,5,7.593,0.0,0.0,0.0,23.9,8.2,4.7,1024,1024,1024,1024,0,0,0,0,75,4.438,75.74,96.456696,P-GPS,,29.4
382500,2026-01-08 12:34:29,0.0,5,7.593,0.0,0.0,0.0,23.9,8.4,5.1,1024,1024,1024,1024,0,0,0,0,75,4.438,75.74,96.456696,P-GPS,,29.4
382600,2026-01-08 12:34:29,0.0,5,7.591,0.0,0.0,0.0,24.0,8.7,5.0,1024,1024,1024,1024,0,0,0,0,75,4.483,75.74,96.456696,P-GPS,,29.4
382700,2026-01-08 12:34:29,0.0,5,7.591,0.0,0.0,0.0,24.0,9.6,5.1,1024,1024,1024,1024,0,0,0,0,75,4.483,75.74,96.456696,P-GPS,,29.4
382800,2026-01-08 12:34:29,0.0,5,7.591,0.0,0.0,0.0,23.9,9.4,4.9,1024,1024,1024,1024,0,0,0,0,75,4.483,75.74,96.456696,P-GPS,,29.4
382900,2026-01-08 12:34:29,0.0,5,7.591,0.0,0.0,0.0,23.8,9.2,4.7,1024,1024,1024,1024,0,0,0,0,75,4.483,75.74,96.456696,P-GPS,,29.4
383000,2026-01-08 12:34:29,0.0,5,7.591,0.0,0.0,0.0,23.9,8.7,5.1,1024,1024,1024,1024,0,0,0,0,75,4.483,75.74,96.456696,P-GPS,,29.4
383100,2026-01-08 12:34:29,0.0,5,7.591,0.0,0.0,0.0,23.9,8.3,5.3,1024,1024,1024,1024,0,0,0,0,75,4.483,75.74,96.456696,P-GPS,,29.4
383200,2026-01-08 12:34:29,0.0,5,7.591,0.0,0.0,0.0,23.9,8.2,5.6,1024,1024,1024,1024,0,0,0,0,75,4.483,75.74,96.456696,P-GPS,,29.4
383300,2026-01-08 12:34:29,0.0,5,7.591,0.0,0.0,0.0,24.0,8.7,5.6,1024,1024,1024,1024,0,0,0,0,75,4.483,75.74,96.456696,P-GPS,,29.4
383400,2026-01-08 12:34:29,0.0,5,7.591,0.0,0.0,0.0,24.0,9.1,5.4,1024,1024,1024,1024,0,0,0,0,75,4.483,75.74,96.456696,P-GPS,,29.4
383500,2026-01-08 12:34:29,0.0,5,7.591,0.0,0.0,0.0,24.0,9.4,5.6,1024,1024,1024,1024,0,0,0,0,75,4.483,75.74,96.78478,P-GPS,,29.5
383600,2026-01-08 12:34:30,0.0,5,7.591,0.0,0.0,0.0,24.0,9.3,5.9,1024,1024,1024,1024,0,0,0,0,75,4.483,75.74,96.78478,P-GPS,,29.5
383700,2026-01-08 12:34:30,0.0,5,7.595,0.0,0.0,0.0,24.0,9.6,5.8,1024,1024,1024,1024,0,0,0,0,75,4.529,75.92,96.78478,P-GPS,,29.5
383800,2026-01-08 12:34:30,0.0,5,7.595,0.0,0.0,0.0,23.9,9.3,5.5,1024,1024,1024,1024,0,0,0,0,75,4.529,75.92,96.78478,P-GPS,,29.5
383900,2026-01-08 12:34:30,0.0,5,7.595,0.0,0.0,0.0,24.0,9.6,5.7,1024,1024,1024,1024,0,0,0,0,75,4.529,75.92,96.78478,P-GPS,,29.5
384000,2026-01-08 12:34:30,0.0,5,7.595,0.0,0.0,0.0,24.1,9.8,5.5,1024,1024,1024,1024,0,0,0,0,75,4.529,75.92,96.78478,P-GPS,,29.5
384100,2026-01-08 12:34:30,0.0,5,7.595,0.0,0.0,0.0,24.0,9.7,5.5,1024,1024,1024,1024,0,0,0,0,75,4.529,75.92,96.78478,P-GPS,,29.5
384200,2026-01-08 12:34:30,0.0,5,7.595,0.0,0.0,0.0,23.9,9.6,5.1,1024,1024,1024,1024,0,0,0,0,75,4.529,75.92,96.78478,P-GPS,,29.5
384300,2026-01-08 12:34:30,0.0,5,7.595,0.0,0.0,0.0,24.0,9.5,4.6,1024,1024,1024,1024,0,0,0,0,75,4.529,75.92,96.78478,P-GPS,,29.5
384400,2026-01-08 12:34:30,0.0,5,7.595,0.0,0.0,0.0,24.0,9.7,4.8,1024,1024,1024,1024,0,0,0,0,75,4.529,75.92,96.78478,P-GPS,,29.5
384500,2026-01-08 12:34:31,0.0,5,7.595,0.0,0.0,0.0,24.0,9.2,5.0,1024,1024,1024,1024,0,0,0,0,75,4.529,75.92,96.78478,P-GPS,,29.5
384600,2026-01-08 12:34:31,0.0,5,7.595,0.0,0.0,0.0,24.0,8.9,4.7,1024,1024,1024,1024,0,0,0,0,75,4.529,75.92,96.78478,P-GPS,,29.5
384700,2026-01-08 12:34:31,0.0,5,7.595,0.0,0.0,0.0,23.9,8.4,5.0,1024,1024,1024,1024,0,0,0,0,75,4.529,75.92,96.78478,P-GPS,,29.5
384800,2026-01-08 12:34:31,0.0,5,7.577,0.0,0.0,0.0,23.9,7.4,4.9,1024,1024,1024,1024,0,0,0,0,75,4.703,75.92,96.78478,P-GPS,,29.5
384900,2026-01-08 12:34:31,0.0,5,7.577,0.0,0.0,0.0,24.1,7.8,5.1,1024,1024,1024,1024,0,0,0,0,75,4.703,75.92,96.78478,P-GPS,,29.5
385000,2026-01-08 12:34:31,0.0,5,7.577,0.0,0.0,0.0,24.1,8.2,5.4,1024,1024,1024,1024,0,0,0,0,75,4.703,75.92,96.456696,P-GPS,,29.4
385100,2026-01-08 12:34:31,0.0,5,7.577,0.0,0.0,0.0,24.2,8.4,5.4,1024,1024,1024,1024,0,0,0,0,75,4.703,75.92,96.456696,P-GPS,,29.4
385200,2026-01-08 12:34:31,0.0,5,7.577,0.0,0.0,0.0,24.2,8.0,5.3,1024,1024,1024,1024,0,0,0,0,75,4.703,75.92,96.456696,P-GPS,,29.4
385300,2026-01-08 12:34:31,0.0,5,7.577,0.0,0.0,0.0,24.2,8.0,5.6,1024,1024,1024,1024,0,0,0,0,75,4.703,75.92,96.456696,P-GPS,,29.4
385400,2026-01-08 12:34:31,0.0,5,7.577,0.0,0.0,0.0,24.1,7.7,5.5,1024,1024,1024,1024,0,0,0,0,75,4.703,75.92,96.456696,P-GPS,,29.4
385500,2026-01-08 12:34:31,0.0,5,7.577,0.0,0.0,0.0,24.1,8.1,5.3,1024,1024,1024,1024,0,0,0,0,75,4.703,75.92,96.456696,P-GPS,,29.4
385600,2026-01-08 12:34:32,0.0,5,7.577,0.0,0.0,0.0,24.0,7.9,4.8,1024,1024,1024,1024,0,0,0,0,75,4.703,75.92,96.456696,P-GPS,,29.4
385700,2026-01-08 12:34:32,0.0,5,7.577,0.0,0.0,0.0,23.9,7.2,4.8,1024,1024,1024,1024,0,0,0,0,75,4.703,75.92,96.456696,P-GPS,,29.4
385800,2026-01-08 12:34:32,0.0,5,7.577,0.0,0.0,0.0,24.0,7.1,5.1,1024,1024,1024,1024,0,0,0,0,75,4.703,75.92,96.456696,P-GPS,,29.4
385900,2026-01-08 12:34:32,0.0,5,7.596,0.0,0.0,0.0,24.0,7.9,5.3,1024,1024,1024,1024,0,0,0,0,74,4.31,75.92,96.456696,P-GPS,,29.4
386000,2026-01-08 12:34:32,0.0,5,7.596,0.0,0.0,0.0,23.9,7.9,5.1,1024,1024,1024,1024,0,0,0,0,74,4.31,75.92,96.456696,P-GPS,,29.4
386100,2026-01-08 12:34:32,0.0,5,7.596,0.0,0.0,0.0,23.9,7.6,5.5,1024,1024,1024,1024,0,0,0,0,74,4.31,75.92,96.456696,P-GPS,,29.4
386200,2026-01-08 12:34:32,0.0,5,7.596,0.0,0.0,0.0,23.9,7.5,5.5,1024,1024,1024,1024,0,0,0,0,74,4.31,75.92,96.78478,P-GPS,,29.5
386300,2026-01-08 12:34:32,0.0,5,7.596,0.0,0.0,0.0,23.9,8.2,5.4,1024,1024,1024,1024,0,0,0,0,74,4.31,75.92,96.78478,P-GPS,,29.5
386400,2026-01-08 12:34:32,0.0,5,7.596,0.0,0.0,0.0,24.1,8.3,5.3,1024,1024,1024,1024,0,0,0,0,74,4.31,75.92,96.78478,P-GPS,,29.5
386500,2026-01-08 12:34:33,0.0,5,7.596,0.0,0.0,0.0,24.1,7.1,5.8,1024,1024,1024,1024,0,0,0,0,74,4.31,75.92,96.78478,P-GPS,,29.5
386600,2026-01-08 12:34:33,0.0,5,7.596,0.0,0.0,0.0,24.1,7.1,5.5,1024,1024,1024,1024,0,0,0,0,74,4.31,75.92,96.78478,P-GPS,,29.5
386700,2026-01-08 12:34:33,0.0,5,7.596,0.0,0.0,0.0,24.2,7.5,5.2,1024,1024,1024,1024,0,0,0,0,74,4.31,75.92,97.112864,P-GPS,,29.6
386800,2026-01-08 12:34:33,0.0,5,7.596,0.0,0.0,0.0,24.3,7.3,5.0,1024,1024,1024,1024,0,0,0,0,74,4.31,75.92,97.112864,P-GPS,,29.6
386900,2026-01-08 12:34:33,0.0,5,7.596,0.0,0.0,0.0,24.1,7.3,5.4,1024,1024,1024,1024,0,0,0,0,74,4.31,75.92,97.112864,P-GPS,,29.6
387000,2026-01-08 12:34:33,0.0,5,7.597,0.0,0.0,0.0,24.1,7.0,5.3,1024,1024,1024,1024,0,0,0,0,74,4.421,75.92,97.112864,P-GPS,,29.6
387100,2026-01-08 12:34:33,0.0,5,7.597,0.0,0.0,0.0,24.1,7.0,5.5,1024,1024,1024,1024,0,0,0,0,74,4.421,75.92,97.112864,P-GPS,,29.6
387200,2026-01-08 12:34:33,0.0,5,7.597,0.0,0.0,0.0,24.1,7.4,5.6,1024,1024,1024,1024,0,0,0,0,74,4.421,75.92,97.112864,P-GPS,,29.6
387300,2026-01-08 12:34:33,0.0,5,7.597,0.0,0.0,0.0,24.1,7.8,5.7,1024,1024,1024,1024,0,0,0,0,74,4.421,75.92,97.112864,P-GPS,,29.6
387400,2026-01-08 12:34:33,0.0,5,7.597,0.0,0.0,0.0,24.0,7.4,5.5,1024,1024,1024,1024,0,0,0,0,74,4.421,75.92,97.440948,P-GPS,,29.7
387500,2026-01-08 12:34:34,0.0,5,7.597,0.0,0.0,0.0,24.0,8.1,5.8,1024,1024,1024,1024,0,0,0,0,74,4.421,75.92,97.440948,P-GPS,,29.7
387600,2026-01-08 12:34:34,0.0,5,7.597,0.0,0.0,0.0,24.0,8.1,5.9,1024,1024,1024,1024,0,0,0,0,74,4.421,75.92,97.440948,P-GPS,,29.7
387700,2026-01-08 12:34:34,0.0,5,7.597,0.0,0.0,0.0,24.0,8.1,5.8,1024,1024,1024,1024,0,0,0,0,74,4.421,75.92,97.440948,P-GPS,,29.7
387800,2026-01-08 12:34:34,0.0,5,7.597,0.0,0.0,0.0,23.9,8.1,5.9,1024,1024,1024,1024,0,0,0,0,74,4.421,75.92,97.440948,P-GPS,,29.7
387900,2026-01-08 12:34:34,0.0,5,7.597,0.0,0.0,0.0,24.0,8.3,5.9,1024,1024,1024,1024,0,0,0,0,74,4.421,75.92,97.440948,P-GPS,,29.7
388000,2026-01-08 12:34:34,0.0,5,7.597,0.0,0.0,0.0,23.9,8.2,5.7,1024,1024,1024,1024,0,0,0,0,74,4.421,75.92,97.440948,P-GPS,,29.7
388100,2026-01-08 12:34:34,0.0,5,7.59,0.0,0.0,0.0,24.0,8.5,6.1,1024,1024,1024,1024,0,0,0,0,74,4.403,75.92,97.112864,P-GPS,,29.6
388200,2026-01-08 12:34:34,0.0,5,7.59,0.0,0.0,0.0,24.0,8.2,6.0,1024,1024,1024,1024,0,0,0,0,74,4.403,75.92,97.112864,P-GPS,,29.6
388300,2026-01-08 12:34:34,0.0,5,7.59,0.0,0.0,0.0,23.9,8.1,6.0,1024,1024,1024,1024,0,0,0,0,74,4.403,75.92,97.112864,P-GPS,,29.6
388400,2026-01-08 12:34:34,0.0,5,7.59,0.0,0.0,0.0,23.9,8.6,5.8,1024,1024,1024,1024,0,0,0,0,74,4.403,75.92,97.112864,P-GPS,,29.6
388500,2026-01-08 12:34:35,0.0,5,7.59,0.0,0.0,0.0,23.9,8.3,5.7,1024,1024,1024,1024,0,0,0,0,74,4.403,75.92,97.112864,P-GPS,,29.6
388600,2026-01-08 12:34:35,0.0,5,7.59,0.0,0.0,0.0,23.9,8.7,5.4,1024,1024,1024,1024,0,0,0,0,74,4.403,75.92,97.112864,P-GPS,,29.6
388700,2026-01-08 12:34:35,0.0,5,7.59,0.0,0.0,0.0,24.0,8.8,5.9,1024,1024,1024,1024,0,0,0,0,74,4.403,75.92,97.112864,P-GPS,,29.6
388800,2026-01-08 12:34:35,0.0,5,7.59,0.0,0.0,0.0,24.0,9.0,6.1,1024,1024,1024,1024,0,0,0,0,74,4.403,75.92,97.112864,P-GPS,,29.6
388900,2026-01-08 12:34:35,0.0,5,7.59,0.0,0.0,0.0,24.0,9.3,6.1,1024,1024,1024,1024,0,0,0,0,74,4.403,75.92,97.112864,P-GPS,,29.6
389000,2026-01-08 12:34:35,0.0,5,7.59,0.0,0.0,0.0,24.0,9.3,5.9,1024,1024,1024,1024,0,0,0,0,74,4.403,75.92,97.112864,P-GPS,,29.6
389100,2026-01-08 12:34:35,0.0,5,7.59,0.0,0.0,0.0,24.0,9.5,5.7,1024,1024,1024,1024,0,0,0,0,74,4.403,75.92,97.112864,P-GPS,,29.6
389200,2026-01-08 12:34:35,0.0,5,7.566,0.0,0.0,0.0,24.1,9.8,5.1,1024,1024,1024,1024,0,0,0,0,74,4.94,75.92,96.78478,P-GPS,,29.5
389300,2026-01-08 12:34:35,0.0,5,7.566,0.0,0.0,0.0,24.1,9.9,5.3,1024,1024,1024,1024,0,0,0,0,74,4.94,75.92,96.78478,P-GPS,,29.5
389400,2026-01-08 12:34:35,0.0,5,7.566,0.0,0.0,0.0,24.1,9.8,5.4,1024,1024,1024,1024,0,0,0,0,74,4.94,75.92,96.78478,P-GPS,,29.5
389500,2026-01-08 12:34:36,0.0,5,7.566,0.0,0.0,0.0,24.1,9.5,5.3,1024,1024,1024,1024,0,0,0,0,74,4.94,75.92,96.78478,P-GPS,,29.5
389600,2026-01-08 12:34:36,0.0,5,7.566,0.0,0.0,0.0,24.1,9.3,5.5,1024,1024,1024,1024,0,0,0,0,74,4.94,75.92,96.78478,P-GPS,,29.5
389700,2026-01-08 12:34:36,0.0,5,7.566,0.0,0.0,0.0,24.1,10.0,5.2,1024,1024,1024,1024,0,0,0,0,74,4.94,75.92,96.78478,P-GPS,,29.5
389800,2026-01-08 12:34:36,0.0,5,7.566,0.0,0.0,0.0,24.1,9.8,5.3,1024,1024,1024,1024,0,0,0,0,74,4.94,75.92,96.78478,P-GPS,,29.5
389900,2026-01-08 12:34:36,0.0,5,7.566,0.0,0.0,0.0,24.1,10.1,5.0,1024,1024,1024,1024,0,0,0,0,74,4.94,75.92,96.78478,P-GPS,,29.5
390000,2026-01-08 12:34:36,0.0,5,7.566,0.0,0.0,0.0,24.1,9.7,5.1,1024,1024,1024,1024,0,0,0,0,74,4.94,75.92,96.78478,P-GPS,,29.5
390100,2026-01-08 12:34:36,0.0,5,7.566,0.0,0.0,0.0,24.1,9.9,4.9,1024,1024,1024,1024,0,0,0,0,74,4.94,75.92,96.456696,P-GPS,,29.4
390200,2026-01-08 12:34:36,0.0,5,7.566,0.0,0.0,0.0,24.0,8.8,4.7,1024,1024,1024,1024,0,0,0,0,74,4.94,75.92,96.456696,P-GPS,,29.4
390300,2026-01-08 12:34:36,0.0,5,7.559,0.0,0.0,0.0,23.8,8.4,4.5,1024,1024,1024,1024,0,0,0,0,74,5.051,76.1,96.456696,P-GPS,,29.4
390700,2026-01-08 12:34:37,0.0,5,7.559,0.0,0.0,0.0,24.1,8.9,5.5,1024,1024,1024,1024,0,0,0,0,74,5.051,76.1,96.456696,P-GPS,,29.4
390800,2026-01-08 12:34:37,0.0,5,7.559,0.0,0.0,0.0,24.1,8.6,5.5,1024,1024,1024,1024,0,0,0,0,74,5.051,76.1,96.456696,P-GPS,,29.4
390900,2026-01-08 12:34:37,0.0,5,7.559,0.0,0.0,0.0,24.2,9.1,5.8,1024,1024,1024,1024,0,0,0,0,74,5.051,76.1,96.456696,P-GPS,,29.4
391000,2026-01-08 12:34:37,0.0,5,7.559,0.0,0.0,0.0,24.0,8.7,5.7,1024,1024,1024,1024,0,0,0,0,74,5.051,76.1,96.456696,P-GPS,,29.4
391100,2026-01-08 12:34:37,0.0,5,7.559,0.0,0.0,0.0,24.0,8.6,5.8,1024,1024,1024,1024,0,0,0,0,74,5.051,76.1,96.456696,P-GPS,,29.4
391200,2026-01-08 12:34:37,0.0,5,7.559,0.0,0.0,0.0,24.0,8.6,6.0,1024,1024,1024,1024,0,0,0,0,74,5.051,76.1,96.456696,P-GPS,,29.4
391300,2026-01-08 12:34:37,0.0,5,7.559,0.0,0.0,0.0,24.1,8.7,6.2,1024,1024,1024,1024,0,0,0,0,74,5.051,76.1,96.456696,P-GPS,,29.4
391400,2026-01-08 12:34:37,0.0,5,7.585,0.0,0.0,0.0,24.0,8.5,6.1,1024,1024,1024,1024,0,0,0,0,74,4.361,76.1,96.456696,P-GPS,,29.4
391500,2026-01-08 12:34:38,0.0,5,7.585,0.0,0.0,0.0,24.0,8.7,6.3,1024,1024,1024,1024,0,0,0,0,74,4.361,76.1,96.456696,P-GPS,,29.4
391600,2026-01-08 12:34:38,0.0,5,7.585,0.0,0.0,0.0,24.1,8.5,6.2,1024,1024,1024,1024,0,0,0,0,74,4.361,76.1,96.456696,P-GPS,,29.4
391700,2026-01-08 12:34:38,0.0,5,7.585,0.0,0.0,0.0,24.1,9.0,6.6,1024,1024,1024,1024,0,0,0,0,74,4.361,76.1,96.456696,P-GPS,,29.4
391800,2026-01-08 12:34:38,0.0,5,7.585,0.0,0.0,0.0,24.1,8.8,6.5,1024,1024,1024,1024,0,0,0,0,74,4.361,76.1,96.456696,P-GPS,,29.4
391900,2026-01-08 12:34:38,0.0,5,7.585,0.0,0.0,0.0,24.1,8.4,6.3,1024,1024,1024,1024,0,0,0,0,74,4.361,76.1,96.456696,P-GPS,,29.4
392000,2026-01-08 12:34:38,0.0,5,7.585,0.0,0.0,0.0,24.1,8.3,6.4,1024,1024,1024,1024,0,0,0,0,74,4.361,76.1,96.456696,P-GPS,,29.4
392100,2026-01-08 12:34:38,0.0,5,7.585,0.0,0.0,0.0,24.2,8.9,6.7,1024,1024,1024,1024,0,0,0,0,74,4.361,76.1,96.456696,P-GPS,,29.4
392200,2026-01-08 12:34:38,0.0,5,7.585,0.0,0.0,0.0,24.2,9.1,6.9,1024,1024,1024,1024,0,0,0,0,74,4.361,76.1,96.456696,P-GPS,,29.4
392300,2026-01-08 12:34:38,0.0,5,7.585,0.0,0.0,0.0,24.2,9.0,6.8,1024,1024,1024,1024,0,0,0,0,74,4.361,76.1,96.78478,P-GPS,,29.5
392400,2026-01-08 12:34:38,0.0,5,7.585,0.0,0.0,0.0,24.0,9.1,7.0,1024,1024,1024,1024,0,0,0,0,74,4.361,76.1,96.78478,P-GPS,,29.5
392500,2026-01-08 12:34:38,0.0,5,7.574,0.0,0.0,0.0,24.0,8.7,7.1,1024,1024,1024,1024,0,0,0,0,74,4.499,76.1,96.78478,P-GPS,,29.5
392600,2026-01-08 12:34:39,0.0,5,7.574,0.0,0.0,0.0,24.2,8.7,7.0,1024,1024,1024,1024,0,0,0,0,74,4.499,76.1,96.78478,P-GPS,,29.5
392700,2026-01-08 12:34:39,0.0,5,7.574,0.0,0.0,0.0,24.2,8.8,6.7,1024,1024,1024,1024,0,0,0,0,74,4.499,76.1,96.78478,P-GPS,,29.5
392800,2026-01-08 12:34:39,0.0,5,7.574,0.0,0.0,0.0,24.2,8.9,6.7,1024,1024,1024,1024,0,0,0,0,74,4.499,76.1,96.78478,P-GPS,,29.5
392900,2026-01-08 12:34:39,0.0,5,7.574,0.0,0.0,0.0,24.1,8.4,6.7,1024,1024,1024,1024,0,0,0,0,74,4.499,76.1,96.78478,P-GPS,,29.5
393000,2026-01-08 12:34:39,0.0,5,7.574,0.0,0.0,0.0,24.1,8.4,6.4,1024,1024,1024,1024,0,0,0,0,74,4.499,76.1,96.78478,P-GPS,,29.5
393100,2026-01-08 12:34:39,0.0,5,7.574,0.0,0.0,0.0,24.1,8.5,6.6,1024,1024,1024,1024,0,0,0,0,74,4.499,76.1,96.78478,P-GPS,,29.5
393200,2026-01-08 12:34:39,0.0,5,7.574,0.0,0.0,0.0,24.0,8.4,6.6,1024,1024,1024,1024,0,0,0,0,74,4.499,76.1,96.78478,P-GPS,,29.5
393300,2026-01-08 12:34:39,0.0,5,7.574,0.0,0.0,0.0,24.1,8.6,6.6,1024,1024,1024,1024,0,0,0,0,74,4.499,76.1,96.78478,P-GPS,,29.5
393400,2026-01-08 12:34:39,0.0,5,7.574,0.0,0.0,0.0,24.2,8.7,6.3,1024,1024,1024,1024,0,0,0,0,74,4.499,76.1,96.78478,P-GPS,,29.5
393500,2026-01-08 12:34:40,0.0,5,7.574,0.0,0.0,0.0,24.1,8.7,6.7,1024,1024,1024,1024,0,0,0,0,74,4.499,76.1,96.78478,P-GPS,,29.5
393600,2026-01-08 12:34:40,0.0,5,7.574,0.0,0.0,0.0,24.0,8.5,6.6,1024,1024,1024,1024,0,0,0,0,74,4.499,76.1,96.78478,P-GPS,,29.5
393700,2026-01-08 12:34:40,0.0,5,7.583,0.0,0.0,0.0,24.1,8.5,6.6,1024,1024,1024,1024,0,0,0,0,74,4.459,76.1,96.78478,P-GPS,,29.5
393800,2026-01-08 12:34:40,0.0,5,7.583,0.0,0.0,0.0,24.0,8.6,6.2,1024,1024,1024,1024,0,0,0,0,74,4.459,76.1,96.78478,P-GPS,,29.5
393900,2026-01-08 12:34:40,0.0,5,7.583,0.0,0.0,0.0,24.0,7.9,5.6,1024,1024,1024,1024,0,0,0,0,74,4.459,76.1,96.78478,P-GPS,,29.5
394000,2026-01-08 12:34:40,0.0,5,7.583,0.0,0.0,0.0,24.0,8.2,5.3,1024,1024,1024,1024,0,0,0,0,74,4.459,76.1,96.78478,P-GPS,,29.5
394100,2026-01-08 12:34:40,0.0,5,7.583,0.0,0.0,0.0,24.0,8.7,5.5,1024,1024,1024,1024,0,0,0,0,74,4.459,76.1,96.78478,P-GPS,,29.5
394200,2026-01-08 12:34:40,0.0,5,7.583,0.0,0.0,0.0,24.0,8.6,5.5,1024,1024,1024,1024,0,0,0,0,74,4.459,76.1,96.78478,P-GPS,,29.5
394300,2026-01-08 12:34:40,0.0,5,7.583,0.0,0.0,0.0,24.1,8.5,5.5,1024,1024,1024,1024,0,0,0,0,74,4.459,76.1,96.78478,P-GPS,,29.5
394400,2026-01-08 12:34:40,0.0,5,7.583,0.0,0.0,0.0,24.1,8.6,5.3,1024,1024,1024,1024,0,0,0,0,74,4.459,76.1,96.456696,P-GPS,,29.4
394500,2026-01-08 12:34:40,0.0,5,7.583,0.0,0.0,0.0,24.0,8.9,4.6,1024,1024,1024,1024,0,0,0,0,74,4.459,76.1,96.456696,P-GPS,,29.4
394600,2026-01-08 12:34:41,0.0,5,7.583,0.0,0.0,0.0,24.0,9.0,4.1,1024,1024,1024,1024,0,0,0,0,74,4.459,76.1,96.456696,P-GPS,,29.4
394700,2026-01-08 12:34:41,0.0,5,7.583,0.0,0.0,0.0,24.0,9.4,4.5,1024,1024,1024,1024,0,0,0,0,74,4.459,76.1,96.456696,P-GPS,,29.4
394800,2026-01-08 12:34:41,0.0,5,7.559,0.0,0.0,0.0,24.0,9.7,4.6,1024,1024,1024,1024,0,0,0,0,74,4.939,76.1,96.456696,P-GPS,,29.4
394900,2026-01-08 12:34:41,0.0,5,7.559,0.0,0.0,0.0,24.0,9.6,4.7,1024,1024,1024,1024,0,0,0,0,74,4.939,76.1,96.78478,P-GPS,,29.5
395000,2026-01-08 12:34:41,0.0,5,7.559,0.0,0.0,0.0,24.1,9.5,4.7,1024,1024,1024,1024,0,0,0,0,74,4.939,76.1,96.78478,P-GPS,,29.5
395100,2026-01-08 12:34:41,0.0,5,7.559,0.0,0.0,0.0,24.1,9.8,4.8,1024,1024,1024,1024,0,0,0,0,74,4.939,76.1,96.78478,P-GPS,,29.5
395300,2026-01-08 12:34:41,0.0,5,7.559,0.0,0.0,0.0,24.0,9.7,5.0,1024,1024,1024,1024,0,0,0,0,74,4.939,76.1,96.78478,P-GPS,,29.5
395400,2026-01-08 12:34:41,0.0,5,7.559,0.0,0.0,0.0,24.0,9.6,5.1,1024,1024,1024,1024,0,0,0,0,74,4.939,76.1,96.78478,P-GPS,,29.5
395500,2026-01-08 12:34:42,0.0,5,7.559,0.0,0.0,0.0,24.0,9.3,4.9,1024,1024,1024,1024,0,0,0,0,74,4.939,76.1,96.78478,P-GPS,,29.5
395600,2026-01-08 12:34:42,0.0,5,7.559,0.0,0.0,0.0,24.1,9.5,4.9,1024,1024,1024,1024,0,0,0,0,74,4.939,76.1,96.78478,P-GPS,,29.5
395700,2026-01-08 12:34:42,0.0,5,7.559,0.0,0.0,0.0,24.0,9.7,5.2,1024,1024,1024,1024,0,0,0,0,74,4.939,76.1,96.78478,P-GPS,,29.5
395800,2026-01-08 12:34:42,0.0,5,7.559,0.0,0.0,0.0,24.1,9.1,5.3,1024,1024,1024,1024,0,0,0,0,74,4.939,76.1,96.78478,P-GPS,,29.5
395900,2026-01-08 12:34:42,0.0,5,7.566,0.0,0.0,0.0,24.0,9.2,5.0,1024,1024,1024,1024,0,0,0,0,74,4.975,76.1,96.78478,P-GPS,,29.5
396000,2026-01-08 12:34:42,0.0,5,7.566,0.0,0.0,0.0,24.0,9.2,4.8,1024,1024,1024,1024,0,0,0,0,74,4.975,76.1,97.112864,P-GPS,,29.6
396100,2026-01-08 12:34:42,0.0,5,7.566,0.0,0.0,0.0,23.8,8.3,4.9,1024,1024,1024,1024,0,0,0,0,74,4.975,76.1,97.112864,P-GPS,,29.6
396200,2026-01-08 12:34:42,0.0,5,7.566,0.0,0.0,0.0,23.9,8.7,4.5,1024,1024,1024,1024,0,0,0,0,74,4.975,76.1,97.112864,P-GPS,,29.6
396300,2026-01-08 12:34:42,0.0,5,7.566,0.0,0.0,0.0,24.0,8.7,4.3,1024,1024,1024,1024,0,0,0,0,74,4.975,76.1,97.112864,P-GPS,,29.6
396400,2026-01-08 12:34:42,0.0,5,7.566,0.0,0.0,0.0,24.0,8.8,4.2,1024,1024,1024,1024,0,0,0,0,74,4.975,76.1,97.112864,P-GPS,,29.6
396500,2026-01-08 12:34:42,0.0,5,7.566,0.0,0.0,0.0,24.1,9.2,4.4,1024,1024,1024,1024,0,0,0,0,74,4.975,76.1,97.112864,P-GPS,,29.6
396600,2026-01-08 12:34:43,0.0,5,7.566,0.0,0.0,0.0,24.1,9.1,3.8,1024,1024,1024,1024,0,0,0,0,74,4.975,76.1,97.112864,P-GPS,,29.6
396700,2026-01-08 12:34:43,0.0,5,7.566,0.0,0.0,0.0,24.0,9.0,4.2,1024,1024,1024,1024,0,0,0,0,74,4.975,76.1,97.112864,P-GPS,,29.6
396800,2026-01-08 12:34:43,0.0,5,7.566,0.0,0.0,0.0,23.9,8.5,4.5,1024,1024,1024,1024,0,0,0,0,74,4.975,76.1,97.112864,P-GPS,,29.6
396900,2026-01-08 12:34:43,0.0,5,7.566,0.0,0.0,0.0,23.9,8.8,4.6,1024,1024,1024,1024,0,0,0,0,74,4.975,76.1,97.112864,P-GPS,,29.6
397000,2026-01-08 12:34:43,0.0,5,7.541,0.0,0.0,0.0,24.0,8.5,4.9,1024,1024,1024,1024,0,0,0,0,74,5.024,76.1,97.112864,P-GPS,,29.6
397100,2026-01-08 12:34:43,0.0,5,7.541,0.0,0.0,0.0,24.0,8.6,4.7,1024,1024,1024,1024,0,0,0,0,74,5.024,76.1,97.112864,P-GPS,,29.6
397200,2026-01-08 12:34:43,0.0,5,7.541,0.0,0.0,0.0,23.9,8.3,4.8,1024,1024,1024,1024,0,0,0,0,74,5.024,76.1,97.440948,P-GPS,,29.7
397300,2026-01-08 12:34:43,0.0,5,7.541,0.0,0.0,0.0,24.1,9.5,5.1,1024,1024,1024,1024,0,0,0,0,74,5.024,76.1,97.440948,P-GPS,,29.7
397400,2026-01-08 12:34:43,0.0,5,7.541,0.0,0.0,0.0,24.2,10.0,5.1,1024,1024,1024,1024,0,0,0,0,74,5.024,76.1,97.440948,P-GPS,,29.7
397500,2026-01-08 12:34:44,0.0,5,7.541,0.0,0.0,0.0,24.2,10.0,5.0,1024,1024,1024,1024,0,0,0,0,74,5.024,76.1,97.440948,P-GPS,,29.7
397600,2026-01-08 12:34:44,0.0,5,7.541,0.0,0.0,0.0,24.2,9.5,5.1,1024,1024,1024,1024,0,0,0,0,74,5.024,76.1,97.440948,P-GPS,,29.7
397700,2026-01-08 12:34:44,0.0,5,7.541,0.0,0.0,0.0,24.2,9.8,4.5,1024,1024,1024,1024,0,0,0,0,74,5.024,76.1,97.440948,P-GPS,,29.7
397800,2026-01-08 12:34:44,0.0,5,7.541,0.0,0.0,0.0,24.2,10.2,4.3,1024,1024,1024,1024,0,0,0,0,74,5.024,76.1,97.440948,P-GPS,,29.7
397900,2026-01-08 12:34:44,0.0,5,7.541,0.0,0.0,0.0,24.1,10.0,4.2,1024,1024,1024,1024,0,0,0,0,74,5.024,76.1,97.769032,P-GPS,,29.8
398000,2026-01-08 12:34:44,0.0,5,7.541,0.0,0.0,0.0,24.0,9.5,3.8,1024,1024,1024,1024,0,0,0,0,74,5.024,76.1,97.769032,P-GPS,,29.8
398100,2026-01-08 12:34:44,0.0,5,7.538,0.0,0.0,0.0,24.0,8.9,3.9,1024,1024,1024,1024,0,0,0,0,74,5.379,76.28,97.769032,P-GPS,,29.8
398200,2026-01-08 12:34:44,0.0,5,7.538,0.0,0.0,0.0,24.1,8.0,4.1,1024,1024,1024,1024,0,0,0,0,74,5.379,76.28,97.769032,P-GPS,,29.8
398300,2026-01-08 12:34:44,0.0,5,7.538,0.0,0.0,0.0,24.1,8.6,4.0,1024,1024,1024,1024,0,0,0,0,74,5.379,76.28,97.769032,P-GPS,,29.8
398400,2026-01-08 12:34:44,0.0,5,7.538,0.0,0.0,0.0,24.1,8.8,4.0,1024,1024,1024,1024,0,0,0,0,74,5.379,76.28,97.769032,P-GPS,,29.8
398500,2026-01-08 12:34:45,0.0,5,7.538,0.0,0.0,0.0,24.0,9.1,3.5,1024,1024,1024,1024,0,0,0,0,74,5.379,76.28,97.769032,P-GPS,,29.8
398600,2026-01-08 12:34:45,0.0,5,7.538,0.0,0.0,0.0,24.0,9.4,3.5,1024,1024,1024,1024,0,0,0,0,74,5.379,76.28,97.769032,P-GPS,,29.8
398700,2026-01-08 12:34:45,0.0,5,7.538,0.0,0.0,0.0,24.0,9.6,2.9,1024,1024,1024,1024,0,0,0,0,74,5.379,76.28,97.769032,P-GPS,,29.8
398800,2026-01-08 12:34:45,0.0,5,7.538,0.0,0.0,0.0,23.9,9.3,3.0,1024,1024,1024,1024,0,0,0,0,74,5.379,76.28,97.769032,P-GPS,,29.8
398900,2026-01-08 12:34:45,0.0,5,7.538,0.0,0.0,0.0,24.0,9.6,3.0,1024,1024,1024,1024,0,0,0,0,74,5.379,76.28,97.769032,P-GPS,,29.8
399000,2026-01-08 12:34:45,0.0,5,7.538,0.0,0.0,0.0,23.9,9.2,2.8,1024,1024,1024,1024,0,0,0,0,74,5.379,76.28,97.769032,P-GPS,,29.8
399100,2026-01-08 12:34:45,0.0,5,7.538,0.0,0.0,0.0,23.8,9.3,2.6,1024,1024,1024,1024,0,0,0,0,74,5.379,76.28,97.769032,P-GPS,,29.8
399200,2026-01-08 12:34:45,0.0,5,7.564,0.0,0.0,0.0,23.8,8.7,3.0,1024,1024,1024,1024,0,0,0,0,74,4.987,76.1,98.097116,P-GPS,,29.9
399300,2026-01-08 12:34:45,0.0,5,7.564,0.0,0.0,0.0,23.9,8.6,3.0,1024,1024,1024,1024,0,0,0,0,74,4.987,76.1,98.097116,P-GPS,,29.9
399400,2026-01-08 12:34:45,0.0,5,7.564,0.0,0.0,0.0,23.8,8.8,3.2,1024,1024,1024,1024,0,0,0,0,74,4.987,76.1,98.097116,P-GPS,,29.9
399500,2026-01-08 12:34:46,0.0,5,7.564,0.0,0.0,0.0,23.8,8.8,3.0,1024,1024,1024,1024,0,0,0,0,74,4.987,76.1,98.097116,P-GPS,,29.9
399600,2026-01-08 12:34:46,0.0,5,7.564,0.0,0.0,0.0,23.8,9.0,3.2,1024,1024,1024,1024,0,0,0,0,74,4.987,76.1,98.097116,P-GPS,,29.9
399700,2026-01-08 12:34:46,0.0,5,7.564,0.0,0.0,0.0,23.9,9.0,3.5,1024,1024,1024,1024,0,0,0,0,74,4.987,76.1,98.097116,P-GPS,,29.9
399800,2026-01-08 12:34:46,0.0,5,7.564,0.0,0.0,0.0,23.9,8.8,3.4,1024,1024,1024,1024,0,0,0,0,74,4.987,76.1,98.4252,P-GPS,,30.0
399900,2026-01-08 12:34:46,0.0,5,7.564,0.0,0.0,0.0,24.0,8.8,3.9,1024,1024,1024,1024,0,0,0,0,74,4.987,76.1,98.4252,P-GPS,,30.0
400000,2026-01-08 12:34:46,0.0,5,7.564,0.0,0.0,0.0,24.0,8.9,3.9,1024,1024,1024,1024,0,0,0,0,74,4.987,76.1,98.4252,P-GPS,,30.0
400100,2026-01-08 12:34:46,0.0,5,7.564,0.0,0.0,0.0,24.0,8.7,3.7,1024,1024,1024,1024,0,0,0,0,74,4.987,76.1,98.4252,P-GPS,,30.0
400200,2026-01-08 12:34:46,0.0,5,7.564,0.0,0.0,0.0,24.0,9.1,3.8,1024,1024,1024,1024,0,0,0,0,74,4.987,76.1,98.4252,P-GPS,,30.0
400300,2026-01-08 12:34:46,0.0,5,7.544,0.0,0.0,0.0,24.0,8.8,4.0,1024,1024,1024,1024,0,0,0,0,74,5.06,76.28,98.4252,P-GPS,,30.0
400400,2026-01-08 12:34:46,0.0,5,7.544,0.0,0.0,0.0,23.9,8.3,4.0,1024,1024,1024,1024,0,0,0,0,74,5.06,76.28,98.4252,P-GPS,,30.0
400500,2026-01-08 12:34:47,0.0,5,7.544,0.0,0.0,0.0,23.9,8.3,4.1,1024,1024,1024,1024,0,0,0,0,74,5.06,76.28,98.4252,P-GPS,,30.0
400600,2026-01-08 12:34:47,0.0,5,7.544,0.0,0.0,0.0,23.9,8.7,3.7,1024,1024,1024,1024,0,0,0,0,74,5.06,76.28,98.753284,P-GPS,,30.1
400700,2026-01-08 12:34:47,0.0,5,7.544,0.0,0.0,0.0,23.8,8.2,3.8,1024,1024,1024,1024,0,0,0,0,74,5.06,76.28,98.753284,P-GPS,,30.1
400800,2026-01-08 12:34:47,0.0,5,7.544,0.0,0.0,0.0,23.9,8.8,4.2,1024,1024,1024,1024,0,0,0,0,74,5.06,76.28,98.753284,P-GPS,,30.1
400900,2026-01-08 12:34:47,0.0,5,7.544,0.0,0.0,0.0,23.9,8.8,4.2,1024,1024,1024,1024,0,0,0,0,74,5.06,76.28,98.753284,P-GPS,,30.1
401000,2026-01-08 12:34:47,0.0,5,7.544,0.0,0.0,0.0,23.9,8.3,4.9,1024,1024,1024,1024,0,0,0,0,74,5.06,76.28,98.753284,P-GPS,,30.1
401100,2026-01-08 12:34:47,0.0,5,7.544,0.0,0.0,0.0,24.0,7.7,4.8,1024,1024,1024,1024,0,0,0,0,74,5.06,76.28,98.753284,P-GPS,,30.1
401200,2026-01-08 12:34:47,0.0,5,7.544,0.0,0.0,0.0,24.0,8.7,4.7,1024,1024,1024,1024,0,0,0,0,74,5.06,76.28,98.753284,P-GPS,,30.1
401300,2026-01-08 12:34:47,0.0,5,7.544,0.0,0.0,0.0,23.9,8.2,4.8,1024,1024,1024,1024,0,0,0,0,74,5.06,76.28,98.753284,P-GPS,,30.1
401400,2026-01-08 12:34:47,0.0,5,7.548,0.0,0.0,0.0,23.9,7.5,5.0,1024,1024,1024,1024,0,0,0,0,74,5.054,76.28,98.753284,P-GPS,,30.1
401500,2026-01-08 12:34:47,0.0,5,7.548,0.0,0.0,0.0,23.8,7.4,5.3,1024,1024,1024,1024,0,0,0,0,74,5.054,76.28,98.753284,P-GPS,,30.1
401600,2026-01-08 12:34:48,0.0,5,7.548,0.0,0.0,0.0,23.9,8.5,4.8,1024,1024,1024,1024,0,0,0,0,74,5.054,76.28,98.753284,P-GPS,,30.1
401700,2026-01-08 12:34:48,0.0,5,7.548,0.0,0.0,0.0,23.9,7.7,4.7,1024,1024,1024,1024,0,0,0,0,74,5.054,76.28,98.753284,P-GPS,,30.1
401800,2026-01-08 12:34:48,0.0,5,7.548,0.0,0.0,0.0,23.8,6.9,4.9,1024,1024,1159,1024,0,0,20,0,74,5.054,76.28,98.753284,P-GPS,,30.1
401900,2026-01-08 12:34:48,0.0,5,7.548,0.0,0.0,0.0,23.9,7.2,5.1,1024,1024,1684,1024,0,0,100,0,74,5.054,76.28,98.753284,P-GPS,,30.1
402000,2026-01-08 12:34:48,0.0,5,7.548,0.0,0.0,0.0,23.9,6.9,5.2,1024,1024,1684,1024,0,0,100,0,74,5.054,76.28,98.753284,P-GPS,,30.1
