time(millisecond),timestamp,speed(mph),gpslevel,voltage(v),xSpeed(mph),ySpeed(mph),zSpeed(mph),compass_heading(degrees),pitch(degrees),roll(degrees),rc_elevator,rc_aileron,rc_throttle,rc_rudder,rc_elevator(percent),rc_aileron(percent),rc_throttle(percent),rc_rudder(percent),battery_percent,current(A),battery_temperature(f),ascent(feet),flycState,message,height_above_takeoff(meters)
561700,2026-01-08 12:37:49,0.0,5,7.277,0.0,0.0,0.0,23.4,15.4,6.0,1024,1024,1024,1024,0,0,0,0,63,7.28,79.52,164.698168,P-GPS,,50.2
561800,2026-01-08 12:37:49,0.0,5,7.277,0.0,0.0,0.0,23.4,14.6,5.6,1024,1024,1024,1024,0,0,0,0,63,7.28,79.52,164.698168,P-GPS,,50.2
561900,2026-01-08 12:37:49,0.0,5,7.277,0.0,0.0,0.0,23.4,14.2,5.5,1024,1024,1024,1024,0,0,0,0,63,7.28,79.52,164.698168,P-GPS,,50.2
562000,2026-01-08 12:37:49,0.0,5,7.277,0.0,0.0,0.0,23.5,14.3,5.4,1024,1024,1024,1024,0,0,0,0,63,7.28,79.52,164.698168,P-GPS,,50.2
562100,2026-01-08 12:37:49,0.0,5,7.345,0.0,0.0,0.0,23.4,14.5,5.9,1024,1024,1024,1024,0,0,0,0,63,5.178,79.34,164.698168,P-GPS,,50.2
562200,2026-01-08 12:37:50,0.0,5,7.345,0.0,0.0,0.0,23.3,14.7,5.8,1024,1024,1024,1024,0,0,0,0,63,5.178,79.34,164.698168,P-GPS,,50.2
562300,2026-01-08 12:37:50,0.0,5,7.345,0.0,0.0,0.0,23.2,13.8,5.4,1024,1024,1024,1024,0,0,0,0,63,5.178,79.34,164.698168,P-GPS,,50.2
562400,2026-01-08 12:37:50,0.0,5,7.345,0.0,0.0,0.0,23.3,13.4,6.1,1024,1024,1024,1024,0,0,0,0,63,5.178,79.34,164.698168,P-GPS,,50.2
562500,2026-01-08 12:37:50,0.0,5,7.345,0.0,0.0,0.0,23.4,13.7,6.5,1024,1024,1024,1024,0,0,0,0,63,5.178,79.34,164.698168,P-GPS,,50.2
562600,2026-01-08 12:37:50,0.0,5,7.345,0.0,0.0,0.0,23.4,14.5,6.6,1024,1024,1024,1024,0,0,0,0,63,5.178,79.34,164.698168,P-GPS,,50.2
562700,2026-01-08 12:37:50,0.0,5,7.345,0.0,0.0,0.0,23.3,14.2,5.8,1024,1024,1024,1024,0,0,0,0,63,5.178,79.34,165.026252,P-GPS,,50.3
562800,2026-01-08 12:37:50,0.0,5,7.345,0.0,0.0,0.0,23.3,14.0,5.7,1024,1024,1024,1024,0,0,0,0,63,5.178,79.34,165.026252,P-GPS,,50.3
563100,2026-01-08 12:37:50,0.0,5,7.345,0.0,0.0,0.0,23.3,13.5,6.3,1024,1024,1024,1024,0,0,0,0,63,5.178,79.34,165.026252,P-GPS,,50.3
563200,2026-01-08 12:37:51,0.0,5,7.351,0.0,0.0,0.0,23.2,13.2,5.8,1024,1024,1024,1024,0,0,0,0,63,6.169,79.52,165.026252,P-GPS,,50.3
563400,2026-01-08 12:37:51,0.0,5,7.351,0.0,0.0,0.0,23.1,13.4,5.3,1024,1024,1024,1024,0,0,0,0,63,6.169,79.52,164.698168,P-GPS,,50.2
563500,2026-01-08 12:37:51,0.0,5,7.351,0.0,0.0,0.0,23.1,13.5,5.2,1024,1024,1024,1024,0,0,0,0,63,6.169,79.52,164.698168,P-GPS,,50.2
563600,2026-01-08 12:37:51,0.0,5,7.351,0.0,0.0,0.0,23.1,13.3,5.4,1024,1024,1024,1024,0,0,0,0,63,6.169,79.52,164.370084,P-GPS,,50.1
563700,2026-01-08 12:37:51,0.0,5,7.351,0.0,0.0,0.0,23.2,13.2,5.7,1024,1024,1024,1024,0,0,0,0,63,6.169,79.52,164.370084,P-GPS,,50.1
563800,2026-01-08 12:37:51,0.0,5,7.351,0.0,0.0,0.0,23.2,12.8,6.1,1024,1024,1024,1024,0,0,0,0,63,6.169,79.52,164.042,P-GPS,,50.0
563900,2026-01-08 12:37:51,0.0,5,7.351,0.0,0.0,0.0,23.1,12.6,6.3,1024,1024,1024,1024,0,0,0,0,63,6.169,79.52,164.042,P-GPS,,50.0
564000,2026-01-08 12:37:51,0.0,5,7.351,0.0,0.0,0.0,23.0,12.4,5.9,1024,1024,1024,1024,0,0,0,0,63,6.169,79.52,163.713916,P-GPS,,49.9
564100,2026-01-08 12:37:51,0.0,5,7.351,0.0,0.0,0.0,23.0,12.3,5.9,1024,1024,1024,1024,0,0,0,0,63,6.169,79.52,163.713916,P-GPS,,49.9
564200,2026-01-08 12:37:52,0.0,5,7.351,0.0,0.0,0.0,23.1,12.3,6.4,1024,1024,1024,1024,0,0,0,0,63,6.169,79.52,163.713916,P-GPS,,49.9
564300,2026-01-08 12:37:52,0.0,5,7.351,0.0,0.0,0.0,23.0,10.9,6.4,1024,1024,1024,1024,0,0,0,0,63,6.169,79.52,163.385832,P-GPS,,49.8
564400,2026-01-08 12:37:52,0.0,5,7.351,0.0,0.0,0.0,23.1,11.0,6.8,1024,1024,1024,1024,0,0,0,0,63,6.169,79.52,163.385832,P-GPS,,49.8
564500,2026-01-08 12:37:52,0.0,5,7.351,0.0,0.0,0.0,23.2,11.6,6.8,1024,1024,1024,1024,0,0,0,0,63,6.169,79.52,163.385832,P-GPS,,49.8
564600,2026-01-08 12:37:52,0.0,5,7.351,0.0,0.0,0.0,23.1,10.8,6.8,1024,1024,1024,1024,0,0,0,0,63,6.169,79.52,163.385832,P-GPS,,49.8
564700,2026-01-08 12:37:52,0.0,5,7.351,0.0,0.0,0.0,23.0,10.1,6.4,1024,1024,1024,1024,0,0,0,0,63,6.169,79.52,163.385832,P-GPS,,49.8
564800,2026-01-08 12:37:52,0.0,5,7.351,0.0,0.0,0.0,23.0,10.3,6.6,1024,1024,1024,1024,0,0,0,0,63,6.169,79.52,163.057748,P-GPS,,49.7
564900,2026-01-08 12:37:52,0.0,5,7.351,0.0,0.0,0.0,23.0,10.0,6.5,1024,1024,1024,1024,0,0,0,0,63,6.169,79.52,163.057748,P-GPS,,49.7
565000,2026-01-08 12:37:52,0.0,5,7.351,0.0,0.0,0.0,23.0,9.7,6.6,1024,1024,1024,1024,0,0,0,0,63,6.169,79.52,163.057748,P-GPS,,49.7
565200,2026-01-08 12:37:53,0.0,5,7.351,0.0,0.0,0.0,23.0,9.6,6.6,1024,1024,1024,1024,0,0,0,0,63,6.169,79.52,163.057748,P-GPS,,49.7
565300,2026-01-08 12:37:53,0.0,5,7.351,0.0,0.0,0.0,23.1,9.7,6.6,1024,1024,1024,1024,0,0,0,0,63,6.169,79.52,163.057748,P-GPS,,49.7
565400,2026-01-08 12:37:53,0.0,5,7.421,0.0,0.0,0.0,23.0,9.3,6.8,1024,1024,1024,1024,0,0,0,0,62,4.309,79.52,163.057748,P-GPS,,49.7
565500,2026-01-08 12:37:53,0.0,5,7.421,0.0,0.0,0.0,23.3,10.2,7.1,1024,1024,1024,1024,0,0,0,0,62,4.309,79.52,163.385832,P-GPS,,49.8
565600,2026-01-08 12:37:53,0.0,5,7.421,0.0,0.0,0.0,23.2,10.1,7.5,1024,1024,1024,1024,0,0,0,0,62,4.309,79.52,163.385832,P-GPS,,49.8
565700,2026-01-08 12:37:53,0.0,5,7.421,0.0,0.0,0.0,23.1,9.6,7.4,1024,1024,1024,1024,0,0,0,0,62,4.309,79.52,163.385832,P-GPS,,49.8
565800,2026-01-08 12:37:53,0.0,5,7.421,0.0,0.0,0.0,23.2,10.2,7.6,1024,1024,1024,1024,0,0,0,0,62,4.309,79.52,163.385832,P-GPS,,49.8
565900,2026-01-08 12:37:53,0.0,5,7.421,0.0,0.0,0.0,23.2,10.8,7.5,1024,1024,1024,1024,0,0,0,0,62,4.309,79.52,163.385832,P-GPS,,49.8
566000,2026-01-08 12:37:53,0.0,5,7.421,0.0,0.0,0.0,23.3,11.3,7.8,1024,1024,1024,1024,0,0,0,0,62,4.309,79.52,163.385832,P-GPS,,49.8
566100,2026-01-08 12:37:53,0.0,5,7.421,0.0,0.0,0.0,23.4,11.4,8.4,1024,1024,1024,1024,0,0,0,0,62,4.309,79.52,163.385832,P-GPS,,49.8
566200,2026-01-08 12:37:54,0.0,5,7.421,0.0,0.0,0.0,23.4,11.6,8.4,1024,1024,1024,1024,0,0,0,0,62,4.309,79.52,163.385832,P-GPS,,49.8
566300,2026-01-08 12:37:54,0.0,5,7.421,0.0,0.0,0.0,23.4,11.6,8.2,1024,1024,1024,1024,0,0,0,0,62,4.309,79.52,163.713916,P-GPS,,49.9
566400,2026-01-08 12:37:54,0.0,5,7.421,0.0,0.0,0.0,23.3,11.4,8.0,1024,1024,1024,1024,0,0,0,0,62,4.309,79.52,163.713916,P-GPS,,49.9
566500,2026-01-08 12:37:54,0.0,5,7.391,0.0,0.0,0.0,23.4,11.4,7.8,1024,1024,1024,1024,0,0,0,0,62,4.635,79.52,163.713916,P-GPS,,49.9
566600,2026-01-08 12:37:54,0.0,5,7.391,0.0,0.0,0.0,23.3,10.9,7.7,1024,1024,1024,1024,0,0,0,0,62,4.635,79.52,164.042,P-GPS,,50.0
566700,2026-01-08 12:37:54,0.0,5,7.391,0.0,0.0,0.0,23.5,11.8,7.6,1024,1024,1024,1024,0,0,0,0,62,4.635,79.52,164.042,P-GPS,,50.0
566800,2026-01-08 12:37:54,0.0,5,7.391,0.0,0.0,0.0,23.4,12.2,8.0,1024,1024,1024,1024,0,0,0,0,62,4.635,79.52,164.370084,P-GPS,,50.1
566900,2026-01-08 12:37:54,0.223694,5,7.391,0.223694,0.0,0.0,23.4,12.9,7.7,1024,1024,1024,1024,0,0,0,0,62,4.635,79.52,164.370084,P-GPS,,50.1
567000,2026-01-08 12:37:54,0.223694,5,7.391,0.223694,0.0,0.0,23.4,12.5,7.6,1024,1024,1024,1024,0,0,0,0,62,4.635,79.52,164.698168,P-GPS,,50.2
567100,2026-01-08 12:37:54,0.223694,5,7.391,0.223694,0.0,0.0,23.5,12.7,8.2,1024,1024,1024,1024,0,0,0,0,62,4.635,79.52,164.698168,P-GPS,,50.2
567200,2026-01-08 12:37:54,0.223694,5,7.391,0.223694,0.0,0.0,23.5,13.5,8.3,1024,1024,1024,1024,0,0,0,0,62,4.635,79.52,164.698168,P-GPS,,50.2
567300,2026-01-08 12:37:55,0.223694,5,7.391,0.223694,0.0,0.0,23.5,13.8,8.6,1024,1024,1024,1024,0,0,0,0,62,4.635,79.52,165.026252,P-GPS,,50.3
567400,2026-01-08 12:37:55,0.0,5,7.391,0.0,0.0,0.0,23.6,13.9,8.6,1024,1024,1024,1024,0,0,0,0,62,4.635,79.52,165.026252,P-GPS,,50.3
567500,2026-01-08 12:37:55,0.0,5,7.391,0.0,0.0,0.0,23.6,14.1,9.0,1024,1024,1024,1024,0,0,0,0,62,4.635,79.52,165.026252,P-GPS,,50.3
567800,2026-01-08 12:37:55,0.0,5,7.378,0.0,0.0,0.0,23.4,12.4,7.9,1024,1024,1024,1024,0,0,0,0,62,5.768,79.7,165.354336,P-GPS,,50.4
567900,2026-01-08 12:37:55,0.0,5,7.378,0.0,0.0,0.0,23.4,12.1,8.0,1024,1024,1024,1024,0,0,0,0,62,5.768,79.7,165.354336,P-GPS,,50.4
568000,2026-01-08 12:37:55,0.0,5,7.378,0.0,0.0,0.0,23.4,11.6,7.9,1024,1024,1024,1024,0,0,0,0,62,5.768,79.7,165.354336,P-GPS,,50.4
568100,2026-01-08 12:37:55,0.0,5,7.378,0.0,0.0,0.0,23.3,12.0,7.8,1024,1024,1024,1024,0,0,0,0,62,5.768,79.7,165.354336,P-GPS,,50.4
568200,2026-01-08 12:37:56,0.0,5,7.378,0.0,0.0,0.0,23.3,12.0,7.7,1024,1024,1024,1024,0,0,0,0,62,5.768,79.7,165.354336,P-GPS,,50.4
568300,2026-01-08 12:37:56,0.0,5,7.378,0.0,0.0,0.0,23.2,11.7,7.6,1024,1024,1024,1024,0,0,0,0,62,5.768,79.7,165.354336,P-GPS,,50.4
568400,2026-01-08 12:37:56,0.0,5,7.378,0.0,0.0,0.0,23.2,11.7,7.7,1024,1024,1024,1024,0,0,0,0,62,5.768,79.7,165.354336,P-GPS,,50.4
568500,2026-01-08 12:37:56,0.0,5,7.378,0.0,0.0,0.0,23.2,11.3,7.4,1024,1024,1024,1024,0,0,0,0,62,5.768,79.7,165.354336,P-GPS,,50.4
568800,2026-01-08 12:37:56,0.0,5,7.383,0.0,0.223694,0.0,23.3,10.8,5.9,1024,1024,1024,1024,0,0,0,0,62,5.6,79.7,165.026252,P-GPS,,50.3
568900,2026-01-08 12:37:56,0.223694,5,7.383,0.0,0.223694,0.0,23.2,11.0,4.9,1024,1024,1024,1024,0,0,0,0,62,5.6,79.7,165.026252,P-GPS,,50.3
569000,2026-01-08 12:37:56,0.223694,5,7.383,0.0,0.223694,0.0,23.2,11.0,4.7,1024,1024,1024,1024,0,0,0,0,62,5.6,79.7,165.026252,P-GPS,,50.3
569100,2026-01-08 12:37:56,0.223694,5,7.383,0.0,0.223694,0.0,23.1,11.0,4.6,1024,1024,1024,1024,0,0,0,0,62,5.6,79.7,165.026252,P-GPS,,50.3
569200,2026-01-08 12:37:57,0.223694,5,7.383,0.0,0.223694,0.0,23.0,11.3,4.6,1024,1024,1024,1024,0,0,0,0,62,5.6,79.7,165.026252,P-GPS,,50.3
569300,2026-01-08 12:37:57,0.223694,5,7.383,0.0,0.0,0.0,23.0,11.6,4.5,1024,1024,1024,1024,0,0,0,0,62,5.6,79.7,165.026252,P-GPS,,50.3
569400,2026-01-08 12:37:57,0.0,5,7.383,0.0,0.0,0.0,23.1,12.2,4.7,1024,1024,1024,1024,0,0,0,0,62,5.6,79.7,165.026252,P-GPS,,50.3
569500,2026-01-08 12:37:57,0.0,5,7.383,0.0,0.0,0.0,23.1,12.8,4.4,1024,1024,1024,1024,0,0,0,0,62,5.6,79.7,165.026252,P-GPS,,50.3
569600,2026-01-08 12:37:57,0.0,5,7.383,0.0,0.0,0.0,23.2,12.8,4.3,1024,1024,1024,1024,0,0,0,0,62,5.6,79.7,165.026252,P-GPS,,50.3
569700,2026-01-08 12:37:57,0.0,5,7.383,0.0,0.0,0.0,23.1,12.4,4.6,1024,1024,1024,1024,0,0,0,0,62,5.6,79.7,165.026252,P-GPS,,50.3
569800,2026-01-08 12:37:57,0.0,5,7.35,0.0,0.0,0.0,23.1,11.8,5.1,1024,1024,1024,1024,0,0,0,0,62,5.917,79.7,165.026252,P-GPS,,50.3
569900,2026-01-08 12:37:57,0.0,5,7.35,0.0,0.0,0.0,23.2,11.7,5.1,1024,1024,1024,1024,0,0,0,0,62,5.917,79.7,165.026252,P-GPS,,50.3
570000,2026-01-08 12:37:57,0.0,5,7.35,0.0,0.0,0.0,23.2,11.8,5.6,1024,1024,1024,1024,0,0,0,0,62,5.917,79.7,165.026252,P-GPS,,50.3
570100,2026-01-08 12:37:57,0.0,5,7.35,0.0,0.0,0.0,23.2,12.0,6.0,1024,1024,1024,1024,0,0,0,0,62,5.917,79.7,165.026252,P-GPS,,50.3
570200,2026-01-08 12:37:58,0.0,5,7.35,0.0,0.0,0.0,23.1,11.7,5.9,1024,1024,1024,1024,0,0,0,0,62,5.917,79.7,165.026252,P-GPS,,50.3
570300,2026-01-08 12:37:58,0.0,5,7.35,0.0,0.0,0.0,23.2,11.7,6.3,1024,1024,1024,1024,0,0,0,0,62,5.917,79.7,165.026252,P-GPS,,50.3
570400,2026-01-08 12:37:58,0.0,5,7.35,0.0,0.0,0.0,23.2,12.2,6.1,1024,1024,1024,1024,0,0,0,0,62,5.917,79.7,165.026252,P-GPS,,50.3
570500,2026-01-08 12:37:58,0.0,5,7.35,0.0,0.0,0.0,23.2,11.8,6.5,1024,1024,1024,1024,0,0,0,0,62,5.917,79.7,165.026252,P-GPS,,50.3
570600,2026-01-08 12:37:58,0.0,5,7.35,0.0,0.0,0.0,23.2,11.3,5.8,1024,1024,1024,1024,0,0,0,0,62,5.917,79.7,165.026252,P-GPS,,50.3
570700,2026-01-08 12:37:58,0.0,5,7.35,0.0,0.0,0.0,23.1,11.1,5.5,1024,1024,1024,1024,0,0,0,0,62,5.917,79.7,165.026252,P-GPS,,50.3
570800,2026-01-08 12:37:58,0.0,5,7.35,0.0,0.0,0.0,23.2,11.4,5.4,1024,1024,1024,1024,0,0,0,0,62,5.917,79.7,165.026252,P-GPS,,50.3
570900,2026-01-08 12:37:58,0.0,5,7.372,0.0,0.0,0.0,23.3,11.9,5.2,1024,1024,1024,1024,0,0,0,0,62,5.515,79.7,165.026252,P-GPS,,50.3
571000,2026-01-08 12:37:58,0.0,5,7.372,0.0,0.0,0.0,23.3,12.0,4.9,1024,1024,1024,1024,0,0,0,0,62,5.515,79.7,165.026252,P-GPS,,50.3
571100,2026-01-08 12:37:58,0.0,5,7.372,0.0,0.0,0.0,23.2,12.1,4.5,1024,1024,1024,1024,0,0,0,0,62,5.515,79.7,165.026252,P-GPS,,50.3
571200,2026-01-08 12:37:58,0.0,5,7.372,0.0,0.0,0.0,23.2,13.0,4.5,1024,1024,1024,1024,0,0,0,0,62,5.515,79.7,165.026252,P-GPS,,50.3
571300,2026-01-08 12:37:59,0.0,5,7.372,0.0,0.0,0.0,23.1,12.9,4.7,1024,1024,1024,1024,0,0,0,0,62,5.515,79.7,165.026252,P-GPS,,50.3
571400,2026-01-08 12:37:59,0.0,5,7.372,0.0,0.0,0.0,23.2,12.3,4.9,1024,1024,1024,1024,0,0,0,0,62,5.515,79.7,165.026252,P-GPS,,50.3
571500,2026-01-08 12:37:59,0.0,5,7.372,0.0,0.0,0.0,23.2,12.0,5.2,1024,1024,1024,1024,0,0,0,0,62,5.515,79.7,165.026252,P-GPS,,50.3
571600,2026-01-08 12:37:59,0.0,5,7.372,0.0,0.0,0.0,23.2,12.4,5.7,1024,1024,1024,1024,0,0,0,0,62,5.515,79.7,165.026252,P-GPS,,50.3
571700,2026-01-08 12:37:59,0.0,5,7.372,0.0,0.0,0.0,23.3,12.6,5.9,1024,1024,1024,1024,0,0,0,0,62,5.515,79.7,165.026252,P-GPS,,50.3
571800,2026-01-08 12:37:59,0.0,5,7.372,0.0,0.0,0.0,23.3,12.6,5.9,1024,1024,1024,1024,0,0,0,0,62,5.515,79.7,165.026252,P-GPS,,50.3
571900,2026-01-08 12:37:59,0.0,5,7.372,0.0,0.0,0.0,23.2,12.1,6.2,1024,1024,1024,1024,0,0,0,0,62,5.515,79.7,165.026252,P-GPS,,50.3
572000,2026-01-08 12:37:59,0.0,5,7.365,0.0,0.0,0.0,23.0,12.0,6.2,1024,1024,1024,1024,0,0,0,0,62,5.37,79.7,165.026252,P-GPS,,50.3
572100,2026-01-08 12:37:59,0.0,5,7.365,0.0,0.0,0.0,23.0,11.1,6.4,1024,1024,1024,1024,0,0,0,0,62,5.37,79.7,165.354336,P-GPS,,50.4
572200,2026-01-08 12:38:00,0.0,5,7.365,0.0,0.0,0.0,23.1,11.2,7.2,1024,1024,1024,1024,0,0,0,0,62,5.37,79.7,165.354336,P-GPS,,50.4
572300,2026-01-08 12:38:00,0.0,5,7.365,0.0,0.0,0.0,23.1,11.2,7.6,1024,1024,1024,1024,0,0,0,0,62,5.37,79.7,165.354336,P-GPS,,50.4
572400,2026-01-08 12:38:00,0.0,5,7.365,0.0,0.0,0.0,23.1,10.9,8.0,1024,1024,1024,1024,0,0,0,0,62,5.37,79.7,165.354336,P-GPS,,50.4
572500,2026-01-08 12:38:00,0.0,5,7.365,0.0,0.0,0.0,23.0,10.7,8.0,1024,1024,1024,1024,0,0,0,0,62,5.37,79.7,165.354336,P-GPS,,50.4
572600,2026-01-08 12:38:00,0.0,5,7.365,0.0,0.0,0.0,23.2,11.5,8.0,1024,1024,1024,1024,0,0,0,0,62,5.37,79.7,165.354336,P-GPS,,50.4
572700,2026-01-08 12:38:00,0.0,5,7.365,0.0,0.0,0.0,23.2,11.5,8.5,1024,1024,1024,1024,0,0,0,0,62,5.37,79.7,165.354336,P-GPS,,50.4
572800,2026-01-08 12:38:00,0.0,5,7.365,0.0,0.0,0.0,23.2,11.3,8.5,1024,1024,1024,1024,0,0,0,0,62,5.37,79.7,165.354336,P-GPS,,50.4
572900,2026-01-08 12:38:00,0.0,5,7.365,0.0,0.0,0.0,23.2,11.3,8.8,1024,1024,1024,1024,0,0,0,0,62,5.37,79.7,165.354336,P-GPS,,50.4
573000,2026-01-08 12:38:00,0.0,5,7.365,0.0,0.0,0.0,23.2,11.0,8.4,1024,1024,1024,1024,0,0,0,0,62,5.37,79.7,165.354336,P-GPS,,50.4
573100,2026-01-08 12:38:00,0.0,5,7.41,0.0,0.0,0.0,23.1,10.0,8.1,1024,1024,1024,1024,0,0,0,0,62,4.711,79.7,165.354336,P-GPS,,50.4
573200,2026-01-08 12:38:01,0.0,5,7.41,0.0,0.0,0.0,23.1,10.1,8.2,1024,1024,1024,1024,0,0,0,0,62,4.711,79.7,165.354336,P-GPS,,50.4
573300,2026-01-08 12:38:01,0.0,5,7.41,0.0,0.0,0.0,23.2,10.6,8.3,1024,1024,1024,1024,0,0,0,0,62,4.711,79.7,165.026252,P-GPS,,50.3
573400,2026-01-08 12:38:01,0.0,5,7.41,0.0,0.0,0.0,23.1,10.1,8.2,1024,1024,1024,1024,0,0,0,0,62,4.711,79.7,165.026252,P-GPS,,50.3
573500,2026-01-08 12:38:01,0.0,5,7.41,0.0,0.0,0.0,23.2,10.4,7.3,1024,1024,1024,1024,0,0,0,0,62,4.711,79.7,165.026252,P-GPS,,50.3
573600,2026-01-08 12:38:01,0.0,5,7.41,0.0,0.0,0.0,23.1,10.4,7.2,1024,1024,1024,1024,0,0,0,0,62,4.711,79.7,165.026252,P-GPS,,50.3
573700,2026-01-08 12:38:01,0.0,5,7.41,0.0,0.0,0.0,23.1,10.5,6.7,1024,1024,1024,1024,0,0,0,0,62,4.711,79.7,164.698168,P-GPS,,50.2
573800,2026-01-08 12:38:01,0.0,5,7.41,0.0,0.0,0.0,23.1,10.6,6.3,1024,1024,1024,1024,0,0,0,0,62,4.711,79.7,164.698168,P-GPS,,50.2
573900,2026-01-08 12:38:01,0.0,5,7.41,0.0,0.0,0.0,23.0,10.7,6.0,1024,1024,1024,1024,0,0,0,0,62,4.711,79.7,164.698168,P-GPS,,50.2
574000,2026-01-08 12:38:01,0.0,5,7.41,0.0,0.0,0.0,23.0,10.6,6.3,1024,1024,1024,1024,0,0,0,0,62,4.711,79.7,164.698168,P-GPS,,50.2
574100,2026-01-08 12:38:01,0.0,5,7.41,0.0,0.0,0.0,23.1,10.6,6.7,1024,1024,1024,1024,0,0,0,0,62,4.711,79.7,164.698168,P-GPS,,50.2
574200,2026-01-08 12:38:02,0.0,5,7.41,0.0,0.0,0.0,23.2,11.0,6.7,1024,1024,1024,1024,0,0,0,0,62,4.711,79.7,164.698168,P-GPS,,50.2
574300,2026-01-08 12:38:02,0.0,5,7.41,0.0,0.0,0.0,23.1,10.7,6.4,1024,1024,1024,1024,0,0,0,0,62,4.711,79.7,164.698168,P-GPS,,50.2
574400,2026-01-08 12:38:02,0.0,5,7.41,0.0,0.0,0.0,23.2,10.7,6.8,1024,1024,1024,1024,0,0,0,0,62,4.711,79.7,164.698168,P-GPS,,50.2
574500,2026-01-08 12:38:02,0.0,5,7.41,0.0,0.0,0.0,23.2,10.7,7.3,1024,1024,1024,1024,0,0,0,0,62,4.711,79.7,164.698168,P-GPS,,50.2
574600,2026-01-08 12:38:02,0.0,5,7.41,0.0,0.0,0.0,23.3,11.2,7.9,1024,1024,1024,1024,0,0,0,0,62,4.711,79.7,165.026252,P-GPS,,50.3
574700,2026-01-08 12:38:02,0.0,5,7.41,0.0,0.0,0.0,23.2,10.5,7.9,1024,1024,1024,1024,0,0,0,0,62,4.711,79.7,165.026252,P-GPS,,50.3
574800,2026-01-08 12:38:02,0.0,5,7.41,0.0,0.0,0.0,23.1,10.6,7.5,1024,1024,1024,1024,0,0,0,0,62,4.711,79.7,165.026252,P-GPS,,50.3
574900,2026-01-08 12:38:02,0.0,5,7.41,0.0,0.0,0.0,23.4,11.7,7.6,1024,1024,1024,1024,0,0,0,0,62,4.711,79.7,165.026252,P-GPS,,50.3
575000,2026-01-08 12:38:02,0.0,5,7.41,0.0,0.0,0.0,23.3,12.0,7.1,1024,1024,1024,1024,0,0,0,0,62,4.711,79.7,165.026252,P-GPS,,50.3
575100,2026-01-08 12:38:02,0.0,5,7.41,0.0,0.0,0.0,23.1,10.2,7.8,1024,1024,1024,1024,0,0,0,0,62,4.711,79.7,165.026252,P-GPS,,50.3
575300,2026-01-08 12:38:03,0.0,5,7.393,0.0,0.0,0.0,23.3,11.2,7.2,1024,1024,1024,1024,0,0,0,0,62,4.725,79.88,164.698168,P-GPS,,50.2
575400,2026-01-08 12:38:03,0.0,5,7.393,0.0,0.0,0.0,23.3,10.6,6.8,1024,1024,1024,1024,0,0,0,0,62,4.725,79.88,164.698168,P-GPS,,50.2
575500,2026-01-08 12:38:03,0.0,5,7.393,0.0,0.0,0.0,23.3,10.4,6.6,1024,1024,1024,1024,0,0,0,0,62,4.725,79.88,164.370084,P-GPS,,50.1
575600,2026-01-08 12:38:03,0.0,5,7.393,0.0,0.0,0.0,23.2,9.6,6.1,1024,1024,1024,1024,0,0,0,0,62,4.725,79.88,164.370084,P-GPS,,50.1
575700,2026-01-08 12:38:03,0.0,5,7.393,0.0,0.0,0.0,23.1,8.9,5.5,1024,1024,1024,1024,0,0,0,0,62,4.725,79.88,164.370084,P-GPS,,50.1
575800,2026-01-08 12:38:03,0.0,5,7.393,0.0,0.0,0.0,23.1,9.0,5.3,1024,1024,1024,1024,0,0,0,0,62,4.725,79.88,164.042,P-GPS,,50.0
575900,2026-01-08 12:38:03,0.0,5,7.393,0.0,0.0,0.0,23.1,9.1,5.2,1024,1024,1024,1024,0,0,0,0,62,4.725,79.88,164.042,P-GPS,,50.0
576000,2026-01-08 12:38:03,0.0,5,7.393,0.0,0.0,0.0,23.1,8.9,5.5,1024,1024,1024,1024,0,0,0,0,62,4.725,79.88,164.042,P-GPS,,50.0
576100,2026-01-08 12:38:03,0.0,5,7.393,0.0,0.0,0.0,23.1,9.4,5.7,1024,1024,1024,1024,0,0,0,0,62,4.725,79.88,164.042,P-GPS,,50.0
576200,2026-01-08 12:38:04,0.0,5,7.393,0.0,0.0,0.0,23.1,9.6,5.8,1024,1024,1024,1024,0,0,0,0,62,4.725,79.88,163.713916,P-GPS,,49.9
576300,2026-01-08 12:38:04,0.0,5,7.393,0.0,0.0,0.0,23.1,9.6,5.8,1024,1024,1024,1024,0,0,0,0,62,4.725,79.88,163.713916,P-GPS,,49.9
576400,2026-01-08 12:38:04,0.0,5,7.42,0.0,0.0,0.0,23.0,9.6,5.8,1024,1024,1024,1024,0,0,0,0,62,4.007,79.88,163.713916,P-GPS,,49.9
576500,2026-01-08 12:38:04,0.0,5,7.42,0.0,0.0,0.0,23.0,9.4,5.7,1024,1024,1024,1024,0,0,0,0,62,4.007,79.88,163.713916,P-GPS,,49.9
576600,2026-01-08 12:38:04,0.0,5,7.42,0.0,0.0,0.0,23.1,10.0,6.1,1024,1024,1024,1024,0,0,0,0,62,4.007,79.88,163.713916,P-GPS,,49.9
576700,2026-01-08 12:38:04,0.0,5,7.42,0.0,0.0,0.0,23.1,10.4,6.2,1024,1024,1024,1024,0,0,0,0,62,4.007,79.88,163.713916,P-GPS,,49.9
576800,2026-01-08 12:38:04,0.0,5,7.42,0.0,0.0,0.0,23.1,10.5,6.2,1024,1024,1024,1024,0,0,0,0,62,4.007,79.88,163.713916,P-GPS,,49.9
576900,2026-01-08 12:38:04,0.0,5,7.42,0.0,0.0,0.0,23.1,10.8,6.2,1024,1024,1024,1024,0,0,0,0,62,4.007,79.88,163.713916,P-GPS,,49.9
577000,2026-01-08 12:38:04,0.0,5,7.42,0.0,0.0,0.0,23.0,10.3,6.4,1024,1024,1024,1024,0,0,0,0,62,4.007,79.88,164.042,P-GPS,,50.0
577100,2026-01-08 12:38:04,0.0,5,7.42,0.0,0.0,0.0,23.2,10.9,6.7,1024,1024,1024,1024,0,0,0,0,62,4.007,79.88,164.042,P-GPS,,50.0
577200,2026-01-08 12:38:05,0.0,5,7.42,0.0,0.0,0.0,23.2,10.6,6.9,1024,1024,1024,1024,0,0,0,0,62,4.007,79.88,164.042,P-GPS,,50.0
577300,2026-01-08 12:38:05,0.0,5,7.42,0.0,0.0,0.0,23.3,10.4,6.9,1024,1024,1024,1024,0,0,0,0,62,4.007,79.88,164.042,P-GPS,,50.0
577400,2026-01-08 12:38:05,0.0,5,7.42,0.0,0.0,0.0,23.1,10.1,6.7,1024,1024,1024,1024,0,0,0,0,62,4.007,79.88,164.042,P-GPS,,50.0
577500,2026-01-08 12:38:05,0.0,5,7.429,0.0,0.0,0.0,23.1,9.2,6.5,1024,1024,1024,1024,0,0,0,0,61,4.023,79.88,164.042,P-GPS,,50.0
577600,2026-01-08 12:38:05,0.0,5,7.429,0.0,0.0,0.0,23.0,9.3,6.2,1024,1024,1024,1024,0,0,0,0,61,4.023,79.88,164.042,P-GPS,,50.0
577700,2026-01-08 12:38:05,0.0,5,7.429,0.0,0.0,0.0,23.1,9.4,6.1,1024,1024,1024,1024,0,0,0,0,61,4.023,79.88,164.042,P-GPS,,50.0
577800,2026-01-08 12:38:05,0.0,5,7.429,0.0,0.0,0.0,23.1,9.5,5.9,1024,1024,1024,1024,0,0,0,0,61,4.023,79.88,164.042,P-GPS,,50.0
577900,2026-01-08 12:38:05,0.0,5,7.429,0.0,0.0,0.0,23.1,9.7,5.8,1024,1024,1024,1024,0,0,0,0,61,4.023,79.88,164.042,P-GPS,,50.0
578000,2026-01-08 12:38:05,0.0,5,7.429,0.0,0.0,0.0,23.0,8.7,5.7,1024,1024,1024,1024,0,0,0,0,61,4.023,79.88,164.042,P-GPS,,50.0
578100,2026-01-08 12:38:05,0.0,5,7.429,0.0,0.0,0.0,23.1,9.6,5.9,1024,1024,1024,1024,0,0,0,0,61,4.023,79.88,164.042,P-GPS,,50.0
578200,2026-01-08 12:38:06,0.0,5,7.429,0.0,0.0,0.0,23.1,9.6,6.1,1024,1024,1024,1024,0,0,0,0,61,4.023,79.88,164.042,P-GPS,,50.0
578300,2026-01-08 12:38:06,0.0,5,7.429,0.0,0.0,0.0,23.1,9.3,6.1,1024,1024,1024,1024,0,0,0,0,61,4.023,79.88,164.370084,P-GPS,,50.1
578400,2026-01-08 12:38:06,0.0,5,7.429,0.0,0.0,0.0,23.1,8.9,5.8,1024,1024,1024,1024,0,0,0,0,61,4.023,79.88,164.370084,P-GPS,,50.1
578500,2026-01-08 12:38:06,0.0,5,7.429,0.0,0.0,0.0,22.9,8.7,5.8,1024,1024,1024,1024,0,0,0,0,61,4.023,79.88,164.370084,P-GPS,,50.1
578600,2026-01-08 12:38:06,0.0,5,7.427,0.0,0.0,0.0,23.1,9.9,6.0,1024,1024,1024,1024,0,0,0,0,61,3.884,79.88,164.370084,P-GPS,,50.1
578700,2026-01-08 12:38:06,0.0,5,7.427,0.0,0.0,0.0,23.1,9.8,5.8,1024,1024,1024,1024,0,0,0,0,61,3.884,79.88,164.370084,P-GPS,SD card speed low SD card speed low. Normal use may be affected. Replace SD card (Code: 10028). Gimbal stuck. Make sure gimbal cover is removed and manually check whether gimbal can rotate freely (Code: 40002),50.1
578800,2026-01-08 12:38:06,0.0,5,7.427,0.0,0.0,0.0,23.1,9.4,5.8,1024,1024,1024,1024,0,0,0,0,61,3.884,79.88,164.370084,P-GPS,,50.1
578900,2026-01-08 12:38:06,0.0,5,7.427,0.0,0.0,0.0,22.9,8.1,5.7,1024,1024,1024,1024,0,0,0,0,61,3.884,79.88,164.370084,P-GPS,,50.1
579000,2026-01-08 12:38:06,0.0,5,7.427,0.0,0.0,0.0,23.0,9.3,5.8,1024,1024,1024,1024,0,0,0,0,61,3.884,79.88,164.370084,P-GPS,,50.1
579100,2026-01-08 12:38:06,0.0,5,7.427,0.0,0.0,0.0,22.9,9.6,5.5,1024,1024,1024,1024,0,0,0,0,61,3.884,79.88,164.370084,P-GPS,,50.1
579200,2026-01-08 12:38:07,0.0,5,7.427,0.0,0.0,0.0,22.9,10.0,5.2,1024,1024,1024,1024,0,0,0,0,61,3.884,79.88,164.370084,P-GPS,,50.1
579300,2026-01-08 12:38:07,0.0,5,7.427,0.0,0.0,0.0,23.0,10.0,5.3,1024,1024,1024,1024,0,0,0,0,61,3.884,79.88,164.370084,P-GPS,,50.1
579400,2026-01-08 12:38:07,0.0,5,7.427,0.0,0.0,0.0,23.1,10.1,5.6,1024,1024,1024,1024,0,0,0,0,61,3.884,79.88,164.370084,P-GPS,,50.1
579500,2026-01-08 12:38:07,0.0,5,7.427,0.0,0.0,0.0,23.1,10.3,5.3,1024,1024,1024,1024,0,0,0,0,61,3.884,79.88,164.370084,P-GPS,,50.1
579600,2026-01-08 12:38:07,0.0,5,7.427,0.0,0.0,0.0,23.0,10.8,5.0,1024,1024,1024,1024,0,0,0,0,61,3.884,79.88,164.370084,P-GPS,,50.1
579700,2026-01-08 12:38:07,0.0,5,7.421,0.0,0.0,0.0,23.0,11.5,4.4,1024,1024,1024,1024,0,0,0,0,61,4.195,79.88,164.698168,P-GPS,,50.2
579800,2026-01-08 12:38:07,0.223694,5,7.421,0.0,0.223694,0.0,23.0,12.0,4.0,1024,1024,1024,1024,0,0,0,0,61,4.195,79.88,164.698168,P-GPS,,50.2
579900,2026-01-08 12:38:07,0.223694,5,7.421,0.0,0.223694,0.0,23.1,12.5,3.5,1024,1024,1024,1024,0,0,0,0,61,4.195,79.88,164.698168,P-GPS,,50.2
580000,2026-01-08 12:38:07,0.223694,5,7.421,0.0,0.223694,0.0,23.0,12.5,3.1,1024,1024,1024,1024,0,0,0,0,61,4.195,79.88,165.026252,P-GPS,,50.3
580100,2026-01-08 12:38:07,0.0,5,7.421,0.0,0.0,0.0,22.9,12.7,2.7,1024,1024,1024,1024,0,0,0,0,61,4.195,79.88,165.026252,P-GPS,,50.3
580200,2026-01-08 12:38:08,0.0,5,7.421,0.0,0.0,0.0,22.9,12.2,2.8,1024,1024,1024,1024,0,0,0,0,61,4.195,79.88,165.026252,P-GPS,,50.3
580300,2026-01-08 12:38:08,0.0,5,7.421,0.0,0.0,0.0,23.0,12.8,2.7,1024,1024,1024,1024,0,0,0,0,61,4.195,79.88,165.026252,P-GPS,,50.3
580400,2026-01-08 12:38:08,0.0,5,7.421,0.0,0.0,0.0,22.9,11.9,3.6,1024,1024,1024,1024,0,0,0,0,61,4.195,79.88,165.026252,P-GPS,,50.3
580500,2026-01-08 12:38:08,0.0,5,7.421,0.223694,0.0,0.0,23.1,12.1,4.6,1024,1024,1024,1024,0,0,0,0,61,4.195,79.88,165.354336,P-GPS,,50.4
580600,2026-01-08 12:38:08,0.223694,5,7.421,0.223694,0.0,0.0,23.3,12.8,5.0,1024,1024,1024,1024,0,0,0,0,61,4.195,79.88,165.354336,P-GPS,,50.4
580700,2026-01-08 12:38:08,0.223694,5,7.421,0.223694,0.0,0.0,23.2,13.4,5.0,1024,1024,1024,1024,0,0,0,0,61,4.195,79.88,165.354336,P-GPS,,50.4
580800,2026-01-08 12:38:08,0.0,5,7.413,0.0,0.0,0.0,23.2,13.1,5.2,1024,1024,1024,1024,0,0,0,0,61,4.579,79.88,165.354336,P-GPS,,50.4
580900,2026-01-08 12:38:08,0.0,5,7.413,0.0,0.0,0.0,23.1,12.2,5.5,1024,1024,1024,1024,0,0,0,0,61,4.579,79.88,165.354336,P-GPS,,50.4
581000,2026-01-08 12:38:08,0.0,5,7.413,0.0,0.0,0.0,23.2,12.1,5.6,1024,1024,1024,1024,0,0,0,0,61,4.579,79.88,165.354336,P-GPS,,50.4
581100,2026-01-08 12:38:08,0.0,5,7.413,0.0,0.0,0.0,23.2,12.5,5.7,1024,1024,1024,1024,0,0,0,0,61,4.579,79.88,165.026252,P-GPS,,50.3
581200,2026-01-08 12:38:09,0.0,5,7.413,0.0,0.0,0.0,23.2,11.9,6.4,1024,1024,1024,1024,0,0,0,0,61,4.579,79.88,165.026252,P-GPS,,50.3
581300,2026-01-08 12:38:09,0.0,5,7.413,0.0,0.0,0.0,23.1,11.8,6.7,1024,1024,1024,1024,0,0,0,0,61,4.579,79.88,165.026252,P-GPS,,50.3
581400,2026-01-08 12:38:09,0.223694,5,7.413,0.0,-0.223694,0.0,23.1,11.6,6.7,1024,1024,1024,1024,0,0,0,0,61,4.579,79.88,165.026252,P-GPS,,50.3
581500,2026-01-08 12:38:09,0.0,5,7.413,0.0,0.0,0.0,23.2,11.3,7.0,1024,1024,1024,1024,0,0,0,0,61,4.579,79.88,165.026252,P-GPS,,50.3
581900,2026-01-08 12:38:09,0.0,5,7.391,0.0,0.0,0.0,23.2,12.6,5.6,1024,1024,1024,1024,0,0,0,0,61,4.36,79.88,165.354336,P-GPS,,50.4
582000,2026-01-08 12:38:09,0.0,5,7.391,0.0,0.0,0.0,23.1,12.8,5.3,1024,1024,1024,1024,0,0,0,0,61,4.36,79.88,165.354336,P-GPS,,50.4
582100,2026-01-08 12:38:09,0.0,5,7.391,0.0,0.0,0.0,23.0,12.7,5.1,1024,1024,1024,1024,0,0,0,0,61,4.36,79.88,165.354336,P-GPS,,50.4
582200,2026-01-08 12:38:10,0.0,5,7.391,0.0,0.0,0.0,23.1,12.8,5.1,1024,1024,1024,1024,0,0,0,0,61,4.36,79.88,165.354336,P-GPS,,50.4
582300,2026-01-08 12:38:10,0.0,5,7.391,0.0,0.0,0.0,23.1,12.9,5.1,1024,1024,1024,1024,0,0,0,0,61,4.36,79.88,165.354336,P-GPS,,50.4
582400,2026-01-08 12:38:10,0.0,5,7.391,0.0,0.0,0.0,23.1,13.0,4.7,1024,1024,1024,1024,0,0,0,0,61,4.36,79.88,165.354336,P-GPS,,50.4
582500,2026-01-08 12:38:10,0.0,5,7.391,0.0,0.0,0.0,23.1,12.9,4.6,1024,1024,1024,1024,0,0,0,0,61,4.36,79.88,165.354336,P-GPS,,50.4
582600,2026-01-08 12:38:10,0.0,5,7.391,0.0,0.0,0.0,23.2,13.4,4.7,1024,1024,1024,1024,0,0,0,0,61,4.36,79.88,165.354336,P-GPS,,50.4
582700,2026-01-08 12:38:10,0.0,5,7.391,0.0,0.0,0.0,23.2,13.8,4.9,1024,1024,1024,1024,0,0,0,0,61,4.36,79.88,165.354336,P-GPS,,50.4
582800,2026-01-08 12:38:10,0.0,5,7.391,0.0,0.0,0.0,23.1,13.4,4.6,1024,1024,1024,1024,0,0,0,0,61,4.36,79.88,165.354336,P-GPS,,50.4
582900,2026-01-08 12:38:10,0.0,5,7.391,0.0,0.0,0.0,23.0,13.5,4.6,1024,1024,1024,1024,0,0,0,0,61,4.36,79.88,165.354336,P-GPS,,50.4
583000,2026-01-08 12:38:10,0.0,5,7.392,0.0,0.0,0.0,23.1,13.5,4.7,1024,1024,1024,1024,0,0,0,0,61,4.783,79.88,165.354336,P-GPS,,50.4
583100,2026-01-08 12:38:10,0.0,5,7.392,0.0,0.0,0.0,23.2,13.6,4.8,1024,1024,1024,1024,0,0,0,0,61,4.783,79.88,165.354336,P-GPS,,50.4
583200,2026-01-08 12:38:11,0.0,5,7.392,0.0,0.0,0.0,23.2,13.7,5.1,1024,1024,1024,1024,0,0,0,0,61,4.783,79.88,165.354336,P-GPS,,50.4
583300,2026-01-08 12:38:11,0.0,5,7.392,0.0,0.0,0.0,23.2,13.6,5.0,1024,1024,1024,1024,0,0,0,0,61,4.783,79.88,165.354336,P-GPS,,50.4
583400,2026-01-08 12:38:11,0.0,5,7.392,0.0,0.0,0.0,23.1,13.5,4.7,1024,1024,1024,1024,0,0,0,0,61,4.783,79.88,165.354336,P-GPS,,50.4
583500,2026-01-08 12:38:11,0.0,5,7.392,0.0,0.0,0.0,23.0,13.2,4.7,1024,1024,1024,1024,0,0,0,0,61,4.783,79.88,165.354336,P-GPS,,50.4
583600,2026-01-08 12:38:11,0.0,5,7.392,0.0,0.0,0.0,23.0,13.1,4.4,1024,1024,1024,1024,0,0,0,0,61,4.783,79.88,165.354336,P-GPS,,50.4
583700,2026-01-08 12:38:11,0.0,5,7.392,0.0,0.0,0.0,23.1,12.9,4.2,1024,1024,1024,1024,0,0,0,0,61,4.783,79.88,165.354336,P-GPS,,50.4
583800,2026-01-08 12:38:11,0.0,5,7.392,0.0,0.0,0.0,23.1,12.8,4.3,1024,1024,1024,1024,0,0,0,0,61,4.783,79.88,165.354336,P-GPS,,50.4
583900,2026-01-08 12:38:11,0.0,5,7.392,0.0,0.0,0.0,23.1,12.7,4.4,1024,1024,1024,1024,0,0,0,0,61,4.783,79.88,165.026252,P-GPS,,50.3
584000,2026-01-08 12:38:11,0.0,5,7.392,0.0,0.0,0.0,23.1,12.6,4.4,1024,1024,1024,1024,0,0,0,0,61,4.783,79.88,165.026252,P-GPS,,50.3
584100,2026-01-08 12:38:11,0.0,5,7.41,0.0,0.0,0.0,23.1,12.5,4.9,1024,1024,1024,1024,0,0,0,0,61,4.543,80.06,165.026252,P-GPS,,50.3
584200,2026-01-08 12:38:12,0.0,5,7.41,0.0,0.0,0.0,23.1,12.3,5.5,1024,1024,1024,1024,0,0,0,0,61,4.543,80.06,165.026252,P-GPS,,50.3
584300,2026-01-08 12:38:12,0.0,5,7.41,0.0,0.0,0.0,23.1,12.6,6.0,1024,1024,1024,1024,0,0,0,0,61,4.543,80.06,165.026252,P-GPS,,50.3
584400,2026-01-08 12:38:12,0.0,5,7.41,0.0,0.0,0.0,23.1,12.1,6.0,1024,1024,1024,1024,0,0,0,0,61,4.543,80.06,165.026252,P-GPS,,50.3
584500,2026-01-08 12:38:12,0.0,5,7.41,0.0,0.0,0.0,23.3,12.6,6.2,1024,1024,1024,1024,0,0,0,0,61,4.543,80.06,165.026252,P-GPS,,50.3
584600,2026-01-08 12:38:12,0.0,5,7.41,0.0,0.0,0.0,23.3,12.6,6.2,1024,1024,1024,1024,0,0,0,0,61,4.543,80.06,165.026252,P-GPS,,50.3
584700,2026-01-08 12:38:12,0.0,5,7.41,0.0,0.0,0.0,23.2,12.8,6.1,1024,1024,1024,1024,0,0,0,0,61,4.543,80.06,165.026252,P-GPS,,50.3
584800,2026-01-08 12:38:12,0.0,5,7.41,0.0,0.0,0.0,23.2,12.7,5.8,1024,1024,1024,1024,0,0,0,0,61,4.543,80.06,165.026252,P-GPS,,50.3
584900,2026-01-08 12:38:12,0.0,5,7.41,0.0,0.0,0.0,23.2,12.6,6.0,1024,1024,1024,1024,0,0,0,0,61,4.543,80.06,165.026252,P-GPS,,50.3
585000,2026-01-08 12:38:12,0.0,5,7.41,0.0,0.0,0.0,23.2,12.5,5.9,1024,1024,1024,1024,0,0,0,0,61,4.543,80.06,165.026252,P-GPS,,50.3
585100,2026-01-08 12:38:12,0.0,5,7.41,0.0,0.0,0.0,23.2,12.7,6.0,1024,1024,1024,1024,0,0,0,0,61,4.543,80.06,165.026252,P-GPS,,50.3
585200,2026-01-08 12:38:13,0.0,5,7.41,0.0,0.0,0.0,23.2,12.5,5.8,1024,1024,1024,1024,0,0,0,0,61,4.543,80.06,165.026252,P-GPS,,50.3
585300,2026-01-08 12:38:13,0.0,5,7.41,0.0,0.0,0.0,23.1,12.4,5.9,1024,1024,1024,1024,0,0,0,0,61,4.543,80.06,165.026252,P-GPS,,50.3
585400,2026-01-08 12:38:13,0.0,5,7.41,0.0,0.0,0.0,23.2,12.1,5.9,1024,1024,1024,1024,0,0,0,0,61,4.543,80.06,165.026252,P-GPS,,50.3
585500,2026-01-08 12:38:13,0.0,5,7.41,0.0,0.0,0.0,23.2,12.3,6.0,1024,1024,1024,1024,0,0,0,0,61,4.543,80.06,165.026252,P-GPS,,50.3
585600,2026-01-08 12:38:13,0.0,5,7.41,0.0,0.0,0.0,23.2,12.2,6.3,1024,1024,1024,1024,0,0,0,0,61,4.543,80.06,165.026252,P-GPS,,50.3
585700,2026-01-08 12:38:13,0.0,5,7.41,0.0,0.0,0.0,23.3,12.7,6.5,1024,1024,1024,1024,0,0,0,0,61,4.543,80.06,165.026252,P-GPS,,50.3
585800,2026-01-08 12:38:13,0.0,5,7.41,0.0,0.0,0.0,23.2,12.0,6.6,1024,1024,1024,1024,0,0,0,0,61,4.543,80.06,165.026252,P-GPS,,50.3
585900,2026-01-08 12:38:13,0.0,5,7.41,0.0,0.0,0.0,23.2,12.0,6.8,1024,1024,1024,1024,0,0,0,0,61,4.543,80.06,164.698168,P-GPS,,50.2
586000,2026-01-08 12:38:13,0.0,5,7.41,0.0,0.0,0.0,23.3,12.0,7.1,1024,1024,1024,1024,0,0,0,0,61,4.543,80.06,164.698168,P-GPS,,50.2
586100,2026-01-08 12:38:13,0.0,5,7.41,0.0,0.0,0.0,23.2,11.9,7.1,1024,1024,1024,1024,0,0,0,0,61,4.543,80.06,164.698168,P-GPS,,50.2
586200,2026-01-08 12:38:14,0.0,5,7.41,0.0,0.0,0.0,23.3,11.7,7.3,1024,1024,1024,1024,0,0,0,0,61,4.543,80.06,164.698168,P-GPS,,50.2
586300,2026-01-08 12:38:14,0.223694,5,7.396,0.0,-0.223694,0.0,23.3,11.1,7.6,1024,1024,1024,1024,0,0,0,0,61,4.421,79.88,165.026252,P-GPS,,50.3
586400,2026-01-08 12:38:14,0.223694,5,7.396,0.0,-0.223694,0.0,23.4,11.1,8.1,1024,1024,1024,1024,0,0,0,0,61,4.421,79.88,165.026252,P-GPS,,50.3
586500,2026-01-08 12:38:14,0.223694,5,7.396,0.0,-0.223694,0.0,23.4,11.2,8.5,1024,1024,1024,1024,0,0,0,0,61,4.421,79.88,165.026252,P-GPS,,50.3
586600,2026-01-08 12:38:14,0.223694,5,7.396,0.0,-0.223694,0.0,23.3,10.4,9.0,1024,1024,1024,1024,0,0,0,0,61,4.421,79.88,165.354336,P-GPS,,50.4
586700,2026-01-08 12:38:14,0.223694,5,7.396,0.0,-0.223694,0.0,23.2,10.1,9.1,1024,1024,1024,1024,0,0,0,0,61,4.421,79.88,165.354336,P-GPS,,50.4
586800,2026-01-08 12:38:14,0.223694,5,7.396,0.0,-0.223694,0.0,23.3,10.3,9.3,1024,1024,1024,1024,0,0,0,0,61,4.421,79.88,165.354336,P-GPS,,50.4
586900,2026-01-08 12:38:14,0.0,5,7.396,0.0,0.0,0.0,23.3,10.3,9.4,1024,1024,1024,1024,0,0,0,0,61,4.421,79.88,165.354336,P-GPS,,50.4
587000,2026-01-08 12:38:14,0.0,5,7.396,0.0,0.0,0.0,22.9,8.0,9.5,1024,1024,1024,1024,0,0,0,0,61,4.421,79.88,165.354336,P-GPS,,50.4
587200,2026-01-08 12:38:15,0.0,5,7.396,0.0,0.0,0.0,23.2,11.6,7.4,1024,1024,1024,1024,0,0,0,0,61,4.421,79.88,165.026252,P-GPS,,50.3
587300,2026-01-08 12:38:15,0.0,5,7.396,0.0,0.0,0.0,23.2,12.9,6.6,1024,1024,1024,1024,0,0,0,0,61,4.421,79.88,165.026252,P-GPS,,50.3
587400,2026-01-08 12:38:15,0.0,5,7.452,0.0,0.0,0.0,23.2,12.8,6.1,1024,1024,1024,1024,0,0,0,0,61,3.928,80.06,165.026252,P-GPS,,50.3
587600,2026-01-08 12:38:15,0.0,5,7.452,0.0,0.0,0.0,23.2,11.8,5.8,1024,1024,1024,1024,0,0,0,0,61,3.928,80.06,164.370084,P-GPS,,50.1
587700,2026-01-08 12:38:15,0.0,5,7.452,0.0,0.0,0.0,23.2,13.1,5.7,1024,1024,1024,1024,0,0,0,0,61,3.928,80.06,164.370084,P-GPS,Strong wind warning Strong wind warning. Aircraft unable to return to home automatically. Lower altitude immediately and return to home manually (Code: 30149). SD card speed low. Normal use may be affected. Replace SD card (Code: 10028). Gimbal stuck. Make sure gimbal c,50.1
587800,2026-01-08 12:38:15,0.0,5,7.452,0.0,0.0,0.0,23.2,13.2,5.6,1024,1024,1024,1024,0,0,0,0,61,3.928,80.06,164.042,P-GPS,,50.0
587900,2026-01-08 12:38:15,0.0,5,7.452,0.0,0.0,0.0,23.3,13.1,6.1,1024,1024,1024,1024,0,0,0,0,61,3.928,80.06,164.042,P-GPS,,50.0
588000,2026-01-08 12:38:15,0.0,5,7.452,0.0,0.0,0.0,23.4,12.7,6.1,1024,1024,1024,1024,0,0,0,0,61,3.928,80.06,164.042,P-GPS,,50.0
588100,2026-01-08 12:38:15,0.0,5,7.452,0.0,0.0,0.0,23.2,12.6,6.1,1024,1024,1024,1024,0,0,0,0,61,3.928,80.06,163.713916,P-GPS,,49.9
588200,2026-01-08 12:38:16,0.0,5,7.452,0.0,0.0,0.0,23.2,12.3,5.8,1024,1024,1024,1024,0,0,0,0,61,3.928,80.06,163.713916,P-GPS,,49.9
588300,2026-01-08 12:38:16,0.0,5,7.452,0.0,0.0,0.0,23.2,12.5,5.5,1024,1024,1024,1024,0,0,0,0,61,3.928,80.06,163.713916,P-GPS,,49.9
588600,2026-01-08 12:38:16,0.0,5,7.43,0.0,0.0,0.0,23.3,13.0,5.4,1024,1024,364,1024,0,0,-100,0,61,4.109,80.06,163.713916,P-GPS,,49.9
588700,2026-01-08 12:38:16,0.0,5,7.43,0.0,0.0,0.0,23.4,13.4,5.4,1024,1024,364,1024,0,0,-100,0,61,4.109,80.06,163.713916,P-GPS,,49.9
