time(millisecond),timestamp,speed(mph),gpslevel,voltage(v),xSpeed(mph),ySpeed(mph),zSpeed(mph),compass_heading(degrees),pitch(degrees),roll(degrees),rc_elevator,rc_aileron,rc_throttle,rc_rudder,rc_elevator(percent),rc_aileron(percent),rc_throttle(percent),rc_rudder(percent),battery_percent,current(A),battery_temperature(f),ascent(feet),flycState,message,height_above_takeoff(meters)
210300,2026-01-08 12:31:25,0.0,5,7.49,0.0,0.0,-4.47388,12.6,13.8,3.0,1024,1024,1684,1024,0,0,100,0,85,8.649,70.88,92.191604,P-GPS,,28.1
210400,2026-01-08 12:31:25,0.223694,5,7.49,-0.223694,0.0,-4.250186,12.5,10.8,2.8,1024,1024,1684,1024,0,0,100,0,85,8.649,70.88,92.847772,P-GPS,,28.3
210500,2026-01-08 12:31:25,0.0,5,7.49,0.0,0.0,-4.47388,12.3,10.8,1.7,1024,1024,1684,1024,0,0,100,0,85,8.649,70.88,93.50394,P-GPS,,28.5
210600,2026-01-08 12:31:25,0.0,5,7.49,0.0,0.0,-4.47388,12.3,11.2,1.8,1024,1024,1684,1024,0,0,100,0,85,8.649,70.88,94.160108,P-GPS,,28.7
210700,2026-01-08 12:31:25,0.0,5,7.49,0.0,0.0,-4.47388,12.1,10.7,1.2,1024,1024,1684,1024,0,0,100,0,85,8.649,70.88,94.816276,P-GPS,,28.9
210800,2026-01-08 12:31:25,0.0,5,7.49,0.0,0.0,-4.697574,11.9,12.3,2.2,1024,1024,1684,1024,0,0,100,0,85,8.649,70.88,95.472444,P-GPS,,29.1
210900,2026-01-08 12:31:25,0.0,5,7.49,0.0,0.0,-4.697574,12.0,13.0,2.4,1024,1024,1684,1024,0,0,100,0,85,8.649,70.88,96.128612,P-GPS,,29.3
211000,2026-01-08 12:31:25,0.0,5,7.586,0.0,0.0,-4.47388,12.0,13.6,2.6,1024,1024,1024,1024,0,0,0,0,85,7.853,70.88,96.78478,P-GPS,,29.5
211100,2026-01-08 12:31:25,0.223694,5,7.586,0.223694,0.0,-4.47388,12.1,15.1,3.5,1024,1024,1024,1024,0,0,0,0,85,7.853,70.88,97.440948,P-GPS,,29.7
211200,2026-01-08 12:31:26,0.223694,5,7.586,0.223694,0.0,-4.250186,12.2,15.8,3.3,1024,1024,1024,1024,0,0,0,0,85,7.853,70.88,98.097116,P-GPS,,29.9
211300,2026-01-08 12:31:26,0.223694,5,7.586,0.223694,0.0,-4.026492,12.3,16.9,3.9,1024,1024,1024,1024,0,0,0,0,85,7.853,70.88,98.753284,P-GPS,,30.1
211400,2026-01-08 12:31:26,0.223694,5,7.586,0.223694,0.0,-3.131716,12.5,17.5,4.5,1024,1024,1024,1024,0,0,0,0,85,7.853,70.88,99.409452,P-GPS,,30.3
211500,2026-01-08 12:31:26,0.223694,5,7.586,0.223694,0.0,-2.460634,12.5,17.6,5.0,1024,1024,1024,1024,0,0,0,0,85,7.853,70.88,99.737536,P-GPS,,30.4
211600,2026-01-08 12:31:26,0.3131716,5,7.586,0.223694,-0.223694,-1.789552,12.6,17.4,5.7,1024,1024,1024,1024,0,0,0,0,85,7.853,70.88,100.06562,P-GPS,,30.5
211700,2026-01-08 12:31:26,0.3131716,5,7.586,0.223694,-0.223694,-0.894776,12.5,16.3,6.0,1024,1024,1024,1024,0,0,0,0,85,7.853,70.88,100.393704,P-GPS,,30.6
211800,2026-01-08 12:31:26,0.0,5,7.586,0.0,0.0,-0.671082,12.6,16.7,5.4,1024,1024,1024,1024,0,0,0,0,85,7.853,70.88,100.393704,P-GPS,,30.6
211900,2026-01-08 12:31:26,0.223694,5,7.586,0.0,-0.223694,-0.447388,12.6,15.3,5.9,1024,1024,1024,1024,0,0,0,0,85,7.853,70.88,100.393704,P-GPS,,30.6
212000,2026-01-08 12:31:26,0.223694,5,7.586,0.0,-0.223694,-0.223694,12.6,15.1,6.3,1024,1024,1024,1024,0,0,0,0,85,7.853,70.88,100.393704,P-GPS,,30.6
212100,2026-01-08 12:31:26,0.223694,5,7.642,0.0,0.0,0.0,12.7,15.6,6.2,1024,1024,1024,1024,0,0,0,0,85,5.804,70.88,100.393704,P-GPS,,30.6
212200,2026-01-08 12:31:26,0.0,5,7.642,0.0,0.0,0.0,12.8,14.8,5.6,1024,1024,1024,1024,0,0,0,0,85,5.804,70.88,100.393704,P-GPS,,30.6
212300,2026-01-08 12:31:27,0.0,5,7.642,0.0,0.0,0.0,12.8,14.3,5.1,1024,1024,1024,1024,0,0,0,0,85,5.804,70.88,100.393704,P-GPS,,30.6
212400,2026-01-08 12:31:27,0.0,5,7.642,0.0,0.0,0.0,12.6,13.8,4.6,1024,1024,1024,1024,0,0,0,0,85,5.804,70.88,100.06562,P-GPS,,30.5
212500,2026-01-08 12:31:27,0.0,5,7.642,0.0,0.0,0.0,12.5,13.5,4.6,1024,1024,1024,1024,0,0,0,0,85,5.804,70.88,100.06562,P-GPS,,30.5
212600,2026-01-08 12:31:27,0.0,5,7.642,0.0,0.0,0.0,12.6,13.3,4.6,1024,1024,1024,1024,0,0,0,0,85,5.804,70.88,100.06562,P-GPS,,30.5
212700,2026-01-08 12:31:27,0.0,5,7.642,0.0,0.0,0.0,12.6,13.1,4.3,1024,1024,1024,1024,0,0,0,0,85,5.804,70.88,99.737536,P-GPS,,30.4
212800,2026-01-08 12:31:27,0.0,5,7.642,0.0,0.0,0.0,12.6,14.8,3.3,1024,1024,1024,1024,0,0,0,0,85,5.804,70.88,99.737536,P-GPS,,30.4
212900,2026-01-08 12:31:27,0.0,5,7.642,0.0,0.0,0.0,12.5,13.9,3.3,1024,1024,1024,1024,0,0,0,0,85,5.804,70.88,99.737536,P-GPS,,30.4
213000,2026-01-08 12:31:27,0.0,5,7.642,0.0,0.0,0.0,12.2,13.3,2.8,1024,1024,1024,1024,0,0,0,0,85,5.804,70.88,99.737536,P-GPS,,30.4
213100,2026-01-08 12:31:27,0.0,5,7.642,0.0,0.0,0.0,12.4,12.8,3.1,1024,1024,1024,1024,0,0,0,0,85,5.804,70.88,99.737536,P-GPS,,30.4
213200,2026-01-08 12:31:28,0.0,5,7.601,0.0,0.0,0.0,12.3,12.5,3.1,1024,1024,1024,1024,0,0,0,0,85,6.277,71.06,99.737536,P-GPS,,30.4
213300,2026-01-08 12:31:28,0.0,5,7.601,0.0,0.0,-0.223694,12.4,12.7,3.6,1024,1024,1024,1024,0,0,0,0,85,6.277,71.06,99.737536,P-GPS,,30.4
213400,2026-01-08 12:31:28,0.0,5,7.601,0.0,0.0,-0.223694,12.4,12.7,3.4,1024,1024,1024,1024,0,0,0,0,85,6.277,71.06,99.737536,P-GPS,,30.4
213500,2026-01-08 12:31:28,0.0,5,7.601,0.0,0.0,-0.223694,12.3,13.2,2.6,1024,1024,1024,1024,0,0,0,0,85,6.277,71.06,99.409452,P-GPS,,30.3
213600,2026-01-08 12:31:28,0.0,5,7.601,0.0,0.0,-0.223694,12.3,13.0,2.8,1024,1024,1024,1024,0,0,0,0,85,6.277,71.06,99.737536,P-GPS,,30.4
213700,2026-01-08 12:31:28,0.0,5,7.601,0.0,0.0,-0.223694,12.3,13.8,3.1,1024,1024,1024,1024,0,0,0,0,85,6.277,71.06,99.737536,P-GPS,,30.4
213800,2026-01-08 12:31:28,0.0,5,7.601,0.0,0.0,0.0,12.2,13.3,3.1,1024,1024,1024,1024,0,0,0,0,85,6.277,71.06,99.737536,P-GPS,,30.4
213900,2026-01-08 12:31:28,0.0,5,7.601,0.0,0.0,0.0,12.2,13.1,3.3,1024,1024,1024,1024,0,0,0,0,85,6.277,71.06,99.737536,P-GPS,,30.4
214000,2026-01-08 12:31:28,0.0,5,7.601,0.0,0.0,0.0,12.3,13.9,3.6,1024,1024,1024,1024,0,0,0,0,85,6.277,71.06,99.737536,P-GPS,,30.4
214100,2026-01-08 12:31:28,0.0,5,7.601,0.0,0.0,0.0,12.3,13.2,3.7,1024,1024,1024,1024,0,0,0,0,85,6.277,71.06,99.737536,P-GPS,,30.4
214200,2026-01-08 12:31:28,0.0,5,7.601,0.0,0.0,-0.223694,12.2,11.8,4.0,1024,1024,1024,1024,0,0,0,0,85,6.277,71.06,99.737536,P-GPS,,30.4
214300,2026-01-08 12:31:29,0.0,5,7.601,0.0,0.0,-0.223694,12.1,12.1,3.9,1024,1024,1024,1024,0,0,0,0,85,6.277,71.06,99.737536,P-GPS,,30.4
214400,2026-01-08 12:31:29,0.0,5,7.601,0.0,0.0,0.0,12.2,12.5,2.9,1024,1024,1024,1024,0,0,0,0,85,6.277,71.06,99.737536,P-GPS,,30.4
214500,2026-01-08 12:31:29,0.0,5,7.601,0.0,0.0,0.0,12.2,12.1,3.6,1024,1024,1024,1024,0,0,0,0,85,6.277,71.06,99.737536,P-GPS,,30.4
214600,2026-01-08 12:31:29,0.0,5,7.601,0.0,0.0,0.0,12.3,11.1,4.4,1024,1024,1024,1024,0,0,0,0,85,6.277,71.06,100.06562,P-GPS,,30.5
214700,2026-01-08 12:31:29,0.0,5,7.601,0.0,0.0,0.0,12.5,12.1,4.9,1024,1024,1024,1024,0,0,0,0,85,6.277,71.06,100.06562,P-GPS,,30.5
214800,2026-01-08 12:31:29,0.0,5,7.601,0.0,0.0,0.0,12.5,12.9,4.3,1024,1024,1024,1024,0,0,0,0,85,6.277,71.06,100.06562,P-GPS,,30.5
214900,2026-01-08 12:31:29,0.0,5,7.601,0.0,0.0,0.0,12.4,13.2,4.4,1024,1024,1024,1024,0,0,0,0,85,6.277,71.06,100.06562,P-GPS,,30.5
215000,2026-01-08 12:31:29,0.0,5,7.601,0.0,0.0,0.0,12.6,14.2,4.7,1024,1024,1024,1024,0,0,0,0,85,6.277,71.06,100.06562,P-GPS,,30.5
215100,2026-01-08 12:31:29,0.223694,5,7.601,0.0,-0.223694,0.223694,12.6,13.9,5.3,1024,1024,1024,1024,0,0,0,0,85,6.277,71.06,100.06562,P-GPS,,30.5
215200,2026-01-08 12:31:30,0.223694,5,7.601,0.0,-0.223694,0.223694,12.6,14.2,5.7,1024,1024,1024,1024,0,0,0,0,85,6.277,71.06,100.06562,P-GPS,,30.5
215300,2026-01-08 12:31:30,0.0,5,7.601,0.0,0.0,0.0,12.7,14.1,5.5,1024,1024,1024,1024,0,0,0,0,85,6.277,71.06,100.393704,P-GPS,,30.6
215400,2026-01-08 12:31:30,0.223694,5,7.601,0.0,-0.223694,0.0,12.7,13.5,5.2,1024,1024,1024,1024,0,0,0,0,85,6.277,71.06,100.393704,P-GPS,,30.6
215500,2026-01-08 12:31:30,0.223694,5,7.616,0.0,-0.223694,-0.223694,12.5,13.1,6.6,1024,1024,1024,1024,0,0,0,0,85,5.744,71.06,100.393704,P-GPS,,30.6
215600,2026-01-08 12:31:30,0.223694,5,7.616,0.0,-0.223694,-0.223694,12.6,12.9,6.9,1024,1024,1024,1024,0,0,0,0,85,5.744,71.06,100.393704,P-GPS,,30.6
215700,2026-01-08 12:31:30,0.223694,5,7.616,0.0,-0.223694,0.0,12.6,13.1,7.2,1024,1024,1024,1024,0,0,0,0,85,5.744,71.06,100.393704,P-GPS,,30.6
215800,2026-01-08 12:31:30,0.223694,5,7.616,0.0,-0.223694,0.0,12.6,12.6,8.0,1024,1024,1024,1024,0,0,0,0,85,5.744,71.06,100.393704,P-GPS,,30.6
215900,2026-01-08 12:31:30,0.223694,5,7.616,0.0,-0.223694,0.0,12.7,12.0,8.4,1024,1024,1024,1024,0,0,0,0,85,5.744,71.06,100.393704,P-GPS,,30.6
216000,2026-01-08 12:31:30,0.223694,5,7.616,0.0,-0.223694,0.0,12.8,11.7,9.3,1024,1024,1024,1024,0,0,0,0,85,5.744,71.06,100.393704,P-GPS,,30.6
216100,2026-01-08 12:31:30,0.223694,5,7.616,0.0,-0.223694,0.0,12.8,12.4,9.3,1024,1024,1024,1024,0,0,0,0,85,5.744,71.06,100.393704,P-GPS,,30.6
216200,2026-01-08 12:31:30,0.223694,5,7.616,0.0,-0.223694,0.0,12.7,12.0,9.6,1024,1024,1024,1024,0,0,0,0,85,5.744,71.06,100.393704,P-GPS,,30.6
216300,2026-01-08 12:31:31,0.223694,5,7.616,0.0,-0.223694,0.0,12.8,11.5,10.0,1024,1024,1024,1024,0,0,0,0,85,5.744,71.06,100.393704,P-GPS,,30.6
216400,2026-01-08 12:31:31,0.447388,5,7.616,0.0,-0.447388,0.223694,13.1,11.9,11.9,1024,1024,1024,1024,0,0,0,0,85,5.744,71.06,100.393704,P-GPS,,30.6
216500,2026-01-08 12:31:31,0.447388,5,7.616,0.0,-0.447388,0.447388,13.4,11.8,12.0,1024,1024,1024,1024,0,0,0,0,85,5.744,71.06,100.721788,P-GPS,,30.7
216600,2026-01-08 12:31:31,0.4921268,5,7.708,-0.223694,-0.447388,0.447388,13.1,9.6,10.6,1024,1024,1024,1024,0,0,0,0,85,4.495,71.24,100.393704,P-GPS,,30.6
216700,2026-01-08 12:31:31,0.3131716,5,7.708,-0.223694,-0.223694,0.223694,12.8,8.6,10.6,1024,1024,1024,1024,0,0,0,0,85,4.495,71.24,100.393704,P-GPS,,30.6
216800,2026-01-08 12:31:31,0.223694,5,7.708,-0.223694,0.0,0.0,12.5,7.8,10.0,1024,1024,1024,1024,0,0,0,0,85,4.495,71.24,100.393704,P-GPS,,30.6
216900,2026-01-08 12:31:31,0.223694,5,7.708,-0.223694,0.0,0.0,12.5,7.9,9.9,1024,1024,1024,1024,0,0,0,0,85,4.495,71.24,100.393704,P-GPS,,30.6
217000,2026-01-08 12:31:31,0.223694,5,7.708,-0.223694,0.0,0.0,12.4,8.3,9.5,1024,1024,1024,1024,0,0,0,0,85,4.495,71.24,100.393704,P-GPS,,30.6
217100,2026-01-08 12:31:31,0.0,5,7.708,0.0,0.0,0.0,12.6,9.8,9.2,1024,1024,1024,1024,0,0,0,0,85,4.495,71.24,100.06562,P-GPS,,30.5
217200,2026-01-08 12:31:31,0.0,5,7.708,0.0,0.0,0.223694,12.6,10.3,8.1,1024,1024,1024,1024,0,0,0,0,85,4.495,71.24,100.06562,P-GPS,,30.5
217300,2026-01-08 12:31:32,0.223694,5,7.708,0.0,0.223694,0.223694,12.4,10.0,6.4,1024,1024,1024,1024,0,0,0,0,85,4.495,71.24,99.737536,P-GPS,,30.4
217400,2026-01-08 12:31:32,0.223694,5,7.708,0.0,0.223694,0.0,12.3,9.8,5.7,1024,1024,1024,1024,0,0,0,0,85,4.495,71.24,99.737536,P-GPS,,30.4
217500,2026-01-08 12:31:32,0.0,5,7.708,0.0,0.0,0.0,12.3,9.6,5.9,1024,1024,1024,1024,0,0,0,0,85,4.495,71.24,99.409452,P-GPS,,30.3
217600,2026-01-08 12:31:32,0.0,5,7.708,0.0,0.0,0.0,12.4,9.6,6.1,1024,1024,1024,1024,0,0,0,0,85,4.495,71.24,99.409452,P-GPS,,30.3
217700,2026-01-08 12:31:32,0.0,5,7.615,0.0,0.0,0.0,12.3,9.1,5.8,1024,1024,1024,1024,0,0,0,0,85,5.952,71.06,99.081368,P-GPS,,30.2
217800,2026-01-08 12:31:32,0.0,5,7.615,0.0,0.0,0.0,12.3,9.0,5.6,1024,1024,1024,1024,0,0,0,0,85,5.952,71.06,99.081368,P-GPS,,30.2
217900,2026-01-08 12:31:32,0.0,5,7.615,0.0,0.0,0.0,12.3,8.6,5.7,1024,1024,1024,1024,0,0,0,0,85,5.952,71.06,99.081368,P-GPS,,30.2
218000,2026-01-08 12:31:32,0.0,5,7.615,0.0,0.0,0.0,12.3,8.1,6.1,1024,1024,1024,1024,0,0,0,0,85,5.952,71.06,98.753284,P-GPS,,30.1
218100,2026-01-08 12:31:32,0.0,5,7.615,0.0,0.0,-0.223694,12.4,8.5,6.3,1024,1024,1024,1024,0,0,0,0,85,5.952,71.06,98.753284,P-GPS,,30.1
218200,2026-01-08 12:31:33,0.0,5,7.615,0.0,0.0,-0.223694,12.4,9.0,6.8,1024,1024,1024,1024,0,0,0,0,85,5.952,71.06,98.753284,P-GPS,,30.1
218300,2026-01-08 12:31:33,0.0,5,7.615,0.0,0.0,-0.223694,12.4,8.6,6.4,1024,1024,1024,1024,0,0,0,0,85,5.952,71.06,98.4252,P-GPS,,30.0
218400,2026-01-08 12:31:33,0.0,5,7.615,0.0,0.0,-0.223694,12.3,8.1,6.1,1024,1024,1024,1024,0,0,0,0,85,5.952,71.06,98.4252,P-GPS,,30.0
218500,2026-01-08 12:31:33,0.0,5,7.615,0.0,0.0,-0.223694,12.2,7.9,6.0,1024,1024,1024,1024,0,0,0,0,85,5.952,71.06,98.4252,P-GPS,,30.0
218600,2026-01-08 12:31:33,0.0,5,7.615,0.0,0.0,0.0,12.4,9.4,4.3,1024,1024,1024,1024,0,0,0,0,85,5.952,71.06,98.097116,P-GPS,,29.9
218700,2026-01-08 12:31:33,0.0,5,7.615,0.0,0.0,-0.223694,12.3,7.7,4.6,1024,1024,1024,1024,0,0,0,0,85,5.952,71.06,98.097116,P-GPS,,29.9
218800,2026-01-08 12:31:33,0.0,5,7.676,0.0,0.0,-0.447388,12.4,7.5,5.6,1024,1024,1024,1024,0,0,0,0,85,5.414,71.24,98.097116,P-GPS,,29.9
218900,2026-01-08 12:31:33,0.0,5,7.676,0.0,0.0,-0.223694,12.5,8.0,6.2,1024,1024,1024,1024,0,0,0,0,85,5.414,71.24,98.097116,P-GPS,,29.9
219000,2026-01-08 12:31:33,0.0,5,7.676,0.0,0.0,0.0,12.4,8.7,5.9,1024,1024,1024,1024,0,0,0,0,85,5.414,71.24,98.097116,P-GPS,,29.9
219100,2026-01-08 12:31:33,0.0,5,7.676,0.0,0.0,0.0,12.4,9.1,5.6,1024,1024,1024,1024,0,0,0,0,85,5.414,71.24,98.097116,P-GPS,,29.9
219200,2026-01-08 12:31:33,0.0,5,7.676,0.0,0.0,0.0,12.3,7.8,6.6,1024,1024,1024,1024,0,0,0,0,85,5.414,71.24,98.097116,P-GPS,,29.9
219300,2026-01-08 12:31:34,0.0,5,7.676,0.0,0.0,0.0,12.5,9.4,5.9,1024,1024,1024,1024,0,0,0,0,85,5.414,71.24,98.097116,P-GPS,,29.9
219400,2026-01-08 12:31:34,0.0,5,7.676,0.0,0.0,0.0,12.5,8.6,5.4,1024,1024,1024,1024,0,0,0,0,85,5.414,71.24,98.097116,P-GPS,,29.9
219500,2026-01-08 12:31:34,0.0,5,7.676,0.0,0.0,0.0,12.5,7.7,6.4,1024,1024,1024,1024,0,0,0,0,85,5.414,71.24,98.097116,P-GPS,,29.9
219600,2026-01-08 12:31:34,0.0,5,7.676,0.0,0.0,0.0,12.4,6.6,6.3,1024,1024,1024,1024,0,0,0,0,85,5.414,71.24,98.097116,P-GPS,,29.9
219700,2026-01-08 12:31:34,0.0,5,7.676,0.0,0.0,0.0,12.3,5.8,6.2,1024,1024,1024,1024,0,0,0,0,85,5.414,71.24,97.769032,P-GPS,,29.8
219800,2026-01-08 12:31:34,0.0,5,7.676,0.0,0.0,-0.223694,12.4,5.5,5.9,1024,1024,1024,1024,0,0,0,0,85,5.414,71.24,98.097116,P-GPS,,29.9
219900,2026-01-08 12:31:34,0.0,5,7.674,0.0,0.0,-0.223694,12.3,5.1,5.7,1024,1024,1024,1024,0,0,0,0,85,4.898,71.42,98.097116,P-GPS,,29.9
220000,2026-01-08 12:31:34,0.0,5,7.674,0.0,0.0,-0.223694,12.3,5.8,5.7,1024,1024,1024,1024,0,0,0,0,85,4.898,71.42,98.097116,P-GPS,,29.9
220100,2026-01-08 12:31:34,0.0,5,7.674,0.0,0.0,0.0,12.2,6.2,5.5,1024,1024,1024,1024,0,0,0,0,85,4.898,71.42,98.097116,P-GPS,,29.9
220200,2026-01-08 12:31:35,0.223694,5,7.674,0.0,0.223694,0.0,12.1,6.5,5.1,1024,1024,1024,1024,0,0,0,0,85,4.898,71.42,98.097116,P-GPS,,29.9
220300,2026-01-08 12:31:35,0.223694,5,7.674,0.0,0.223694,0.0,12.1,7.7,3.7,1024,1024,1024,1024,0,0,0,0,85,4.898,71.42,97.769032,P-GPS,,29.8
220400,2026-01-08 12:31:35,0.223694,5,7.674,0.0,0.223694,0.0,12.1,8.3,2.8,1024,1024,1024,1024,0,0,0,0,85,4.898,71.42,97.769032,P-GPS,,29.8
220500,2026-01-08 12:31:35,0.223694,5,7.674,0.0,0.223694,0.0,12.0,8.3,2.8,1024,1024,1024,1024,0,0,0,0,85,4.898,71.42,97.769032,P-GPS,,29.8
220600,2026-01-08 12:31:35,0.223694,5,7.674,0.0,0.223694,0.0,12.0,9.4,2.2,1024,1024,1024,1024,0,0,0,0,85,4.898,71.42,97.769032,P-GPS,,29.8
220700,2026-01-08 12:31:35,0.223694,5,7.674,0.0,0.223694,0.0,12.1,9.8,2.0,1024,1024,1024,1024,0,0,0,0,85,4.898,71.42,97.769032,P-GPS,,29.8
220800,2026-01-08 12:31:35,0.223694,5,7.674,0.0,0.223694,0.0,12.2,9.4,1.0,1024,1024,1024,1024,0,0,0,0,85,4.898,71.42,97.769032,P-GPS,,29.8
220900,2026-01-08 12:31:35,0.0,5,7.674,0.0,0.0,0.0,12.2,9.7,0.9,1024,1024,1024,1024,0,0,0,0,85,4.898,71.42,98.097116,P-GPS,,29.9
221000,2026-01-08 12:31:35,0.0,5,7.673,0.0,0.0,0.0,12.1,9.1,2.1,1024,1024,1024,1024,0,0,0,0,84,4.93,71.42,98.097116,P-GPS,,29.9
221100,2026-01-08 12:31:35,0.0,5,7.673,0.0,0.0,-0.223694,12.2,9.4,3.2,1024,1024,1024,1024,0,0,0,0,84,4.93,71.42,98.4252,P-GPS,,30.0
221200,2026-01-08 12:31:36,0.0,5,7.673,0.0,0.0,-0.223694,12.2,9.9,4.0,1024,1024,1024,1024,0,0,0,0,84,4.93,71.42,98.4252,P-GPS,,30.0
221300,2026-01-08 12:31:36,0.0,5,7.673,0.0,0.0,0.0,12.3,10.0,4.5,1024,1024,1024,1024,0,0,0,0,84,4.93,71.42,98.4252,P-GPS,,30.0
221400,2026-01-08 12:31:36,0.223694,5,7.673,0.223694,0.0,0.0,12.4,10.1,5.0,1024,1024,1024,1024,0,0,0,0,84,4.93,71.42,98.753284,P-GPS,,30.1
221500,2026-01-08 12:31:36,0.223694,5,7.673,0.223694,0.0,0.0,12.3,9.9,5.5,1024,1024,1024,1024,0,0,0,0,84,4.93,71.42,98.753284,P-GPS,,30.1
221600,2026-01-08 12:31:36,0.0,5,7.673,0.0,0.0,0.0,12.3,10.3,5.3,1024,1024,1024,1024,0,0,0,0,84,4.93,71.42,98.753284,P-GPS,,30.1
221700,2026-01-08 12:31:36,0.0,5,7.673,0.0,0.0,0.0,12.2,9.5,5.0,1024,1024,1024,1024,0,0,0,0,84,4.93,71.42,98.753284,P-GPS,,30.1
221800,2026-01-08 12:31:36,0.223694,5,7.673,0.0,-0.223694,0.0,12.3,9.7,5.3,1024,1024,1024,1024,0,0,0,0,84,4.93,71.42,99.081368,P-GPS,,30.2
221900,2026-01-08 12:31:36,0.223694,5,7.673,0.0,-0.223694,0.0,12.5,10.1,5.9,1024,1024,1024,1024,0,0,0,0,84,4.93,71.42,99.081368,P-GPS,,30.2
222000,2026-01-08 12:31:36,0.223694,5,7.673,0.0,-0.223694,0.0,12.5,9.7,6.5,1024,1024,1024,1024,0,0,0,0,84,4.93,71.42,99.409452,P-GPS,,30.3
222100,2026-01-08 12:31:36,0.223694,5,7.71,0.0,-0.223694,0.0,12.5,9.3,6.8,1024,1024,1024,1024,0,0,0,0,84,4.81,71.42,99.409452,P-GPS,,30.3
222200,2026-01-08 12:31:37,0.223694,5,7.71,0.0,-0.223694,0.0,12.4,9.3,6.8,1024,1024,1024,1024,0,0,0,0,84,4.81,71.42,99.409452,P-GPS,,30.3
222300,2026-01-08 12:31:37,0.0,5,7.71,0.0,0.0,0.0,12.4,9.5,5.7,1024,1024,1024,1024,0,0,0,0,84,4.81,71.42,99.409452,P-GPS,,30.3
222400,2026-01-08 12:31:37,0.0,5,7.71,0.0,0.0,0.0,12.3,8.1,5.9,1024,1024,1024,1024,0,0,0,0,84,4.81,71.42,99.409452,P-GPS,,30.3
222500,2026-01-08 12:31:37,0.0,5,7.71,0.0,0.0,0.0,12.4,8.3,6.1,1024,1024,1024,1024,0,0,0,0,84,4.81,71.42,99.409452,P-GPS,,30.3
222600,2026-01-08 12:31:37,0.0,5,7.71,0.0,0.0,0.0,12.2,7.3,5.8,1024,1024,1024,1024,0,0,0,0,84,4.81,71.42,99.081368,P-GPS,,30.2
222700,2026-01-08 12:31:37,0.0,5,7.71,0.0,0.0,0.0,12.4,6.8,4.6,1024,1024,1024,1024,0,0,0,0,84,4.81,71.42,99.081368,P-GPS,,30.2
222800,2026-01-08 12:31:37,0.0,5,7.71,0.0,0.0,0.0,12.3,8.3,3.9,1024,1024,1024,1024,0,0,0,0,84,4.81,71.42,99.081368,P-GPS,,30.2
222900,2026-01-08 12:31:37,0.0,5,7.71,0.0,0.0,0.0,12.1,6.8,3.6,1024,1024,1024,1024,0,0,0,0,84,4.81,71.42,99.081368,P-GPS,,30.2
223000,2026-01-08 12:31:37,0.0,5,7.71,0.0,0.0,0.0,12.1,6.7,3.4,1024,1024,1024,1024,0,0,0,0,84,4.81,71.42,99.081368,P-GPS,,30.2
223100,2026-01-08 12:31:37,0.0,5,7.71,0.0,0.0,0.0,12.3,7.4,3.2,1024,1024,1024,1024,0,0,0,0,84,4.81,71.42,99.081368,P-GPS,,30.2
223200,2026-01-08 12:31:37,0.0,5,7.642,0.0,0.0,0.0,12.3,7.8,2.7,1024,1024,1024,1024,0,0,0,0,84,5.734,71.6,99.081368,P-GPS,,30.2
223300,2026-01-08 12:31:38,0.0,5,7.642,0.0,0.0,0.0,12.3,8.4,2.6,1024,1024,1024,1024,0,0,0,0,84,5.734,71.6,98.753284,P-GPS,,30.1
223400,2026-01-08 12:31:38,0.0,5,7.642,0.0,0.0,0.0,12.2,8.8,2.2,1024,1024,1024,1024,0,0,0,0,84,5.734,71.6,98.753284,P-GPS,,30.1
223500,2026-01-08 12:31:38,0.0,5,7.642,0.0,0.0,0.0,12.1,8.3,1.3,1024,1024,1024,1024,0,0,0,0,84,5.734,71.6,99.081368,P-GPS,,30.2
223600,2026-01-08 12:31:38,0.0,5,7.642,0.0,0.0,-0.223694,12.1,8.5,2.8,1024,1024,1024,1024,0,0,0,0,84,5.734,71.6,99.081368,P-GPS,,30.2
223700,2026-01-08 12:31:38,0.0,5,7.642,0.0,0.0,0.0,12.1,7.8,3.9,1024,1024,1024,1024,0,0,0,0,84,5.734,71.6,99.081368,P-GPS,,30.2
223800,2026-01-08 12:31:38,0.0,5,7.642,0.0,0.0,-0.223694,12.2,7.9,4.1,1024,1024,1024,1024,0,0,0,0,84,5.734,71.6,99.081368,P-GPS,,30.2
223900,2026-01-08 12:31:38,0.0,5,7.642,0.0,0.0,-0.223694,12.3,8.8,3.8,1024,1024,1024,1024,0,0,0,0,84,5.734,71.6,99.409452,P-GPS,,30.3
224000,2026-01-08 12:31:38,0.0,5,7.642,0.0,0.0,-0.223694,12.4,9.7,4.5,1024,1024,1024,1024,0,0,0,0,84,5.734,71.6,99.409452,P-GPS,,30.3
224100,2026-01-08 12:31:38,0.0,5,7.642,0.0,0.0,0.0,12.4,9.8,5.0,1024,1024,1024,1024,0,0,0,0,84,5.734,71.6,99.409452,P-GPS,,30.3
224200,2026-01-08 12:31:39,0.0,5,7.642,0.0,0.0,0.0,12.2,9.6,4.4,1024,1024,1024,1024,0,0,0,0,84,5.734,71.6,99.409452,P-GPS,,30.3
224300,2026-01-08 12:31:39,0.0,5,7.727,0.0,0.0,0.0,12.1,9.6,4.4,1024,1024,1024,1024,0,0,0,0,84,4.876,71.6,99.409452,P-GPS,,30.3
224400,2026-01-08 12:31:39,0.0,5,7.727,0.0,0.0,0.0,12.2,9.1,4.7,1024,1024,1024,1024,0,0,0,0,84,4.876,71.6,99.409452,P-GPS,,30.3
224500,2026-01-08 12:31:39,0.0,5,7.727,0.0,0.0,0.0,12.3,8.8,5.4,1024,1024,1024,1024,0,0,0,0,84,4.876,71.6,99.737536,P-GPS,,30.4
224600,2026-01-08 12:31:39,0.0,5,7.727,0.0,0.0,-0.223694,12.4,9.8,5.9,1024,1024,1024,1024,0,0,0,0,84,4.876,71.6,99.737536,P-GPS,,30.4
224700,2026-01-08 12:31:39,0.0,5,7.727,0.0,0.0,0.0,12.6,10.6,6.0,1024,1024,1024,1024,0,0,0,0,84,4.876,71.6,99.737536,P-GPS,,30.4
224800,2026-01-08 12:31:39,0.0,5,7.727,0.0,0.0,0.0,12.5,9.4,6.1,1024,1024,1024,1024,0,0,0,0,84,4.876,71.6,99.409452,P-GPS,,30.3
224900,2026-01-08 12:31:39,0.0,5,7.727,0.0,0.0,0.0,12.5,9.6,6.1,1024,1024,1024,1024,0,0,0,0,84,4.876,71.6,99.409452,P-GPS,,30.3
225000,2026-01-08 12:31:39,0.0,5,7.727,0.0,0.0,0.0,12.6,10.7,5.8,1024,1024,1024,1024,0,0,0,0,84,4.876,71.6,99.409452,P-GPS,,30.3
225100,2026-01-08 12:31:39,0.0,5,7.727,0.0,0.0,0.223694,12.5,10.0,6.5,1024,1024,1024,1024,0,0,0,0,84,4.876,71.6,99.409452,P-GPS,,30.3
225200,2026-01-08 12:31:39,0.0,5,7.727,0.0,0.0,0.223694,12.6,10.7,5.8,1024,1024,1024,1024,0,0,0,0,84,4.876,71.6,99.409452,P-GPS,,30.3
225300,2026-01-08 12:31:40,0.0,5,7.727,0.0,0.0,0.223694,12.5,10.3,5.0,1024,1024,1024,1024,0,0,0,0,84,4.876,71.6,99.409452,P-GPS,,30.3
225400,2026-01-08 12:31:40,0.0,5,7.661,0.0,0.0,0.0,12.3,9.2,4.4,1024,1024,1024,1024,0,0,0,0,84,4.773,71.6,99.737536,P-GPS,,30.4
225500,2026-01-08 12:31:40,0.0,5,7.661,0.0,0.0,0.0,12.2,9.2,5.0,1024,1024,1024,1024,0,0,0,0,84,4.773,71.6,99.737536,P-GPS,,30.4
225600,2026-01-08 12:31:40,0.0,5,7.661,0.0,0.0,-0.223694,12.2,9.2,5.2,1024,1024,1024,1024,0,0,0,0,84,4.773,71.6,99.737536,P-GPS,,30.4
225700,2026-01-08 12:31:40,0.0,5,7.661,0.0,0.0,-0.223694,12.4,9.3,4.8,1024,1024,1024,1024,0,0,0,0,84,4.773,71.6,99.737536,P-GPS,,30.4
225800,2026-01-08 12:31:40,0.0,5,7.661,0.0,0.0,0.0,12.3,9.1,5.0,1024,1024,1024,1024,0,0,0,0,84,4.773,71.6,99.737536,P-GPS,,30.4
225900,2026-01-08 12:31:40,0.0,5,7.661,0.0,0.0,0.0,12.2,8.9,4.8,1024,1024,1024,1024,0,0,0,0,84,4.773,71.6,99.737536,P-GPS,,30.4
226000,2026-01-08 12:31:40,0.0,5,7.661,0.0,0.0,0.0,12.2,8.6,4.9,1024,1024,1024,1024,0,0,0,0,84,4.773,71.6,99.737536,P-GPS,,30.4
226100,2026-01-08 12:31:40,0.0,5,7.661,0.0,0.0,0.0,12.2,8.7,5.2,1024,1024,1024,1024,0,0,0,0,84,4.773,71.6,99.737536,P-GPS,,30.4
226200,2026-01-08 12:31:41,0.0,5,7.661,0.0,0.0,0.0,12.3,8.7,5.0,1024,1024,1024,1024,0,0,0,0,84,4.773,71.6,99.737536,P-GPS,,30.4
226300,2026-01-08 12:31:41,0.0,5,7.661,0.0,0.0,0.0,12.2,8.0,5.4,1024,1024,1024,1024,0,0,0,0,84,4.773,71.6,99.737536,P-GPS,,30.4
226400,2026-01-08 12:31:41,0.0,5,7.661,0.0,0.0,0.0,12.2,6.4,5.5,1024,1024,1024,1024,0,0,0,0,84,4.773,71.6,99.737536,P-GPS,,30.4
226500,2026-01-08 12:31:41,0.0,5,7.661,0.0,0.0,0.0,12.4,7.7,5.7,1024,1024,1024,1024,0,0,0,0,84,4.773,71.6,99.737536,P-GPS,,30.4
226600,2026-01-08 12:31:41,0.0,5,7.661,0.0,0.0,0.0,12.4,7.3,5.4,1024,1024,1024,1024,0,0,0,0,84,4.773,71.6,99.737536,P-GPS,,30.4
226700,2026-01-08 12:31:41,0.0,5,7.661,0.0,0.0,-0.223694,12.6,7.6,5.6,1024,1024,1024,1024,0,0,0,0,84,4.773,71.6,99.737536,P-GPS,,30.4
226800,2026-01-08 12:31:41,0.0,5,7.661,0.0,0.0,0.0,12.5,7.4,6.1,1024,1024,1024,1024,0,0,0,0,84,4.773,71.6,99.409452,P-GPS,,30.3
226900,2026-01-08 12:31:41,0.0,5,7.661,0.0,0.0,0.0,12.6,8.3,5.8,1024,1024,1024,1024,0,0,0,0,84,4.773,71.6,99.409452,P-GPS,,30.3
227000,2026-01-08 12:31:41,0.0,5,7.661,0.0,0.0,0.0,12.5,8.3,5.7,1024,1024,1024,1024,0,0,0,0,84,4.773,71.6,99.409452,P-GPS,,30.3
227100,2026-01-08 12:31:41,0.0,5,7.661,0.0,0.0,0.0,12.5,7.5,5.1,1024,1024,1024,1024,0,0,0,0,84,4.773,71.6,99.409452,P-GPS,,30.3
227200,2026-01-08 12:31:42,0.0,5,7.704,0.0,0.0,0.0,12.4,7.6,5.4,1024,1024,1024,1024,0,0,0,0,84,4.498,71.78,99.737536,P-GPS,,30.4
227300,2026-01-08 12:31:42,0.0,5,7.704,0.0,0.0,0.0,12.3,7.3,5.3,1024,1024,1024,1024,0,0,0,0,84,4.498,71.78,99.737536,P-GPS,,30.4
227400,2026-01-08 12:31:42,0.0,5,7.704,0.0,0.0,0.0,12.3,7.2,5.2,1024,1024,1024,1024,0,0,0,0,84,4.498,71.78,99.737536,P-GPS,,30.4
227500,2026-01-08 12:31:42,0.0,5,7.704,0.0,0.0,0.0,12.2,7.1,5.0,1024,1024,1024,1024,0,0,0,0,84,4.498,71.78,99.737536,P-GPS,,30.4
227600,2026-01-08 12:31:42,0.0,5,7.704,0.0,0.0,0.0,12.2,7.2,4.8,1024,1024,1024,1024,0,0,0,0,84,4.498,71.78,99.737536,P-GPS,SD card speed low SD card speed low. Normal use may be affected. Replace SD card (Code: 10028). Gimbal stuck. Make sure gimbal cover is removed and manually check whether gimbal can rotate freely (Code: 40002),30.4
227700,2026-01-08 12:31:42,0.0,5,7.704,0.0,0.0,0.0,12.1,6.8,4.5,1024,1024,1024,1024,0,0,0,0,84,4.498,71.78,99.737536,P-GPS,,30.4
227800,2026-01-08 12:31:42,0.0,5,7.704,0.0,0.0,0.0,12.0,6.3,4.3,1024,1024,1024,1024,0,0,0,0,84,4.498,71.78,99.737536,P-GPS,,30.4
227900,2026-01-08 12:31:42,0.0,5,7.704,0.0,0.0,0.0,12.2,7.0,3.9,1024,1024,1024,1024,0,0,0,0,84,4.498,71.78,99.737536,P-GPS,,30.4
228000,2026-01-08 12:31:42,0.0,5,7.704,0.0,0.0,0.0,12.2,8.3,3.3,1024,1024,1024,1024,0,0,0,0,84,4.498,71.78,99.737536,P-GPS,,30.4
228100,2026-01-08 12:31:42,0.0,5,7.704,0.0,0.0,0.0,12.1,8.2,3.2,1024,1024,1024,1024,0,0,0,0,84,4.498,71.78,99.737536,P-GPS,,30.4
228200,2026-01-08 12:31:42,0.0,5,7.704,0.0,0.0,0.0,12.1,8.4,3.5,1024,1024,1024,1024,0,0,0,0,84,4.245,71.78,99.737536,P-GPS,,30.4
228300,2026-01-08 12:31:43,0.0,5,7.704,0.0,0.0,0.0,12.1,8.9,3.7,1024,1024,1024,1024,0,0,0,0,84,4.245,71.78,99.737536,P-GPS,,30.4
228400,2026-01-08 12:31:43,0.0,5,7.704,0.0,0.0,0.0,12.2,8.7,3.5,1024,1024,1024,1024,0,0,0,0,84,4.245,71.78,99.737536,P-GPS,,30.4
228500,2026-01-08 12:31:43,0.0,5,7.704,0.0,0.0,0.0,12.1,8.0,3.5,1024,1024,1024,1024,0,0,0,0,84,4.245,71.78,99.737536,P-GPS,,30.4
228600,2026-01-08 12:31:43,0.0,5,7.704,0.0,0.0,0.0,12.1,8.5,3.5,1024,1024,1024,1024,0,0,0,0,84,4.245,71.78,99.737536,P-GPS,,30.4
228700,2026-01-08 12:31:43,0.0,5,7.704,0.0,0.0,0.0,12.2,8.9,3.4,1024,1024,1024,1024,0,0,0,0,84,4.245,71.78,99.737536,P-GPS,,30.4
228800,2026-01-08 12:31:43,0.0,5,7.704,0.0,0.0,0.0,12.1,8.0,3.5,1024,1024,1024,1024,0,0,0,0,84,4.245,71.78,99.737536,P-GPS,,30.4
228900,2026-01-08 12:31:43,0.0,5,7.704,0.0,0.0,0.0,12.1,8.3,3.4,1024,1024,1024,1024,0,0,0,0,84,4.245,71.78,100.06562,P-GPS,,30.5
229000,2026-01-08 12:31:43,0.0,5,7.704,0.0,0.0,0.0,12.1,8.3,4.1,1024,1024,1024,1024,0,0,0,0,84,4.245,71.78,100.06562,P-GPS,,30.5
229100,2026-01-08 12:31:43,0.0,5,7.704,0.0,0.0,0.0,12.2,8.1,4.0,1024,1024,1024,1024,0,0,0,0,84,4.245,71.78,100.06562,P-GPS,,30.5
229200,2026-01-08 12:31:44,0.0,5,7.69,0.0,0.0,0.0,12.2,8.6,4.0,1024,1024,1024,1024,0,0,0,0,84,4.736,71.78,100.06562,P-GPS,,30.5
229300,2026-01-08 12:31:44,0.0,5,7.69,0.0,0.0,0.0,12.2,8.6,3.9,1024,1024,1024,1024,0,0,0,0,84,4.736,71.78,100.06562,P-GPS,,30.5
229400,2026-01-08 12:31:44,0.0,5,7.69,0.0,0.0,0.0,12.2,8.7,3.9,1024,1024,1024,1024,0,0,0,0,84,4.736,71.78,100.06562,P-GPS,,30.5
229500,2026-01-08 12:31:44,0.0,5,7.69,0.0,0.0,0.0,12.2,8.6,3.8,1024,1024,1024,1024,0,0,0,0,84,4.736,71.78,100.06562,P-GPS,,30.5
229600,2026-01-08 12:31:44,0.0,5,7.69,0.0,0.0,0.0,12.1,8.1,3.8,1024,1024,1024,1024,0,0,0,0,84,4.736,71.78,100.06562,P-GPS,,30.5
229700,2026-01-08 12:31:44,0.0,5,7.69,0.0,0.0,0.0,12.3,8.4,3.7,1024,1024,1024,1024,0,0,0,0,84,4.736,71.78,100.06562,P-GPS,,30.5
229800,2026-01-08 12:31:44,0.0,5,7.69,0.0,0.0,0.0,12.4,8.5,4.2,1024,1024,1024,1024,0,0,0,0,84,4.736,71.78,100.06562,P-GPS,,30.5
229900,2026-01-08 12:31:44,0.0,5,7.69,0.0,0.0,0.0,12.4,8.9,4.7,1024,1024,1024,1024,0,0,0,0,84,4.736,71.78,100.06562,P-GPS,,30.5
230000,2026-01-08 12:31:44,0.0,5,7.69,0.0,0.0,0.0,12.3,8.4,4.5,1024,1024,1024,1024,0,0,0,0,84,4.736,71.78,100.06562,P-GPS,,30.5
230100,2026-01-08 12:31:44,0.0,5,7.69,0.0,0.0,0.0,12.4,9.0,4.3,1024,1024,1024,1024,0,0,0,0,84,4.736,71.78,100.06562,P-GPS,,30.5
230200,2026-01-08 12:31:44,0.0,5,7.7,0.0,0.0,0.0,12.3,8.8,4.3,1024,1024,1024,1024,0,0,0,0,84,4.778,71.78,100.06562,P-GPS,,30.5
230300,2026-01-08 12:31:45,0.0,5,7.7,0.0,0.0,0.0,12.4,9.2,4.3,1024,1024,1024,1024,0,0,0,0,84,4.778,71.78,100.393704,P-GPS,,30.6
230400,2026-01-08 12:31:45,0.0,5,7.7,0.0,0.0,0.0,12.3,9.2,4.5,1024,1024,1024,1024,0,0,0,0,84,4.778,71.78,100.393704,P-GPS,,30.6
230500,2026-01-08 12:31:45,0.0,5,7.7,0.0,0.0,0.0,12.3,9.0,4.2,1024,1024,1024,1024,0,0,0,0,84,4.778,71.78,100.393704,P-GPS,,30.6
230600,2026-01-08 12:31:45,0.0,5,7.7,0.0,0.0,0.0,12.3,9.3,3.8,1024,1024,1024,1024,0,0,0,0,84,4.778,71.78,100.06562,P-GPS,,30.5
230700,2026-01-08 12:31:45,0.0,5,7.7,0.0,0.0,0.0,12.3,8.9,3.8,1024,1024,1024,1024,0,0,0,0,84,4.778,71.78,100.06562,P-GPS,,30.5
230800,2026-01-08 12:31:45,0.0,5,7.7,0.0,0.0,0.0,12.4,9.2,3.9,1024,1024,1024,1024,0,0,0,0,84,4.778,71.78,100.06562,P-GPS,,30.5
230900,2026-01-08 12:31:45,0.0,5,7.7,0.0,0.0,0.0,12.4,9.1,3.8,1024,1024,1024,1024,0,0,0,0,84,4.778,71.78,100.06562,P-GPS,,30.5
231000,2026-01-08 12:31:45,0.0,5,7.7,0.0,0.0,0.0,12.3,9.1,3.5,1024,1024,1024,1024,0,0,0,0,84,4.778,71.78,100.06562,P-GPS,,30.5
231100,2026-01-08 12:31:45,0.0,5,7.7,0.0,0.0,0.0,12.3,8.9,2.9,1024,1024,1024,1024,0,0,0,0,84,4.778,71.78,100.06562,P-GPS,,30.5
231200,2026-01-08 12:31:46,0.0,5,7.689,0.0,0.0,0.0,12.2,8.9,2.6,1024,1024,1024,1024,0,0,0,0,84,4.934,71.78,100.06562,P-GPS,,30.5
231300,2026-01-08 12:31:46,0.0,5,7.689,0.0,0.0,0.0,12.2,9.3,2.6,1024,1024,1024,1024,0,0,0,0,84,4.934,71.78,100.06562,P-GPS,,30.5
231400,2026-01-08 12:31:46,0.0,5,7.689,0.0,0.0,0.0,12.2,8.9,2.9,1024,1024,1024,1024,0,0,0,0,84,4.934,71.78,100.06562,P-GPS,,30.5
231500,2026-01-08 12:31:46,0.0,5,7.689,0.0,0.0,0.0,12.2,8.9,3.3,1024,1024,1024,1024,0,0,0,0,84,4.934,71.78,100.06562,P-GPS,,30.5
231600,2026-01-08 12:31:46,0.0,5,7.689,0.0,0.0,0.0,12.1,8.8,3.5,1024,1024,1024,1024,0,0,0,0,84,4.934,71.78,100.06562,P-GPS,,30.5
231700,2026-01-08 12:31:46,0.0,5,7.689,0.0,0.0,0.0,12.3,8.2,3.5,1024,1024,1024,1024,0,0,0,0,84,4.934,71.78,100.06562,P-GPS,,30.5
231800,2026-01-08 12:31:46,0.0,5,7.689,0.0,0.0,0.0,12.4,8.6,3.0,1024,1024,1024,1024,0,0,0,0,84,4.934,71.78,100.06562,P-GPS,,30.5
231900,2026-01-08 12:31:46,0.0,5,7.689,0.0,0.0,0.0,12.1,7.7,3.5,1024,1024,1024,1024,0,0,0,0,84,4.934,71.78,100.393704,P-GPS,,30.6
232000,2026-01-08 12:31:46,0.0,5,7.689,0.0,0.0,0.0,12.2,6.4,3.9,1024,1024,1024,1024,0,0,0,0,84,4.934,71.78,100.393704,P-GPS,,30.6
232100,2026-01-08 12:31:46,0.0,5,7.689,0.0,0.0,0.0,12.2,6.9,4.7,1024,1024,1024,1024,0,0,0,0,84,4.934,71.78,100.393704,P-GPS,,30.6
232200,2026-01-08 12:31:47,0.223694,5,7.7,0.0,-0.223694,0.0,12.1,6.3,5.8,1024,1024,1024,1024,0,0,0,0,84,4.902,71.96,100.393704,P-GPS,,30.6
232300,2026-01-08 12:31:47,0.223694,5,7.7,0.0,-0.223694,0.0,12.3,6.6,5.8,1024,1024,1024,1024,0,0,0,0,84,4.902,71.96,100.721788,P-GPS,,30.7
232400,2026-01-08 12:31:47,0.223694,5,7.7,0.0,-0.223694,0.0,12.4,6.7,5.7,1024,1024,1024,1024,0,0,0,0,84,4.902,71.96,100.721788,P-GPS,,30.7
232500,2026-01-08 12:31:47,0.0,5,7.7,0.0,0.0,0.0,12.6,7.0,6.3,1024,1024,1024,1024,0,0,0,0,84,4.902,71.96,100.721788,P-GPS,,30.7
232600,2026-01-08 12:31:47,0.0,5,7.7,0.0,0.0,0.0,12.6,7.1,5.8,1024,1024,1024,1024,0,0,0,0,84,4.902,71.96,101.049872,P-GPS,,30.8
232700,2026-01-08 12:31:47,0.0,5,7.7,0.0,0.0,0.0,12.6,7.0,6.1,1024,1024,1024,1024,0,0,0,0,84,4.902,71.96,101.049872,P-GPS,,30.8
232800,2026-01-08 12:31:47,0.0,5,7.7,0.0,0.0,0.0,12.4,6.3,5.8,1024,1024,1024,1024,0,0,0,0,84,4.902,71.96,101.049872,P-GPS,,30.8
232900,2026-01-08 12:31:47,0.0,5,7.7,0.0,0.0,0.0,12.3,5.9,6.2,1024,1024,1024,1024,0,0,0,0,84,4.902,71.96,101.049872,P-GPS,,30.8
233000,2026-01-08 12:31:47,0.0,5,7.7,0.0,0.0,0.0,12.4,6.6,5.8,1024,1024,1024,1024,0,0,0,0,84,4.902,71.96,101.049872,P-GPS,,30.8
233100,2026-01-08 12:31:47,0.0,5,7.7,0.0,0.0,0.0,12.4,6.6,5.6,1024,1024,1024,1024,0,0,0,0,84,4.902,71.96,101.049872,P-GPS,,30.8
233200,2026-01-08 12:31:47,0.0,5,7.72,0.0,0.0,0.0,12.4,6.8,5.4,1024,1024,1024,1024,0,0,0,0,84,4.474,71.96,101.049872,P-GPS,,30.8
233300,2026-01-08 12:31:48,0.0,5,7.72,0.0,0.0,0.0,12.3,6.3,5.1,1024,1024,1024,1024,0,0,0,0,84,4.474,71.96,101.049872,P-GPS,,30.8
233400,2026-01-08 12:31:48,0.0,5,7.72,0.0,0.0,0.0,12.4,5.2,5.3,1024,1024,1024,1024,0,0,0,0,84,4.474,71.96,101.049872,P-GPS,,30.8
233500,2026-01-08 12:31:48,0.0,5,7.72,0.0,0.0,0.0,12.4,5.7,5.1,1024,1024,1024,1024,0,0,0,0,84,4.474,71.96,101.049872,P-GPS,,30.8
233600,2026-01-08 12:31:48,0.0,5,7.72,0.0,0.0,0.0,12.4,4.3,4.6,1024,1024,1024,1024,0,0,0,0,84,4.474,71.96,101.049872,P-GPS,,30.8
233700,2026-01-08 12:31:48,0.0,5,7.72,0.0,0.0,0.0,12.5,3.8,4.9,1024,1024,1024,1024,0,0,0,0,84,4.474,71.96,100.721788,P-GPS,,30.7
233800,2026-01-08 12:31:48,0.0,5,7.72,0.0,0.0,0.0,12.3,3.7,5.7,1024,1024,1024,1024,0,0,0,0,84,4.474,71.96,100.721788,P-GPS,,30.7
233900,2026-01-08 12:31:48,0.0,5,7.72,0.0,0.0,0.0,12.3,4.9,4.4,1024,1024,1024,1024,0,0,0,0,84,4.474,71.96,100.393704,P-GPS,,30.6
234000,2026-01-08 12:31:48,0.0,5,7.72,0.0,0.0,0.0,12.3,5.0,4.8,1024,1024,1024,1024,0,0,0,0,84,4.474,71.96,100.393704,P-GPS,,30.6
234100,2026-01-08 12:31:48,0.0,5,7.72,0.0,0.0,0.0,12.2,5.2,4.5,1024,1024,1024,1024,0,0,0,0,84,4.474,71.96,100.06562,P-GPS,,30.5
234200,2026-01-08 12:31:48,0.0,5,7.72,0.0,0.0,0.0,12.3,5.8,3.9,1024,1024,1024,1024,0,0,0,0,84,4.474,71.96,100.06562,P-GPS,,30.5
234300,2026-01-08 12:31:49,0.0,5,7.72,0.0,0.0,0.0,12.4,5.7,3.8,1024,1024,1024,1024,0,0,0,0,84,4.474,71.96,99.737536,P-GPS,,30.4
234400,2026-01-08 12:31:49,0.0,5,7.72,0.0,0.0,0.0,12.2,5.0,4.5,1024,1024,1024,1024,0,0,0,0,84,4.474,71.96,99.409452,P-GPS,,30.3
234500,2026-01-08 12:31:49,0.0,5,7.72,0.0,0.0,0.0,11.9,5.5,4.1,1024,1024,1024,1024,0,0,0,0,84,4.474,71.96,99.409452,P-GPS,,30.3
234600,2026-01-08 12:31:49,0.0,5,7.72,0.0,0.0,0.0,11.8,5.6,4.3,1024,1024,1024,1024,0,0,0,0,84,4.474,71.96,99.081368,P-GPS,,30.2
234700,2026-01-08 12:31:49,0.0,5,7.72,0.0,0.0,0.0,11.9,6.0,4.9,1024,1024,1024,1024,0,0,0,0,84,4.474,71.96,99.081368,P-GPS,,30.2
234800,2026-01-08 12:31:49,0.0,5,7.72,0.0,0.0,0.0,12.0,6.1,5.0,1024,1024,1024,1024,0,0,0,0,84,4.474,71.96,99.081368,P-GPS,,30.2
234900,2026-01-08 12:31:49,0.0,5,7.72,0.0,0.0,0.0,12.2,6.5,4.9,1024,1024,1024,1024,0,0,0,0,84,4.474,71.96,99.081368,P-GPS,,30.2
235000,2026-01-08 12:31:49,0.0,5,7.72,0.0,0.0,0.0,12.1,6.6,4.9,1024,1024,1024,1024,0,0,0,0,84,4.474,71.96,99.081368,P-GPS,,30.2
235100,2026-01-08 12:31:49,0.0,5,7.72,0.0,0.0,0.0,12.1,7.1,4.6,1024,1024,1024,1024,0,0,0,0,84,4.474,71.96,99.409452,P-GPS,,30.3
235200,2026-01-08 12:31:50,0.0,5,7.72,0.0,0.0,0.0,12.1,7.1,4.0,1024,1024,1024,1024,0,0,0,0,84,4.474,71.96,99.409452,P-GPS,,30.3
235300,2026-01-08 12:31:50,0.0,5,7.748,0.0,0.0,0.0,12.1,7.3,4.1,1024,1024,1024,1024,0,0,0,0,84,3.95,71.96,99.737536,P-GPS,,30.4
235400,2026-01-08 12:31:50,0.0,5,7.748,0.0,0.0,0.0,12.0,6.9,3.7,1024,1024,1024,1024,0,0,0,0,84,3.95,71.96,99.737536,P-GPS,,30.4
235500,2026-01-08 12:31:50,0.0,5,7.748,0.0,0.0,0.0,12.0,6.7,3.6,1024,1024,1024,1024,0,0,0,0,84,3.95,71.96,99.737536,P-GPS,,30.4
235600,2026-01-08 12:31:50,0.0,5,7.748,0.0,0.0,0.0,11.9,5.3,3.6,1024,1024,1024,1024,0,0,0,0,84,3.95,71.96,99.737536,P-GPS,,30.4
235700,2026-01-08 12:31:50,0.0,5,7.748,0.0,0.0,-0.223694,11.9,4.6,4.0,1024,1024,1024,1024,0,0,0,0,84,3.95,71.96,99.737536,P-GPS,,30.4
235800,2026-01-08 12:31:50,0.223694,5,7.748,0.0,0.223694,-0.223694,11.8,4.3,2.4,1024,1024,1024,1024,0,0,0,0,84,3.95,71.96,99.409452,P-GPS,,30.3
235900,2026-01-08 12:31:50,0.223694,5,7.748,0.0,0.223694,0.0,11.8,6.2,1.6,1024,1024,1024,1024,0,0,0,0,84,3.95,71.96,99.409452,P-GPS,,30.3
236000,2026-01-08 12:31:50,0.223694,5,7.748,0.0,0.0,0.0,11.7,6.4,1.8,1024,1024,1024,1024,0,0,0,0,84,3.95,71.96,99.409452,P-GPS,,30.3
236100,2026-01-08 12:31:50,0.0,5,7.748,0.0,0.0,0.0,11.8,7.6,2.5,1024,1024,1024,1024,0,0,0,0,84,3.95,71.96,99.081368,P-GPS,,30.2
236200,2026-01-08 12:31:50,0.0,5,7.748,0.0,0.0,0.0,11.9,7.6,3.1,1024,1024,1024,1024,0,0,0,0,84,3.95,71.96,99.081368,P-GPS,,30.2
236300,2026-01-08 12:31:51,0.0,5,7.748,0.0,0.0,0.0,11.8,7.7,3.4,1024,1024,1024,1024,0,0,0,0,84,3.95,71.96,98.753284,P-GPS,,30.1
236400,2026-01-08 12:31:51,0.0,5,7.748,0.0,0.0,0.0,11.9,7.6,3.5,1024,1024,1024,1024,0,0,0,0,84,3.95,71.96,98.753284,P-GPS,,30.1
236500,2026-01-08 12:31:51,0.0,5,7.752,0.0,0.0,0.0,11.9,7.7,4.0,1024,1024,1024,1024,0,0,0,0,84,3.773,71.96,98.753284,P-GPS,,30.1
236600,2026-01-08 12:31:51,0.0,5,7.752,0.0,0.0,0.0,11.9,7.4,4.0,1024,1024,1024,1024,0,0,0,0,84,3.773,71.96,98.753284,P-GPS,,30.1
236700,2026-01-08 12:31:51,0.0,5,7.752,0.0,0.0,0.0,12.0,7.6,4.4,1024,1024,1024,1024,0,0,0,0,84,3.773,71.96,98.753284,P-GPS,,30.1
236800,2026-01-08 12:31:51,0.0,5,7.752,0.0,0.0,0.0,12.2,6.9,4.5,1024,1024,1024,1024,0,0,0,0,84,3.773,71.96,98.753284,P-GPS,,30.1
236900,2026-01-08 12:31:51,0.0,5,7.752,0.0,0.0,0.0,12.4,7.3,5.0,1024,1024,1024,1024,0,0,0,0,84,3.773,71.96,99.081368,P-GPS,,30.2
237000,2026-01-08 12:31:51,0.0,5,7.752,0.0,0.0,0.0,12.5,7.4,5.6,1024,1024,1024,1024,0,0,0,0,84,3.773,71.96,99.081368,P-GPS,,30.2
237100,2026-01-08 12:31:51,0.0,5,7.752,0.0,0.0,0.0,12.4,7.0,4.9,1024,1024,1024,1024,0,0,0,0,84,3.773,71.96,99.409452,P-GPS,,30.3
237200,2026-01-08 12:31:52,0.0,5,7.752,0.0,0.0,0.0,12.4,6.7,4.2,1024,1024,1024,1024,0,0,0,0,84,3.773,71.96,99.409452,P-GPS,,30.3
237300,2026-01-08 12:31:52,0.0,5,7.752,0.0,0.0,0.0,12.4,7.1,3.9,1024,1024,1024,1024,0,0,0,0,84,3.773,71.96,99.737536,P-GPS,,30.4
237400,2026-01-08 12:31:52,0.0,5,7.752,0.0,0.0,0.0,12.4,6.9,3.9,1024,1024,1024,1024,0,0,0,0,84,3.773,71.96,99.737536,P-GPS,,30.4
237500,2026-01-08 12:31:52,0.0,5,7.752,0.0,0.0,0.0,12.3,6.6,3.9,1024,1024,1024,1024,0,0,0,0,84,3.773,71.96,100.06562,P-GPS,,30.5
237600,2026-01-08 12:31:52,0.0,5,7.717,0.0,0.0,0.0,12.3,5.3,4.2,1024,1024,1024,1024,0,0,0,0,83,4.329,72.14,100.06562,P-GPS,,30.5
237700,2026-01-08 12:31:52,0.0,5,7.717,0.0,0.0,0.0,12.3,4.9,4.7,1024,1024,1024,1024,0,0,0,0,83,4.329,72.14,100.393704,P-GPS,,30.6
237800,2026-01-08 12:31:52,0.0,5,7.717,0.0,0.0,0.0,12.3,5.4,5.0,1024,1024,1024,1024,0,0,0,0,83,4.329,72.14,100.393704,P-GPS,,30.6
237900,2026-01-08 12:31:52,0.0,5,7.717,0.0,0.0,0.0,12.2,6.5,5.0,1024,1024,1024,1024,0,0,0,0,83,4.329,72.14,100.721788,P-GPS,,30.7
238000,2026-01-08 12:31:52,0.0,5,7.717,0.0,0.0,0.0,12.1,6.9,5.0,1024,1024,1024,1024,0,0,0,0,83,4.329,72.14,100.721788,P-GPS,,30.7
238100,2026-01-08 12:31:52,0.0,5,7.717,0.0,0.0,0.0,12.1,7.2,5.0,1024,1024,1024,1024,0,0,0,0,83,4.329,72.14,100.721788,P-GPS,,30.7
238200,2026-01-08 12:31:53,0.0,5,7.717,0.0,0.0,0.0,12.1,7.1,5.3,1024,1024,1024,1024,0,0,0,0,83,4.329,72.14,100.721788,P-GPS,,30.7
238300,2026-01-08 12:31:53,0.0,5,7.717,0.0,0.0,0.0,12.2,7.5,5.3,1024,1024,1024,1024,0,0,0,0,83,4.329,72.14,100.721788,P-GPS,,30.7
238400,2026-01-08 12:31:53,0.0,5,7.717,0.0,0.0,0.0,12.3,7.1,4.9,1024,1024,1024,1024,0,0,0,0,83,4.329,72.14,100.721788,P-GPS,,30.7
238500,2026-01-08 12:31:53,0.0,5,7.717,0.0,0.0,0.0,12.3,7.2,5.0,1024,1024,1024,1024,0,0,0,0,83,4.329,72.14,100.721788,P-GPS,,30.7
238600,2026-01-08 12:31:53,0.0,5,7.717,0.0,0.0,0.0,12.3,6.9,4.9,1024,1024,1024,1024,0,0,0,0,83,4.329,72.14,100.721788,P-GPS,,30.7
238700,2026-01-08 12:31:53,0.0,5,7.728,0.0,0.0,0.0,12.3,7.6,4.9,1024,1024,1024,1024,0,0,0,0,83,4.315,72.14,100.721788,P-GPS,,30.7
238800,2026-01-08 12:31:53,0.0,5,7.728,0.0,0.0,0.0,12.3,7.4,4.8,1024,1024,1024,1024,0,0,0,0,83,4.315,72.14,100.721788,P-GPS,,30.7
238900,2026-01-08 12:31:53,0.0,5,7.728,0.0,0.0,0.0,12.4,8.2,5.1,1024,1024,1024,1024,0,0,0,0,83,4.315,72.14,100.393704,P-GPS,,30.6
239000,2026-01-08 12:31:53,0.0,5,7.728,0.0,0.0,0.0,12.4,8.5,5.1,1024,1024,1024,1024,0,0,0,0,83,4.315,72.14,100.393704,P-GPS,,30.6
239100,2026-01-08 12:31:53,0.0,5,7.728,0.0,0.0,0.0,12.3,8.6,4.6,1024,1024,1024,1024,0,0,0,0,83,4.315,72.14,100.393704,P-GPS,,30.6
239200,2026-01-08 12:31:53,0.0,5,7.728,0.0,0.0,0.0,12.2,8.1,4.6,1024,1024,1024,1024,0,0,0,0,83,4.315,72.14,100.393704,P-GPS,,30.6
239300,2026-01-08 12:31:54,0.0,5,7.728,0.0,0.0,0.0,12.3,7.9,4.5,1024,1024,1024,1024,0,0,0,0,83,4.315,72.14,100.393704,P-GPS,,30.6
239400,2026-01-08 12:31:54,0.0,5,7.728,0.0,0.0,0.0,12.3,7.5,4.3,1024,1024,1024,1024,0,0,0,0,83,4.315,72.14,100.393704,P-GPS,,30.6
239500,2026-01-08 12:31:54,0.0,5,7.728,0.0,0.0,0.0,12.4,7.3,4.4,1024,1024,1024,1024,0,0,0,0,83,4.315,72.14,100.393704,P-GPS,,30.6
239600,2026-01-08 12:31:54,0.0,5,7.728,0.0,0.0,0.0,12.4,7.5,4.4,1024,1024,1024,1024,0,0,0,0,83,4.315,72.14,100.721788,P-GPS,,30.7
239700,2026-01-08 12:31:54,0.0,5,7.728,0.0,0.0,0.0,12.4,7.1,4.7,1024,1024,1024,1024,0,0,0,0,83,4.315,72.14,100.721788,P-GPS,,30.7
239800,2026-01-08 12:31:54,0.0,5,7.722,0.0,0.0,0.0,12.4,7.1,5.1,1024,1024,1684,1024,0,0,100,0,83,4.454,72.14,100.721788,P-GPS,,30.7
239900,2026-01-08 12:31:54,0.0,5,7.722,0.0,0.0,0.0,12.4,7.0,5.5,1024,1024,1684,1024,0,0,100,0,83,4.454,72.14,100.721788,P-GPS,,30.7
240000,2026-01-08 12:31:54,0.0,5,7.722,0.0,0.0,0.0,12.4,7.5,5.0,1024,1024,1684,1024,0,0,100,0,83,4.454,72.14,100.721788,P-GPS,,30.7
240100,2026-01-08 12:31:54,0.0,5,7.722,0.0,0.0,-0.447388,12.2,7.2,4.4,1024,1024,1684,1024,0,0,100,0,83,4.454,72.14,101.049872,P-GPS,,30.8
240200,2026-01-08 12:31:55,0.0,5,7.722,0.0,0.0,-1.342164,12.1,6.6,4.4,1024,1024,1684,1024,0,0,100,0,83,4.454,72.14,101.049872,P-GPS,,30.8
240300,2026-01-08 12:31:55,0.0,5,7.722,0.0,0.0,-2.013246,12.2,7.6,5.0,1024,1024,1684,1024,0,0,100,0,83,4.454,72.14,101.377956,P-GPS,,30.9
240400,2026-01-08 12:31:55,0.0,5,7.722,0.0,0.0,-2.908022,12.2,7.6,4.9,1024,1024,1684,1024,0,0,100,0,83,4.454,72.14,101.70604,P-GPS,,31.0
240500,2026-01-08 12:31:55,0.0,5,7.722,0.0,0.0,-3.579104,12.2,7.7,5.0,1024,1024,1684,1024,0,0,100,0,83,4.454,72.14,102.362208,P-GPS,,31.2
240600,2026-01-08 12:31:55,0.0,5,7.722,0.0,0.0,-4.026492,12.3,7.7,5.1,1024,1024,1684,1024,0,0,100,0,83,4.454,72.14,102.690292,P-GPS,,31.3
240700,2026-01-08 12:31:55,0.0,5,7.722,0.0,0.0,-4.250186,12.2,7.5,5.0,1024,1024,1684,1024,0,0,100,0,83,4.454,72.14,103.34646,P-GPS,,31.5
240800,2026-01-08 12:31:55,0.0,5,7.722,0.0,0.0,-4.250186,12.3,7.8,4.9,1024,1024,1684,1024,0,0,100,0,83,4.454,72.14,104.002628,P-GPS,,31.7
240900,2026-01-08 12:31:55,0.0,5,7.597,0.0,0.0,-4.250186,12.2,7.5,4.2,1024,1024,1684,1024,0,0,100,0,83,6.219,72.14,104.658796,P-GPS,,31.9
297300,2026-01-08 12:32:52,0.223694,5,7.731,0.223694,0.0,4.026492,11.5,6.7,5.0,1024,1024,364,1024,0,0,-100,0,80,3.126,73.76,104.658796,P-GPS,,31.9
297400,2026-01-08 12:32:52,0.223694,5,7.731,0.223694,0.0,4.026492,11.6,7.2,4.7,1024,1024,364,1024,0,0,-100,0,80,3.126,73.76,104.002628,P-GPS,,31.7
297500,2026-01-08 12:32:52,0.223694,5,7.731,0.223694,0.0,3.802798,11.6,7.0,4.8,1024,1024,364,1024,0,0,-100,0,80,3.126,73.76,103.34646,P-GPS,,31.5
297600,2026-01-08 12:32:52,0.223694,5,7.731,0.223694,0.0,3.802798,11.7,7.6,5.0,1024,1024,364,1024,0,0,-100,0,80,3.126,73.76,102.690292,P-GPS,,31.3
297700,2026-01-08 12:32:52,0.0,5,7.731,0.0,0.0,4.026492,11.9,7.6,3.8,1024,1024,364,1024,0,0,-100,0,80,3.126,73.76,102.034124,P-GPS,,31.1
297800,2026-01-08 12:32:52,0.0,5,7.731,0.0,0.0,3.802798,12.0,7.1,4.2,1024,1024,364,1024,0,0,-100,0,80,3.126,73.76,101.70604,P-GPS,,31.0
297900,2026-01-08 12:32:52,0.0,5,7.731,0.0,0.0,3.802798,12.0,7.1,4.9,1024,1024,364,1024,0,0,-100,0,80,3.126,73.76,101.049872,P-GPS,,30.8
298000,2026-01-08 12:32:52,0.0,5,7.731,0.0,0.0,4.026492,11.8,5.6,4.5,1024,1024,364,1024,0,0,-100,0,80,3.126,73.76,100.393704,P-GPS,,30.6
298100,2026-01-08 12:32:52,0.0,5,7.731,0.0,0.0,4.026492,11.7,4.9,4.0,1024,1024,364,1024,0,0,-100,0,80,3.126,73.76,99.737536,P-GPS,,30.4
298200,2026-01-08 12:32:53,0.0,5,7.731,0.0,0.0,4.026492,11.8,4.9,3.6,1024,1024,364,1024,0,0,-100,0,80,3.126,73.76,99.081368,P-GPS,,30.2
298300,2026-01-08 12:32:53,0.0,5,7.731,0.0,0.0,4.026492,12.3,4.8,3.7,1024,1024,364,1024,0,0,-100,0,80,3.126,73.76,98.4252,P-GPS,,30.0
298400,2026-01-08 12:32:53,0.0,5,7.731,0.0,0.0,3.802798,12.3,4.7,4.0,1024,1024,364,1024,0,0,-100,0,80,3.126,73.76,97.769032,P-GPS,,29.8
298500,2026-01-08 12:32:53,0.0,5,7.731,0.0,0.0,3.802798,12.3,4.7,4.2,1024,1024,364,1024,0,0,-100,0,80,3.126,73.76,97.112864,P-GPS,,29.6
298600,2026-01-08 12:32:53,0.0,5,7.731,0.0,0.0,3.802798,12.4,4.1,3.4,1024,1024,364,1024,0,0,-100,0,80,3.126,73.76,96.456696,P-GPS,,29.4
298700,2026-01-08 12:32:53,0.223694,5,7.731,-0.223694,0.0,3.802798,12.4,4.4,3.0,1024,1024,364,1024,0,0,-100,0,80,3.126,73.76,95.800528,P-GPS,,29.2
298800,2026-01-08 12:32:53,0.223694,5,7.731,-0.223694,0.0,3.802798,12.4,3.7,3.1,1024,1024,364,1024,0,0,-100,0,80,3.126,73.76,95.14436,P-GPS,,29.0
298900,2026-01-08 12:32:53,0.223694,5,7.731,-0.223694,0.0,4.026492,12.3,2.9,2.6,1024,1024,364,1024,0,0,-100,0,80,3.126,73.76,94.488192,P-GPS,,28.8
299000,2026-01-08 12:32:53,0.223694,5,7.731,-0.223694,0.0,4.026492,12.2,2.8,2.5,1024,1024,364,1024,0,0,-100,0,80,3.126,73.76,93.832024,P-GPS,,28.6
299100,2026-01-08 12:32:53,0.0,5,7.731,0.0,0.0,4.026492,12.1,3.0,2.8,1024,1024,364,1024,0,0,-100,0,80,3.126,73.76,93.175856,P-GPS,,28.4
299200,2026-01-08 12:32:53,0.0,5,7.731,0.0,0.0,4.026492,12.1,3.2,3.2,1024,1024,364,1024,0,0,-100,0,80,3.126,73.76,92.519688,P-GPS,,28.2
