index,time(millisecond),timestamp,speed(mph),gpslevel,voltage(v),xSpeed(mph),ySpeed(mph),zSpeed(mph),compass_heading(degrees),pitch(degrees),roll(degrees),rc_elevator,rc_aileron,rc_throttle,rc_rudder,rc_elevator(percent),rc_aileron(percent),rc_throttle(percent),rc_rudder(percent),battery_percent,current(A),battery_temperature(f),ascent(feet),flycState,message,height_above_takeoff(meters)
894,251200,2026-01-08 12:32:06,0.0,5,7.738,0.0,0.0,0.0,12.3,8.8,6.2,1024,1024,1024,1024,0,0,0,0,82,4.772,72.5,165.026252,P-GPS,,50.3
895,251300,2026-01-08 12:32:06,0.0,5,7.738,0.0,0.0,0.0,12.3,8.5,6.1,1024,1024,1024,1024,0,0,0,0,82,4.772,72.5,165.026252,P-GPS,,50.3
896,251400,2026-01-08 12:32:06,0.0,5,7.738,0.0,0.0,0.0,12.3,7.9,6.0,1024,1024,1024,1024,0,0,0,0,82,4.772,72.5,165.026252,P-GPS,,50.3
897,251500,2026-01-08 12:32:06,0.0,5,7.738,0.0,0.0,0.0,12.4,7.7,5.9,1024,1024,1024,1024,0,0,0,0,82,4.772,72.5,165.026252,P-GPS,,50.3
898,251600,2026-01-08 12:32:06,0.0,5,7.738,0.0,0.0,-0.223694,12.3,6.8,5.8,1024,1024,1024,1024,0,0,0,0,82,4.772,72.5,164.698168,P-GPS,,50.2
899,251700,2026-01-08 12:32:06,0.0,5,7.738,0.0,0.0,-0.223694,12.4,7.3,6.3,1024,1024,1024,1024,0,0,0,0,82,4.772,72.5,164.698168,P-GPS,,50.2
900,251800,2026-01-08 12:32:06,0.0,5,7.738,0.0,0.0,0.0,12.6,7.6,6.4,1024,1024,1024,1024,0,0,0,0,82,4.772,72.5,164.698168,P-GPS,,50.2
901,251900,2026-01-08 12:32:06,0.0,5,7.728,0.0,0.0,0.0,12.4,7.1,6.3,1024,1024,1024,1024,0,0,0,0,82,4.189,72.68,164.698168,P-GPS,,50.2
902,252000,2026-01-08 12:32:06,0.0,5,7.728,0.0,0.0,0.0,12.4,7.1,6.0,1024,1024,1024,1024,0,0,0,0,82,4.189,72.68,164.698168,P-GPS,,50.2
903,252100,2026-01-08 12:32:06,0.0,5,7.728,0.0,0.0,0.0,12.4,6.7,5.7,1024,1024,1024,1024,0,0,0,0,82,4.189,72.68,164.370084,P-GPS,,50.1
904,252200,2026-01-08 12:32:06,0.0,5,7.728,0.0,0.0,0.0,12.4,7.3,5.6,1024,1024,1024,1024,0,0,0,0,82,4.189,72.68,164.370084,P-GPS,,50.1
905,252300,2026-01-08 12:32:07,0.0,5,7.728,0.0,0.0,0.0,12.3,7.2,5.1,1024,1024,1024,1024,0,0,0,0,82,4.189,72.68,164.370084,P-GPS,,50.1
906,252400,2026-01-08 12:32:07,0.0,5,7.728,0.0,0.0,0.0,12.3,8.0,5.1,1024,1024,1024,1024,0,0,0,0,82,4.189,72.68,164.370084,P-GPS,,50.1
907,252500,2026-01-08 12:32:07,0.0,5,7.728,0.0,0.0,0.0,12.4,7.0,5.2,1024,1024,1024,1024,0,0,0,0,82,4.189,72.68,164.370084,P-GPS,,50.1
908,252600,2026-01-08 12:32:07,0.0,5,7.728,0.0,0.0,0.0,12.4,9.0,5.3,1024,1024,1024,1024,0,0,0,0,82,4.189,72.68,164.042,P-GPS,,50.0
909,252700,2026-01-08 12:32:07,0.0,5,7.728,0.0,0.0,0.0,12.4,8.6,4.9,1024,1024,1024,1024,0,0,0,0,82,4.189,72.68,164.370084,P-GPS,,50.1
910,252800,2026-01-08 12:32:07,0.0,5,7.728,0.0,0.0,0.0,12.4,7.8,4.7,1024,1024,1024,1024,0,0,0,0,82,4.189,72.68,164.370084,P-GPS,,50.1
911,252900,2026-01-08 12:32:07,0.0,5,7.728,0.0,0.0,0.0,12.3,7.6,4.9,1024,1024,1024,1024,0,0,0,0,82,4.189,72.68,164.370084,P-GPS,,50.1
912,253000,2026-01-08 12:32:07,0.0,5,7.708,0.0,0.0,0.0,12.4,8.1,5.2,1024,1024,1024,1024,0,0,0,0,82,3.887,72.68,164.370084,P-GPS,,50.1
913,253100,2026-01-08 12:32:07,0.0,5,7.708,0.0,0.0,0.0,12.4,8.5,5.1,1024,1024,1024,1024,0,0,0,0,82,3.887,72.68,164.370084,P-GPS,,50.1
914,253200,2026-01-08 12:32:08,0.0,5,7.708,0.0,0.0,0.0,12.3,8.0,5.0,1024,1024,1024,1024,0,0,0,0,82,3.887,72.68,164.698168,P-GPS,,50.2
915,253300,2026-01-08 12:32:08,0.0,5,7.708,0.0,0.0,0.0,12.2,7.9,5.1,1024,1024,1024,1024,0,0,0,0,82,3.887,72.68,164.698168,P-GPS,,50.2
916,253400,2026-01-08 12:32:08,0.0,5,7.708,0.0,0.0,-0.223694,12.3,8.0,5.2,1024,1024,1024,1024,0,0,0,0,82,3.887,72.68,164.698168,P-GPS,,50.2
917,253500,2026-01-08 12:32:08,0.0,5,7.708,0.0,0.0,-0.223694,12.3,8.6,5.1,1024,1024,1024,1024,0,0,0,0,82,3.887,72.68,164.698168,P-GPS,,50.2
918,253600,2026-01-08 12:32:08,0.0,5,7.708,0.0,0.0,-0.223694,12.3,8.9,5.3,1024,1024,1024,1024,0,0,0,0,82,3.887,72.68,164.698168,P-GPS,,50.2
919,253700,2026-01-08 12:32:08,0.0,5,7.708,0.0,0.0,0.0,12.2,9.7,5.4,1024,1024,1024,1024,0,0,0,0,82,3.887,72.68,164.698168,P-GPS,,50.2
920,253800,2026-01-08 12:32:08,0.0,5,7.708,0.0,0.0,0.0,12.2,9.0,5.5,1024,1024,1024,1024,0,0,0,0,82,3.887,72.68,164.698168,P-GPS,,50.2
921,253900,2026-01-08 12:32:08,0.0,5,7.708,0.0,0.0,0.0,12.2,9.4,5.3,1024,1024,1024,1024,0,0,0,0,82,3.887,72.68,164.698168,P-GPS,,50.2
922,254000,2026-01-08 12:32:08,0.0,5,7.708,0.0,0.0,0.0,12.4,9.1,6.1,1024,1024,1024,1024,0,0,0,0,82,3.887,72.68,164.698168,P-GPS,,50.2
923,254100,2026-01-08 12:32:08,0.0,5,7.744,0.0,0.0,0.0,12.3,8.5,5.8,1024,1024,1024,1024,0,0,0,0,82,3.68,72.68,164.698168,P-GPS,,50.2
924,254200,2026-01-08 12:32:08,0.0,5,7.744,0.0,0.0,0.0,12.3,9.0,6.1,1024,1024,1024,1024,0,0,0,0,82,3.68,72.68,164.698168,P-GPS,,50.2
925,254300,2026-01-08 12:32:09,0.0,5,7.744,0.0,0.0,0.0,12.4,10.2,6.2,1024,1024,1024,1024,0,0,0,0,82,3.68,72.68,164.698168,P-GPS,,50.2
926,254400,2026-01-08 12:32:09,0.0,5,7.744,0.0,0.0,0.223694,12.4,10.1,6.0,1024,1024,1024,1024,0,0,0,0,82,3.68,72.68,164.698168,P-GPS,,50.2
927,254500,2026-01-08 12:32:09,0.0,5,7.744,0.0,0.0,0.223694,12.5,10.5,5.6,1024,1024,1024,1024,0,0,0,0,82,3.68,72.68,164.698168,P-GPS,,50.2
928,254600,2026-01-08 12:32:09,0.0,5,7.744,0.0,0.0,0.223694,12.5,10.0,5.5,1024,1024,1024,1024,0,0,0,0,82,3.68,72.68,165.026252,P-GPS,,50.3
929,254700,2026-01-08 12:32:09,0.0,5,7.744,0.0,0.0,0.0,12.4,10.1,5.7,1024,1024,1024,1024,0,0,0,0,82,3.68,72.68,165.026252,P-GPS,,50.3
930,254800,2026-01-08 12:32:09,0.0,5,7.744,0.0,0.0,0.0,12.5,10.0,5.8,1024,1024,1024,1024,0,0,0,0,82,3.68,72.68,165.026252,P-GPS,,50.3
931,254900,2026-01-08 12:32:09,0.0,5,7.744,0.0,0.0,0.0,12.4,10.3,5.7,1024,1024,1024,1024,0,0,0,0,82,3.68,72.68,165.026252,P-GPS,,50.3
932,255000,2026-01-08 12:32:09,0.0,5,7.744,0.0,0.0,0.0,12.4,10.4,5.8,1024,1024,1024,1024,0,0,0,0,82,3.68,72.68,165.026252,P-GPS,,50.3
933,255100,2026-01-08 12:32:09,0.0,5,7.744,0.0,0.0,0.0,12.4,10.2,5.5,1024,1024,1024,1024,0,0,0,0,82,3.68,72.68,165.354336,P-GPS,,50.4
934,255200,2026-01-08 12:32:10,0.0,5,7.744,0.0,0.0,0.0,12.5,10.1,4.9,1024,1024,1024,1024,0,0,0,0,82,3.68,72.68,165.354336,P-GPS,,50.4
935,255300,2026-01-08 12:32:10,0.0,5,7.744,0.0,0.0,0.0,12.5,9.4,4.7,1024,1024,1024,1024,0,0,0,0,82,3.68,72.68,165.354336,P-GPS,,50.4
936,255400,2026-01-08 12:32:10,0.0,5,7.744,0.0,0.0,0.0,12.5,9.5,5.6,1024,1024,1024,1024,0,0,0,0,82,3.68,72.68,165.354336,P-GPS,,50.4
937,255500,2026-01-08 12:32:10,0.0,5,7.744,0.0,0.0,0.0,12.6,11.0,5.8,1024,1024,1024,1024,0,0,0,0,82,3.68,72.68,165.354336,P-GPS,,50.4
938,255600,2026-01-08 12:32:10,0.0,5,7.744,0.0,0.0,0.0,12.6,10.5,6.0,1024,1024,1024,1024,0,0,0,0,82,3.68,72.68,165.354336,P-GPS,,50.4
939,255700,2026-01-08 12:32:10,0.0,5,7.744,0.0,0.0,0.223694,12.6,10.6,6.1,1024,1024,1024,1024,0,0,0,0,82,3.68,72.68,165.354336,P-GPS,,50.4
940,255800,2026-01-08 12:32:10,0.0,5,7.744,0.0,0.0,0.223694,12.4,9.0,6.2,1024,1024,1024,1024,0,0,0,0,82,3.68,72.68,165.354336,P-GPS,,50.4
941,255900,2026-01-08 12:32:10,0.0,5,7.744,0.0,0.0,0.223694,12.4,8.9,6.4,1024,1024,1024,1024,0,0,0,0,82,3.68,72.68,165.354336,P-GPS,,50.4
942,256000,2026-01-08 12:32:10,0.0,5,7.744,0.0,0.0,0.0,12.3,8.0,6.4,1024,1024,1024,1024,0,0,0,0,82,3.68,72.68,165.354336,P-GPS,,50.4
943,256100,2026-01-08 12:32:10,0.0,5,7.744,0.0,0.0,0.0,12.3,7.9,6.4,1024,1024,1024,1024,0,0,0,0,82,3.68,72.68,165.354336,P-GPS,,50.4
944,256200,2026-01-08 12:32:10,0.0,5,7.744,0.0,0.0,0.0,12.4,8.5,6.9,1024,1024,1024,1024,0,0,0,0,82,3.68,72.68,165.354336,P-GPS,,50.4
945,256300,2026-01-08 12:32:11,0.0,5,7.699,0.0,0.0,0.0,12.5,8.8,6.8,1024,1024,1024,1024,0,0,0,0,82,4.245,72.68,165.354336,P-GPS,,50.4
946,256400,2026-01-08 12:32:11,0.0,5,7.699,0.0,0.0,0.0,12.5,9.1,6.5,1024,1024,1024,1024,0,0,0,0,82,4.245,72.68,165.354336,P-GPS,,50.4
947,256500,2026-01-08 12:32:11,0.0,5,7.699,0.0,0.0,0.0,12.5,9.2,6.3,1024,1024,1024,1024,0,0,0,0,82,4.245,72.68,165.354336,P-GPS,,50.4
948,256600,2026-01-08 12:32:11,0.0,5,7.699,0.0,0.0,0.0,12.4,8.0,6.3,1024,1024,1024,1024,0,0,0,0,82,4.245,72.68,165.354336,P-GPS,,50.4
949,256700,2026-01-08 12:32:11,0.0,5,7.699,0.0,0.0,0.0,12.5,9.6,6.5,1024,1024,1024,1024,0,0,0,0,82,4.245,72.68,165.354336,P-GPS,,50.4
950,256800,2026-01-08 12:32:11,0.0,5,7.699,0.0,0.0,0.0,12.5,10.4,6.2,1024,1024,1024,1024,0,0,0,0,82,4.245,72.68,165.354336,P-GPS,,50.4
951,256900,2026-01-08 12:32:11,0.0,5,7.699,0.0,0.0,0.223694,12.4,9.9,5.7,1024,1024,1024,1024,0,0,0,0,82,4.245,72.68,165.354336,P-GPS,,50.4
952,257000,2026-01-08 12:32:11,0.0,5,7.699,0.0,0.0,0.0,12.4,9.8,6.1,1024,1024,1024,1024,0,0,0,0,82,4.245,72.68,165.354336,P-GPS,,50.4
953,257100,2026-01-08 12:32:11,0.0,5,7.699,0.0,0.0,0.0,12.3,8.9,6.2,1024,1024,1024,1024,0,0,0,0,82,4.245,72.68,165.354336,P-GPS,,50.4
954,257200,2026-01-08 12:32:12,0.0,5,7.699,0.0,0.0,0.0,12.3,8.8,6.1,1024,1024,1024,1024,0,0,0,0,82,4.245,72.68,165.354336,P-GPS,,50.4
955,257300,2026-01-08 12:32:12,0.0,5,7.699,0.0,0.0,0.0,12.5,9.3,6.1,1024,1024,1024,1024,0,0,0,0,82,4.245,72.68,165.354336,P-GPS,,50.4
956,257400,2026-01-08 12:32:12,0.0,5,7.715,0.0,0.0,0.0,12.4,9.0,5.9,1024,1024,1024,1024,0,0,0,0,82,4.22,72.86,165.354336,P-GPS,,50.4
957,257500,2026-01-08 12:32:12,0.0,5,7.715,0.0,0.0,0.0,12.4,9.0,5.9,1024,1024,1024,1024,0,0,0,0,82,4.22,72.86,165.354336,P-GPS,,50.4
958,257600,2026-01-08 12:32:12,0.0,5,7.715,0.0,0.0,0.0,12.4,9.2,6.2,1024,1024,1024,1024,0,0,0,0,82,4.22,72.86,165.354336,P-GPS,,50.4
959,257700,2026-01-08 12:32:12,0.0,5,7.715,0.0,0.0,0.0,12.5,9.6,6.4,1024,1024,1024,1024,0,0,0,0,82,4.22,72.86,165.026252,P-GPS,,50.3
960,257800,2026-01-08 12:32:12,0.0,5,7.715,0.0,0.0,0.0,12.5,9.7,5.9,1024,1024,1024,1024,0,0,0,0,82,4.22,72.86,165.026252,P-GPS,,50.3
961,257900,2026-01-08 12:32:12,0.0,5,7.715,0.0,0.0,0.0,12.3,9.8,6.0,1024,1024,1024,1024,0,0,0,0,82,4.22,72.86,165.354336,P-GPS,,50.4
962,258000,2026-01-08 12:32:12,0.0,5,7.715,0.0,0.0,0.0,12.4,9.3,5.9,1024,1024,1024,1024,0,0,0,0,82,4.22,72.86,165.354336,P-GPS,,50.4
963,258100,2026-01-08 12:32:12,0.0,5,7.715,0.0,0.0,0.0,12.3,9.2,5.6,1024,1024,1024,1024,0,0,0,0,82,4.22,72.86,165.354336,P-GPS,,50.4
964,258200,2026-01-08 12:32:13,0.0,5,7.715,0.0,0.0,0.0,12.4,9.3,5.6,1024,1024,1024,1024,0,0,0,0,82,4.22,72.86,165.354336,P-GPS,,50.4
965,258300,2026-01-08 12:32:13,0.0,5,7.715,0.0,0.0,0.0,12.5,9.6,5.4,1024,1024,1024,1024,0,0,0,0,82,4.22,72.86,165.354336,P-GPS,,50.4
966,258400,2026-01-08 12:32:13,0.0,5,7.715,0.0,0.0,0.0,12.4,9.6,5.5,1024,1024,1024,1024,0,0,0,0,82,4.22,72.86,165.026252,P-GPS,,50.3
967,258500,2026-01-08 12:32:13,0.0,5,7.707,0.0,0.0,0.0,12.5,9.9,5.0,1024,1024,1024,1024,0,0,0,0,82,4.429,72.86,165.026252,P-GPS,,50.3
968,258600,2026-01-08 12:32:13,0.0,5,7.707,0.0,0.0,0.0,12.4,10.0,4.7,1024,1024,1024,1024,0,0,0,0,82,4.429,72.86,165.026252,P-GPS,,50.3
969,258700,2026-01-08 12:32:13,0.0,5,7.707,0.0,0.0,0.0,12.4,9.7,4.5,1024,1024,1024,1024,0,0,0,0,82,4.429,72.86,165.026252,P-GPS,,50.3
970,258800,2026-01-08 12:32:13,0.0,5,7.707,0.0,0.0,0.0,12.3,9.5,4.7,1024,1024,1024,1024,0,0,0,0,82,4.429,72.86,165.026252,P-GPS,,50.3
971,258900,2026-01-08 12:32:13,0.0,5,7.707,0.0,0.0,0.0,12.3,9.3,4.7,1024,1024,1024,1024,0,0,0,0,82,4.429,72.86,165.026252,P-GPS,,50.3
972,259000,2026-01-08 12:32:13,0.0,5,7.707,0.0,0.0,0.0,12.4,8.8,4.6,1024,1024,1024,1024,0,0,0,0,82,4.429,72.86,165.026252,P-GPS,,50.3
973,259100,2026-01-08 12:32:13,0.0,5,7.707,0.0,0.0,0.0,12.3,9.0,4.9,1024,1024,1024,1024,0,0,0,0,82,4.429,72.86,165.026252,P-GPS,,50.3
974,259200,2026-01-08 12:32:13,0.0,5,7.707,0.0,0.0,0.0,12.2,8.6,4.9,1024,1024,1024,1024,0,0,0,0,82,4.429,72.86,165.026252,P-GPS,,50.3
975,259300,2026-01-08 12:32:14,0.0,5,7.707,0.0,0.0,0.0,12.3,8.9,5.2,1024,1024,1024,1024,0,0,0,0,82,4.429,72.86,165.026252,P-GPS,,50.3
976,259400,2026-01-08 12:32:14,0.0,5,7.707,0.0,0.0,0.0,12.4,9.1,5.3,1024,1024,1024,1024,0,0,0,0,82,4.429,72.86,165.026252,P-GPS,,50.3
977,259500,2026-01-08 12:32:14,0.0,5,7.707,0.0,0.0,0.0,12.4,9.2,4.9,1024,1024,1024,1024,0,0,0,0,82,4.429,72.86,165.026252,P-GPS,,50.3
978,259600,2026-01-08 12:32:14,0.0,5,7.702,0.0,0.0,0.0,12.5,9.7,5.1,1024,1024,1024,1024,0,0,0,0,82,4.315,72.86,165.026252,P-GPS,,50.3
979,259700,2026-01-08 12:32:14,0.0,5,7.702,0.0,0.0,0.0,12.6,10.3,5.2,1024,1024,1024,1024,0,0,0,0,82,4.315,72.86,165.026252,P-GPS,,50.3
980,259800,2026-01-08 12:32:14,0.0,5,7.702,0.0,0.0,0.0,12.5,10.4,5.2,1024,1024,1024,1024,0,0,0,0,82,4.315,72.86,165.026252,P-GPS,,50.3
981,259900,2026-01-08 12:32:14,0.0,5,7.702,0.0,0.0,0.0,12.3,9.9,5.0,1024,1024,1024,1024,0,0,0,0,82,4.315,72.86,165.026252,P-GPS,,50.3
982,260000,2026-01-08 12:32:14,0.0,5,7.702,0.0,0.0,0.0,12.3,9.5,4.6,1024,1024,1024,1024,0,0,0,0,82,4.315,72.86,165.026252,P-GPS,,50.3
983,260100,2026-01-08 12:32:14,0.0,5,7.702,0.0,0.0,0.0,12.3,9.0,4.4,1024,1024,1024,1024,0,0,0,0,82,4.315,72.86,165.026252,P-GPS,,50.3
984,260200,2026-01-08 12:32:15,0.0,5,7.702,0.0,0.0,0.0,12.4,8.7,4.8,1024,1024,1024,1024,0,0,0,0,82,4.315,72.86,165.026252,P-GPS,,50.3
985,260300,2026-01-08 12:32:15,0.0,5,7.702,0.0,0.0,0.0,12.4,8.9,4.8,1024,1024,1024,1024,0,0,0,0,82,4.315,72.86,165.026252,P-GPS,,50.3
986,260400,2026-01-08 12:32:15,0.0,5,7.702,0.0,0.0,0.0,12.5,9.1,4.9,1024,1024,1024,1024,0,0,0,0,82,4.315,72.86,165.026252,P-GPS,,50.3
987,260500,2026-01-08 12:32:15,0.0,5,7.702,0.0,0.0,0.0,12.5,9.5,5.3,1024,1024,1024,1024,0,0,0,0,82,4.315,72.86,165.026252,P-GPS,,50.3
988,260600,2026-01-08 12:32:15,0.0,5,7.702,0.0,0.0,0.0,12.5,9.4,5.3,1024,1024,1024,1024,0,0,0,0,82,4.315,72.86,165.026252,P-GPS,,50.3
989,260700,2026-01-08 12:32:15,0.0,5,7.719,0.0,0.0,0.0,12.4,9.5,5.6,1024,1024,1024,1024,0,0,0,0,82,4.233,72.86,165.026252,P-GPS,,50.3
990,260800,2026-01-08 12:32:15,0.0,5,7.719,0.0,0.0,0.0,12.2,9.3,5.4,1024,1024,1024,1024,0,0,0,0,82,4.233,72.86,165.026252,P-GPS,,50.3
991,260900,2026-01-08 12:32:15,0.0,5,7.719,0.0,0.0,0.0,12.2,9.4,5.4,1024,1024,1024,1024,0,0,0,0,82,4.233,72.86,165.026252,P-GPS,,50.3
992,261000,2026-01-08 12:32:15,0.0,5,7.719,0.0,0.0,0.0,12.3,9.3,5.0,1024,1024,1024,1024,0,0,0,0,82,4.233,72.86,165.354336,P-GPS,,50.4
993,261100,2026-01-08 12:32:15,0.0,5,7.719,0.0,0.0,0.0,12.3,9.7,4.9,1024,1024,1024,1024,0,0,0,0,82,4.233,72.86,165.354336,P-GPS,,50.4
994,261200,2026-01-08 12:32:15,0.0,5,7.719,0.0,0.0,0.0,12.3,9.2,4.8,1024,1024,1024,1024,0,0,0,0,82,4.233,72.86,165.354336,P-GPS,,50.4
995,261300,2026-01-08 12:32:16,0.0,5,7.719,0.0,0.0,-0.223694,12.2,7.7,4.7,1024,1024,1024,1024,0,0,0,0,82,4.233,72.86,165.354336,P-GPS,,50.4
996,261400,2026-01-08 12:32:16,0.0,5,7.719,0.0,0.0,-0.223694,12.3,8.9,5.0,1024,1024,1024,1024,0,0,0,0,82,4.233,72.86,165.354336,P-GPS,,50.4
997,261500,2026-01-08 12:32:16,0.0,5,7.719,0.0,0.0,0.0,12.3,8.4,5.1,1024,1024,1024,1024,0,0,0,0,82,4.233,72.86,165.354336,P-GPS,,50.4
998,261600,2026-01-08 12:32:16,0.0,5,7.719,0.0,0.0,0.0,12.4,9.1,5.4,1024,1024,1024,1024,0,0,0,0,82,4.233,72.86,165.354336,P-GPS,,50.4
999,261700,2026-01-08 12:32:16,0.0,5,7.719,0.0,0.0,0.0,12.4,9.1,5.6,1024,1024,1024,1024,0,0,0,0,82,4.233,72.86,165.026252,P-GPS,,50.3
1000,261800,2026-01-08 12:32:16,0.0,5,7.719,0.0,0.0,0.0,12.5,9.4,5.6,1024,1024,1024,1024,0,0,0,0,82,4.26,72.86,165.026252,P-GPS,,50.3
1001,261900,2026-01-08 12:32:16,0.0,5,7.719,0.0,0.0,0.0,12.6,9.4,5.9,1024,1024,1024,1024,0,0,0,0,82,4.26,72.86,165.026252,P-GPS,,50.3
1002,262000,2026-01-08 12:32:16,0.0,5,7.719,0.0,0.0,0.0,12.6,9.4,6.3,1024,1024,1024,1024,0,0,0,0,82,4.26,72.86,165.026252,P-GPS,,50.3
1003,262100,2026-01-08 12:32:16,0.0,5,7.719,0.0,0.0,0.0,12.6,9.5,6.1,1024,1024,1024,1024,0,0,0,0,82,4.26,72.86,165.026252,P-GPS,,50.3
1004,262200,2026-01-08 12:32:17,0.0,5,7.719,0.0,0.0,0.0,12.4,8.6,5.9,1024,1024,1024,1024,0,0,0,0,82,4.26,72.86,165.354336,P-GPS,,50.4
1005,262300,2026-01-08 12:32:17,0.0,5,7.719,0.0,0.0,0.0,12.4,8.4,6.0,1024,1024,1024,1024,0,0,0,0,82,4.26,72.86,165.354336,P-GPS,,50.4
1006,262400,2026-01-08 12:32:17,0.0,5,7.719,0.0,0.0,0.0,12.4,8.2,5.9,1024,1024,1024,1024,0,0,0,0,82,4.26,72.86,165.354336,P-GPS,,50.4
1007,262500,2026-01-08 12:32:17,0.0,5,7.719,0.0,0.0,0.0,12.3,8.2,5.6,1024,1024,1024,1024,0,0,0,0,82,4.26,72.86,165.68242,P-GPS,,50.5
1008,262600,2026-01-08 12:32:17,0.0,5,7.719,0.0,0.0,0.0,12.2,7.7,5.5,1024,1024,1024,1024,0,0,0,0,82,4.26,72.86,165.68242,P-GPS,,50.5
1009,262700,2026-01-08 12:32:17,0.0,5,7.719,0.0,0.0,0.0,12.2,7.5,5.3,1024,1024,1024,1024,0,0,0,0,82,4.26,72.86,165.68242,P-GPS,,50.5
1010,262800,2026-01-08 12:32:17,0.0,5,7.719,0.0,0.0,0.0,12.2,6.5,5.2,1024,1024,1024,1024,0,0,0,0,82,4.26,72.86,165.68242,P-GPS,,50.5
1011,262900,2026-01-08 12:32:17,0.0,5,7.699,0.0,0.0,0.0,12.2,6.5,5.3,1024,1024,1024,1024,0,0,0,0,82,4.453,73.04,166.010504,P-GPS,,50.6
1012,263000,2026-01-08 12:32:17,0.0,5,7.699,0.0,0.0,0.0,12.4,6.6,5.6,1024,1024,1024,1024,0,0,0,0,82,4.453,73.04,166.010504,P-GPS,,50.6
1013,263100,2026-01-08 12:32:17,0.0,5,7.699,0.0,0.0,0.0,12.5,7.3,5.5,1024,1024,1024,1024,0,0,0,0,82,4.453,73.04,166.010504,P-GPS,,50.6
1014,263200,2026-01-08 12:32:18,0.0,5,7.699,0.0,0.0,0.0,12.5,6.7,5.4,1024,1024,1024,1024,0,0,0,0,82,4.453,73.04,166.338588,P-GPS,,50.7
1015,263300,2026-01-08 12:32:18,0.0,5,7.699,0.0,0.0,0.0,12.5,6.6,5.8,1024,1024,1024,1024,0,0,0,0,82,4.453,73.04,166.338588,P-GPS,,50.7
1016,263400,2026-01-08 12:32:18,0.0,5,7.699,0.0,0.0,0.0,12.7,6.6,6.1,1024,1024,1024,1024,0,0,0,0,82,4.453,73.04,166.338588,P-GPS,,50.7
1017,263500,2026-01-08 12:32:18,0.0,5,7.699,0.0,0.0,0.0,12.6,6.8,6.2,1024,1024,1024,1024,0,0,0,0,82,4.453,73.04,166.666672,P-GPS,,50.8
1018,263600,2026-01-08 12:32:18,0.0,5,7.699,0.0,0.0,0.0,12.6,6.5,5.7,1024,1024,1024,1024,0,0,0,0,82,4.453,73.04,166.666672,P-GPS,,50.8
1019,263700,2026-01-08 12:32:18,0.0,5,7.699,0.0,0.0,0.0,12.7,5.9,5.8,1024,1024,1024,1024,0,0,0,0,82,4.453,73.04,166.666672,P-GPS,,50.8
1020,263800,2026-01-08 12:32:18,0.0,5,7.699,0.0,0.0,0.0,12.6,5.9,5.7,1024,1024,1024,1024,0,0,0,0,82,4.453,73.04,166.666672,P-GPS,,50.8
1021,263900,2026-01-08 12:32:18,0.0,5,7.699,0.0,0.0,0.0,12.7,6.0,6.1,1024,1024,1024,1024,0,0,0,0,82,4.453,73.04,166.666672,P-GPS,,50.8
1022,264000,2026-01-08 12:32:18,0.0,5,7.736,0.0,0.0,0.0,12.7,6.8,6.7,1024,1024,1024,1024,0,0,0,0,82,3.898,73.04,166.338588,P-GPS,,50.7
1023,264100,2026-01-08 12:32:18,0.0,5,7.736,0.0,0.0,0.223694,12.5,7.0,6.8,1024,1024,1024,1024,0,0,0,0,82,3.898,73.04,166.338588,P-GPS,,50.7
1024,264200,2026-01-08 12:32:18,0.0,5,7.736,0.0,0.0,0.223694,12.2,7.2,5.7,1024,1024,1024,1024,0,0,0,0,82,3.898,73.04,166.338588,P-GPS,,50.7
1025,264300,2026-01-08 12:32:19,0.0,5,7.736,0.0,0.0,0.223694,12.1,7.2,5.6,1024,1024,1024,1024,0,0,0,0,82,3.898,73.04,166.338588,P-GPS,,50.7
1026,264400,2026-01-08 12:32:19,0.0,5,7.736,0.0,0.0,0.223694,12.1,8.3,6.2,1024,1024,1024,1024,0,0,0,0,82,3.898,73.04,166.338588,P-GPS,,50.7
1027,264500,2026-01-08 12:32:19,0.0,5,7.736,0.0,0.0,0.223694,12.0,8.3,5.9,1024,1024,1024,1024,0,0,0,0,82,3.898,73.04,166.338588,P-GPS,,50.7
1028,264600,2026-01-08 12:32:19,0.0,5,7.736,0.0,0.0,0.0,12.0,8.8,5.2,1024,1024,1024,1024,0,0,0,0,82,3.898,73.04,166.338588,P-GPS,,50.7
1029,264700,2026-01-08 12:32:19,0.0,5,7.736,0.0,0.0,0.0,12.1,9.1,4.9,1024,1024,1024,1024,0,0,0,0,82,3.898,73.04,166.338588,P-GPS,,50.7
1030,264800,2026-01-08 12:32:19,0.223694,5,7.736,0.223694,0.0,0.0,12.0,8.3,4.6,1024,1024,1024,1024,0,0,0,0,82,3.898,73.04,166.338588,P-GPS,,50.7
1031,264900,2026-01-08 12:32:19,0.223694,5,7.736,0.223694,0.0,-0.223694,12.1,9.2,5.1,1024,1024,1024,1024,0,0,0,0,82,3.898,73.04,166.338588,P-GPS,,50.7
1032,265000,2026-01-08 12:32:19,0.223694,5,7.736,0.223694,0.0,-0.223694,12.2,10.1,5.3,1024,1024,1024,1024,0,0,0,0,82,3.898,73.04,166.010504,P-GPS,,50.6
1033,265100,2026-01-08 12:32:19,0.223694,5,7.749,0.223694,0.0,0.0,12.4,11.3,5.1,1024,1024,1024,1024,0,0,0,0,82,4.073,73.04,166.010504,P-GPS,,50.6
1034,265200,2026-01-08 12:32:20,0.223694,5,7.749,0.223694,0.0,0.0,12.4,11.2,5.0,1024,1024,1024,1024,0,0,0,0,82,4.073,73.04,166.010504,P-GPS,,50.6
1035,265300,2026-01-08 12:32:20,0.0,5,7.749,0.0,0.0,0.0,12.3,10.9,5.7,1024,1024,1024,1024,0,0,0,0,82,4.073,73.04,165.68242,P-GPS,,50.5
1036,265400,2026-01-08 12:32:20,0.223694,5,7.749,0.223694,0.0,0.0,12.4,10.8,6.2,1024,1024,1024,1024,0,0,0,0,82,4.073,73.04,165.68242,P-GPS,,50.5
1037,265500,2026-01-08 12:32:20,0.0,5,7.749,0.0,0.0,0.0,12.5,10.8,6.1,1024,1024,1024,1024,0,0,0,0,82,4.073,73.04,165.68242,P-GPS,,50.5
1038,265600,2026-01-08 12:32:20,0.0,5,7.749,0.0,0.0,0.0,12.5,10.6,6.3,1024,1024,1024,1024,0,0,0,0,82,4.073,73.04,165.354336,P-GPS,,50.4
1039,265700,2026-01-08 12:32:20,0.0,5,7.749,0.0,0.0,0.0,12.5,10.7,6.4,1024,1024,1024,1024,0,0,0,0,82,4.073,73.04,165.354336,P-GPS,,50.4
1040,265800,2026-01-08 12:32:20,0.0,5,7.749,0.0,0.0,0.0,12.5,11.3,6.8,1024,1024,1024,1024,0,0,0,0,82,4.073,73.04,165.354336,P-GPS,,50.4
1041,265900,2026-01-08 12:32:20,0.0,5,7.749,0.0,0.0,0.0,12.6,11.1,6.9,1024,1024,1024,1024,0,0,0,0,82,4.073,73.04,165.354336,P-GPS,,50.4
1042,266000,2026-01-08 12:32:20,0.0,5,7.749,0.0,0.0,0.0,12.6,10.7,7.3,1024,1024,1024,1024,0,0,0,0,82,4.073,73.04,165.354336,P-GPS,,50.4
1043,266100,2026-01-08 12:32:20,0.0,5,7.749,0.0,0.0,0.0,12.6,10.4,7.4,1024,1024,1024,1024,0,0,0,0,82,4.073,73.04,165.354336,P-GPS,,50.4
1044,266200,2026-01-08 12:32:21,0.0,5,7.749,0.0,0.0,0.0,12.6,10.3,7.3,1024,1024,1024,1024,0,0,0,0,82,4.073,73.04,165.354336,P-GPS,,50.4
1045,266300,2026-01-08 12:32:21,0.0,5,7.749,0.0,0.0,0.0,12.6,10.2,7.8,1024,1024,1024,1024,0,0,0,0,82,4.073,73.04,165.354336,P-GPS,,50.4
1046,266400,2026-01-08 12:32:21,0.0,5,7.749,0.0,0.0,0.0,12.7,10.4,7.9,1024,1024,1024,1024,0,0,0,0,82,4.073,73.04,165.68242,P-GPS,,50.5
1047,266500,2026-01-08 12:32:21,0.0,5,7.749,0.0,0.0,0.0,12.7,10.1,8.2,1024,1024,1024,1024,0,0,0,0,82,4.073,73.04,165.68242,P-GPS,,50.5
1048,266600,2026-01-08 12:32:21,0.0,5,7.749,0.0,0.0,0.0,12.7,10.4,8.1,1024,1024,1024,1024,0,0,0,0,82,4.073,73.04,165.354336,P-GPS,,50.4
1049,266700,2026-01-08 12:32:21,0.0,5,7.749,0.0,0.0,0.0,12.6,9.3,8.0,1024,1024,1024,1024,0,0,0,0,82,4.073,73.04,165.354336,P-GPS,,50.4
1050,266800,2026-01-08 12:32:21,0.0,5,7.749,0.0,0.0,0.0,12.5,9.5,7.7,1024,1024,1024,1024,0,0,0,0,82,4.073,73.04,165.354336,P-GPS,,50.4
1051,266900,2026-01-08 12:32:21,0.0,5,7.749,0.0,0.0,0.0,12.5,9.5,7.5,1024,1024,1024,1024,0,0,0,0,82,4.073,73.04,165.354336,P-GPS,,50.4
1052,267000,2026-01-08 12:32:21,0.0,5,7.749,0.0,0.0,0.0,12.5,8.9,7.1,1024,1024,1024,1024,0,0,0,0,82,4.073,73.04,165.354336,P-GPS,,50.4
1053,267100,2026-01-08 12:32:21,0.0,5,7.749,0.0,0.0,0.0,12.4,8.9,6.6,1024,1024,1024,1024,0,0,0,0,82,4.073,73.04,165.026252,P-GPS,,50.3
1054,267200,2026-01-08 12:32:22,0.0,5,7.749,0.0,0.0,0.0,12.5,8.8,6.2,1024,1024,1024,1024,0,0,0,0,82,4.073,73.04,165.026252,P-GPS,,50.3
1055,267300,2026-01-08 12:32:22,0.0,5,7.725,0.0,0.0,0.0,12.5,9.3,6.2,1024,1024,1024,1024,0,0,0,0,82,3.878,73.04,165.026252,P-GPS,,50.3
1056,267400,2026-01-08 12:32:22,0.0,5,7.725,0.0,0.0,0.0,12.4,8.8,6.0,1024,1024,1024,1024,0,0,0,0,82,3.878,73.04,165.026252,P-GPS,,50.3
1057,267500,2026-01-08 12:32:22,0.0,5,7.725,0.0,0.0,0.0,12.4,8.4,6.0,1024,1024,1024,1024,0,0,0,0,82,3.878,73.04,164.698168,P-GPS,,50.2
1058,267600,2026-01-08 12:32:22,0.0,5,7.725,0.0,0.0,0.0,12.4,9.4,6.3,1024,1024,1024,1024,0,0,0,0,82,3.878,73.04,164.698168,P-GPS,,50.2
1059,267700,2026-01-08 12:32:22,0.0,5,7.725,0.0,0.0,0.0,12.4,9.7,5.9,1024,1024,1024,1024,0,0,0,0,82,3.878,73.04,164.698168,P-GPS,,50.2
1060,267800,2026-01-08 12:32:22,0.0,5,7.725,0.0,0.0,0.0,12.4,10.0,5.6,1024,1024,1024,1024,0,0,0,0,82,3.878,73.04,164.698168,P-GPS,,50.2
1061,267900,2026-01-08 12:32:22,0.0,5,7.725,0.0,0.0,0.0,12.3,9.6,5.5,1024,1024,1024,1024,0,0,0,0,82,3.878,73.04,164.698168,P-GPS,,50.2
1062,268000,2026-01-08 12:32:22,0.0,5,7.725,0.0,0.0,-0.223694,12.3,9.5,5.5,1024,1024,1024,1024,0,0,0,0,82,3.878,73.04,164.698168,P-GPS,,50.2
1063,268100,2026-01-08 12:32:22,0.0,5,7.725,0.0,0.0,-0.223694,12.3,9.1,5.7,1024,1024,1024,1024,0,0,0,0,82,3.878,73.04,164.698168,P-GPS,,50.2
1064,268200,2026-01-08 12:32:23,0.0,5,7.725,0.0,0.0,-0.223694,12.4,10.0,5.6,1024,1024,1024,1024,0,0,0,0,82,3.878,73.04,164.698168,P-GPS,,50.2
1065,268300,2026-01-08 12:32:23,0.0,5,7.725,0.0,0.0,-0.223694,12.4,10.4,5.5,1024,1024,1024,1024,0,0,0,0,82,3.878,73.04,164.698168,P-GPS,,50.2
1066,268400,2026-01-08 12:32:23,0.0,5,7.725,0.0,0.0,0.0,12.4,10.8,5.5,1024,1024,1024,1024,0,0,0,0,82,3.878,73.04,164.370084,P-GPS,,50.1
1067,268500,2026-01-08 12:32:23,0.0,5,7.737,0.0,0.0,0.0,12.5,10.5,5.4,1024,1024,1024,1024,0,0,0,0,82,3.988,73.04,164.370084,P-GPS,,50.1
1068,268600,2026-01-08 12:32:23,0.0,5,7.737,0.0,0.0,0.0,12.6,11.7,5.6,1024,1024,1024,1024,0,0,0,0,82,3.988,73.04,164.370084,P-GPS,,50.1
1069,268700,2026-01-08 12:32:23,0.0,5,7.737,0.0,0.0,0.0,12.6,10.9,5.5,1024,1024,1024,1024,0,0,0,0,82,3.988,73.04,164.370084,P-GPS,,50.1
1070,268800,2026-01-08 12:32:23,0.0,5,7.737,0.0,0.0,0.0,12.4,11.0,5.1,1024,1024,1024,1024,0,0,0,0,82,3.988,73.04,164.370084,P-GPS,,50.1
1071,268900,2026-01-08 12:32:23,0.0,5,7.737,0.0,0.0,0.0,12.4,11.0,4.9,1024,1024,1024,1024,0,0,0,0,82,3.988,73.04,164.698168,P-GPS,,50.2
1072,269000,2026-01-08 12:32:23,0.0,5,7.737,0.0,0.0,0.0,12.3,11.1,4.8,1024,1024,1024,1024,0,0,0,0,82,3.988,73.04,164.698168,P-GPS,,50.2
1073,269100,2026-01-08 12:32:23,0.0,5,7.737,0.0,0.0,0.0,12.5,11.4,4.7,1024,1024,1024,1024,0,0,0,0,82,3.988,73.04,164.698168,P-GPS,,50.2
1074,269200,2026-01-08 12:32:24,0.0,5,7.737,0.0,0.0,0.0,12.5,11.2,4.9,1024,1024,1024,1024,0,0,0,0,82,3.988,73.04,164.698168,P-GPS,,50.2
1075,269300,2026-01-08 12:32:24,0.0,5,7.737,0.0,0.0,0.0,12.5,11.8,4.5,1024,1024,1024,1024,0,0,0,0,82,3.988,73.04,164.698168,P-GPS,,50.2
1076,269400,2026-01-08 12:32:24,0.0,5,7.737,0.0,0.0,0.0,12.6,12.3,4.7,1024,1024,1024,1024,0,0,0,0,82,3.988,73.04,164.698168,P-GPS,,50.2
1077,269500,2026-01-08 12:32:24,0.0,5,7.737,0.0,0.0,0.0,12.6,12.5,4.6,1024,1024,1024,1024,0,0,0,0,82,3.988,73.04,165.026252,P-GPS,,50.3
1078,269600,2026-01-08 12:32:24,0.0,5,7.663,0.0,0.0,0.0,12.7,12.9,4.3,1024,1024,1024,1024,0,0,0,0,81,4.729,73.04,165.026252,P-GPS,,50.3
1079,269700,2026-01-08 12:32:24,0.0,5,7.663,0.0,0.0,0.0,12.7,13.2,4.2,1024,1024,1024,1024,0,0,0,0,81,4.729,73.04,165.026252,P-GPS,,50.3
1080,269800,2026-01-08 12:32:24,0.223694,5,7.663,0.223694,0.0,0.0,12.7,13.8,3.6,1024,1024,1024,1024,0,0,0,0,81,4.729,73.04,165.026252,P-GPS,,50.3
1081,269900,2026-01-08 12:32:24,0.223694,5,7.663,0.223694,0.0,0.0,12.5,14.4,3.6,1024,1024,1024,1024,0,0,0,0,81,4.729,73.04,165.026252,P-GPS,,50.3
1082,270000,2026-01-08 12:32:24,0.0,5,7.663,0.0,0.0,0.223694,12.5,14.8,3.3,1024,1024,1024,1024,0,0,0,0,81,4.729,73.04,165.354336,P-GPS,,50.4
1083,270100,2026-01-08 12:32:24,0.0,5,7.663,0.0,0.0,0.0,12.4,13.6,2.8,1024,1024,1024,1024,0,0,0,0,81,4.729,73.04,165.354336,P-GPS,,50.4
1084,270200,2026-01-08 12:32:24,0.0,5,7.663,0.0,0.0,0.0,12.4,13.1,4.2,1024,1024,1024,1024,0,0,0,0,81,4.729,73.04,165.68242,P-GPS,,50.5
1085,270300,2026-01-08 12:32:25,0.0,5,7.663,0.0,0.0,0.0,12.5,13.4,4.6,1024,1024,1024,1024,0,0,0,0,81,4.729,73.04,165.68242,P-GPS,,50.5
1086,270400,2026-01-08 12:32:25,0.0,5,7.663,0.0,0.0,0.0,12.5,14.2,4.3,1024,1024,1024,1024,0,0,0,0,81,4.729,73.04,165.68242,P-GPS,,50.5
1087,270500,2026-01-08 12:32:25,0.0,5,7.663,0.0,0.0,0.0,12.5,14.2,4.1,1024,1024,1024,1024,0,0,0,0,81,4.729,73.04,166.010504,P-GPS,,50.6
1088,270600,2026-01-08 12:32:25,0.0,5,7.663,0.0,0.0,0.0,12.6,13.7,5.3,1024,1024,1024,1024,0,0,0,0,81,4.729,73.04,166.010504,P-GPS,,50.6
1089,270700,2026-01-08 12:32:25,0.223694,5,7.593,0.223694,0.0,0.0,12.7,14.9,5.0,1024,1024,1024,1024,0,0,0,0,81,6.531,73.04,166.338588,P-GPS,,50.7
1090,270800,2026-01-08 12:32:25,0.0,5,7.593,0.0,0.0,0.0,12.6,14.8,5.2,1024,1024,1024,1024,0,0,0,0,81,6.531,73.04,166.338588,P-GPS,,50.7
1091,270900,2026-01-08 12:32:25,0.0,5,7.593,0.0,0.0,0.0,12.8,13.8,5.4,1024,1024,1024,1024,0,0,0,0,81,6.531,73.04,166.338588,P-GPS,,50.7
1092,271000,2026-01-08 12:32:25,0.0,5,7.593,0.0,0.0,0.0,12.7,13.2,4.4,1024,1024,1024,1024,0,0,0,0,81,6.531,73.04,166.338588,P-GPS,,50.7
1093,271100,2026-01-08 12:32:25,0.0,5,7.593,0.0,0.0,0.0,12.6,13.3,3.4,1024,1024,1024,1024,0,0,0,0,81,6.531,73.04,166.338588,P-GPS,,50.7
1094,271200,2026-01-08 12:32:26,0.0,5,7.593,0.0,0.0,0.0,12.4,13.4,2.9,1024,1024,1024,1024,0,0,0,0,81,6.531,73.04,166.010504,P-GPS,,50.6
1095,271300,2026-01-08 12:32:26,0.0,5,7.593,0.0,0.0,0.0,12.4,12.6,2.7,1024,1024,1024,1024,0,0,0,0,81,6.531,73.04,166.010504,P-GPS,,50.6
1096,271400,2026-01-08 12:32:26,0.0,5,7.593,0.0,0.0,0.0,12.4,12.3,2.5,1024,1024,1024,1024,0,0,0,0,81,6.531,73.04,166.010504,P-GPS,,50.6
1097,271500,2026-01-08 12:32:26,0.0,5,7.593,0.0,0.0,0.0,12.3,12.3,2.2,1024,1024,1024,1024,0,0,0,0,81,6.531,73.04,165.68242,P-GPS,,50.5
1098,271600,2026-01-08 12:32:26,0.0,5,7.593,0.0,0.0,0.0,12.2,12.0,2.0,1024,1024,1024,1024,0,0,0,0,81,6.531,73.04,165.68242,P-GPS,,50.5
1099,271700,2026-01-08 12:32:26,0.0,5,7.593,0.0,0.0,0.0,12.3,11.5,2.6,1024,1024,1024,1024,0,0,0,0,81,6.531,73.04,165.68242,P-GPS,,50.5
1100,271800,2026-01-08 12:32:26,0.0,5,7.653,0.0,0.0,0.0,12.3,11.9,3.1,1024,1024,1024,1024,0,0,0,0,81,5.801,73.22,165.68242,P-GPS,,50.5
1101,271900,2026-01-08 12:32:26,0.0,5,7.653,0.0,0.0,0.0,12.4,10.9,3.2,1024,1024,1024,1024,0,0,0,0,81,5.801,73.22,165.68242,P-GPS,,50.5
1102,272000,2026-01-08 12:32:26,0.0,5,7.653,0.0,0.0,0.0,12.5,11.1,4.1,1024,1024,1024,1024,0,0,0,0,81,5.801,73.22,165.68242,P-GPS,,50.5
1103,272100,2026-01-08 12:32:26,0.0,5,7.653,0.0,0.0,0.0,12.4,10.6,4.1,1024,1024,1024,1024,0,0,0,0,81,5.801,73.22,166.010504,P-GPS,,50.6
1104,272200,2026-01-08 12:32:26,0.0,5,7.653,0.0,0.0,-0.223694,12.4,10.4,4.4,1024,1024,1024,1024,0,0,0,0,81,5.801,73.22,166.010504,P-GPS,,50.6
1105,272300,2026-01-08 12:32:27,0.0,5,7.653,0.0,0.0,-0.223694,12.3,10.1,4.7,1024,1024,1024,1024,0,0,0,0,81,5.801,73.22,166.010504,P-GPS,,50.6
1106,272400,2026-01-08 12:32:27,0.0,5,7.653,0.0,0.0,-0.223694,12.3,11.5,4.9,1024,1024,1024,1024,0,0,0,0,81,5.801,73.22,166.010504,P-GPS,,50.6
1107,272500,2026-01-08 12:32:27,0.0,5,7.653,0.0,0.0,0.0,12.4,13.2,5.4,1024,1024,1024,1024,0,0,0,0,81,5.801,73.22,166.010504,P-GPS,,50.6
1108,272600,2026-01-08 12:32:27,0.0,5,7.653,0.0,0.0,0.223694,12.5,13.1,4.2,1024,1024,1024,1024,0,0,0,0,81,5.801,73.22,166.010504,P-GPS,,50.6
1109,272700,2026-01-08 12:32:27,0.0,5,7.653,0.0,0.0,0.0,12.4,11.8,3.3,1024,1024,1024,1024,0,0,0,0,81,5.801,73.22,166.010504,P-GPS,,50.6
1110,272800,2026-01-08 12:32:27,0.0,5,7.653,0.0,0.0,0.0,12.4,12.0,3.4,1024,1024,1024,1024,0,0,0,0,81,5.801,73.22,166.010504,P-GPS,,50.6
1111,272900,2026-01-08 12:32:27,0.0,5,7.653,0.0,0.0,0.0,12.4,11.5,3.2,1024,1024,1024,1024,0,0,0,0,81,5.796,73.22,166.010504,P-GPS,,50.6
1112,273000,2026-01-08 12:32:27,0.0,5,7.653,0.0,0.0,-0.223694,12.2,12.1,3.8,1024,1024,1024,1024,0,0,0,0,81,5.796,73.22,166.010504,P-GPS,,50.6
1113,273100,2026-01-08 12:32:27,0.0,5,7.653,0.0,0.0,0.0,12.3,12.4,4.1,1024,1024,1024,1024,0,0,0,0,81,5.796,73.22,166.010504,P-GPS,,50.6
1114,273200,2026-01-08 12:32:28,0.0,5,7.653,0.0,0.0,0.0,12.3,11.7,4.7,1024,1024,1024,1024,0,0,0,0,81,5.796,73.22,166.010504,P-GPS,,50.6
1115,273300,2026-01-08 12:32:28,0.0,5,7.653,0.0,0.0,0.0,12.3,11.3,5.0,1024,1024,1024,1024,0,0,0,0,81,5.796,73.22,166.010504,P-GPS,,50.6
1116,273400,2026-01-08 12:32:28,0.0,5,7.653,0.0,0.0,0.0,12.3,11.2,4.6,1024,1024,1024,1024,0,0,0,0,81,5.796,73.22,166.010504,P-GPS,,50.6
1117,273500,2026-01-08 12:32:28,0.0,5,7.653,0.0,0.0,0.0,12.3,10.5,4.4,1024,1024,1024,1024,0,0,0,0,81,5.796,73.22,166.010504,P-GPS,,50.6
1118,273600,2026-01-08 12:32:28,0.0,5,7.653,0.0,0.0,0.0,12.3,10.6,3.8,1024,1024,1024,1024,0,0,0,0,81,5.796,73.22,166.010504,P-GPS,,50.6
1119,273700,2026-01-08 12:32:28,0.0,5,7.653,0.0,0.0,-0.223694,12.2,10.6,3.8,1024,1024,1024,1024,0,0,0,0,81,5.796,73.22,166.010504,P-GPS,,50.6
1120,273800,2026-01-08 12:32:28,0.0,5,7.653,0.0,0.0,-0.223694,12.2,11.0,4.1,1024,1024,1024,1024,0,0,0,0,81,5.796,73.22,166.010504,P-GPS,,50.6
1121,273900,2026-01-08 12:32:28,0.0,5,7.653,0.0,0.0,0.0,12.4,11.3,4.7,1024,1024,1024,1024,0,0,0,0,81,5.796,73.22,165.68242,P-GPS,,50.5
1122,274000,2026-01-08 12:32:28,0.0,5,7.681,0.0,0.0,0.0,12.3,11.4,5.0,1024,1024,1024,1024,0,0,0,0,81,4.938,73.22,165.68242,P-GPS,,50.5
1123,274100,2026-01-08 12:32:28,0.0,5,7.681,0.0,0.0,0.0,12.2,11.2,4.7,1024,1024,1024,1024,0,0,0,0,81,4.938,73.22,165.68242,P-GPS,,50.5
1124,274200,2026-01-08 12:32:29,0.0,5,7.681,0.0,0.0,0.0,12.2,10.9,4.5,1024,1024,1024,1024,0,0,0,0,81,4.938,73.22,165.68242,P-GPS,,50.5
1125,274300,2026-01-08 12:32:29,0.0,5,7.681,0.0,0.0,0.0,12.2,10.9,4.4,1024,1024,1024,1024,0,0,0,0,81,4.938,73.22,165.68242,P-GPS,,50.5
1126,274400,2026-01-08 12:32:29,0.0,5,7.681,0.0,0.0,0.0,12.3,11.4,3.9,1024,1024,1024,1024,0,0,0,0,81,4.938,73.22,165.68242,P-GPS,,50.5
1127,274500,2026-01-08 12:32:29,0.0,5,7.681,0.0,0.0,0.0,12.5,12.6,3.4,1024,1024,1024,1024,0,0,0,0,81,4.938,73.22,165.68242,P-GPS,,50.5
1128,274600,2026-01-08 12:32:29,0.0,5,7.681,0.0,0.0,0.0,12.4,11.9,3.2,1024,1024,1024,1024,0,0,0,0,81,4.938,73.22,165.68242,P-GPS,,50.5
1129,274700,2026-01-08 12:32:29,0.0,5,7.681,0.0,0.0,0.0,12.4,11.2,3.3,1024,1024,1024,1024,0,0,0,0,81,4.938,73.22,165.68242,P-GPS,,50.5
1130,274800,2026-01-08 12:32:29,0.0,5,7.681,0.0,0.0,-0.223694,12.4,11.8,3.1,1024,1024,1024,1024,0,0,0,0,81,4.938,73.22,165.68242,P-GPS,,50.5
1131,274900,2026-01-08 12:32:29,0.0,5,7.681,0.0,0.0,-0.223694,12.4,12.0,3.4,1024,1024,1024,1024,0,0,0,0,81,4.938,73.22,165.68242,P-GPS,,50.5
1132,275000,2026-01-08 12:32:29,0.0,5,7.681,0.0,0.0,0.0,12.4,12.1,3.4,1024,1024,1024,1024,0,0,0,0,81,4.938,73.22,165.68242,P-GPS,,50.5
1133,275100,2026-01-08 12:32:29,0.0,5,7.641,0.0,0.0,0.0,12.4,12.7,3.4,1024,1024,1024,1024,0,0,0,0,81,5.201,73.22,165.68242,P-GPS,,50.5
1134,275200,2026-01-08 12:32:29,0.0,5,7.641,0.0,0.0,0.0,12.5,12.7,3.2,1024,1024,1024,1024,0,0,0,0,81,5.201,73.22,165.68242,P-GPS,,50.5
1135,275300,2026-01-08 12:32:30,0.0,5,7.641,0.0,0.0,0.0,12.4,12.4,3.3,1024,1024,1024,1024,0,0,0,0,81,5.201,73.22,165.68242,P-GPS,,50.5
1136,275400,2026-01-08 12:32:30,0.0,5,7.641,0.0,0.0,0.0,12.3,12.5,3.5,1024,1024,1024,1024,0,0,0,0,81,5.201,73.22,165.68242,P-GPS,,50.5
1137,275500,2026-01-08 12:32:30,0.0,5,7.641,0.0,0.0,0.0,12.3,12.2,4.2,1024,1024,1024,1024,0,0,0,0,81,5.201,73.22,166.010504,P-GPS,,50.6
1138,275600,2026-01-08 12:32:30,0.0,5,7.641,0.0,0.0,0.0,12.4,12.2,4.5,1024,1024,1024,1024,0,0,0,0,81,5.201,73.22,166.010504,P-GPS,Strong wind warning Strong wind warning. Aircraft unable to return to home automatically. Lower altitude immediately and return to home manually (Code: 30149). SD card speed low. Normal use may be affected. Replace SD card (Code: 10028). Gimbal stuck. Make sure gimbal c,50.6
1139,275700,2026-01-08 12:32:30,0.0,5,7.641,0.0,0.0,0.0,12.5,12.1,4.5,1024,1024,1024,1024,0,0,0,0,81,5.201,73.22,166.010504,P-GPS,,50.6
1140,275800,2026-01-08 12:32:30,0.0,5,7.641,0.0,0.0,0.0,12.5,12.3,4.5,1024,1024,1024,1024,0,0,0,0,81,5.201,73.22,166.010504,P-GPS,,50.6
1141,275900,2026-01-08 12:32:30,0.0,5,7.641,0.0,0.0,0.0,12.4,11.9,4.2,1024,1024,1024,1024,0,0,0,0,81,5.201,73.22,166.010504,P-GPS,,50.6
1142,276000,2026-01-08 12:32:30,0.0,5,7.641,0.0,0.0,0.0,12.4,11.9,4.7,1024,1024,1024,1024,0,0,0,0,81,5.201,73.22,166.010504,P-GPS,,50.6
1143,276100,2026-01-08 12:32:30,0.0,5,7.641,0.0,0.0,0.0,12.4,11.1,4.3,1024,1024,1024,1024,0,0,0,0,81,5.201,73.22,166.010504,P-GPS,,50.6
1144,276200,2026-01-08 12:32:31,0.0,5,7.638,0.0,0.0,0.0,12.4,11.7,4.8,1024,1024,1024,1024,0,0,0,0,81,5.229,73.22,166.010504,P-GPS,,50.6
1145,276300,2026-01-08 12:32:31,0.0,5,7.638,0.0,0.0,0.0,12.3,11.7,5.1,1024,1024,1024,1024,0,0,0,0,81,5.229,73.22,166.010504,P-GPS,,50.6
1146,276400,2026-01-08 12:32:31,0.0,5,7.638,0.0,0.0,0.0,12.3,11.4,5.6,1024,1024,1024,1024,0,0,0,0,81,5.229,73.22,166.338588,P-GPS,,50.7
1147,276500,2026-01-08 12:32:31,0.0,5,7.638,0.0,0.0,0.0,12.2,10.9,5.6,1024,1024,1024,1024,0,0,0,0,81,5.229,73.22,166.010504,P-GPS,,50.6
1148,276600,2026-01-08 12:32:31,0.0,5,7.638,0.0,0.0,0.0,12.2,10.5,5.5,1024,1024,1024,1024,0,0,0,0,81,5.229,73.22,166.010504,P-GPS,,50.6
1149,276700,2026-01-08 12:32:31,0.0,5,7.638,0.0,0.0,0.0,12.3,11.0,5.2,1024,1024,1024,1024,0,0,0,0,81,5.229,73.22,166.010504,P-GPS,,50.6
1150,276800,2026-01-08 12:32:31,0.0,5,7.638,0.0,0.0,0.0,12.3,10.7,5.2,1024,1024,1024,1024,0,0,0,0,81,5.229,73.22,166.010504,P-GPS,,50.6
1151,276900,2026-01-08 12:32:31,0.0,5,7.638,0.0,0.0,0.0,12.2,10.0,4.9,1024,1024,1024,1024,0,0,0,0,81,5.229,73.22,166.010504,P-GPS,,50.6
1152,277000,2026-01-08 12:32:31,0.0,5,7.638,0.0,0.0,0.0,12.3,10.4,4.7,1024,1024,1024,1024,0,0,0,0,81,5.229,73.22,166.010504,P-GPS,,50.6
1153,277100,2026-01-08 12:32:31,0.0,5,7.638,0.0,0.0,0.0,12.2,10.5,4.8,1024,1024,1024,1024,0,0,0,0,81,5.229,73.22,166.010504,P-GPS,,50.6
1154,277200,2026-01-08 12:32:32,0.0,5,7.638,0.0,0.0,0.0,12.2,9.8,5.1,1024,1024,1024,1024,0,0,0,0,81,5.229,73.22,166.010504,P-GPS,,50.6
1155,277300,2026-01-08 12:32:32,0.0,5,7.638,0.0,0.0,0.0,12.3,9.7,5.2,1024,1024,1024,1024,0,0,0,0,81,5.229,73.22,165.68242,P-GPS,,50.5
1156,277400,2026-01-08 12:32:32,0.0,5,7.638,0.0,0.0,0.0,12.4,10.3,5.3,1024,1024,1024,1024,0,0,0,0,81,5.229,73.22,165.68242,P-GPS,,50.5
1157,277500,2026-01-08 12:32:32,0.0,5,7.638,0.0,0.0,0.0,12.3,9.8,5.1,1024,1024,1024,1024,0,0,0,0,81,5.229,73.22,165.68242,P-GPS,,50.5
1158,277600,2026-01-08 12:32:32,0.0,5,7.638,0.0,0.0,0.0,12.3,10.1,5.2,1024,1024,1024,1024,0,0,0,0,81,5.229,73.22,165.68242,P-GPS,,50.5
1159,277700,2026-01-08 12:32:32,0.0,5,7.638,0.0,0.0,0.0,12.3,9.8,5.0,1024,1024,1024,1024,0,0,0,0,81,5.229,73.22,165.68242,P-GPS,,50.5
1160,277800,2026-01-08 12:32:32,0.0,5,7.638,0.0,0.0,0.0,12.4,10.1,5.1,1024,1024,1024,1024,0,0,0,0,81,5.229,73.22,165.354336,P-GPS,,50.4
1161,277900,2026-01-08 12:32:32,0.0,5,7.638,0.0,0.0,0.0,12.3,10.3,4.9,1024,1024,1024,1024,0,0,0,0,81,5.229,73.22,165.354336,P-GPS,,50.4
1162,278000,2026-01-08 12:32:32,0.0,5,7.638,0.0,0.0,0.0,12.4,10.9,4.3,1024,1024,1024,1024,0,0,0,0,81,5.229,73.22,165.354336,P-GPS,,50.4
1163,278100,2026-01-08 12:32:32,0.0,5,7.638,0.0,0.0,0.0,12.3,11.0,3.7,1024,1024,1024,1024,0,0,0,0,81,5.229,73.22,165.354336,P-GPS,,50.4
1164,278200,2026-01-08 12:32:33,0.0,5,7.638,0.0,0.0,0.0,12.2,10.8,3.2,1024,1024,1024,1024,0,0,0,0,81,5.229,73.22,165.354336,P-GPS,,50.4
1165,278300,2026-01-08 12:32:33,0.0,5,7.69,0.0,0.0,0.0,12.2,10.2,3.0,1024,1024,1024,1024,0,0,0,0,81,4.557,73.22,165.354336,P-GPS,,50.4
1166,278400,2026-01-08 12:32:33,0.0,5,7.69,0.0,0.0,0.0,12.1,9.9,3.3,1024,1024,1024,1024,0,0,0,0,81,4.557,73.22,165.354336,P-GPS,,50.4
1167,278500,2026-01-08 12:32:33,0.0,5,7.69,0.0,0.0,0.0,12.2,10.1,3.3,1024,1024,1024,1024,0,0,0,0,81,4.557,73.22,165.354336,P-GPS,,50.4
1168,278600,2026-01-08 12:32:33,0.0,5,7.69,0.0,0.0,0.0,12.3,10.4,3.4,1024,1024,1024,1024,0,0,0,0,81,4.557,73.22,165.354336,P-GPS,,50.4
1169,278700,2026-01-08 12:32:33,0.0,5,7.69,0.0,0.0,0.0,12.3,10.5,3.7,1024,1024,1024,1024,0,0,0,0,81,4.557,73.22,165.354336,P-GPS,,50.4
1170,278800,2026-01-08 12:32:33,0.0,5,7.69,0.0,0.0,0.0,12.2,10.1,3.7,1024,1024,1024,1024,0,0,0,0,81,4.557,73.22,165.354336,P-GPS,,50.4
1171,278900,2026-01-08 12:32:33,0.0,5,7.69,0.0,0.0,0.0,12.3,10.4,4.4,1024,1024,1024,1024,0,0,0,0,81,4.557,73.22,165.354336,P-GPS,,50.4
1172,279000,2026-01-08 12:32:33,0.0,5,7.69,0.0,0.0,0.0,12.3,10.1,4.4,1024,1024,1024,1024,0,0,0,0,81,4.557,73.22,165.354336,P-GPS,,50.4
1173,279100,2026-01-08 12:32:33,0.0,5,7.69,0.0,0.0,0.0,12.3,10.4,4.8,1024,1024,1024,1024,0,0,0,0,81,4.557,73.22,165.354336,P-GPS,,50.4
1174,279200,2026-01-08 12:32:33,0.0,5,7.69,0.0,0.0,0.0,12.3,10.5,4.7,1024,1024,1024,1024,0,0,0,0,81,4.557,73.22,165.354336,P-GPS,,50.4
1175,279300,2026-01-08 12:32:34,0.0,5,7.69,0.0,0.0,0.0,12.4,12.3,4.3,1024,1024,1024,1024,0,0,0,0,81,4.557,73.22,165.354336,P-GPS,,50.4
1176,279400,2026-01-08 12:32:34,0.0,5,7.69,0.0,0.0,0.0,12.5,12.7,4.2,1024,1024,1024,1024,0,0,0,0,81,4.557,73.22,165.354336,P-GPS,,50.4
1177,279500,2026-01-08 12:32:34,0.0,5,7.689,0.0,0.0,0.0,12.5,13.2,3.4,1024,1024,1024,1024,0,0,0,0,81,4.372,73.22,165.354336,P-GPS,,50.4
1178,279600,2026-01-08 12:32:34,0.0,5,7.689,0.0,0.0,0.0,12.5,12.7,3.1,1024,1024,1024,1024,0,0,0,0,81,4.372,73.22,165.354336,P-GPS,,50.4
1179,279700,2026-01-08 12:32:34,0.0,5,7.689,0.0,0.0,0.0,12.5,12.8,3.1,1024,1024,1024,1024,0,0,0,0,81,4.372,73.22,165.354336,P-GPS,,50.4
1180,279800,2026-01-08 12:32:34,0.0,5,7.689,0.0,0.0,0.0,12.5,12.6,2.5,1024,1024,1024,1024,0,0,0,0,81,4.372,73.22,165.354336,P-GPS,,50.4
1181,279900,2026-01-08 12:32:34,0.0,5,7.689,0.0,0.0,0.0,12.4,12.4,3.1,1024,1024,1024,1024,0,0,0,0,81,4.372,73.22,165.354336,P-GPS,,50.4
1182,280000,2026-01-08 12:32:34,0.0,5,7.689,0.0,0.0,0.0,12.3,11.9,3.7,1024,1024,1024,1024,0,0,0,0,81,4.372,73.22,165.354336,P-GPS,,50.4
1183,280100,2026-01-08 12:32:34,0.0,5,7.689,0.0,0.0,-0.223694,12.3,12.7,3.6,1024,1024,1024,1024,0,0,0,0,81,4.372,73.22,165.68242,P-GPS,,50.5
1184,280200,2026-01-08 12:32:35,0.0,5,7.689,0.0,0.0,0.0,12.3,12.4,4.1,1024,1024,1024,1024,0,0,0,0,81,4.372,73.22,165.68242,P-GPS,,50.5
1185,280300,2026-01-08 12:32:35,0.0,5,7.689,0.0,0.0,0.0,12.5,12.0,4.2,1024,1024,1024,1024,0,0,0,0,81,4.372,73.22,165.68242,P-GPS,,50.5
1186,280400,2026-01-08 12:32:35,0.0,5,7.689,0.0,0.0,0.0,12.5,11.8,4.5,1024,1024,1024,1024,0,0,0,0,81,4.372,73.22,165.68242,P-GPS,,50.5
1187,280500,2026-01-08 12:32:35,0.0,5,7.689,0.0,0.0,0.0,12.4,12.0,4.6,1024,1024,1024,1024,0,0,0,0,81,4.372,73.22,165.68242,P-GPS,,50.5
1188,280600,2026-01-08 12:32:35,0.0,5,7.666,0.0,0.0,0.0,12.4,11.8,4.7,1024,1024,1024,1024,0,0,0,0,81,5.067,73.4,165.68242,P-GPS,,50.5
1189,280700,2026-01-08 12:32:35,0.0,5,7.666,0.0,0.0,0.0,12.4,11.6,4.5,1024,1024,1024,1024,0,0,0,0,81,5.067,73.4,165.68242,P-GPS,,50.5
1190,280800,2026-01-08 12:32:35,0.0,5,7.666,0.0,0.0,0.0,12.4,11.7,4.1,1024,1024,1024,1024,0,0,0,0,81,5.067,73.4,165.68242,P-GPS,,50.5
1191,280900,2026-01-08 12:32:35,0.0,5,7.666,0.0,0.0,0.0,12.3,11.5,3.8,1024,1024,1024,1024,0,0,0,0,81,5.067,73.4,165.68242,P-GPS,,50.5
1192,281000,2026-01-08 12:32:35,0.0,5,7.666,0.0,0.0,0.0,12.4,11.3,3.7,1024,1024,1024,1024,0,0,0,0,81,5.067,73.4,166.010504,P-GPS,,50.6
1193,281100,2026-01-08 12:32:35,0.0,5,7.666,0.0,0.0,0.0,12.3,11.0,3.4,1024,1024,1024,1024,0,0,0,0,81,5.067,73.4,166.010504,P-GPS,,50.6
1194,281200,2026-01-08 12:32:36,0.0,5,7.666,0.0,0.0,0.0,12.2,11.1,3.6,1024,1024,1024,1024,0,0,0,0,81,5.067,73.4,166.010504,P-GPS,,50.6
1195,281300,2026-01-08 12:32:36,0.0,5,7.666,0.0,0.0,0.0,12.2,10.4,3.6,1024,1024,1024,1024,0,0,0,0,81,5.067,73.4,166.010504,P-GPS,,50.6
1196,281400,2026-01-08 12:32:36,0.0,5,7.666,0.0,0.0,0.0,12.2,10.5,3.7,1024,1024,1024,1024,0,0,0,0,81,5.067,73.4,166.010504,P-GPS,,50.6
1197,281500,2026-01-08 12:32:36,0.0,5,7.666,0.0,0.0,0.0,12.3,10.8,3.8,1024,1024,1024,1024,0,0,0,0,81,5.067,73.4,166.010504,P-GPS,,50.6
1198,281600,2026-01-08 12:32:36,0.0,5,7.666,0.0,0.0,0.0,12.3,10.9,3.6,1024,1024,1024,1024,0,0,0,0,81,5.067,73.4,166.010504,P-GPS,,50.6
1199,281700,2026-01-08 12:32:36,0.0,5,7.68,0.0,0.0,0.0,12.2,11.0,3.4,1024,1024,1024,1024,0,0,0,0,81,4.859,73.4,166.010504,P-GPS,,50.6
1200,281800,2026-01-08 12:32:36,0.0,5,7.68,0.0,0.0,0.0,12.3,11.2,3.4,1024,1024,1024,1024,0,0,0,0,81,4.859,73.4,166.010504,P-GPS,,50.6
1201,281900,2026-01-08 12:32:36,0.0,5,7.68,0.0,0.0,0.0,12.3,11.4,3.4,1024,1024,1024,1024,0,0,0,0,81,4.859,73.4,166.010504,P-GPS,,50.6
1202,282000,2026-01-08 12:32:36,0.0,5,7.68,0.0,0.0,0.0,12.2,11.3,3.1,1024,1024,1024,1024,0,0,0,0,81,4.859,73.4,166.010504,P-GPS,,50.6
1203,282100,2026-01-08 12:32:36,0.0,5,7.68,0.0,0.0,0.0,12.2,11.1,2.8,1024,1024,1024,1024,0,0,0,0,81,4.859,73.4,166.010504,P-GPS,,50.6
1204,282200,2026-01-08 12:32:37,0.0,5,7.68,0.0,0.0,0.0,12.2,11.2,2.7,1024,1024,1024,1024,0,0,0,0,81,4.859,73.4,166.010504,P-GPS,,50.6
1205,282300,2026-01-08 12:32:37,0.0,5,7.68,0.0,0.0,0.0,12.2,11.0,2.7,1024,1024,1024,1024,0,0,0,0,81,4.859,73.4,166.010504,P-GPS,,50.6
1206,282400,2026-01-08 12:32:37,0.0,5,7.68,0.0,0.0,0.0,12.3,11.1,2.8,1024,1024,1024,1024,0,0,0,0,81,4.859,73.4,166.010504,P-GPS,,50.6
1207,282500,2026-01-08 12:32:37,0.0,5,7.68,0.0,0.0,0.0,12.2,11.0,3.0,1024,1024,1024,1024,0,0,0,0,81,4.859,73.4,166.010504,P-GPS,,50.6
1208,282600,2026-01-08 12:32:37,0.0,5,7.68,0.0,0.0,0.0,12.2,11.0,2.6,1024,1024,1024,1024,0,0,0,0,81,4.859,73.4,166.010504,P-GPS,,50.6
1209,282700,2026-01-08 12:32:37,0.0,5,7.68,0.0,0.0,0.0,12.2,10.8,2.2,1024,1024,1024,1024,0,0,0,0,81,4.859,73.4,166.010504,P-GPS,,50.6
1210,282800,2026-01-08 12:32:37,0.0,5,7.666,0.0,0.0,0.0,12.1,11.0,1.7,1024,1024,1024,1024,0,0,0,0,81,4.914,73.4,166.010504,P-GPS,,50.6
1211,282900,2026-01-08 12:32:37,0.0,5,7.666,0.0,0.0,0.0,12.1,10.7,1.9,1024,1024,1024,1024,0,0,0,0,81,4.914,73.4,166.010504,P-GPS,,50.6
1212,283000,2026-01-08 12:32:37,0.0,5,7.666,0.0,0.0,0.0,12.1,11.0,2.4,1024,1024,1024,1024,0,0,0,0,81,4.914,73.4,166.010504,P-GPS,,50.6
1213,283100,2026-01-08 12:32:37,0.0,5,7.666,0.0,0.0,0.0,12.1,11.2,2.5,1024,1024,1024,1024,0,0,0,0,81,4.914,73.4,166.010504,P-GPS,,50.6
1214,283200,2026-01-08 12:32:38,0.0,5,7.666,0.0,0.0,0.0,12.2,10.8,2.4,1024,1024,1024,1024,0,0,0,0,81,4.914,73.4,166.338588,P-GPS,,50.7
1215,283300,2026-01-08 12:32:38,0.0,5,7.666,0.0,0.0,0.0,12.3,10.5,2.4,1024,1024,1024,1024,0,0,0,0,81,4.914,73.4,166.338588,P-GPS,,50.7
1216,283400,2026-01-08 12:32:38,0.0,5,7.666,0.0,0.0,0.0,12.3,10.6,2.7,1024,1024,1024,1024,0,0,0,0,81,4.914,73.4,166.338588,P-GPS,,50.7
1217,283500,2026-01-08 12:32:38,0.0,5,7.666,0.0,0.0,0.0,12.2,10.5,2.8,1024,1024,1024,1024,0,0,0,0,81,4.914,73.4,166.338588,P-GPS,,50.7
1218,283600,2026-01-08 12:32:38,0.0,5,7.666,0.0,0.0,0.0,12.3,10.4,3.2,1024,1024,1024,1024,0,0,0,0,81,4.914,73.4,166.338588,P-GPS,,50.7
1219,283700,2026-01-08 12:32:38,0.0,5,7.666,0.0,0.0,0.0,12.1,10.6,3.2,1024,1024,1024,1024,0,0,0,0,81,4.914,73.4,166.338588,P-GPS,,50.7
1220,283800,2026-01-08 12:32:38,0.0,5,7.666,0.0,0.0,0.0,12.2,10.4,3.3,1024,1024,1024,1024,0,0,0,0,81,4.914,73.4,166.338588,P-GPS,,50.7
1221,283900,2026-01-08 12:32:38,0.0,5,7.659,0.0,0.0,0.0,12.2,10.6,2.8,1024,1024,1024,1024,0,0,0,0,81,4.743,73.58,166.338588,P-GPS,,50.7
1222,284000,2026-01-08 12:32:38,0.0,5,7.659,0.0,0.0,0.0,12.2,10.3,3.4,1024,1024,1024,1024,0,0,0,0,81,4.743,73.58,166.338588,P-GPS,,50.7
1223,284100,2026-01-08 12:32:38,0.0,5,7.659,0.0,0.0,0.0,12.3,10.6,3.9,1024,1024,1024,1024,0,0,0,0,81,4.743,73.58,166.338588,P-GPS,,50.7
1224,284200,2026-01-08 12:32:39,0.0,5,7.659,0.0,0.0,0.0,12.2,10.0,3.7,1024,1024,1024,1024,0,0,0,0,81,4.743,73.58,166.338588,P-GPS,,50.7
1225,284300,2026-01-08 12:32:39,0.0,5,7.659,0.0,0.0,0.0,12.2,10.8,4.0,1024,1024,1024,1024,0,0,0,0,81,4.743,73.58,166.338588,P-GPS,,50.7
1226,284400,2026-01-08 12:32:39,0.0,5,7.659,0.0,0.0,0.0,12.2,10.4,4.2,1024,1024,1024,1024,0,0,0,0,81,4.743,73.58,166.338588,P-GPS,,50.7
1227,284500,2026-01-08 12:32:39,0.0,5,7.659,0.0,0.0,0.0,12.3,11.3,4.2,1024,1024,1024,1024,0,0,0,0,81,4.743,73.58,166.666672,P-GPS,,50.8
1228,284600,2026-01-08 12:32:39,0.0,5,7.659,0.0,0.0,0.0,12.4,11.4,4.5,1024,1024,1024,1024,0,0,0,0,81,4.743,73.58,166.666672,P-GPS,,50.8
1229,284700,2026-01-08 12:32:39,0.0,5,7.659,0.0,0.0,0.0,12.3,11.2,3.8,1024,1024,1024,1024,0,0,0,0,81,4.743,73.58,166.666672,P-GPS,,50.8
1230,284800,2026-01-08 12:32:39,0.0,5,7.659,0.0,0.0,0.0,12.3,11.6,3.8,1024,1024,1024,1024,0,0,0,0,81,4.743,73.58,166.666672,P-GPS,,50.8
1231,284900,2026-01-08 12:32:39,0.0,5,7.659,0.0,0.0,0.0,12.3,10.8,3.2,1024,1024,1024,1024,0,0,0,0,81,4.743,73.58,166.666672,P-GPS,,50.8
1232,285000,2026-01-08 12:32:39,0.0,5,7.651,0.0,0.0,0.0,12.2,10.3,3.4,1024,1024,1024,1024,0,0,0,0,80,4.711,73.58,166.666672,P-GPS,,50.8
1233,285100,2026-01-08 12:32:39,0.0,5,7.651,0.0,0.0,0.0,12.2,10.7,3.4,1024,1024,1024,1024,0,0,0,0,80,4.711,73.58,166.666672,P-GPS,,50.8
1234,285200,2026-01-08 12:32:40,0.0,5,7.651,0.0,0.0,0.0,12.2,10.3,3.3,1024,1024,1024,1024,0,0,0,0,80,4.711,73.58,166.666672,P-GPS,,50.8
1235,285300,2026-01-08 12:32:40,0.0,5,7.651,0.0,0.0,0.0,12.2,10.4,2.9,1024,1024,1024,1024,0,0,0,0,80,4.711,73.58,166.666672,P-GPS,,50.8
1236,285400,2026-01-08 12:32:40,0.0,5,7.651,0.0,0.0,0.0,12.2,10.3,3.6,1024,1024,1024,1024,0,0,0,0,80,4.711,73.58,166.666672,P-GPS,,50.8
1237,285500,2026-01-08 12:32:40,0.0,5,7.651,0.0,0.0,0.0,12.3,10.5,3.9,1024,1024,1024,1024,0,0,0,0,80,4.711,73.58,166.666672,P-GPS,,50.8
1238,285600,2026-01-08 12:32:40,0.0,5,7.651,0.0,0.0,0.0,12.1,10.3,4.3,1024,1024,1024,1024,0,0,0,0,80,4.711,73.58,166.994756,P-GPS,,50.9
1239,285700,2026-01-08 12:32:40,0.0,5,7.651,0.0,0.0,0.0,12.2,10.2,4.8,1024,1024,1024,1024,0,0,0,0,80,4.711,73.58,166.994756,P-GPS,,50.9
