index,time(millisecond),timestamp,speed(mph),gpslevel,voltage(v),xSpeed(mph),ySpeed(mph),zSpeed(mph),compass_heading(degrees),pitch(degrees),roll(degrees),rc_elevator,rc_aileron,rc_throttle,rc_rudder,rc_elevator(percent),rc_aileron(percent),rc_throttle(percent),rc_rudder(percent),battery_percent,current(A),battery_temperature(f),ascent(feet),flycState,message,height_above_takeoff(meters)
89,333700,2026-01-08 12:33:40,0.0,5,7.552,0.0,0.0,0.0,24.1,9.6,7.7,1024,1024,1024,1024,0,0,0,0,78,6.381,74.66,35.104988,P-GPS,,10.7
90,333800,2026-01-08 12:33:40,0.0,5,7.552,0.0,0.0,0.0,24.1,9.2,7.5,1024,1024,1024,1024,0,0,0,0,78,6.381,74.66,35.104988,P-GPS,,10.7
91,333900,2026-01-08 12:33:40,0.0,5,7.552,0.0,0.0,0.0,24.1,9.0,7.2,1024,1024,1024,1024,0,0,0,0,78,6.381,74.66,34.776904,P-GPS,,10.6
92,334000,2026-01-08 12:33:40,0.0,5,7.552,-0.223694,0.0,0.0,24.0,8.9,6.7,1024,1024,1024,1024,0,0,0,0,78,6.381,74.66,34.776904,P-GPS,,10.6
93,334100,2026-01-08 12:33:40,0.223694,5,7.552,-0.223694,0.0,0.0,24.1,8.5,6.3,1024,1024,1024,1024,0,0,0,0,78,6.381,74.66,34.44882,P-GPS,,10.5
94,334200,2026-01-08 12:33:40,0.223694,5,7.552,-0.223694,0.0,0.0,24.1,8.8,6.2,1024,1024,1024,1024,0,0,0,0,78,6.381,74.66,34.44882,P-GPS,,10.5
95,334300,2026-01-08 12:33:40,0.223694,5,7.552,-0.223694,0.0,0.0,24.1,8.2,6.3,1024,1024,1024,1024,0,0,0,0,78,6.381,74.66,34.120736,P-GPS,,10.4
96,334400,2026-01-08 12:33:40,0.223694,5,7.552,-0.223694,0.0,0.0,24.0,7.6,5.6,1024,1024,1024,1024,0,0,0,0,78,6.381,74.66,34.120736,P-GPS,,10.4
97,334500,2026-01-08 12:33:41,0.223694,5,7.647,-0.223694,0.0,0.0,24.0,7.9,5.5,1024,1024,1024,1024,0,0,0,0,78,4.3,74.66,34.120736,P-GPS,,10.4
98,334600,2026-01-08 12:33:41,0.223694,5,7.647,-0.223694,0.0,0.0,23.9,7.7,5.6,1024,1024,1024,1024,0,0,0,0,78,4.3,74.66,33.792652,P-GPS,,10.3
99,334700,2026-01-08 12:33:41,0.223694,5,7.647,-0.223694,0.0,0.0,23.9,7.8,5.5,1024,1024,1024,1024,0,0,0,0,78,4.3,74.66,33.792652,P-GPS,,10.3
100,334800,2026-01-08 12:33:41,0.0,5,7.647,0.0,0.0,0.0,24.0,8.0,5.6,1024,1024,1024,1024,0,0,0,0,78,4.3,74.66,33.464568,P-GPS,,10.2
101,334900,2026-01-08 12:33:41,0.0,5,7.647,0.0,0.0,0.0,24.0,7.7,5.6,1024,1024,1024,1024,0,0,0,0,78,4.3,74.66,33.464568,P-GPS,,10.2
102,335000,2026-01-08 12:33:41,0.0,5,7.647,0.0,0.0,0.0,24.0,8.1,5.8,1024,1024,1024,1024,0,0,0,0,78,4.3,74.66,33.136484,P-GPS,,10.1
103,335100,2026-01-08 12:33:41,0.0,5,7.647,0.0,0.0,0.0,24.0,8.0,5.7,1024,1024,1024,1024,0,0,0,0,78,4.3,74.66,33.136484,P-GPS,,10.1
104,335200,2026-01-08 12:33:41,0.0,5,7.647,0.0,0.0,0.0,24.0,8.2,5.7,1024,1024,1024,1024,0,0,0,0,78,4.3,74.66,33.136484,P-GPS,,10.1
105,335300,2026-01-08 12:33:41,0.0,5,7.647,0.0,0.0,0.0,24.0,8.0,5.5,1024,1024,1024,1024,0,0,0,0,78,4.3,74.66,32.8084,P-GPS,,10.0
106,335400,2026-01-08 12:33:41,0.0,5,7.647,0.0,0.0,0.0,24.1,8.1,5.8,1024,1024,1024,1024,0,0,0,0,78,4.3,74.66,32.8084,P-GPS,,10.0
107,335500,2026-01-08 12:33:42,0.0,5,7.643,0.0,0.0,0.0,24.1,8.1,5.8,1024,1024,1024,1024,0,0,0,0,78,4.69,74.66,32.8084,P-GPS,,10.0
108,335600,2026-01-08 12:33:42,0.0,5,7.643,0.0,0.0,0.0,24.1,8.1,5.9,1024,1024,1024,1024,0,0,0,0,78,4.69,74.66,32.480316,P-GPS,,9.9
109,335700,2026-01-08 12:33:42,0.0,5,7.643,0.0,0.0,0.0,24.0,7.8,6.0,1024,1024,1024,1024,0,0,0,0,78,4.69,74.66,32.480316,P-GPS,,9.9
110,335800,2026-01-08 12:33:42,0.0,5,7.643,0.0,0.0,0.0,24.0,7.5,5.7,1024,1024,1024,1024,0,0,0,0,78,4.69,74.66,32.480316,P-GPS,,9.9
111,335900,2026-01-08 12:33:42,0.0,5,7.643,0.0,0.0,0.0,23.9,7.7,5.6,1024,1024,1024,1024,0,0,0,0,78,4.69,74.66,32.152232,P-GPS,,9.8
112,336000,2026-01-08 12:33:42,0.0,5,7.643,0.0,0.0,0.0,23.9,7.9,5.6,1024,1024,1024,1024,0,0,0,0,78,4.69,74.66,32.152232,P-GPS,,9.8
113,336100,2026-01-08 12:33:42,0.0,5,7.643,0.0,0.0,0.0,24.0,8.2,5.5,1024,1024,1024,1024,0,0,0,0,78,4.69,74.66,32.152232,P-GPS,,9.8
114,336200,2026-01-08 12:33:42,0.0,5,7.643,0.0,0.0,0.0,24.0,8.2,5.6,1024,1024,1024,1024,0,0,0,0,78,4.69,74.66,32.152232,P-GPS,,9.8
115,336300,2026-01-08 12:33:42,0.0,5,7.643,0.0,0.0,0.0,24.0,8.4,5.8,1024,1024,1024,1024,0,0,0,0,78,4.69,74.66,32.152232,P-GPS,,9.8
116,336400,2026-01-08 12:33:42,0.0,5,7.643,0.0,0.0,0.0,24.0,8.3,5.8,1024,1024,1024,1024,0,0,0,0,78,4.69,74.66,31.824148,P-GPS,,9.7
117,336500,2026-01-08 12:33:43,0.0,5,7.634,0.0,0.0,0.0,24.0,8.4,5.8,1024,1024,1024,1024,0,0,0,0,78,4.97,74.66,31.824148,P-GPS,,9.7
118,336600,2026-01-08 12:33:43,0.0,5,7.634,0.0,0.0,0.0,24.0,8.5,5.8,1024,1024,1024,1024,0,0,0,0,78,4.97,74.66,31.824148,P-GPS,,9.7
119,336700,2026-01-08 12:33:43,0.0,5,7.634,0.0,0.0,0.0,24.0,8.6,5.5,1024,1024,1024,1024,0,0,0,0,78,4.97,74.66,31.824148,P-GPS,,9.7
120,336800,2026-01-08 12:33:43,0.0,5,7.634,0.0,0.0,0.0,24.1,8.7,5.5,1024,1024,1024,1024,0,0,0,0,78,4.97,74.66,31.496064,P-GPS,,9.6
121,336900,2026-01-08 12:33:43,0.0,5,7.634,0.0,0.0,0.0,24.1,8.4,5.4,1024,1024,1024,1024,0,0,0,0,78,4.97,74.66,31.496064,P-GPS,,9.6
122,337000,2026-01-08 12:33:43,0.0,5,7.634,0.0,0.0,0.0,24.0,8.0,5.5,1024,1024,1024,1024,0,0,0,0,78,4.97,74.66,31.496064,P-GPS,,9.6
123,337100,2026-01-08 12:33:43,0.0,5,7.634,0.0,0.0,0.0,24.1,8.2,5.3,1024,1024,1024,1024,0,0,0,0,78,4.97,74.66,31.496064,P-GPS,,9.6
124,337200,2026-01-08 12:33:43,0.0,5,7.634,0.0,0.0,0.0,24.1,8.4,5.7,1024,1024,1024,1024,0,0,0,0,78,4.97,74.66,31.496064,P-GPS,,9.6
125,337300,2026-01-08 12:33:43,0.0,5,7.634,0.0,0.0,0.0,24.1,8.3,6.2,1024,1024,1024,1024,0,0,0,0,78,4.97,74.66,31.496064,P-GPS,,9.6
126,337400,2026-01-08 12:33:43,0.0,5,7.634,0.0,0.0,0.0,24.0,8.6,6.2,1024,1024,1024,1024,0,0,0,0,78,4.97,74.66,31.496064,P-GPS,,9.6
127,337500,2026-01-08 12:33:44,0.0,5,7.634,0.0,0.0,0.0,24.1,9.0,6.9,1024,1024,1024,1024,0,0,0,0,78,4.97,74.66,31.496064,P-GPS,,9.6
128,337600,2026-01-08 12:33:44,0.0,5,7.658,0.0,0.0,0.0,24.1,9.1,7.1,1024,1024,1024,1024,0,0,0,0,78,4.664,74.84,31.496064,P-GPS,,9.6
129,337700,2026-01-08 12:33:44,0.0,5,7.658,0.0,0.0,0.0,24.2,9.8,7.4,1024,1024,1024,1024,0,0,0,0,78,4.664,74.84,31.496064,P-GPS,,9.6
130,337800,2026-01-08 12:33:44,0.0,5,7.658,0.0,0.0,0.0,24.2,10.2,7.0,1024,1024,1024,1024,0,0,0,0,78,4.664,74.84,31.496064,P-GPS,,9.6
131,337900,2026-01-08 12:33:44,0.0,5,7.658,0.0,0.0,0.0,24.2,10.1,6.8,1024,1024,1024,1024,0,0,0,0,78,4.664,74.84,31.16798,P-GPS,,9.5
132,338000,2026-01-08 12:33:44,0.0,5,7.658,0.0,0.0,0.0,24.2,10.6,6.6,1024,1024,1024,1024,0,0,0,0,78,4.664,74.84,31.16798,P-GPS,,9.5
133,338100,2026-01-08 12:33:44,0.0,5,7.658,0.0,0.0,0.0,24.2,10.3,5.6,1024,1024,1024,1024,0,0,0,0,78,4.664,74.84,31.16798,P-GPS,,9.5
134,338200,2026-01-08 12:33:44,0.0,5,7.658,0.0,0.0,0.0,24.2,10.4,4.6,1024,1024,1024,1024,0,0,0,0,78,4.664,74.84,31.16798,P-GPS,,9.5
135,338300,2026-01-08 12:33:44,0.0,5,7.658,0.0,0.0,0.0,24.1,10.2,4.6,1024,1024,1024,1024,0,0,0,0,78,4.664,74.84,30.839896,P-GPS,,9.4
136,338400,2026-01-08 12:33:44,0.0,5,7.658,0.0,0.0,0.0,24.1,10.5,4.5,1024,1024,1024,1024,0,0,0,0,78,4.664,74.84,30.839896,P-GPS,,9.4
137,338500,2026-01-08 12:33:45,0.0,5,7.592,0.0,0.0,0.0,24.1,10.7,4.3,1024,1024,1024,1024,0,0,0,0,78,5.222,74.84,30.839896,P-GPS,,9.4
138,338600,2026-01-08 12:33:45,0.0,5,7.592,0.0,0.0,0.0,24.0,10.7,4.1,1024,1024,1024,1024,0,0,0,0,78,5.222,74.84,30.839896,P-GPS,,9.4
139,338700,2026-01-08 12:33:45,0.0,5,7.592,0.0,0.0,0.0,24.0,10.3,4.4,1024,1024,1024,1024,0,0,0,0,78,5.222,74.84,30.511812,P-GPS,,9.3
140,338800,2026-01-08 12:33:45,0.0,5,7.592,0.0,0.0,0.0,24.0,10.6,4.0,1024,1024,1024,1024,0,0,0,0,78,5.222,74.84,30.511812,P-GPS,,9.3
141,338900,2026-01-08 12:33:45,0.0,5,7.592,0.0,0.0,0.0,24.0,10.5,3.9,1024,1024,1024,1024,0,0,0,0,78,5.222,74.84,30.511812,P-GPS,,9.3
142,339000,2026-01-08 12:33:45,0.0,5,7.592,0.0,0.0,0.0,24.1,10.3,4.0,1024,1024,1024,1024,0,0,0,0,78,5.222,74.84,30.511812,P-GPS,,9.3
143,339100,2026-01-08 12:33:45,0.0,5,7.592,0.0,0.0,0.0,24.0,10.8,4.0,1024,1024,1024,1024,0,0,0,0,78,5.222,74.84,30.183728,P-GPS,,9.2
144,339200,2026-01-08 12:33:45,0.0,5,7.592,0.0,0.0,0.0,24.0,10.0,3.8,1024,1024,1024,1024,0,0,0,0,78,5.222,74.84,30.183728,P-GPS,,9.2
145,339300,2026-01-08 12:33:45,0.0,5,7.592,0.0,0.0,0.0,24.0,9.5,3.7,1024,1024,1024,1024,0,0,0,0,78,5.222,74.84,30.183728,P-GPS,,9.2
146,339400,2026-01-08 12:33:45,0.0,5,7.592,0.0,0.0,0.0,23.9,9.7,3.1,1024,1024,1024,1024,0,0,0,0,78,5.222,74.84,30.183728,P-GPS,,9.2
147,339500,2026-01-08 12:33:46,0.0,5,7.592,0.0,0.0,0.0,24.0,9.2,3.6,1024,1024,1024,1024,0,0,0,0,78,5.222,74.84,29.855644,P-GPS,,9.1
148,339600,2026-01-08 12:33:46,0.0,5,7.592,0.0,0.0,0.0,23.7,8.1,3.6,1024,1024,1024,1024,0,0,0,0,78,5.222,74.84,29.855644,P-GPS,,9.1
149,339700,2026-01-08 12:33:46,0.0,5,7.592,0.0,0.0,0.0,24.0,8.5,4.3,1024,1024,1024,1024,0,0,0,0,78,5.222,74.84,29.855644,P-GPS,,9.1
150,339800,2026-01-08 12:33:46,0.0,5,7.592,0.0,0.0,0.0,24.0,8.2,4.9,1024,1024,1024,1024,0,0,0,0,77,5.222,74.84,29.855644,P-GPS,,9.1
151,339900,2026-01-08 12:33:46,0.223694,5,7.592,0.0,-0.223694,0.0,24.0,7.5,5.4,1024,1024,1024,1024,0,0,0,0,77,5.222,74.84,29.855644,P-GPS,,9.1
152,340000,2026-01-08 12:33:46,0.223694,5,7.592,0.0,-0.223694,0.0,24.1,7.9,6.1,1024,1024,1024,1024,0,0,0,0,77,5.222,74.84,29.855644,P-GPS,,9.1
153,340100,2026-01-08 12:33:46,0.223694,5,7.592,0.0,-0.223694,0.0,24.1,8.1,6.6,1024,1024,1024,1024,0,0,0,0,77,5.222,74.84,29.855644,P-GPS,,9.1
154,340200,2026-01-08 12:33:46,0.223694,5,7.592,0.0,-0.223694,0.0,24.3,7.7,6.7,1024,1024,1024,1024,0,0,0,0,77,5.222,74.84,29.855644,P-GPS,,9.1
155,340300,2026-01-08 12:33:46,0.223694,5,7.592,0.0,0.0,0.0,24.3,8.0,6.7,1024,1024,1024,1024,0,0,0,0,77,5.222,74.84,29.855644,P-GPS,,9.1
156,340400,2026-01-08 12:33:46,0.0,5,7.592,0.0,0.0,0.0,24.1,7.5,6.7,1024,1024,1024,1024,0,0,0,0,77,5.222,74.84,29.855644,P-GPS,,9.1
157,340500,2026-01-08 12:33:46,0.0,5,7.592,0.0,0.0,0.0,24.0,8.1,6.2,1024,1024,1024,1024,0,0,0,0,77,5.222,74.84,29.855644,P-GPS,,9.1
158,340600,2026-01-08 12:33:47,0.0,5,7.656,0.0,0.0,0.0,23.9,7.8,6.2,1024,1024,1024,1024,0,0,0,0,77,4.181,74.84,29.855644,P-GPS,,9.1
159,340700,2026-01-08 12:33:47,0.0,5,7.656,0.0,0.0,0.0,23.9,7.7,6.2,1024,1024,1024,1024,0,0,0,0,77,4.181,74.84,29.855644,P-GPS,,9.1
160,340800,2026-01-08 12:33:47,0.0,5,7.656,0.0,0.0,0.0,23.9,7.7,5.7,1024,1024,1024,1024,0,0,0,0,77,4.181,74.84,29.855644,P-GPS,,9.1
161,340900,2026-01-08 12:33:47,0.0,5,7.656,0.0,0.0,0.0,24.0,7.7,5.8,1024,1024,1024,1024,0,0,0,0,77,4.181,74.84,29.855644,P-GPS,,9.1
162,341000,2026-01-08 12:33:47,0.0,5,7.656,0.0,0.0,0.0,24.0,7.7,6.0,1024,1024,1024,1024,0,0,0,0,77,4.181,74.84,29.855644,P-GPS,,9.1
163,341100,2026-01-08 12:33:47,0.0,5,7.656,0.0,0.0,0.0,23.9,7.2,5.8,1024,1024,1024,1024,0,0,0,0,77,4.181,74.84,30.183728,P-GPS,,9.2
164,341200,2026-01-08 12:33:47,0.0,5,7.656,0.0,0.0,0.0,24.0,7.3,6.2,1024,1024,1024,1024,0,0,0,0,77,4.181,74.84,30.183728,P-GPS,,9.2
165,341300,2026-01-08 12:33:47,0.0,5,7.656,0.0,0.0,0.0,24.0,8.0,6.1,1024,1024,1024,1024,0,0,0,0,77,4.181,74.84,30.183728,P-GPS,,9.2
166,341400,2026-01-08 12:33:47,0.0,5,7.656,0.0,0.0,0.0,24.0,8.0,6.1,1024,1024,1024,1024,0,0,0,0,77,4.181,74.84,30.183728,P-GPS,,9.2
167,341500,2026-01-08 12:33:47,0.0,5,7.656,0.0,0.0,0.0,24.0,8.6,6.5,1024,1024,1024,1024,0,0,0,0,77,4.181,74.84,30.183728,P-GPS,,9.2
168,341600,2026-01-08 12:33:48,0.0,5,7.656,0.0,0.0,0.0,24.1,8.8,6.6,1024,1024,1024,1024,0,0,0,0,77,4.181,74.84,30.183728,P-GPS,,9.2
169,341700,2026-01-08 12:33:48,0.0,5,7.648,0.0,0.0,0.0,24.1,9.2,6.9,1024,1024,1024,1024,0,0,0,0,77,4.531,74.84,30.183728,P-GPS,,9.2
170,341800,2026-01-08 12:33:48,0.0,5,7.648,0.0,0.0,0.0,24.1,8.8,6.7,1024,1024,1024,1024,0,0,0,0,77,4.531,74.84,30.183728,P-GPS,,9.2
171,341900,2026-01-08 12:33:48,0.0,5,7.648,0.0,0.0,0.0,24.1,8.5,6.8,1024,1024,1024,1024,0,0,0,0,77,4.531,74.84,30.183728,P-GPS,,9.2
172,342000,2026-01-08 12:33:48,0.0,5,7.648,0.0,0.0,0.0,24.1,8.6,6.6,1024,1024,1024,1024,0,0,0,0,77,4.531,74.84,30.183728,P-GPS,,9.2
173,342100,2026-01-08 12:33:48,0.0,5,7.648,0.0,0.0,0.0,24.1,8.5,6.5,1024,1024,1024,1024,0,0,0,0,77,4.531,74.84,30.183728,P-GPS,,9.2
174,342200,2026-01-08 12:33:48,0.0,5,7.648,0.0,0.0,0.0,24.1,8.7,6.5,1024,1024,1024,1024,0,0,0,0,77,4.531,74.84,30.183728,P-GPS,,9.2
175,342300,2026-01-08 12:33:48,0.0,5,7.648,0.0,0.0,0.0,24.2,8.8,6.5,1024,1024,1024,1024,0,0,0,0,77,4.531,74.84,30.183728,P-GPS,,9.2
176,342400,2026-01-08 12:33:48,0.0,5,7.648,0.0,0.0,0.0,24.2,9.0,6.9,1024,1024,1024,1024,0,0,0,0,77,4.531,74.84,30.183728,P-GPS,,9.2
177,342500,2026-01-08 12:33:49,0.0,5,7.648,0.0,0.0,0.0,24.1,9.3,7.0,1024,1024,1024,1024,0,0,0,0,77,4.531,74.84,30.183728,P-GPS,,9.2
178,342600,2026-01-08 12:33:49,0.0,5,7.648,0.0,0.0,0.0,24.1,9.0,7.0,1024,1024,1024,1024,0,0,0,0,77,4.531,74.84,30.183728,P-GPS,,9.2
179,342700,2026-01-08 12:33:49,0.0,5,7.648,0.0,0.0,0.0,24.1,9.2,7.1,1024,1024,1024,1024,0,0,0,0,77,4.531,74.84,30.511812,P-GPS,,9.3
180,342800,2026-01-08 12:33:49,0.0,5,7.612,0.0,0.0,0.0,24.2,9.5,7.2,1024,1024,1024,1024,0,0,0,0,77,4.724,74.84,30.511812,P-GPS,,9.3
181,342900,2026-01-08 12:33:49,0.0,5,7.612,0.0,0.0,0.0,24.2,10.0,7.0,1024,1024,1024,1024,0,0,0,0,77,4.724,74.84,30.511812,P-GPS,,9.3
182,343000,2026-01-08 12:33:49,0.0,5,7.612,0.0,0.0,0.0,24.1,9.9,6.6,1024,1024,1024,1024,0,0,0,0,77,4.724,74.84,30.511812,P-GPS,,9.3
183,343100,2026-01-08 12:33:49,0.0,5,7.612,0.0,0.0,0.0,24.2,9.9,6.7,1024,1024,1024,1024,0,0,0,0,77,4.724,74.84,30.511812,P-GPS,,9.3
184,343200,2026-01-08 12:33:49,0.0,5,7.612,0.0,0.0,0.0,24.1,9.8,6.3,1024,1024,1024,1024,0,0,0,0,77,4.724,74.84,30.511812,P-GPS,,9.3
185,343300,2026-01-08 12:33:49,0.0,5,7.612,0.0,0.0,-0.223694,24.1,10.1,6.1,1024,1024,1024,1024,0,0,0,0,77,4.724,74.84,30.183728,P-GPS,,9.2
186,343400,2026-01-08 12:33:49,0.0,5,7.612,0.0,0.0,0.0,24.2,10.6,6.0,1024,1024,1024,1024,0,0,0,0,77,4.724,74.84,30.183728,P-GPS,,9.2
187,343500,2026-01-08 12:33:49,0.0,5,7.612,0.0,0.0,0.0,24.2,10.3,6.5,1024,1024,1024,1024,0,0,0,0,77,4.724,74.84,30.183728,P-GPS,,9.2
188,343600,2026-01-08 12:33:50,0.0,5,7.612,0.0,0.0,0.0,24.1,10.0,7.0,1024,1024,1024,1024,0,0,0,0,77,4.724,74.84,30.183728,P-GPS,,9.2
189,343700,2026-01-08 12:33:50,0.0,5,7.612,0.0,0.0,0.0,24.2,10.3,7.1,1024,1024,1024,1024,0,0,0,0,77,4.724,74.84,30.183728,P-GPS,,9.2
190,343800,2026-01-08 12:33:50,0.0,5,7.612,0.0,0.0,0.0,24.2,10.4,7.1,1024,1024,1024,1024,0,0,0,0,77,4.724,74.84,30.183728,P-GPS,,9.2
191,343900,2026-01-08 12:33:50,0.0,5,7.628,0.0,0.0,0.0,24.2,10.5,6.9,1024,1024,1024,1024,0,0,0,0,77,4.976,75.02,30.183728,P-GPS,,9.2
192,344000,2026-01-08 12:33:50,0.0,5,7.628,0.0,0.0,0.0,24.2,10.2,6.5,1024,1024,1024,1024,0,0,0,0,77,4.976,75.02,30.183728,P-GPS,,9.2
193,344100,2026-01-08 12:33:50,0.0,5,7.628,0.0,0.0,0.0,24.1,10.3,6.3,1024,1024,1024,1024,0,0,0,0,77,4.976,75.02,30.183728,P-GPS,,9.2
194,344200,2026-01-08 12:33:50,0.0,5,7.628,0.0,0.0,0.0,24.2,10.5,6.1,1024,1024,1024,1024,0,0,0,0,77,4.976,75.02,30.183728,P-GPS,,9.2
195,344300,2026-01-08 12:33:50,0.0,5,7.628,0.0,0.0,0.0,24.1,9.9,6.2,1024,1024,1024,1024,0,0,0,0,77,4.976,75.02,30.183728,P-GPS,,9.2
196,344400,2026-01-08 12:33:50,0.0,5,7.628,0.0,0.0,0.0,24.2,10.0,6.2,1024,1024,1024,1024,0,0,0,0,77,4.976,75.02,30.183728,P-GPS,,9.2
197,344500,2026-01-08 12:33:51,0.0,5,7.628,0.0,0.0,0.0,24.1,9.3,6.4,1024,1024,1024,1024,0,0,0,0,77,4.976,75.02,30.183728,P-GPS,,9.2
198,344600,2026-01-08 12:33:51,0.0,5,7.628,0.0,0.0,0.0,24.0,9.3,5.9,1024,1024,1024,1024,0,0,0,0,77,4.976,75.02,29.855644,P-GPS,,9.1
199,344700,2026-01-08 12:33:51,0.0,5,7.628,0.0,0.0,0.0,24.1,9.4,6.0,1024,1024,1024,1024,0,0,0,0,77,4.976,75.02,29.855644,P-GPS,,9.1
200,344800,2026-01-08 12:33:51,0.0,5,7.628,0.0,0.0,0.0,24.2,9.5,6.8,1024,1024,1024,1024,0,0,0,0,77,4.976,75.02,30.183728,P-GPS,,9.2
201,344900,2026-01-08 12:33:51,0.0,5,7.628,0.0,0.0,0.0,24.1,9.1,7.0,1024,1024,1024,1024,0,0,0,0,77,4.976,75.02,30.183728,P-GPS,,9.2
202,345000,2026-01-08 12:33:51,0.0,5,7.64,0.0,0.0,0.0,24.0,8.6,6.6,1024,1024,1024,1024,0,0,0,0,77,4.86,75.02,29.855644,P-GPS,,9.1
203,345100,2026-01-08 12:33:51,0.0,5,7.64,0.0,0.0,0.0,24.0,8.7,6.0,1024,1024,1024,1024,0,0,0,0,77,4.86,75.02,29.855644,P-GPS,,9.1
204,345200,2026-01-08 12:33:51,0.0,5,7.64,0.0,0.0,0.0,24.1,9.2,5.4,1024,1024,1024,1024,0,0,0,0,77,4.86,75.02,29.855644,P-GPS,,9.1
205,345300,2026-01-08 12:33:51,0.0,5,7.64,0.0,0.0,0.0,24.1,9.2,5.2,1024,1024,1024,1024,0,0,0,0,77,4.86,75.02,29.855644,P-GPS,,9.1
206,345400,2026-01-08 12:33:51,0.0,5,7.64,0.0,0.0,0.0,24.0,8.9,5.3,1024,1024,1024,1024,0,0,0,0,77,4.86,75.02,29.855644,P-GPS,,9.1
207,345500,2026-01-08 12:33:51,0.0,5,7.64,0.0,0.0,0.0,24.0,8.3,5.5,1024,1024,1024,1024,0,0,0,0,77,4.86,75.02,29.52756,P-GPS,,9.0
208,345600,2026-01-08 12:33:52,0.0,5,7.64,0.0,0.0,0.0,24.1,8.5,5.8,1024,1024,1024,1024,0,0,0,0,77,4.86,75.02,29.52756,P-GPS,,9.0
209,345700,2026-01-08 12:33:52,0.0,5,7.64,0.0,0.0,0.0,24.1,8.4,5.8,1024,1024,1024,1024,0,0,0,0,77,4.86,75.02,29.52756,P-GPS,,9.0
210,345800,2026-01-08 12:33:52,0.0,5,7.64,0.0,0.0,0.0,24.2,9.0,6.2,1024,1024,1024,1024,0,0,0,0,77,4.86,75.02,29.52756,P-GPS,,9.0
211,345900,2026-01-08 12:33:52,0.0,5,7.64,0.0,0.0,0.0,24.2,9.8,5.5,1024,1024,1024,1024,0,0,0,0,77,4.86,75.02,29.199476,P-GPS,,8.9
212,346000,2026-01-08 12:33:52,0.0,5,7.64,0.0,0.0,0.0,24.0,9.9,5.0,1024,1024,1024,1024,0,0,0,0,77,4.86,75.02,29.199476,P-GPS,,8.9
213,346100,2026-01-08 12:33:52,0.0,5,7.642,0.0,0.0,0.0,24.0,9.2,4.9,1024,1024,1024,1024,0,0,0,0,77,4.477,75.02,29.199476,P-GPS,,8.9
214,346200,2026-01-08 12:33:52,0.0,5,7.642,0.0,0.0,0.0,24.0,8.7,4.7,1024,1024,1024,1024,0,0,0,0,77,4.477,75.02,29.199476,P-GPS,,8.9
215,346300,2026-01-08 12:33:52,0.0,5,7.642,0.0,0.0,0.0,23.9,8.4,4.4,1024,1024,1024,1024,0,0,0,0,77,4.477,75.02,29.199476,P-GPS,,8.9
216,346400,2026-01-08 12:33:52,0.223694,5,7.642,-0.223694,0.0,0.0,23.8,8.2,4.2,1024,1024,1024,1024,0,0,0,0,77,4.477,75.02,29.199476,P-GPS,,8.9
217,346500,2026-01-08 12:33:53,0.0,5,7.642,0.0,0.0,0.0,23.9,7.8,4.1,1024,1024,1024,1024,0,0,0,0,77,4.477,75.02,29.199476,P-GPS,,8.9
218,346600,2026-01-08 12:33:53,0.0,5,7.642,0.0,0.0,0.0,23.9,7.5,4.5,1024,1024,1024,1024,0,0,0,0,77,4.477,75.02,29.199476,P-GPS,,8.9
219,346700,2026-01-08 12:33:53,0.0,5,7.642,0.0,0.0,0.0,23.9,8.0,4.3,1024,1024,1024,1024,0,0,0,0,77,4.477,75.02,29.199476,P-GPS,,8.9
220,346800,2026-01-08 12:33:53,0.0,5,7.642,0.0,0.0,0.0,24.0,7.8,5.2,1024,1024,1024,1024,0,0,0,0,77,4.477,75.02,29.199476,P-GPS,,8.9
221,346900,2026-01-08 12:33:53,0.0,5,7.642,0.0,0.0,0.0,24.1,7.7,5.3,1024,1024,1024,1024,0,0,0,0,77,4.477,75.02,29.199476,P-GPS,,8.9
222,347000,2026-01-08 12:33:53,0.0,5,7.642,0.0,0.0,0.0,24.1,7.4,5.3,1024,1024,1024,1024,0,0,0,0,77,4.477,75.02,29.199476,P-GPS,,8.9
223,347100,2026-01-08 12:33:53,0.0,5,7.642,0.0,0.0,0.0,24.1,7.2,5.8,1024,1024,1024,1024,0,0,0,0,77,4.477,75.02,29.52756,P-GPS,,9.0
224,347200,2026-01-08 12:33:53,0.0,5,7.646,0.0,0.0,0.0,24.2,7.9,5.7,1024,1024,1024,1024,0,0,0,0,77,4.622,75.02,29.52756,P-GPS,,9.0
225,347300,2026-01-08 12:33:53,0.0,5,7.646,0.0,0.0,0.0,24.1,7.8,5.6,1024,1024,1024,1024,0,0,0,0,77,4.622,75.02,29.52756,P-GPS,,9.0
226,347400,2026-01-08 12:33:53,0.0,5,7.646,0.0,0.0,0.0,24.0,8.3,5.5,1024,1024,1024,1024,0,0,0,0,77,4.622,75.02,29.52756,P-GPS,,9.0
227,347500,2026-01-08 12:33:54,0.0,5,7.646,0.0,0.0,0.0,24.0,8.0,5.8,1024,1024,1024,1024,0,0,0,0,77,4.622,75.02,29.52756,P-GPS,,9.0
228,347600,2026-01-08 12:33:54,0.0,5,7.646,0.0,0.0,0.0,24.0,7.7,5.9,1024,1024,1024,1024,0,0,0,0,77,4.622,75.02,29.52756,P-GPS,,9.0
229,347700,2026-01-08 12:33:54,0.0,5,7.646,0.0,0.0,0.0,24.1,8.4,6.3,1024,1024,1024,1024,0,0,0,0,77,4.622,75.02,29.52756,P-GPS,,9.0
230,347800,2026-01-08 12:33:54,0.0,5,7.646,0.0,0.0,0.0,24.1,8.9,6.1,1024,1024,1024,1024,0,0,0,0,77,4.622,75.02,29.52756,P-GPS,,9.0
231,347900,2026-01-08 12:33:54,0.0,5,7.646,0.0,0.0,0.0,24.0,8.6,5.9,1024,1024,1024,1024,0,0,0,0,77,4.622,75.02,29.52756,P-GPS,,9.0
232,348000,2026-01-08 12:33:54,0.0,5,7.646,0.0,0.0,0.0,24.0,8.4,5.9,1024,1024,1024,1024,0,0,0,0,77,4.622,75.02,29.52756,P-GPS,,9.0
233,348100,2026-01-08 12:33:54,0.0,5,7.646,0.0,0.0,0.0,24.1,8.6,5.8,1024,1024,1024,1024,0,0,0,0,77,4.622,75.02,29.52756,P-GPS,,9.0
234,348200,2026-01-08 12:33:54,0.0,5,7.646,0.0,0.0,0.0,24.0,9.0,5.6,1024,1024,1024,1024,0,0,0,0,77,4.622,75.02,29.52756,P-GPS,,9.0
235,348300,2026-01-08 12:33:54,0.0,5,7.63,0.0,0.0,0.0,24.0,8.6,5.9,1024,1024,1024,1024,0,0,0,0,77,4.559,75.02,29.52756,P-GPS,,9.0
236,348400,2026-01-08 12:33:54,0.0,5,7.63,0.0,0.0,0.0,24.1,8.4,5.7,1024,1024,1024,1024,0,0,0,0,77,4.559,75.02,29.52756,P-GPS,,9.0
237,348500,2026-01-08 12:33:55,0.0,5,7.63,0.0,0.0,0.0,24.0,9.2,5.4,1024,1024,1024,1024,0,0,0,0,77,4.559,75.02,29.52756,P-GPS,,9.0
238,348600,2026-01-08 12:33:55,0.0,5,7.63,0.0,0.0,0.0,24.1,8.7,5.4,1024,1024,1024,1024,0,0,0,0,77,4.559,75.02,29.52756,P-GPS,,9.0
239,348700,2026-01-08 12:33:55,0.0,5,7.63,0.0,0.0,0.0,24.0,8.6,5.5,1024,1024,1024,1024,0,0,0,0,77,4.559,75.02,29.52756,P-GPS,,9.0
240,348800,2026-01-08 12:33:55,0.0,5,7.63,0.0,0.0,0.0,24.1,8.7,5.5,1024,1024,1024,1024,0,0,0,0,77,4.559,75.02,29.52756,P-GPS,,9.0
241,348900,2026-01-08 12:33:55,0.0,5,7.63,0.0,0.0,0.0,24.0,8.9,5.3,1024,1024,1024,1024,0,0,0,0,77,4.559,75.02,29.52756,P-GPS,,9.0
242,349000,2026-01-08 12:33:55,0.0,5,7.63,0.0,0.0,0.0,24.0,8.9,4.8,1024,1024,1024,1024,0,0,0,0,77,4.559,75.02,29.52756,P-GPS,,9.0
243,349100,2026-01-08 12:33:55,0.0,5,7.63,0.0,0.0,0.0,24.0,8.7,4.6,1024,1024,1024,1024,0,0,0,0,77,4.559,75.02,29.52756,P-GPS,,9.0
244,349200,2026-01-08 12:33:55,0.0,5,7.63,0.0,0.0,0.0,24.0,8.6,4.4,1024,1024,1024,1024,0,0,0,0,77,4.559,75.02,29.52756,P-GPS,,9.0
245,349300,2026-01-08 12:33:55,0.0,5,7.63,0.0,0.0,0.0,23.9,8.4,4.3,1024,1024,1024,1024,0,0,0,0,77,4.559,75.02,29.52756,P-GPS,,9.0
246,349400,2026-01-08 12:33:55,0.0,5,7.609,0.0,0.0,0.0,23.9,8.4,4.5,1024,1024,1024,1024,0,0,0,0,77,4.951,75.2,29.855644,P-GPS,,9.1
247,349500,2026-01-08 12:33:56,0.0,5,7.609,0.0,0.0,0.0,24.0,8.8,4.4,1024,1024,1024,1024,0,0,0,0,77,4.951,75.2,29.855644,P-GPS,,9.1
248,349600,2026-01-08 12:33:56,0.0,5,7.609,0.0,0.0,0.0,24.1,9.2,4.9,1024,1024,1024,1024,0,0,0,0,77,4.951,75.2,29.855644,P-GPS,,9.1
249,349700,2026-01-08 12:33:56,0.0,5,7.609,0.0,0.0,0.0,24.2,9.0,5.3,1024,1024,1024,1024,0,0,0,0,77,4.951,75.2,29.855644,P-GPS,,9.1
250,349800,2026-01-08 12:33:56,0.0,5,7.609,0.0,0.0,0.0,24.0,8.4,4.9,1024,1024,1024,1024,0,0,0,0,77,4.951,75.2,29.855644,P-GPS,,9.1
251,349900,2026-01-08 12:33:56,0.0,5,7.609,0.0,0.0,0.0,23.9,8.2,5.4,1024,1024,1024,1024,0,0,0,0,77,4.951,75.2,29.855644,P-GPS,,9.1
252,350000,2026-01-08 12:33:56,0.0,5,7.609,0.0,0.0,0.0,23.9,8.0,5.6,1024,1024,1024,1024,0,0,0,0,77,4.951,75.2,29.855644,P-GPS,,9.1
253,350100,2026-01-08 12:33:56,0.0,5,7.609,0.0,0.0,0.0,23.9,7.5,5.2,1024,1024,1024,1024,0,0,0,0,77,4.951,75.2,29.855644,P-GPS,,9.1
254,350200,2026-01-08 12:33:56,0.0,5,7.609,0.0,0.0,0.0,23.9,8.1,4.6,1024,1024,1024,1024,0,0,0,0,77,4.951,75.2,29.855644,P-GPS,,9.1
255,350300,2026-01-08 12:33:56,0.0,5,7.609,0.0,0.0,0.0,23.9,8.5,4.6,1024,1024,1024,1024,0,0,0,0,77,4.951,75.2,30.183728,P-GPS,,9.2
256,350400,2026-01-08 12:33:56,0.0,5,7.609,0.0,0.0,0.0,24.0,8.8,4.7,1024,1024,1024,1024,0,0,0,0,77,4.951,75.2,30.183728,P-GPS,,9.2
257,350500,2026-01-08 12:33:57,0.0,5,7.624,0.0,0.0,0.0,24.0,8.7,4.8,1024,1024,1024,1024,0,0,0,0,77,4.941,75.2,30.183728,P-GPS,,9.2
258,350600,2026-01-08 12:33:57,0.0,5,7.624,0.0,0.0,0.0,24.1,8.8,4.5,1024,1024,1024,1024,0,0,0,0,77,4.941,75.2,30.183728,P-GPS,,9.2
259,350700,2026-01-08 12:33:57,0.0,5,7.624,0.0,0.0,0.0,24.0,8.7,4.2,1024,1024,1024,1024,0,0,0,0,77,4.941,75.2,30.183728,P-GPS,,9.2
260,350800,2026-01-08 12:33:57,0.0,5,7.624,0.0,0.0,0.0,23.9,8.5,4.2,1024,1024,1024,1024,0,0,0,0,77,4.941,75.2,30.183728,P-GPS,,9.2
261,350900,2026-01-08 12:33:57,0.0,5,7.624,0.0,0.0,0.0,23.9,8.3,4.1,1024,1024,1024,1024,0,0,0,0,77,4.941,75.2,30.183728,P-GPS,,9.2
262,351000,2026-01-08 12:33:57,0.0,5,7.624,0.0,0.0,0.0,23.9,8.6,4.2,1024,1024,1024,1024,0,0,0,0,77,4.941,75.2,30.183728,P-GPS,,9.2
263,351100,2026-01-08 12:33:57,0.0,5,7.624,0.0,0.0,0.0,23.9,8.3,4.4,1024,1024,1024,1024,0,0,0,0,77,4.941,75.2,30.183728,P-GPS,,9.2
264,351200,2026-01-08 12:33:57,0.0,5,7.624,0.0,0.0,0.0,24.0,8.3,4.6,1024,1024,1024,1024,0,0,0,0,77,4.941,75.2,30.183728,P-GPS,,9.2
265,351300,2026-01-08 12:33:57,0.0,5,7.624,0.0,0.0,0.0,24.0,7.8,4.7,1024,1024,1024,1024,0,0,0,0,77,4.941,75.2,30.183728,P-GPS,,9.2
266,351400,2026-01-08 12:33:57,0.0,5,7.624,0.0,0.0,0.0,24.1,8.0,5.5,1024,1024,1024,1024,0,0,0,0,77,4.941,75.2,30.183728,P-GPS,,9.2
267,351500,2026-01-08 12:33:58,0.0,5,7.624,0.0,0.0,0.0,24.3,8.3,5.5,1024,1024,1024,1024,0,0,0,0,77,4.941,75.2,30.183728,P-GPS,,9.2
268,351600,2026-01-08 12:33:58,0.0,5,7.624,0.0,0.0,0.0,24.4,8.6,5.5,1024,1024,1024,1024,0,0,0,0,77,4.941,75.2,30.511812,P-GPS,,9.3
269,351700,2026-01-08 12:33:58,0.0,5,7.636,0.0,0.0,0.0,24.3,8.3,5.7,1024,1024,1024,1024,0,0,0,0,77,4.466,75.2,30.511812,P-GPS,,9.3
270,351800,2026-01-08 12:33:58,0.0,5,7.636,0.0,0.0,0.0,24.2,7.9,5.6,1024,1024,1024,1024,0,0,0,0,77,4.466,75.2,30.511812,P-GPS,,9.3
271,351900,2026-01-08 12:33:58,0.0,5,7.636,0.0,0.0,0.0,24.3,7.5,5.9,1024,1024,1024,1024,0,0,0,0,77,4.466,75.2,30.839896,P-GPS,,9.4
272,352000,2026-01-08 12:33:58,0.0,5,7.636,0.0,0.0,0.0,24.2,7.3,5.5,1024,1024,1024,1024,0,0,0,0,77,4.466,75.2,30.839896,P-GPS,,9.4
273,352100,2026-01-08 12:33:58,0.0,5,7.636,0.0,0.0,0.0,24.0,6.8,5.8,1024,1024,1024,1024,0,0,0,0,77,4.466,75.2,30.839896,P-GPS,,9.4
274,352200,2026-01-08 12:33:58,0.0,5,7.636,0.0,0.0,0.0,24.0,6.6,5.1,1024,1024,1024,1024,0,0,0,0,77,4.466,75.2,30.839896,P-GPS,,9.4
275,352300,2026-01-08 12:33:58,0.0,5,7.636,0.0,0.0,0.0,24.0,6.0,5.1,1024,1024,1024,1024,0,0,0,0,77,4.466,75.2,31.16798,P-GPS,,9.5
276,352400,2026-01-08 12:33:58,0.0,5,7.636,0.0,0.0,0.0,24.0,6.3,5.1,1024,1024,1024,1024,0,0,0,0,77,4.466,75.2,31.16798,P-GPS,,9.5
277,352500,2026-01-08 12:33:58,0.0,5,7.636,0.0,0.0,0.0,24.0,6.3,5.0,1024,1024,1024,1024,0,0,0,0,77,4.466,75.2,31.16798,P-GPS,,9.5
278,352600,2026-01-08 12:33:59,0.0,5,7.636,0.0,0.0,0.0,24.0,5.9,4.7,1024,1024,1024,1024,0,0,0,0,77,4.466,75.2,31.16798,P-GPS,,9.5
279,352700,2026-01-08 12:33:59,0.0,5,7.636,0.0,0.0,0.0,24.1,5.8,4.8,1024,1024,1024,1024,0,0,0,0,77,4.466,75.2,31.16798,P-GPS,,9.5
280,352800,2026-01-08 12:33:59,0.0,5,7.632,0.0,0.0,0.0,24.1,5.3,4.8,1024,1024,1024,1024,0,0,0,0,77,4.414,75.2,31.496064,P-GPS,,9.6
281,352900,2026-01-08 12:33:59,0.0,5,7.632,0.0,0.0,0.0,24.1,5.1,4.5,1024,1024,1024,1024,0,0,0,0,77,4.414,75.2,31.496064,P-GPS,,9.6
282,353000,2026-01-08 12:33:59,0.0,5,7.632,0.0,0.0,0.0,24.2,5.3,4.7,1024,1024,1024,1024,0,0,0,0,77,4.414,75.2,31.496064,P-GPS,,9.6
283,353100,2026-01-08 12:33:59,0.0,5,7.632,0.0,0.0,0.0,24.1,5.3,4.6,1024,1024,1024,1024,0,0,0,0,77,4.414,75.2,31.496064,P-GPS,,9.6
284,353200,2026-01-08 12:33:59,0.0,5,7.632,0.0,0.0,0.0,24.1,5.0,4.4,1024,1024,1024,1024,0,0,0,0,77,4.414,75.2,31.824148,P-GPS,,9.7
285,353300,2026-01-08 12:33:59,0.0,5,7.632,0.0,0.0,0.0,24.1,4.7,4.4,1024,1024,1024,1024,0,0,0,0,77,4.414,75.2,31.824148,P-GPS,,9.7
286,353400,2026-01-08 12:33:59,0.0,5,7.632,0.0,0.0,0.0,24.1,4.8,4.2,1024,1024,1024,1024,0,0,0,0,77,4.414,75.2,31.824148,P-GPS,,9.7
287,353500,2026-01-08 12:34:00,0.0,5,7.632,0.0,0.0,0.0,24.1,5.1,4.5,1024,1024,1024,1024,0,0,0,0,77,4.414,75.2,32.152232,P-GPS,,9.8
288,353600,2026-01-08 12:34:00,0.0,5,7.632,0.0,0.0,0.0,24.0,5.0,4.1,1024,1024,1024,1024,0,0,0,0,77,4.414,75.2,32.152232,P-GPS,,9.8
289,353700,2026-01-08 12:34:00,0.0,5,7.632,0.0,0.0,0.0,24.0,4.8,4.4,1024,1024,1024,1024,0,0,0,0,77,4.414,75.2,32.152232,P-GPS,,9.8
290,353800,2026-01-08 12:34:00,0.0,5,7.632,0.0,0.0,0.0,23.9,4.6,4.5,1024,1024,1024,1024,0,0,0,0,77,4.414,75.2,32.152232,P-GPS,,9.8
291,353900,2026-01-08 12:34:00,0.0,5,7.632,0.0,0.0,0.0,23.8,4.4,4.2,1024,1024,1024,1024,0,0,0,0,77,4.377,75.2,32.480316,P-GPS,,9.9
292,354000,2026-01-08 12:34:00,0.0,5,7.632,0.0,0.0,0.0,23.9,5.1,4.3,1024,1024,1024,1024,0,0,0,0,77,4.377,75.2,32.480316,P-GPS,,9.9
293,354100,2026-01-08 12:34:00,0.0,5,7.632,0.0,0.0,0.0,23.9,5.0,4.4,1024,1024,1024,1024,0,0,0,0,77,4.377,75.2,32.480316,P-GPS,,9.9
294,354200,2026-01-08 12:34:00,0.0,5,7.632,0.0,0.0,0.0,23.8,4.9,4.4,1024,1024,1024,1024,0,0,0,0,77,4.377,75.2,32.8084,P-GPS,,10.0
295,354300,2026-01-08 12:34:00,0.0,5,7.632,0.0,0.0,0.0,23.9,4.8,4.5,1024,1024,1024,1024,0,0,0,0,77,4.377,75.2,32.8084,P-GPS,,10.0
296,354400,2026-01-08 12:34:00,0.0,5,7.632,0.0,0.0,0.0,23.8,5.0,4.7,1024,1024,1024,1024,0,0,0,0,77,4.377,75.2,32.8084,P-GPS,,10.0
297,354500,2026-01-08 12:34:01,0.0,5,7.632,0.0,0.0,0.0,23.8,4.7,4.6,1024,1024,1024,1024,0,0,0,0,77,4.377,75.2,32.8084,P-GPS,,10.0
298,354600,2026-01-08 12:34:01,0.0,5,7.632,0.0,0.0,0.0,23.7,5.1,4.3,1024,1024,1024,1024,0,0,0,0,77,4.377,75.2,33.136484,P-GPS,,10.1
299,354700,2026-01-08 12:34:01,0.0,5,7.632,0.0,0.0,0.0,23.7,5.3,4.1,1024,1024,1024,1024,0,0,0,0,77,4.377,75.2,33.136484,P-GPS,,10.1
300,354800,2026-01-08 12:34:01,0.0,5,7.632,0.0,0.0,0.0,23.6,4.5,4.0,1024,1024,1024,1024,0,0,0,0,77,4.377,75.2,33.136484,P-GPS,,10.1
301,354900,2026-01-08 12:34:01,0.0,5,7.632,0.0,0.0,0.0,23.6,3.7,3.8,1024,1024,1024,1024,0,0,0,0,77,4.377,75.2,33.136484,P-GPS,,10.1
302,355000,2026-01-08 12:34:01,0.0,5,7.624,0.0,0.0,0.0,23.7,4.1,3.7,1024,1024,1024,1024,0,0,0,0,77,4.556,75.2,33.136484,P-GPS,,10.1
303,355100,2026-01-08 12:34:01,0.0,5,7.624,0.0,0.0,0.0,23.8,5.1,4.1,1024,1024,1024,1024,0,0,0,0,77,4.556,75.2,33.464568,P-GPS,,10.2
304,355200,2026-01-08 12:34:01,0.0,5,7.624,0.0,0.0,0.0,23.9,5.5,4.1,1024,1024,1024,1024,0,0,0,0,77,4.556,75.2,33.464568,P-GPS,,10.2
305,355300,2026-01-08 12:34:01,0.0,5,7.624,0.0,0.0,0.0,23.9,6.0,4.6,1024,1024,1024,1024,0,0,0,0,77,4.556,75.2,33.464568,P-GPS,,10.2
306,355400,2026-01-08 12:34:01,0.0,5,7.624,0.0,0.0,0.0,23.8,7.0,4.5,1024,1024,1024,1024,0,0,0,0,77,4.556,75.2,33.464568,P-GPS,,10.2
307,355500,2026-01-08 12:34:01,0.0,5,7.624,0.223694,0.0,0.0,23.8,7.6,4.5,1024,1024,1024,1024,0,0,0,0,77,4.556,75.2,33.464568,P-GPS,,10.2
308,355600,2026-01-08 12:34:02,0.223694,5,7.624,0.223694,0.0,0.0,23.7,8.1,4.3,1024,1024,1024,1024,0,0,0,0,77,4.556,75.2,33.464568,P-GPS,,10.2
309,355700,2026-01-08 12:34:02,0.0,5,7.624,0.0,0.0,0.0,23.7,8.0,4.0,1024,1024,1024,1024,0,0,0,0,77,4.556,75.2,33.464568,P-GPS,,10.2
310,355800,2026-01-08 12:34:02,0.0,5,7.624,0.0,0.0,0.0,23.7,7.3,3.4,1024,1024,1024,1024,0,0,0,0,77,4.556,75.2,33.464568,P-GPS,,10.2
311,355900,2026-01-08 12:34:02,0.0,5,7.624,0.0,0.0,0.0,23.6,6.3,3.4,1024,1024,1024,1024,0,0,0,0,77,4.556,75.2,33.464568,P-GPS,,10.2
312,356000,2026-01-08 12:34:02,0.0,5,7.624,0.0,0.0,0.0,23.7,6.1,3.2,1024,1024,1024,1024,0,0,0,0,77,4.556,75.2,33.464568,P-GPS,,10.2
313,356100,2026-01-08 12:34:02,0.0,5,7.615,0.0,0.0,0.0,23.9,6.4,3.9,1024,1024,1024,1024,0,0,0,0,76,4.511,75.2,33.464568,P-GPS,,10.2
314,356200,2026-01-08 12:34:02,0.0,5,7.615,0.0,0.0,0.0,24.1,6.4,4.3,1024,1024,1024,1024,0,0,0,0,76,4.511,75.2,33.464568,P-GPS,,10.2
315,356300,2026-01-08 12:34:02,0.0,5,7.615,0.0,0.0,0.0,24.1,6.2,5.1,1024,1024,1024,1024,0,0,0,0,76,4.511,75.2,33.464568,P-GPS,,10.2
316,356400,2026-01-08 12:34:02,0.0,5,7.615,0.0,0.0,0.0,24.0,6.7,4.9,1024,1024,1024,1024,0,0,0,0,76,4.511,75.2,33.464568,P-GPS,,10.2
317,356500,2026-01-08 12:34:03,0.0,5,7.615,0.0,0.0,0.0,23.9,6.9,4.7,1024,1024,1024,1024,0,0,0,0,76,4.511,75.2,33.792652,P-GPS,,10.3
318,356600,2026-01-08 12:34:03,0.0,5,7.615,0.0,0.0,0.0,23.9,6.8,4.9,1024,1024,1024,1024,0,0,0,0,76,4.511,75.2,33.792652,P-GPS,,10.3
319,356700,2026-01-08 12:34:03,0.0,5,7.615,0.0,0.0,0.0,24.0,7.4,4.7,1024,1024,1024,1024,0,0,0,0,76,4.511,75.2,33.792652,P-GPS,,10.3
320,356800,2026-01-08 12:34:03,0.0,5,7.615,0.0,0.0,0.0,23.9,6.8,4.1,1024,1024,1024,1024,0,0,0,0,76,4.511,75.2,33.792652,P-GPS,,10.3
321,356900,2026-01-08 12:34:03,0.0,5,7.615,0.0,0.0,0.0,23.9,5.7,4.1,1024,1024,1024,1024,0,0,0,0,76,4.511,75.2,33.792652,P-GPS,,10.3
322,357000,2026-01-08 12:34:03,0.0,5,7.615,0.0,0.0,0.0,23.9,5.5,4.2,1024,1024,1024,1024,0,0,0,0,76,4.511,75.2,33.792652,P-GPS,,10.3
323,357100,2026-01-08 12:34:03,0.0,5,7.615,0.0,0.0,0.0,23.9,5.1,4.5,1024,1024,1024,1024,0,0,0,0,76,4.511,75.2,34.120736,P-GPS,,10.4
324,357200,2026-01-08 12:34:03,0.0,5,7.623,0.0,0.0,0.0,24.0,5.2,4.8,1024,1024,1024,1024,0,0,0,0,76,4.406,75.2,34.120736,P-GPS,,10.4
325,357300,2026-01-08 12:34:03,0.0,5,7.623,0.0,0.0,0.0,23.9,4.7,5.2,1024,1024,1024,1024,0,0,0,0,76,4.406,75.2,34.120736,P-GPS,,10.4
326,357400,2026-01-08 12:34:03,0.0,5,7.623,0.0,0.0,0.0,23.9,6.1,5.4,1024,1024,1024,1024,0,0,0,0,76,4.406,75.2,34.120736,P-GPS,,10.4
327,357500,2026-01-08 12:34:04,0.223694,5,7.623,0.223694,0.0,0.0,23.9,7.1,5.5,1024,1024,1024,1024,0,0,0,0,76,4.406,75.2,33.792652,P-GPS,,10.3
328,357600,2026-01-08 12:34:04,0.223694,5,7.623,0.223694,0.0,0.0,24.0,8.1,5.9,1024,1024,1024,1024,0,0,0,0,76,4.406,75.2,33.792652,P-GPS,,10.3
329,357700,2026-01-08 12:34:04,0.223694,5,7.623,0.223694,0.0,0.0,23.9,8.8,5.4,1024,1024,1024,1024,0,0,0,0,76,4.406,75.2,33.792652,P-GPS,,10.3
330,357800,2026-01-08 12:34:04,0.0,5,7.623,0.0,0.0,0.0,23.8,8.5,5.1,1024,1024,1024,1024,0,0,0,0,76,4.406,75.2,33.792652,P-GPS,,10.3
331,357900,2026-01-08 12:34:04,0.0,5,7.623,0.0,0.0,0.0,23.8,8.4,5.1,1024,1024,1024,1024,0,0,0,0,76,4.406,75.2,33.792652,P-GPS,,10.3
332,358000,2026-01-08 12:34:04,0.0,5,7.623,0.0,0.0,0.0,23.8,8.3,5.2,1024,1024,1024,1024,0,0,0,0,76,4.406,75.2,33.464568,P-GPS,,10.2
333,358100,2026-01-08 12:34:04,0.0,5,7.623,0.0,0.0,0.0,23.8,8.2,4.7,1024,1024,1024,1024,0,0,0,0,76,4.406,75.2,33.464568,P-GPS,,10.2
334,358200,2026-01-08 12:34:04,0.0,5,7.623,0.0,0.0,0.0,23.8,8.1,4.8,1024,1024,1024,1024,0,0,0,0,76,4.406,75.2,33.464568,P-GPS,,10.2
335,358300,2026-01-08 12:34:04,0.0,5,7.617,0.0,0.0,0.0,23.8,8.3,4.8,1024,1024,1024,1024,0,0,0,0,76,4.481,75.2,33.464568,P-GPS,,10.2
336,358400,2026-01-08 12:34:04,0.0,5,7.617,0.0,0.0,0.0,23.8,8.0,4.9,1024,1024,1024,1024,0,0,0,0,76,4.481,75.2,33.464568,P-GPS,,10.2
337,358500,2026-01-08 12:34:05,0.0,5,7.617,0.0,0.0,0.0,23.7,8.1,5.2,1024,1024,1024,1024,0,0,0,0,76,4.481,75.2,33.464568,P-GPS,,10.2
338,358600,2026-01-08 12:34:05,0.0,5,7.617,0.0,0.0,0.0,23.8,8.2,4.8,1024,1024,1024,1024,0,0,0,0,76,4.481,75.2,33.464568,P-GPS,,10.2
339,358700,2026-01-08 12:34:05,0.0,5,7.617,0.0,0.0,0.0,23.9,7.5,5.0,1024,1024,1024,1024,0,0,0,0,76,4.481,75.2,33.464568,P-GPS,,10.2
340,358800,2026-01-08 12:34:05,0.0,5,7.617,0.0,0.0,0.0,24.1,8.8,5.6,1024,1024,1024,1024,0,0,0,0,76,4.481,75.2,33.464568,P-GPS,,10.2
341,358900,2026-01-08 12:34:05,0.0,5,7.617,0.0,0.0,0.0,24.0,8.5,5.4,1024,1024,1024,1024,0,0,0,0,76,4.481,75.2,33.136484,P-GPS,,10.1
342,359000,2026-01-08 12:34:05,0.0,5,7.617,0.0,0.0,0.0,24.0,8.3,5.4,1024,1024,1024,1024,0,0,0,0,76,4.481,75.2,33.136484,P-GPS,,10.1
343,359100,2026-01-08 12:34:05,0.0,5,7.617,0.0,0.0,0.0,24.1,8.8,5.2,1024,1024,1024,1024,0,0,0,0,76,4.481,75.2,33.136484,P-GPS,,10.1
344,359200,2026-01-08 12:34:05,0.0,5,7.617,0.0,0.0,0.0,24.0,8.1,5.2,1024,1024,1024,1024,0,0,0,0,76,4.481,75.2,33.136484,P-GPS,,10.1
345,359300,2026-01-08 12:34:05,0.0,5,7.617,0.0,0.0,0.0,24.0,7.7,5.5,1024,1024,1024,1024,0,0,0,0,76,4.481,75.2,33.136484,P-GPS,,10.1
346,359400,2026-01-08 12:34:05,0.0,5,7.631,0.0,0.0,0.0,24.0,7.4,5.5,1024,1024,1024,1024,0,0,0,0,76,4.427,75.38,32.8084,P-GPS,,10.0
347,359500,2026-01-08 12:34:06,0.0,5,7.631,0.0,0.0,0.0,24.0,7.8,5.2,1024,1024,1024,1024,0,0,0,0,76,4.427,75.38,32.8084,P-GPS,,10.0
348,359600,2026-01-08 12:34:06,0.0,5,7.631,0.0,0.0,0.0,24.0,7.8,6.0,1024,1024,1024,1024,0,0,0,0,76,4.427,75.38,32.8084,P-GPS,,10.0
349,359700,2026-01-08 12:34:06,0.0,5,7.631,0.0,0.0,0.0,24.1,9.2,5.1,1024,1024,1024,1024,0,0,0,0,76,4.427,75.38,32.480316,P-GPS,,9.9
350,359800,2026-01-08 12:34:06,0.0,5,7.631,0.0,0.0,0.0,23.9,8.0,4.5,1024,1024,1024,1024,0,0,0,0,76,4.427,75.38,32.480316,P-GPS,,9.9
351,359900,2026-01-08 12:34:06,0.0,5,7.631,0.0,0.0,0.0,23.9,7.2,4.7,1024,1024,1024,1024,0,0,0,0,76,4.427,75.38,32.480316,P-GPS,,9.9
352,360000,2026-01-08 12:34:06,0.0,5,7.631,0.0,0.0,0.0,23.9,7.1,5.0,1024,1024,1024,1024,0,0,0,0,76,4.427,75.38,32.480316,P-GPS,,9.9
353,360100,2026-01-08 12:34:06,0.0,5,7.631,0.0,0.0,-0.223694,23.8,6.5,5.8,1024,1024,1024,1024,0,0,0,0,76,4.427,75.38,32.480316,P-GPS,,9.9
354,360200,2026-01-08 12:34:06,0.0,5,7.631,0.0,0.0,0.0,24.0,7.7,5.6,1024,1024,1024,1024,0,0,0,0,76,4.427,75.38,32.152232,P-GPS,,9.8
355,360300,2026-01-08 12:34:06,0.0,5,7.631,0.0,0.0,0.0,24.0,7.6,5.0,1024,1024,1024,1024,0,0,0,0,76,4.427,75.38,32.152232,P-GPS,,9.8
356,360400,2026-01-08 12:34:06,0.0,5,7.631,0.0,0.0,0.0,24.1,8.0,5.5,1024,1024,1024,1024,0,0,0,0,76,4.427,75.38,31.824148,P-GPS,,9.7
357,360500,2026-01-08 12:34:07,0.0,5,7.631,0.0,0.0,0.0,24.1,8.5,6.0,1024,1024,1024,1024,0,0,0,0,76,4.427,75.38,31.824148,P-GPS,,9.7
358,360600,2026-01-08 12:34:07,0.0,5,7.631,0.0,0.0,0.223694,24.0,8.8,5.0,1024,1024,1024,1024,0,0,0,0,76,4.427,75.38,31.824148,P-GPS,,9.7
359,360700,2026-01-08 12:34:07,0.0,5,7.631,0.0,0.0,0.0,23.8,8.6,4.5,1024,1024,1024,1024,0,0,0,0,76,4.427,75.38,31.824148,P-GPS,,9.7
360,360800,2026-01-08 12:34:07,0.0,5,7.631,0.0,0.0,0.0,23.8,8.4,4.3,1024,1024,1024,1024,0,0,0,0,76,4.427,75.38,31.824148,P-GPS,,9.7
361,360900,2026-01-08 12:34:07,0.0,5,7.631,0.0,0.0,0.0,23.8,8.1,4.5,1024,1024,1024,1024,0,0,0,0,76,4.427,75.38,31.824148,P-GPS,,9.7
362,361000,2026-01-08 12:34:07,0.0,5,7.631,0.0,0.0,0.0,23.9,7.8,4.5,1024,1024,1024,1024,0,0,0,0,76,4.427,75.38,31.824148,P-GPS,,9.7
363,361100,2026-01-08 12:34:07,0.0,5,7.631,0.0,0.0,0.0,23.9,7.7,4.7,1024,1024,1024,1024,0,0,0,0,76,4.427,75.38,31.824148,P-GPS,,9.7
364,361200,2026-01-08 12:34:07,0.0,5,7.631,0.0,0.0,0.0,24.0,7.4,4.9,1024,1024,1024,1024,0,0,0,0,76,4.427,75.38,31.824148,P-GPS,,9.7
365,361300,2026-01-08 12:34:07,0.0,5,7.631,0.0,0.0,0.0,23.9,7.5,4.6,1024,1024,1024,1024,0,0,0,0,76,4.427,75.38,31.824148,P-GPS,,9.7
366,361400,2026-01-08 12:34:07,0.0,5,7.631,0.0,0.0,0.0,23.8,6.8,4.7,1024,1024,1024,1024,0,0,0,0,76,4.427,75.38,31.824148,P-GPS,,9.7
367,361500,2026-01-08 12:34:08,0.0,5,7.631,0.0,0.0,0.0,23.8,6.7,4.6,1024,1024,1024,1024,0,0,0,0,76,4.427,75.38,31.824148,P-GPS,,9.7
368,361600,2026-01-08 12:34:08,0.0,5,7.65,0.0,0.0,0.0,23.9,7.0,4.5,1024,1024,1024,1024,0,0,0,0,76,4.259,75.38,31.824148,P-GPS,,9.7
369,361700,2026-01-08 12:34:08,0.0,5,7.65,0.0,0.0,0.0,23.8,7.3,4.0,1024,1024,1024,1024,0,0,0,0,76,4.259,75.38,31.496064,P-GPS,,9.6
370,361800,2026-01-08 12:34:08,0.0,5,7.65,0.0,0.0,0.0,23.7,7.0,3.8,1024,1024,1024,1024,0,0,0,0,76,4.259,75.38,31.496064,P-GPS,,9.6
371,361900,2026-01-08 12:34:08,0.0,5,7.65,0.0,0.0,0.0,23.8,7.0,3.8,1024,1024,1024,1024,0,0,0,0,76,4.259,75.38,31.496064,P-GPS,,9.6
372,362000,2026-01-08 12:34:08,0.0,5,7.65,0.0,0.0,0.0,23.8,7.1,3.6,1024,1024,1024,1024,0,0,0,0,76,4.259,75.38,31.496064,P-GPS,,9.6
373,362100,2026-01-08 12:34:08,0.0,5,7.65,0.0,0.0,0.0,23.8,7.0,3.4,1024,1024,1024,1024,0,0,0,0,76,4.259,75.38,31.496064,P-GPS,,9.6
374,362200,2026-01-08 12:34:08,0.0,5,7.65,0.0,0.0,0.0,23.8,6.5,2.9,1024,1024,1024,1024,0,0,0,0,76,4.259,75.38,31.496064,P-GPS,,9.6
375,362300,2026-01-08 12:34:08,0.0,5,7.65,0.0,0.0,0.0,23.8,6.6,3.2,1024,1024,1024,1024,0,0,0,0,76,4.259,75.38,31.496064,P-GPS,,9.6
376,362400,2026-01-08 12:34:08,0.0,5,7.65,0.0,0.0,0.0,23.9,6.9,3.6,1024,1024,1024,1024,0,0,0,0,76,4.259,75.38,31.496064,P-GPS,,9.6
377,362500,2026-01-08 12:34:08,0.0,5,7.65,0.0,0.0,0.0,23.9,7.6,3.6,1024,1024,1024,1024,0,0,0,0,76,4.259,75.38,31.496064,P-GPS,,9.6
378,362600,2026-01-08 12:34:09,0.0,5,7.65,0.0,0.0,0.0,23.8,8.1,4.0,1024,1024,1024,1024,0,0,0,0,76,4.259,75.38,31.496064,P-GPS,,9.6
379,362700,2026-01-08 12:34:09,0.0,5,7.619,0.0,0.0,0.0,23.9,8.4,4.3,1024,1024,1024,1024,0,0,0,0,76,4.599,75.38,31.496064,P-GPS,,9.6
