index,time(millisecond),timestamp,speed(mph),gpslevel,voltage(v),xSpeed(mph),ySpeed(mph),zSpeed(mph),compass_heading(degrees),pitch(degrees),roll(degrees),rc_elevator,rc_aileron,rc_throttle,rc_rudder,rc_elevator(percent),rc_aileron(percent),rc_throttle(percent),rc_rudder(percent),battery_percent,current(A),battery_temperature(f),ascent(feet),flycState,message,height_above_takeoff(meters)
73,150200,2026-01-09 12:39:23,0.0,5,7.735,0.0,0.0,-4.47388,25.5,0.1,-0.7,1024,1024,1024,1024,0,0,0,0,89,5.468,68.0,33.464568,P-GPS,,10.2
74,150300,2026-01-09 12:39:23,0.0,5,7.735,0.0,0.0,-4.47388,25.5,0.0,-0.9,1024,1024,1024,1024,0,0,0,0,89,5.468,68.0,34.120736,P-GPS,,10.4
75,150400,2026-01-09 12:39:23,0.0,5,7.735,0.0,0.0,-4.250186,25.5,-0.6,-0.8,1024,1024,1024,1024,0,0,0,0,89,5.468,68.0,35.104988,P-GPS,,10.7
76,150500,2026-01-09 12:39:23,0.0,5,7.735,0.0,0.0,-3.802798,25.4,-0.6,-0.6,1024,1024,1024,1024,0,0,0,0,89,5.468,68.0,35.433072,P-GPS,,10.8
77,150600,2026-01-09 12:39:23,0.0,5,7.735,0.0,0.0,-3.131716,25.4,-0.8,-0.4,1024,1024,1024,1024,0,0,0,0,89,5.468,68.0,36.08924,P-GPS,,11.0
78,150700,2026-01-09 12:39:23,0.0,5,7.735,0.0,0.0,-2.460634,25.4,-0.9,-0.4,1024,1024,1024,1024,0,0,0,0,89,5.468,68.0,36.417324,P-GPS,,11.1
79,150800,2026-01-09 12:39:23,0.0,5,7.802,0.0,0.0,-1.565858,25.4,-0.7,-0.6,1024,1024,1024,1024,0,0,0,0,89,4.832,68.0,36.745408,P-GPS,,11.2
80,150900,2026-01-09 12:39:23,0.0,5,7.802,0.0,0.0,-0.894776,25.3,-0.2,-0.8,1024,1024,1024,1024,0,0,0,0,89,4.832,68.0,37.073492,P-GPS,,11.3
81,151000,2026-01-09 12:39:23,0.0,5,7.802,0.0,0.0,-0.447388,25.3,0.2,-1.4,1024,1024,1024,1024,0,0,0,0,89,4.832,68.0,37.401576,P-GPS,,11.4
82,151100,2026-01-09 12:39:23,0.0,5,7.802,0.0,0.0,-0.223694,25.2,-0.3,-1.7,1024,1024,1024,1024,0,0,0,0,89,4.832,68.0,37.401576,P-GPS,,11.4
83,151200,2026-01-09 12:39:24,0.0,5,7.802,0.0,0.0,0.0,25.3,-0.7,-1.6,1024,1024,1024,1024,0,0,0,0,89,4.832,68.0,37.401576,P-GPS,,11.4
84,151300,2026-01-09 12:39:24,0.0,5,7.802,0.0,0.0,0.0,25.4,-0.6,-1.6,1024,1024,1024,1024,0,0,0,0,89,4.832,68.0,37.401576,P-GPS,,11.4
85,151400,2026-01-09 12:39:24,0.0,5,7.802,0.0,0.0,0.0,25.4,-0.2,-1.8,1024,1024,1024,1024,0,0,0,0,89,4.832,68.0,37.72966,P-GPS,,11.5
86,151500,2026-01-09 12:39:24,0.0,5,7.802,0.0,0.0,0.0,25.4,0.2,-1.9,1024,1024,1024,1024,0,0,0,0,89,4.832,68.0,37.72966,P-GPS,,11.5
87,151600,2026-01-09 12:39:24,0.0,5,7.802,0.0,0.0,0.0,25.3,0.6,-2.3,1024,1024,1024,1024,0,0,0,0,89,4.832,68.0,37.72966,P-GPS,,11.5
88,151700,2026-01-09 12:39:24,0.0,5,7.802,0.0,0.0,0.0,25.3,0.7,-2.6,1024,1024,1024,1024,0,0,0,0,89,4.832,68.0,37.72966,P-GPS,,11.5
89,151800,2026-01-09 12:39:24,0.0,5,7.802,0.0,0.0,0.0,25.5,0.0,-2.5,1024,1024,1024,1024,0,0,0,0,89,4.832,68.0,38.057744,P-GPS,,11.6
90,151900,2026-01-09 12:39:24,0.0,5,7.802,0.0,0.0,0.0,25.5,-0.2,-3.0,1024,1024,1024,1024,0,0,0,0,89,4.832,68.0,38.057744,P-GPS,,11.6
91,152000,2026-01-09 12:39:24,0.0,5,7.802,0.0,0.0,0.0,25.5,0.0,-3.2,1024,1024,1024,1024,0,0,0,0,89,4.832,68.0,38.057744,P-GPS,,11.6
92,152100,2026-01-09 12:39:25,0.0,5,7.802,0.0,0.0,0.0,25.3,0.0,-3.5,1024,1024,1024,1024,0,0,0,0,89,4.832,68.0,38.057744,P-GPS,,11.6
93,152200,2026-01-09 12:39:25,0.0,5,7.802,-0.223694,0.0,0.0,25.3,0.1,-4.2,1024,1024,1024,1024,0,0,0,0,89,4.832,68.0,38.385828,P-GPS,,11.7
94,152300,2026-01-09 12:39:25,0.223694,5,7.802,-0.223694,0.0,0.0,25.3,-1.0,-4.8,1024,1024,1024,1024,0,0,0,0,89,4.832,68.0,38.385828,P-GPS,,11.7
95,152400,2026-01-09 12:39:25,0.223694,5,7.802,-0.223694,0.0,0.0,25.3,-1.5,-5.1,1024,1024,1024,1024,0,0,0,0,89,4.832,68.0,38.713912,P-GPS,,11.8
96,152500,2026-01-09 12:39:25,0.223694,5,7.802,-0.223694,0.0,0.0,25.4,-2.3,-5.6,1024,1024,1024,1024,0,0,0,0,89,4.832,68.0,38.713912,P-GPS,,11.8
97,152600,2026-01-09 12:39:25,0.0,5,7.802,0.0,0.0,0.0,25.3,-1.8,-6.0,1024,1024,1024,1024,0,0,0,0,89,4.832,68.0,39.041996,P-GPS,,11.9
98,152700,2026-01-09 12:39:25,0.0,5,7.802,0.0,0.0,0.0,25.6,-2.1,-6.1,1024,1024,1024,1024,0,0,0,0,89,4.832,68.0,39.041996,P-GPS,,11.9
99,152800,2026-01-09 12:39:25,0.0,5,7.802,0.0,0.0,0.0,25.8,-1.3,-5.6,1024,1024,1024,1024,0,0,0,0,89,4.832,68.0,39.041996,P-GPS,,11.9
100,152900,2026-01-09 12:39:25,0.0,5,7.779,0.0,0.0,0.0,25.8,-0.5,-5.5,1024,1024,1024,1024,0,0,0,0,89,4.053,68.0,39.041996,P-GPS,,11.9
101,153000,2026-01-09 12:39:25,0.223694,5,7.779,0.223694,0.0,0.0,25.7,-0.3,-5.1,1024,1024,1024,1024,0,0,0,0,89,4.053,68.0,39.041996,P-GPS,,11.9
102,153100,2026-01-09 12:39:25,0.223694,5,7.779,0.223694,0.0,0.0,25.6,0.5,-4.5,1024,1024,1024,1024,0,0,0,0,89,4.053,68.0,39.041996,P-GPS,,11.9
103,153200,2026-01-09 12:39:26,0.223694,5,7.779,0.223694,0.0,0.0,25.6,1.0,-3.8,1024,1024,1024,1024,0,0,0,0,89,4.053,68.0,39.041996,P-GPS,,11.9
104,153300,2026-01-09 12:39:26,0.223694,5,7.779,0.223694,0.0,0.0,25.6,1.1,-3.1,1024,1024,1024,1024,0,0,0,0,89,4.053,68.0,38.713912,P-GPS,,11.8
105,153400,2026-01-09 12:39:26,0.223694,5,7.779,0.223694,0.0,0.0,25.5,1.7,-2.6,1024,1024,1024,1024,0,0,0,0,89,4.053,68.0,38.713912,P-GPS,,11.8
106,153500,2026-01-09 12:39:26,0.223694,5,7.779,0.223694,0.0,0.0,25.7,1.9,-1.6,1024,1024,1024,1024,0,0,0,0,89,4.053,68.0,38.713912,P-GPS,,11.8
107,153600,2026-01-09 12:39:26,0.223694,5,7.779,0.223694,0.0,0.0,25.6,2.2,-1.6,1024,1024,1024,1024,0,0,0,0,89,4.053,68.0,38.713912,P-GPS,,11.8
108,153700,2026-01-09 12:39:26,0.223694,5,7.779,0.223694,0.0,0.0,25.6,2.0,-2.3,1024,1024,1024,1024,0,0,0,0,89,4.053,68.0,38.713912,P-GPS,,11.8
109,153800,2026-01-09 12:39:26,0.0,5,7.779,0.0,0.0,0.0,25.5,1.3,-2.3,1024,1024,1024,1024,0,0,0,0,89,4.053,68.0,38.713912,P-GPS,,11.8
110,153900,2026-01-09 12:39:26,0.0,5,7.779,0.0,0.0,0.0,25.0,1.8,-2.8,1024,1024,1024,1024,0,0,0,0,89,4.053,68.0,38.713912,P-GPS,,11.8
111,154000,2026-01-09 12:39:26,0.0,5,7.757,0.0,0.0,0.0,24.8,0.9,-3.3,1024,1024,1024,1024,0,0,0,0,89,4.952,68.0,38.385828,P-GPS,,11.7
112,154100,2026-01-09 12:39:26,0.223694,5,7.757,0.0,-0.223694,0.0,25.1,0.7,-2.2,1024,1024,1024,1024,0,0,0,0,89,4.952,68.0,38.385828,P-GPS,,11.7
113,154200,2026-01-09 12:39:27,0.223694,5,7.757,0.0,-0.223694,0.0,25.4,-0.2,-1.4,1024,1024,1024,1024,0,0,0,0,89,4.952,68.0,38.385828,P-GPS,,11.7
114,154300,2026-01-09 12:39:27,0.223694,5,7.757,0.0,-0.223694,0.0,25.5,-0.5,-0.9,1024,1024,1024,1024,0,0,0,0,89,4.952,68.0,38.385828,P-GPS,,11.7
115,154400,2026-01-09 12:39:27,0.223694,5,7.757,0.0,-0.223694,0.0,25.5,-1.4,-1.1,1024,1024,1024,1024,0,0,0,0,89,4.952,68.0,38.385828,P-GPS,,11.7
116,154500,2026-01-09 12:39:27,0.223694,5,7.757,0.0,-0.223694,0.0,25.5,-1.8,-1.7,1024,1024,1024,1024,0,0,0,0,89,4.952,68.0,38.385828,P-GPS,,11.7
117,154600,2026-01-09 12:39:27,0.0,5,7.757,0.0,0.0,0.0,25.5,-1.6,-2.0,1024,1024,1024,1024,0,0,0,0,89,4.952,68.0,38.385828,P-GPS,,11.7
118,154700,2026-01-09 12:39:27,0.0,5,7.757,0.0,0.0,0.0,25.5,-1.5,-1.9,1024,1024,1024,1024,0,0,0,0,89,4.952,68.0,38.385828,P-GPS,,11.7
119,154800,2026-01-09 12:39:27,0.0,5,7.757,0.0,0.0,0.0,25.5,-1.5,-1.8,1024,1024,1024,1024,0,0,0,0,89,4.952,68.0,38.385828,P-GPS,,11.7
120,154900,2026-01-09 12:39:27,0.0,5,7.757,0.0,0.0,0.0,25.6,-1.7,-2.0,1024,1024,1024,1024,0,0,0,0,89,4.952,68.0,38.057744,P-GPS,,11.6
121,155000,2026-01-09 12:39:27,0.0,5,7.757,0.0,0.0,0.0,25.5,-1.1,-2.1,1024,1024,1024,1024,0,0,0,0,89,4.952,68.0,38.057744,P-GPS,,11.6
122,155100,2026-01-09 12:39:27,0.0,5,7.734,0.0,0.0,0.0,25.6,-0.8,-1.5,1024,1024,1024,1024,0,0,0,0,89,5.215,68.18,38.057744,P-GPS,,11.6
123,155200,2026-01-09 12:39:28,0.0,5,7.734,0.0,0.0,0.0,25.5,-0.3,-2.1,1024,1024,1024,1024,0,0,0,0,89,5.215,68.18,38.057744,P-GPS,,11.6
124,155300,2026-01-09 12:39:28,0.0,5,7.734,0.0,0.0,0.0,25.6,-0.2,-1.3,1024,1024,1024,1024,0,0,0,0,89,5.215,68.18,38.057744,P-GPS,,11.6
125,155400,2026-01-09 12:39:28,0.0,5,7.734,0.0,0.0,0.0,25.5,-0.6,-1.4,1024,1024,1024,1024,0,0,0,0,89,5.215,68.18,38.057744,P-GPS,,11.6
126,155500,2026-01-09 12:39:28,0.0,5,7.734,0.0,0.0,0.0,25.4,-0.7,-1.9,1024,1024,1024,1024,0,0,0,0,89,5.215,68.18,37.72966,P-GPS,,11.5
127,155600,2026-01-09 12:39:28,0.0,5,7.734,0.0,0.0,0.0,25.4,-1.0,-2.3,1024,1024,1024,1024,0,0,0,0,89,5.215,68.18,37.72966,P-GPS,,11.5
128,155700,2026-01-09 12:39:28,0.0,5,7.734,0.0,0.0,0.0,25.3,-1.3,-2.4,1024,1024,1024,1024,0,0,0,0,89,5.215,68.18,37.72966,P-GPS,,11.5
129,155800,2026-01-09 12:39:28,0.0,5,7.734,0.0,0.0,0.0,25.4,-1.5,-2.1,1024,1024,1024,1024,0,0,0,0,89,5.215,68.18,37.72966,P-GPS,,11.5
130,155900,2026-01-09 12:39:28,0.0,5,7.734,0.0,0.0,0.0,25.4,-1.5,-1.9,1024,1024,1024,1024,0,0,0,0,89,5.215,68.18,37.72966,P-GPS,,11.5
131,156000,2026-01-09 12:39:28,0.0,5,7.734,0.0,0.0,0.0,25.3,-1.6,-2.2,1024,1024,1024,1024,0,0,0,0,89,5.215,68.18,37.72966,P-GPS,,11.5
132,156100,2026-01-09 12:39:29,0.0,5,7.734,0.0,0.0,0.0,25.6,-2.5,-1.7,1024,1024,1024,1024,0,0,0,0,89,5.215,68.18,37.72966,P-GPS,,11.5
133,156200,2026-01-09 12:39:29,0.0,5,7.761,0.0,0.0,0.0,25.6,-2.5,-1.4,1024,1024,1024,1024,0,0,0,0,89,4.873,68.0,37.72966,P-GPS,,11.5
134,156300,2026-01-09 12:39:29,0.0,5,7.761,0.0,0.0,0.0,25.5,-1.9,-1.7,1024,1024,1024,1024,0,0,0,0,89,4.873,68.0,37.72966,P-GPS,,11.5
135,156400,2026-01-09 12:39:29,0.0,5,7.761,0.0,0.0,0.0,25.5,-1.5,-1.5,1024,1024,1024,1024,0,0,0,0,89,4.873,68.0,37.72966,P-GPS,,11.5
136,156500,2026-01-09 12:39:29,0.0,5,7.761,0.0,0.0,0.0,25.4,-1.8,-1.3,1024,1024,1024,1024,0,0,0,0,89,4.873,68.0,37.72966,P-GPS,,11.5
137,156600,2026-01-09 12:39:29,0.0,5,7.761,0.0,0.0,0.0,25.5,-1.6,-1.0,1024,1024,1024,1024,0,0,0,0,89,4.873,68.0,37.72966,P-GPS,,11.5
138,156700,2026-01-09 12:39:29,0.0,5,7.761,0.0,0.0,0.0,25.5,-1.5,-1.5,1024,1024,1024,1024,0,0,0,0,89,4.873,68.0,37.72966,P-GPS,,11.5
139,156800,2026-01-09 12:39:29,0.0,5,7.761,0.0,0.0,0.0,25.5,-1.4,-2.1,1024,1024,1024,1024,0,0,0,0,89,4.873,68.0,37.401576,P-GPS,,11.4
140,156900,2026-01-09 12:39:29,0.0,5,7.761,0.0,0.0,0.0,25.4,-1.2,-2.2,1024,1024,1024,1024,0,0,0,0,89,4.873,68.0,37.401576,P-GPS,,11.4
141,157000,2026-01-09 12:39:29,0.0,5,7.761,0.0,0.0,0.0,25.4,-1.2,-2.6,1024,1024,1024,1024,0,0,0,0,89,4.873,68.0,37.401576,P-GPS,,11.4
142,157100,2026-01-09 12:39:29,0.0,5,7.761,0.0,0.0,0.0,25.3,-0.6,-3.0,1024,1024,1024,1024,0,0,0,0,89,4.873,68.0,37.401576,P-GPS,,11.4
143,157200,2026-01-09 12:39:30,0.0,5,7.761,0.0,0.0,0.0,25.3,-0.1,-2.6,1024,1024,1024,1024,0,0,0,0,89,4.873,68.0,37.401576,P-GPS,,11.4
144,157300,2026-01-09 12:39:30,0.0,5,7.747,0.0,0.0,0.0,25.4,-0.1,-2.2,1024,1024,1024,1024,0,0,0,0,89,4.966,68.0,37.401576,P-GPS,,11.4
145,157400,2026-01-09 12:39:30,0.0,5,7.747,0.0,0.0,0.0,25.6,-0.5,-1.3,1024,1024,1024,1024,0,0,0,0,89,4.966,68.0,37.073492,P-GPS,,11.3
146,157500,2026-01-09 12:39:30,0.0,5,7.747,0.0,0.0,0.0,25.6,-0.5,-0.7,1024,1024,1024,1024,0,0,0,0,89,4.966,68.0,37.073492,P-GPS,,11.3
147,157600,2026-01-09 12:39:30,0.0,5,7.747,0.0,0.0,0.0,25.5,-0.7,-0.9,1024,1024,1024,1024,0,0,0,0,89,4.966,68.0,37.073492,P-GPS,,11.3
148,157700,2026-01-09 12:39:30,0.0,5,7.747,0.0,0.0,0.0,25.4,-0.5,-1.3,1024,1024,1024,1024,0,0,0,0,89,4.966,68.0,37.073492,P-GPS,,11.3
149,157800,2026-01-09 12:39:30,0.0,5,7.747,0.0,0.0,0.0,25.4,-0.6,-1.5,1024,1024,1024,1024,0,0,0,0,89,4.966,68.0,37.073492,P-GPS,,11.3
150,157900,2026-01-09 12:39:30,0.0,5,7.747,0.0,0.0,0.0,25.5,-0.7,-1.5,1024,1024,1024,1024,0,0,0,0,89,4.966,68.0,37.073492,P-GPS,,11.3
151,158000,2026-01-09 12:39:30,0.0,5,7.747,0.0,0.0,0.0,25.4,-0.7,-1.5,1024,1024,1024,1024,0,0,0,0,89,4.966,68.0,37.073492,P-GPS,,11.3
152,158100,2026-01-09 12:39:30,0.0,5,7.747,0.0,0.0,0.0,25.5,-1.0,-1.4,1024,1024,1024,1024,0,0,0,0,89,4.966,68.0,36.745408,P-GPS,,11.2
153,158200,2026-01-09 12:39:31,0.0,5,7.747,0.0,0.0,0.0,25.4,-0.8,-1.9,1024,1024,1024,1024,0,0,0,0,89,4.966,68.0,36.745408,P-GPS,,11.2
154,158300,2026-01-09 12:39:31,0.0,5,7.747,0.0,0.0,0.0,25.5,-0.4,-2.2,1024,1024,1024,1024,0,0,0,0,89,4.966,68.0,36.745408,P-GPS,,11.2
155,158400,2026-01-09 12:39:31,0.0,5,7.755,0.0,0.0,0.0,25.4,-0.1,-2.1,1024,1024,1024,1024,0,0,0,0,89,4.66,68.18,36.745408,P-GPS,,11.2
156,158500,2026-01-09 12:39:31,0.0,5,7.755,0.0,0.0,0.0,25.4,-0.2,-2.1,1024,1024,1024,1024,0,0,0,0,89,4.66,68.18,36.745408,P-GPS,,11.2
157,158600,2026-01-09 12:39:31,0.0,5,7.755,0.0,0.0,0.0,25.4,-0.3,-2.0,1024,1024,1024,1024,0,0,0,0,89,4.66,68.18,36.745408,P-GPS,,11.2
158,158700,2026-01-09 12:39:31,0.0,5,7.755,0.0,0.0,0.0,25.5,-0.5,-1.9,1024,1024,1024,1024,0,0,0,0,89,4.66,68.18,36.745408,P-GPS,,11.2
159,158800,2026-01-09 12:39:31,0.0,5,7.755,0.0,0.0,0.0,25.5,-0.8,-1.7,1024,1024,1024,1024,0,0,0,0,89,4.66,68.18,36.745408,P-GPS,,11.2
160,158900,2026-01-09 12:39:31,0.0,5,7.755,0.0,0.0,0.0,25.5,-1.1,-1.6,1024,1024,1024,1024,0,0,0,0,89,4.66,68.18,36.417324,P-GPS,,11.1
161,159000,2026-01-09 12:39:31,0.0,5,7.755,0.0,0.0,0.0,25.4,-1.2,-1.6,1024,1024,1024,1024,0,0,0,0,89,4.66,68.18,36.417324,P-GPS,,11.1
162,159100,2026-01-09 12:39:31,0.0,5,7.755,0.0,0.0,0.0,25.4,-1.1,-1.5,1024,1024,1024,1024,0,0,0,0,89,4.66,68.18,36.417324,P-GPS,,11.1
163,159200,2026-01-09 12:39:32,0.0,5,7.755,0.0,0.0,0.0,25.4,-1.3,-1.5,1024,1024,1024,1024,0,0,0,0,89,4.66,68.18,36.417324,P-GPS,,11.1
164,159300,2026-01-09 12:39:32,0.0,5,7.755,0.0,0.0,0.0,25.4,-1.5,-1.6,1024,1024,1024,1024,0,0,0,0,89,4.66,68.18,36.417324,P-GPS,,11.1
165,159400,2026-01-09 12:39:32,0.0,5,7.755,0.0,0.0,0.0,25.4,-1.5,-1.7,1024,1024,1024,1024,0,0,0,0,89,4.66,68.18,36.417324,P-GPS,,11.1
166,159500,2026-01-09 12:39:32,0.0,5,7.752,0.0,0.0,0.0,25.3,-1.1,-1.5,1024,1024,1024,1024,0,0,0,0,89,4.679,68.18,36.417324,P-GPS,,11.1
167,159600,2026-01-09 12:39:32,0.0,5,7.752,0.0,0.0,0.0,25.3,-1.1,-1.3,1024,1024,1024,1024,0,0,0,0,89,4.679,68.18,36.417324,P-GPS,,11.1
168,159700,2026-01-09 12:39:32,0.0,5,7.752,0.0,0.0,0.0,25.3,-0.5,-1.5,1024,1024,1024,1024,0,0,0,0,89,4.679,68.18,36.08924,P-GPS,,11.0
169,159800,2026-01-09 12:39:32,0.0,5,7.752,0.0,0.0,0.0,25.3,-0.3,-1.6,1024,1024,1024,1024,0,0,0,0,89,4.679,68.18,36.08924,P-GPS,,11.0
170,159900,2026-01-09 12:39:32,0.0,5,7.752,0.0,0.0,0.0,25.3,-0.1,-1.8,1024,1024,1024,1024,0,0,0,0,89,4.679,68.18,36.08924,P-GPS,,11.0
171,160000,2026-01-09 12:39:32,0.0,5,7.752,0.0,0.0,0.0,25.5,-0.2,-1.6,1024,1024,1024,1024,0,0,0,0,89,4.679,68.18,36.08924,P-GPS,,11.0
172,160100,2026-01-09 12:39:32,0.0,5,7.752,0.0,0.0,0.0,25.5,0.0,-1.4,1024,1024,1024,1024,0,0,0,0,89,4.679,68.18,36.08924,P-GPS,,11.0
173,160200,2026-01-09 12:39:33,0.0,5,7.752,0.0,0.0,0.0,25.4,0.2,-1.7,1024,1024,1024,1024,0,0,0,0,89,4.679,68.18,36.08924,P-GPS,,11.0
174,160300,2026-01-09 12:39:33,0.0,5,7.752,0.0,0.0,0.0,25.4,0.2,-1.6,1024,1024,1024,1024,0,0,0,0,89,4.679,68.18,36.08924,P-GPS,,11.0
175,160400,2026-01-09 12:39:33,0.0,5,7.752,0.0,0.0,0.0,25.5,-0.2,-1.5,1024,1024,1024,1024,0,0,0,0,89,4.679,68.18,35.761156,P-GPS,,10.9
176,160500,2026-01-09 12:39:33,0.0,5,7.752,0.0,0.0,0.0,25.5,-0.4,-1.6,1024,1024,1024,1024,0,0,0,0,89,4.679,68.18,35.761156,P-GPS,,10.9
177,160600,2026-01-09 12:39:33,0.0,5,7.753,0.0,0.0,0.0,25.5,-0.8,-1.5,1024,1024,1024,1024,0,0,0,0,89,4.823,68.18,35.761156,P-GPS,,10.9
178,160700,2026-01-09 12:39:33,0.0,5,7.753,0.0,0.0,0.0,25.6,-0.9,-0.9,1024,1024,1024,1024,0,0,0,0,89,4.823,68.18,35.761156,P-GPS,,10.9
179,160800,2026-01-09 12:39:33,0.0,5,7.753,0.0,0.0,0.0,25.5,-0.6,-1.1,1024,1024,1024,1024,0,0,0,0,89,4.823,68.18,35.761156,P-GPS,,10.9
180,160900,2026-01-09 12:39:33,0.0,5,7.753,0.0,0.0,0.0,25.4,-0.4,-1.3,1024,1024,1024,1024,0,0,0,0,89,4.823,68.18,35.761156,P-GPS,,10.9
181,161000,2026-01-09 12:39:33,0.0,5,7.753,0.0,0.0,0.0,25.3,-0.1,-1.4,1024,1024,1024,1024,0,0,0,0,89,4.823,68.18,35.761156,P-GPS,,10.9
182,161100,2026-01-09 12:39:33,0.0,5,7.753,0.0,0.0,0.0,25.5,-0.4,-1.1,1024,1024,1024,1024,0,0,0,0,89,4.823,68.18,35.761156,P-GPS,,10.9
183,161200,2026-01-09 12:39:34,0.0,5,7.753,0.0,0.0,0.0,25.6,-0.6,-1.1,1024,1024,1024,1024,0,0,0,0,89,4.823,68.18,35.761156,P-GPS,,10.9
184,161300,2026-01-09 12:39:34,0.0,5,7.753,0.0,0.0,0.0,25.6,-0.2,-1.0,1024,1024,1024,1024,0,0,0,0,89,4.823,68.18,35.761156,P-GPS,,10.9
185,161400,2026-01-09 12:39:34,0.0,5,7.753,0.0,0.0,0.0,25.6,0.2,-1.3,1024,1024,1024,1024,0,0,0,0,89,4.823,68.18,35.761156,P-GPS,,10.9
186,161500,2026-01-09 12:39:34,0.0,5,7.753,0.0,0.0,0.0,25.5,0.5,-1.5,1024,1024,1024,1024,0,0,0,0,89,4.823,68.18,35.761156,P-GPS,,10.9
187,161600,2026-01-09 12:39:34,0.0,5,7.753,0.0,0.0,0.0,25.3,0.3,-2.1,1024,1024,1024,1024,0,0,0,0,89,4.823,68.18,35.761156,P-GPS,,10.9
188,161700,2026-01-09 12:39:34,0.0,5,7.745,0.0,0.0,0.0,25.2,0.1,-2.3,1024,1024,1024,1024,0,0,0,0,88,4.763,68.18,35.761156,P-GPS,,10.9
189,161800,2026-01-09 12:39:34,0.0,5,7.745,0.0,0.0,0.0,25.3,-0.3,-2.0,1024,1024,1024,1024,0,0,0,0,88,4.763,68.18,35.761156,P-GPS,,10.9
190,161900,2026-01-09 12:39:34,0.0,5,7.745,0.0,0.0,0.0,25.4,-0.6,-1.8,1024,1024,1024,1024,0,0,0,0,88,4.763,68.18,35.433072,P-GPS,,10.8
191,162000,2026-01-09 12:39:34,0.0,5,7.745,0.0,0.0,0.0,25.6,-0.7,-1.4,1024,1024,1024,1024,0,0,0,0,88,4.763,68.18,35.433072,P-GPS,,10.8
192,162100,2026-01-09 12:39:34,0.0,5,7.745,0.0,0.0,0.0,25.6,-0.6,-0.9,1024,1024,1024,1024,0,0,0,0,88,4.763,68.18,35.433072,P-GPS,,10.8
193,162200,2026-01-09 12:39:35,0.0,5,7.745,0.0,0.0,0.0,25.5,-0.6,-1.1,1024,1024,1024,1024,0,0,0,0,88,4.763,68.18,35.433072,P-GPS,,10.8
194,162300,2026-01-09 12:39:35,0.0,5,7.745,0.0,0.0,0.0,25.4,-0.8,-1.2,1024,1024,1024,1024,0,0,0,0,88,4.763,68.18,35.433072,P-GPS,,10.8
195,162400,2026-01-09 12:39:35,0.0,5,7.745,0.0,0.0,0.0,25.4,-0.7,-0.9,1024,1024,1024,1024,0,0,0,0,88,4.763,68.18,35.433072,P-GPS,,10.8
196,162500,2026-01-09 12:39:35,0.0,5,7.745,0.0,0.0,0.0,25.4,-0.4,-0.4,1024,1024,1024,1024,0,0,0,0,88,4.763,68.18,35.433072,P-GPS,,10.8
197,162600,2026-01-09 12:39:35,0.0,5,7.745,0.0,0.0,0.0,25.4,-0.8,-0.7,1024,1024,1024,1024,0,0,0,0,88,4.763,68.18,35.433072,P-GPS,,10.8
198,162700,2026-01-09 12:39:35,0.0,5,7.745,0.0,0.0,0.0,25.4,-0.7,-0.8,1024,1024,1024,1024,0,0,0,0,88,4.763,68.18,35.433072,P-GPS,,10.8
199,162800,2026-01-09 12:39:35,0.0,5,7.752,0.0,0.0,0.0,25.5,-0.3,-1.0,1024,1024,1024,1024,0,0,0,0,88,4.542,68.18,35.433072,P-GPS,,10.8
200,162900,2026-01-09 12:39:35,0.0,5,7.752,0.0,0.0,0.0,25.6,-0.7,-0.9,1024,1024,1024,1024,0,0,0,0,88,4.542,68.18,35.433072,P-GPS,,10.8
201,163000,2026-01-09 12:39:35,0.0,5,7.752,0.0,0.0,0.0,25.6,-0.4,-1.6,1024,1024,1024,1024,0,0,0,0,88,4.542,68.18,35.433072,P-GPS,,10.8
202,163100,2026-01-09 12:39:36,0.0,5,7.752,0.0,0.0,0.0,25.6,-0.4,-1.7,1024,1024,1024,1024,0,0,0,0,88,4.542,68.18,35.433072,P-GPS,,10.8
203,163200,2026-01-09 12:39:36,0.0,5,7.752,0.0,0.0,0.0,25.7,0.0,-1.7,1024,1024,1024,1024,0,0,0,0,88,4.542,68.18,35.433072,P-GPS,,10.8
204,163300,2026-01-09 12:39:36,0.0,5,7.752,0.0,0.0,0.0,25.7,0.2,-1.7,1024,1024,1024,1024,0,0,0,0,88,4.542,68.18,35.433072,P-GPS,,10.8
205,163400,2026-01-09 12:39:36,0.0,5,7.752,0.0,0.0,0.0,25.6,0.6,-1.8,1024,1024,1024,1024,0,0,0,0,88,4.542,68.18,35.433072,P-GPS,,10.8
206,163500,2026-01-09 12:39:36,0.0,5,7.752,0.0,0.0,0.0,25.5,0.6,-1.6,1024,1024,1024,1024,0,0,0,0,88,4.542,68.18,35.433072,P-GPS,,10.8
207,163600,2026-01-09 12:39:36,0.0,5,7.752,0.0,0.0,0.0,25.4,0.5,-1.6,1024,1024,1024,1024,0,0,0,0,88,4.542,68.18,35.433072,P-GPS,,10.8
208,163700,2026-01-09 12:39:36,0.0,5,7.752,0.0,0.0,0.0,25.4,0.6,-1.5,1024,1024,1024,1024,0,0,0,0,88,4.542,68.18,35.433072,P-GPS,,10.8
209,163800,2026-01-09 12:39:36,0.0,5,7.752,0.0,0.0,0.0,25.3,0.2,-1.4,1024,1024,1024,1024,0,0,0,0,88,4.542,68.18,35.433072,P-GPS,,10.8
210,163900,2026-01-09 12:39:36,0.0,5,7.752,0.0,0.0,0.0,25.4,0.1,-0.9,1024,1024,1024,1024,0,0,0,0,88,4.542,68.18,35.433072,P-GPS,,10.8
211,164000,2026-01-09 12:39:36,0.0,5,7.752,0.0,0.0,0.0,25.4,0.3,-0.7,1024,1024,1024,1024,0,0,0,0,88,4.542,68.18,35.433072,P-GPS,,10.8
212,164100,2026-01-09 12:39:36,0.0,5,7.752,0.0,0.0,0.0,25.1,0.0,-0.7,1024,1024,1024,1024,0,0,0,0,88,4.542,68.18,35.433072,P-GPS,,10.8
213,164200,2026-01-09 12:39:37,0.0,5,7.752,0.0,0.0,0.0,25.1,0.0,-0.6,1024,1024,1024,1024,0,0,0,0,88,4.542,68.18,35.433072,P-GPS,,10.8
214,164300,2026-01-09 12:39:37,0.0,5,7.752,0.0,0.0,0.0,25.1,-0.1,-0.9,1024,1024,1024,1024,0,0,0,0,88,4.542,68.18,35.433072,P-GPS,,10.8
215,164400,2026-01-09 12:39:37,0.223694,5,7.752,0.0,-0.223694,0.0,25.1,-0.3,-0.7,1024,1024,1024,1024,0,0,0,0,88,4.542,68.18,35.433072,P-GPS,,10.8
216,164500,2026-01-09 12:39:37,0.223694,5,7.752,0.0,-0.223694,0.0,25.3,-1.0,1.1,1024,1024,1024,1024,0,0,0,0,88,4.542,68.18,35.761156,P-GPS,,10.9
217,164600,2026-01-09 12:39:37,0.0,5,7.752,0.0,0.0,0.0,25.4,-1.3,1.1,1024,1024,1024,1024,0,0,0,0,88,4.542,68.18,35.761156,P-GPS,,10.9
218,164700,2026-01-09 12:39:37,0.0,5,7.752,0.0,0.0,0.0,25.4,-1.9,0.9,1024,1024,1024,1024,0,0,0,0,88,4.542,68.18,35.761156,P-GPS,,10.9
219,164800,2026-01-09 12:39:37,0.0,5,7.752,0.0,0.0,0.0,25.4,-1.8,0.3,1024,1024,1024,1024,0,0,0,0,88,4.542,68.18,35.761156,P-GPS,,10.9
220,164900,2026-01-09 12:39:37,0.0,5,7.752,0.0,0.0,0.0,25.5,-1.8,0.0,1024,1024,1024,1024,0,0,0,0,88,4.542,68.18,35.761156,P-GPS,,10.9
221,165000,2026-01-09 12:39:37,0.0,5,7.756,0.0,0.0,0.0,25.5,-1.5,0.0,1024,1024,1024,1024,0,0,0,0,88,4.547,68.36,35.761156,P-GPS,,10.9
222,165100,2026-01-09 12:39:38,0.0,5,7.756,0.0,0.0,0.0,25.4,-0.8,0.0,1024,1024,1024,1024,0,0,0,0,88,4.547,68.36,35.761156,P-GPS,,10.9
223,165200,2026-01-09 12:39:38,0.0,5,7.756,0.0,0.0,0.0,25.3,-0.3,-0.1,1024,1024,1024,1024,0,0,0,0,88,4.547,68.36,35.761156,P-GPS,,10.9
224,165300,2026-01-09 12:39:38,0.0,5,7.756,0.0,0.0,0.0,25.4,-0.1,0.0,1024,1024,1024,1024,0,0,0,0,88,4.547,68.36,35.761156,P-GPS,,10.9
225,165400,2026-01-09 12:39:38,0.0,5,7.756,0.0,0.0,0.0,25.5,0.0,0.0,1024,1024,1024,1024,0,0,0,0,88,4.547,68.36,35.761156,P-GPS,,10.9
226,165500,2026-01-09 12:39:38,0.0,5,7.756,0.0,0.0,0.0,25.6,0.1,0.0,1024,1024,1024,1024,0,0,0,0,88,4.547,68.36,35.433072,P-GPS,,10.8
227,165600,2026-01-09 12:39:38,0.0,5,7.756,0.0,0.0,0.0,25.6,0.3,0.0,1024,1024,1024,1024,0,0,0,0,88,4.547,68.36,35.433072,P-GPS,,10.8
228,165700,2026-01-09 12:39:38,0.0,5,7.756,0.0,0.0,0.0,25.6,0.5,-0.1,1024,1024,1024,1024,0,0,0,0,88,4.547,68.36,35.433072,P-GPS,,10.8
229,165800,2026-01-09 12:39:38,0.0,5,7.756,0.0,0.0,0.0,25.6,0.3,-0.4,1024,1024,1024,1024,0,0,0,0,88,4.547,68.36,35.433072,P-GPS,,10.8
230,165900,2026-01-09 12:39:38,0.0,5,7.756,0.0,0.0,0.0,25.6,0.3,-0.3,1024,1024,1024,1024,0,0,0,0,88,4.547,68.36,35.433072,P-GPS,,10.8
231,166000,2026-01-09 12:39:38,0.0,5,7.756,0.0,0.0,0.0,25.7,0.0,-0.6,1024,1024,1024,1024,0,0,0,0,88,4.547,68.36,35.433072,P-GPS,,10.8
232,166100,2026-01-09 12:39:38,0.0,5,7.756,0.0,0.0,0.0,25.7,-0.1,-0.7,1024,1024,1024,1024,0,0,0,0,88,4.547,68.36,35.433072,P-GPS,,10.8
233,166200,2026-01-09 12:39:39,0.0,5,7.756,0.0,0.0,0.0,25.6,0.1,-1.0,1024,1024,1024,1024,0,0,0,0,88,4.547,68.36,35.433072,P-GPS,,10.8
234,166300,2026-01-09 12:39:39,0.0,5,7.756,0.0,0.0,0.0,25.5,0.0,-1.6,1024,1024,1024,1024,0,0,0,0,88,4.547,68.36,35.433072,P-GPS,,10.8
235,166400,2026-01-09 12:39:39,0.0,5,7.756,0.0,0.0,0.0,25.5,-0.1,-1.8,1024,1024,1024,1024,0,0,0,0,88,4.547,68.36,35.433072,P-GPS,,10.8
236,166500,2026-01-09 12:39:39,0.0,5,7.756,0.0,0.0,0.0,25.6,-0.4,-2.0,1024,1024,1024,1024,0,0,0,0,88,4.547,68.36,35.433072,P-GPS,,10.8
237,166600,2026-01-09 12:39:39,0.0,5,7.756,0.0,0.0,0.0,25.5,0.4,-1.7,1024,1024,1024,1024,0,0,0,0,88,4.547,68.36,35.104988,P-GPS,,10.7
238,166700,2026-01-09 12:39:39,0.0,5,7.756,0.0,0.0,0.0,25.4,0.9,-2.3,1024,1024,1024,1024,0,0,0,0,88,4.547,68.36,35.104988,P-GPS,,10.7
239,166800,2026-01-09 12:39:39,0.0,5,7.756,0.0,0.0,0.0,25.4,0.1,-2.7,1024,1024,1024,1024,0,0,0,0,88,4.547,68.36,35.104988,P-GPS,,10.7
240,166900,2026-01-09 12:39:39,0.0,5,7.752,0.0,0.0,0.0,25.4,0.0,-2.8,1024,1024,1024,1024,0,0,0,0,88,4.569,68.36,35.433072,P-GPS,,10.8
241,167000,2026-01-09 12:39:39,0.0,5,7.752,0.0,0.0,0.0,25.4,-0.1,-3.0,1024,1024,1024,1024,0,0,0,0,88,4.569,68.36,35.433072,P-GPS,,10.8
242,167100,2026-01-09 12:39:40,0.0,5,7.752,0.0,0.0,0.0,25.4,-0.1,-3.0,1024,1024,1024,1024,0,0,0,0,88,4.569,68.36,35.433072,P-GPS,,10.8
243,167200,2026-01-09 12:39:40,0.0,5,7.752,0.0,0.0,0.0,25.4,0.0,-2.7,1024,1024,1024,1024,0,0,0,0,88,4.569,68.36,35.433072,P-GPS,,10.8
244,167300,2026-01-09 12:39:40,0.0,5,7.752,0.0,0.0,0.0,25.6,-0.2,-2.6,1024,1024,1024,1024,0,0,0,0,88,4.569,68.36,35.433072,P-GPS,,10.8
245,167400,2026-01-09 12:39:40,0.0,5,7.752,0.0,0.0,0.0,25.8,-0.3,-3.0,1024,1024,1024,1024,0,0,0,0,88,4.569,68.36,35.433072,P-GPS,,10.8
246,167500,2026-01-09 12:39:40,0.0,5,7.752,0.0,0.0,0.0,25.8,-0.6,-3.0,1024,1024,1024,1024,0,0,0,0,88,4.569,68.36,35.433072,P-GPS,,10.8
247,167600,2026-01-09 12:39:40,0.0,5,7.752,0.0,0.0,0.0,25.7,-0.7,-2.8,1024,1024,1024,1024,0,0,0,0,88,4.569,68.36,35.433072,P-GPS,,10.8
248,167700,2026-01-09 12:39:40,0.0,5,7.752,0.0,0.0,0.0,25.6,-0.1,-2.8,1024,1024,1024,1024,0,0,0,0,88,4.569,68.36,35.433072,P-GPS,,10.8
249,167800,2026-01-09 12:39:40,0.0,5,7.752,0.0,0.0,0.0,25.5,0.1,-2.8,1024,1024,1024,1024,0,0,0,0,88,4.569,68.36,35.433072,P-GPS,,10.8
250,167900,2026-01-09 12:39:40,0.0,5,7.748,0.0,0.0,0.0,25.5,0.5,-2.8,1024,1024,1024,1024,0,0,0,0,88,4.726,68.54,35.433072,P-GPS,,10.8
251,168000,2026-01-09 12:39:40,0.0,5,7.748,0.0,0.0,0.0,25.5,1.0,-2.6,1024,1024,1024,1024,0,0,0,0,88,4.726,68.54,35.433072,P-GPS,,10.8
252,168100,2026-01-09 12:39:40,0.0,5,7.748,0.0,0.0,0.0,25.5,1.0,-2.6,1024,1024,1024,1024,0,0,0,0,88,4.726,68.54,35.433072,P-GPS,,10.8
253,168200,2026-01-09 12:39:41,0.0,5,7.748,0.0,0.0,0.0,25.5,1.2,-2.7,1024,1024,1024,1024,0,0,0,0,88,4.726,68.54,35.433072,P-GPS,,10.8
254,168300,2026-01-09 12:39:41,0.0,5,7.748,0.0,0.0,0.0,25.7,0.8,-2.5,1024,1024,1024,1024,0,0,0,0,88,4.726,68.54,35.433072,P-GPS,,10.8
255,168400,2026-01-09 12:39:41,0.0,5,7.748,0.0,0.0,0.0,25.7,0.5,-2.5,1024,1024,1024,1024,0,0,0,0,88,4.726,68.54,35.433072,P-GPS,,10.8
256,168500,2026-01-09 12:39:41,0.0,5,7.748,0.0,0.0,0.0,25.5,0.7,-2.6,1024,1024,1024,1024,0,0,0,0,88,4.726,68.54,35.433072,P-GPS,,10.8
257,168600,2026-01-09 12:39:41,0.0,5,7.748,0.0,0.0,0.0,25.6,0.5,-2.5,1024,1024,1024,1024,0,0,0,0,88,4.726,68.54,35.433072,P-GPS,,10.8
258,168700,2026-01-09 12:39:41,0.0,5,7.748,0.0,0.0,0.0,25.5,0.4,-2.5,1024,1024,1024,1024,0,0,0,0,88,4.726,68.54,35.433072,P-GPS,,10.8
259,168800,2026-01-09 12:39:41,0.0,5,7.737,0.0,0.0,0.0,25.5,0.4,-2.5,1024,1024,1024,1024,0,0,0,0,88,4.935,68.54,35.433072,P-GPS,,10.8
260,168900,2026-01-09 12:39:41,0.0,5,7.737,0.0,0.0,0.0,25.5,0.0,-2.5,1024,1024,1024,1024,0,0,0,0,88,4.935,68.54,35.433072,P-GPS,,10.8
261,169000,2026-01-09 12:39:41,0.0,5,7.737,0.0,0.0,0.0,25.4,0.2,-2.4,1024,1024,1024,1024,0,0,0,0,88,4.935,68.54,35.433072,P-GPS,,10.8
262,169100,2026-01-09 12:39:42,0.0,5,7.737,0.0,0.0,0.0,25.5,0.0,-2.4,1024,1024,1024,1024,0,0,0,0,88,4.935,68.54,35.433072,P-GPS,,10.8
263,169200,2026-01-09 12:39:42,0.0,5,7.737,0.0,0.0,0.0,25.6,-0.3,-2.2,1024,1024,1024,1024,0,0,0,0,88,4.935,68.54,35.433072,P-GPS,,10.8
264,169300,2026-01-09 12:39:42,0.0,5,7.737,0.0,0.0,0.0,25.7,-0.2,-1.6,1024,1024,1024,1024,0,0,0,0,88,4.935,68.54,35.433072,P-GPS,,10.8
265,169400,2026-01-09 12:39:42,0.0,5,7.737,0.0,0.0,0.0,25.7,0.2,-1.5,1024,1024,1024,1024,0,0,0,0,88,4.935,68.54,35.433072,P-GPS,,10.8
266,169500,2026-01-09 12:39:42,0.0,5,7.737,0.0,0.0,0.0,25.5,0.2,-1.7,1024,1024,1024,1024,0,0,0,0,88,4.935,68.54,35.104988,P-GPS,,10.7
267,169600,2026-01-09 12:39:42,0.0,5,7.737,0.0,0.0,0.0,25.5,0.8,-1.8,1024,1024,1024,1024,0,0,0,0,88,4.935,68.54,35.104988,P-GPS,,10.7
268,169700,2026-01-09 12:39:42,0.0,5,7.737,0.0,0.0,0.0,25.4,0.7,-2.0,1024,1024,1024,1024,0,0,0,0,88,4.935,68.54,35.104988,P-GPS,,10.7
269,169800,2026-01-09 12:39:42,0.0,5,7.737,0.0,0.0,0.0,25.4,0.7,-2.0,1024,1024,1024,1024,0,0,0,0,88,4.935,68.54,35.104988,P-GPS,,10.7
270,169900,2026-01-09 12:39:42,0.0,5,7.741,0.0,0.0,0.0,25.4,0.7,-1.8,1024,1024,1024,1024,0,0,0,0,88,4.776,68.54,35.104988,P-GPS,,10.7
271,170000,2026-01-09 12:39:42,0.0,5,7.741,0.0,0.0,0.0,25.3,0.7,-1.8,1024,1024,1024,1024,0,0,0,0,88,4.776,68.54,35.104988,P-GPS,,10.7
272,170100,2026-01-09 12:39:42,0.0,5,7.741,0.0,0.0,0.0,25.3,0.5,-1.8,1024,1024,1024,1024,0,0,0,0,88,4.776,68.54,35.104988,P-GPS,,10.7
273,170200,2026-01-09 12:39:43,0.0,5,7.741,0.0,0.0,0.0,25.3,0.3,-2.0,1024,1024,1024,1024,0,0,0,0,88,4.776,68.54,35.104988,P-GPS,,10.7
274,170300,2026-01-09 12:39:43,0.0,5,7.741,0.0,0.0,0.0,25.3,0.0,-2.2,1024,1024,1024,1024,0,0,0,0,88,4.776,68.54,35.104988,P-GPS,,10.7
275,170400,2026-01-09 12:39:43,0.0,5,7.741,0.0,0.0,0.0,25.3,0.1,-2.6,1024,1024,1024,1024,0,0,0,0,88,4.776,68.54,35.433072,P-GPS,,10.8
276,170500,2026-01-09 12:39:43,0.0,5,7.741,0.0,0.0,0.0,25.3,0.0,-2.6,1024,1024,1024,1024,0,0,0,0,88,4.776,68.54,35.433072,P-GPS,,10.8
277,170600,2026-01-09 12:39:43,0.0,5,7.741,0.0,0.0,0.0,25.5,-0.4,-2.6,1024,1024,1024,1024,0,0,0,0,88,4.776,68.54,35.433072,P-GPS,,10.8
278,170700,2026-01-09 12:39:43,0.0,5,7.741,0.0,0.0,0.0,25.5,-0.5,-2.9,1024,1024,1024,1024,0,0,0,0,88,4.776,68.54,35.433072,P-GPS,,10.8
279,170800,2026-01-09 12:39:43,0.0,5,7.741,0.0,0.0,0.0,25.5,-0.4,-3.1,1024,1024,1024,1024,0,0,0,0,88,4.776,68.54,35.433072,P-GPS,,10.8
280,170900,2026-01-09 12:39:43,0.0,5,7.741,0.0,0.0,0.0,25.5,-0.3,-3.3,1024,1024,1024,1024,0,0,0,0,88,4.764,68.54,35.433072,P-GPS,,10.8
281,171000,2026-01-09 12:39:43,0.0,5,7.741,0.0,0.0,0.0,25.5,-0.2,-3.4,1024,1024,1024,1024,0,0,0,0,88,4.764,68.54,35.433072,P-GPS,,10.8
282,171100,2026-01-09 12:39:44,0.0,5,7.741,0.0,0.0,0.0,25.5,0.0,-2.9,1024,1024,1024,1024,0,0,0,0,88,4.764,68.54,35.433072,P-GPS,,10.8
283,171200,2026-01-09 12:39:44,0.0,5,7.741,0.0,0.0,0.0,25.4,0.5,-2.9,1024,1024,1024,1024,0,0,0,0,88,4.764,68.54,35.433072,P-GPS,,10.8
284,171300,2026-01-09 12:39:44,0.0,5,7.741,0.0,0.0,0.0,25.3,0.7,-3.1,1024,1024,1024,1024,0,0,0,0,88,4.764,68.54,35.433072,P-GPS,,10.8
285,171400,2026-01-09 12:39:44,0.0,5,7.741,0.0,0.0,0.0,25.4,0.3,-3.0,1024,1024,1024,1024,0,0,0,0,88,4.764,68.54,35.433072,P-GPS,,10.8
286,171500,2026-01-09 12:39:44,0.0,5,7.741,0.0,0.0,0.0,25.4,0.0,-2.9,1024,1024,1024,1024,0,0,0,0,88,4.764,68.54,35.433072,P-GPS,,10.8
287,171600,2026-01-09 12:39:44,0.0,5,7.741,0.0,0.0,0.0,25.5,-0.3,-2.9,1024,1024,1024,1024,0,0,0,0,88,4.764,68.54,35.433072,P-GPS,,10.8
288,171700,2026-01-09 12:39:44,0.0,5,7.741,0.0,0.0,0.0,25.5,-0.6,-2.6,1024,1024,1024,1024,0,0,0,0,88,4.764,68.54,35.433072,P-GPS,,10.8
289,171800,2026-01-09 12:39:44,0.0,5,7.741,0.0,0.0,0.0,25.5,-0.3,-2.5,1024,1024,1024,1024,0,0,0,0,88,4.764,68.54,35.433072,P-GPS,,10.8
290,171900,2026-01-09 12:39:44,0.0,5,7.734,0.0,0.0,0.0,25.4,-0.4,-3.2,1024,1024,1024,1024,0,0,0,0,88,4.859,68.54,35.761156,P-GPS,,10.9
291,172000,2026-01-09 12:39:44,0.0,5,7.734,0.0,0.0,0.0,25.5,-0.6,-3.5,1024,1024,1024,1024,0,0,0,0,88,4.859,68.54,35.761156,P-GPS,,10.9
292,172100,2026-01-09 12:39:44,0.0,5,7.734,0.0,0.0,0.0,25.4,-0.9,-3.8,1024,1024,1024,1024,0,0,0,0,88,4.859,68.54,35.761156,P-GPS,,10.9
293,172200,2026-01-09 12:39:45,0.0,5,7.734,0.0,0.0,0.0,25.4,-1.4,-4.0,1024,1024,1024,1024,0,0,0,0,88,4.859,68.54,35.761156,P-GPS,,10.9
294,172300,2026-01-09 12:39:45,0.0,5,7.734,0.0,0.0,0.0,25.4,-1.8,-4.3,1024,1024,1024,1024,0,0,0,0,88,4.859,68.54,36.08924,P-GPS,,11.0
295,172400,2026-01-09 12:39:45,0.0,5,7.734,0.0,0.0,0.0,25.5,-1.9,-4.4,1024,1024,1024,1024,0,0,0,0,88,4.859,68.54,36.08924,P-GPS,,11.0
296,172500,2026-01-09 12:39:45,0.0,5,7.734,0.0,0.0,0.0,25.4,-1.4,-4.4,1024,1024,1024,1024,0,0,0,0,88,4.859,68.54,36.08924,P-GPS,,11.0
297,172600,2026-01-09 12:39:45,0.0,5,7.734,0.0,0.0,0.0,25.3,-0.9,-4.6,1024,1024,1024,1024,0,0,0,0,88,4.859,68.54,36.08924,P-GPS,,11.0
298,172700,2026-01-09 12:39:45,0.0,5,7.734,0.0,0.0,0.0,25.4,-1.3,-4.4,1024,1024,1024,1024,0,0,0,0,88,4.859,68.54,36.08924,P-GPS,,11.0
299,172800,2026-01-09 12:39:45,0.0,5,7.734,0.0,0.0,0.0,25.4,-1.0,-4.1,1024,1024,1024,1024,0,0,0,0,88,4.859,68.54,36.08924,P-GPS,,11.0
300,172900,2026-01-09 12:39:45,0.0,5,7.734,0.0,0.0,0.0,25.3,-0.7,-4.1,1024,1024,1024,1024,0,0,0,0,88,4.859,68.54,36.08924,P-GPS,,11.0
301,173000,2026-01-09 12:39:45,0.0,5,7.734,0.0,0.0,0.0,25.3,-1.4,-3.8,1024,1024,1024,1024,0,0,0,0,88,4.859,68.54,36.08924,P-GPS,,11.0
302,173100,2026-01-09 12:39:45,0.0,5,7.734,0.0,0.0,0.0,25.5,-2.2,-3.9,1024,1024,1024,1024,0,0,0,0,88,4.859,68.54,36.08924,P-GPS,,11.0
303,173200,2026-01-09 12:39:46,0.0,5,7.734,0.0,0.0,0.0,25.5,-2.9,-4.1,1024,1024,1024,1024,0,0,0,0,88,4.859,68.54,36.08924,P-GPS,,11.0
304,173300,2026-01-09 12:39:46,0.0,5,7.734,0.0,0.0,0.0,25.5,-2.6,-3.6,1024,1024,1024,1024,0,0,0,0,88,4.859,68.54,36.08924,P-GPS,,11.0
305,173400,2026-01-09 12:39:46,0.0,5,7.734,0.0,0.0,0.0,25.6,-2.5,-2.9,1024,1024,1024,1024,0,0,0,0,88,4.859,68.54,36.08924,P-GPS,,11.0
306,173500,2026-01-09 12:39:46,0.0,5,7.734,0.0,0.0,0.0,25.7,-3.0,-2.6,1024,1024,1024,1024,0,0,0,0,88,4.859,68.54,36.08924,P-GPS,,11.0
307,173600,2026-01-09 12:39:46,0.0,5,7.734,0.0,0.0,0.0,25.8,-2.9,-2.7,1024,1024,1024,1024,0,0,0,0,88,4.859,68.54,36.08924,P-GPS,,11.0
308,173700,2026-01-09 12:39:46,0.0,5,7.734,0.0,0.0,0.0,25.9,-3.0,-2.5,1024,1024,1024,1024,0,0,0,0,88,4.859,68.54,36.08924,P-GPS,,11.0
309,173800,2026-01-09 12:39:46,0.0,5,7.734,0.0,0.0,0.0,25.8,-3.1,-3.4,1024,1024,1024,1024,0,0,0,0,88,4.859,68.54,36.08924,P-GPS,,11.0
310,173900,2026-01-09 12:39:46,0.0,5,7.734,0.0,0.0,0.0,25.7,-2.6,-3.9,1024,1024,1024,1024,0,0,0,0,88,4.859,68.54,36.08924,P-GPS,,11.0
311,174000,2026-01-09 12:39:46,0.0,5,7.735,0.0,0.0,0.0,25.5,-2.1,-3.7,1024,1024,1024,1024,0,0,0,0,88,4.738,68.72,36.08924,P-GPS,,11.0
312,174100,2026-01-09 12:39:46,0.0,5,7.735,0.0,0.0,0.0,25.4,-1.6,-4.1,1024,1024,1024,1024,0,0,0,0,88,4.738,68.72,36.08924,P-GPS,,11.0
313,174200,2026-01-09 12:39:47,0.0,5,7.735,0.0,0.0,0.0,25.5,-1.2,-4.3,1024,1024,1024,1024,0,0,0,0,88,4.738,68.72,36.08924,P-GPS,,11.0
314,174300,2026-01-09 12:39:47,0.0,5,7.735,0.0,0.0,0.0,25.4,-0.9,-5.0,1024,1024,1024,1024,0,0,0,0,88,4.738,68.72,36.08924,P-GPS,,11.0
315,174400,2026-01-09 12:39:47,0.0,5,7.735,0.0,0.0,0.0,25.3,0.1,-4.9,1024,1024,1024,1024,0,0,0,0,88,4.738,68.72,36.08924,P-GPS,,11.0
316,174500,2026-01-09 12:39:47,0.0,5,7.735,0.0,0.0,0.0,25.5,0.7,-4.6,1024,1024,1024,1024,0,0,0,0,88,4.738,68.72,36.08924,P-GPS,,11.0
317,174600,2026-01-09 12:39:47,0.0,5,7.735,0.0,0.0,0.0,25.6,0.0,-4.4,1024,1024,1024,1024,0,0,0,0,88,4.738,68.72,36.08924,P-GPS,,11.0
318,174700,2026-01-09 12:39:47,0.0,5,7.735,0.0,0.0,0.0,25.6,-0.2,-4.4,1024,1024,1024,1024,0,0,0,0,88,4.738,68.72,36.08924,P-GPS,,11.0
319,174800,2026-01-09 12:39:47,0.0,5,7.735,0.0,0.0,0.0,25.4,-1.0,-4.4,1024,1024,1024,1024,0,0,0,0,88,4.738,68.72,36.08924,P-GPS,,11.0
320,174900,2026-01-09 12:39:47,0.0,5,7.735,0.0,0.0,0.0,25.4,-1.5,-4.7,1024,1024,1024,1024,0,0,0,0,88,4.738,68.72,36.08924,P-GPS,,11.0
321,175000,2026-01-09 12:39:47,0.0,5,7.735,0.0,0.0,0.0,25.5,-1.9,-4.5,1024,1024,1024,1024,0,0,0,0,88,4.738,68.72,36.08924,P-GPS,,11.0
322,175100,2026-01-09 12:39:47,0.0,5,7.736,0.0,0.0,0.0,25.5,-2.5,-4.4,1024,1024,1024,1024,0,0,0,0,88,4.884,68.72,36.08924,P-GPS,,11.0
323,175200,2026-01-09 12:39:48,0.0,5,7.736,0.0,0.0,0.0,25.5,-2.6,-4.4,1024,1024,1024,1024,0,0,0,0,88,4.884,68.72,36.08924,P-GPS,,11.0
324,175300,2026-01-09 12:39:48,0.0,5,7.736,0.0,0.0,0.0,25.6,-2.2,-4.5,1024,1024,1024,1024,0,0,0,0,88,4.884,68.72,36.08924,P-GPS,,11.0
325,175400,2026-01-09 12:39:48,0.0,5,7.736,0.0,0.0,0.0,25.6,-1.6,-4.4,1024,1024,1024,1024,0,0,0,0,88,4.884,68.72,36.08924,P-GPS,,11.0
326,175500,2026-01-09 12:39:48,0.0,5,7.736,0.0,0.0,0.0,25.5,-1.2,-4.3,1024,1024,1024,1024,0,0,0,0,88,4.884,68.72,36.08924,P-GPS,,11.0
327,175600,2026-01-09 12:39:48,0.0,5,7.736,0.0,0.0,0.0,25.5,-0.9,-4.0,1024,1024,1024,1024,0,0,0,0,88,4.884,68.72,36.08924,P-GPS,,11.0
328,175700,2026-01-09 12:39:48,0.0,5,7.736,0.0,0.0,0.0,25.4,-0.9,-4.2,1024,1024,1024,1024,0,0,0,0,88,4.884,68.72,36.417324,P-GPS,,11.1
329,175800,2026-01-09 12:39:48,0.0,5,7.736,0.0,0.0,0.0,25.3,-0.2,-4.0,1024,1024,1024,1024,0,0,0,0,88,4.884,68.72,36.417324,P-GPS,,11.1
330,175900,2026-01-09 12:39:48,0.0,5,7.736,0.0,0.0,0.0,25.4,0.0,-4.1,1024,1024,1024,1024,0,0,0,0,88,4.884,68.72,36.417324,P-GPS,,11.1
331,176000,2026-01-09 12:39:48,0.0,5,7.736,0.0,0.0,0.0,25.7,-0.8,-3.9,1024,1024,1024,1024,0,0,0,0,88,4.884,68.72,36.417324,P-GPS,,11.1
