index,time(millisecond),timestamp,speed(mph),gpslevel,voltage(v),xSpeed(mph),ySpeed(mph),zSpeed(mph),compass_heading(degrees),pitch(degrees),roll(degrees),rc_elevator,rc_aileron,rc_throttle,rc_rudder,rc_elevator(percent),rc_aileron(percent),rc_throttle(percent),rc_rudder(percent),battery_percent,current(A),battery_temperature(f),ascent(feet),flycState,message,height_above_takeoff(meters)
778,495900,2026-01-09 20:15:07,0.0,5,7.462,0.0,0.0,0.0,21.2,5.8,-0.5,1024,1024,1024,1024,0,0,0,0,66,4.209,77.36,163.713916,P-GPS,,49.9
779,496000,2026-01-09 20:15:08,0.0,5,7.462,0.0,0.0,0.0,21.2,6.3,-0.7,1024,1024,1024,1024,0,0,0,0,66,4.209,77.36,163.713916,P-GPS,,49.9
780,496100,2026-01-09 20:15:08,0.0,5,7.462,0.0,0.0,0.0,21.2,6.2,-0.6,1024,1024,1024,1024,0,0,0,0,66,4.209,77.36,163.713916,P-GPS,,49.9
781,496200,2026-01-09 20:15:08,0.0,5,7.462,0.0,0.0,0.0,21.2,6.0,-0.5,1024,1024,1024,1024,0,0,0,0,66,4.209,77.36,163.713916,P-GPS,,49.9
782,496300,2026-01-09 20:15:08,0.0,5,7.462,0.0,0.0,0.0,21.2,5.9,-0.6,1024,1024,1024,1024,0,0,0,0,66,4.209,77.36,163.713916,P-GPS,,49.9
783,496400,2026-01-09 20:15:08,0.0,5,7.462,0.0,0.0,0.0,21.2,5.9,-0.7,1024,1024,1024,1024,0,0,0,0,66,4.209,77.36,163.713916,P-GPS,,49.9
784,496500,2026-01-09 20:15:08,0.0,5,7.462,0.0,0.0,0.0,21.2,5.5,-0.7,1024,1024,1024,1024,0,0,0,0,66,4.209,77.36,163.713916,P-GPS,,49.9
785,496600,2026-01-09 20:15:08,0.0,5,7.462,0.0,0.0,0.0,21.2,5.5,-0.8,1024,1024,1024,1024,0,0,0,0,66,4.209,77.36,163.713916,P-GPS,,49.9
786,496700,2026-01-09 20:15:08,0.0,5,7.462,0.0,0.0,0.0,21.2,5.4,-0.6,1024,1024,1024,1024,0,0,0,0,66,4.209,77.36,163.713916,P-GPS,,49.9
787,496800,2026-01-09 20:15:08,0.0,5,7.462,0.0,0.0,0.0,21.2,5.4,-0.5,1024,1024,1024,1024,0,0,0,0,66,4.209,77.36,163.713916,P-GPS,,49.9
788,496900,2026-01-09 20:15:08,0.0,5,7.438,0.0,0.0,0.0,21.2,4.9,-0.4,1024,1024,1024,1024,0,0,0,0,66,4.847,77.36,163.713916,P-GPS,,49.9
789,497000,2026-01-09 20:15:08,0.0,5,7.438,0.0,0.0,0.0,21.2,4.8,-0.3,1024,1024,1024,1024,0,0,0,0,66,4.847,77.36,163.713916,P-GPS,,49.9
790,497100,2026-01-09 20:15:09,0.0,5,7.438,0.0,0.0,0.0,21.2,4.7,-0.2,1024,1024,1024,1024,0,0,0,0,66,4.847,77.36,163.713916,P-GPS,,49.9
791,497200,2026-01-09 20:15:09,0.0,5,7.438,0.0,0.0,0.0,21.2,4.7,-0.2,1024,1024,1024,1024,0,0,0,0,66,4.847,77.36,163.713916,P-GPS,,49.9
792,497300,2026-01-09 20:15:09,0.0,5,7.438,0.0,0.0,0.0,21.2,4.0,0.0,1024,1024,1024,1024,0,0,0,0,66,4.847,77.36,163.713916,P-GPS,,49.9
793,497400,2026-01-09 20:15:09,0.0,5,7.438,0.0,0.0,0.0,21.3,4.3,0.0,1024,1024,1024,1024,0,0,0,0,66,4.847,77.36,163.713916,P-GPS,,49.9
794,497500,2026-01-09 20:15:09,0.0,5,7.438,0.0,0.0,0.0,21.3,4.4,-0.1,1024,1024,1024,1024,0,0,0,0,66,4.847,77.36,163.713916,P-GPS,,49.9
795,497600,2026-01-09 20:15:09,0.0,5,7.438,0.0,0.0,0.0,21.2,4.6,-0.3,1024,1024,1024,1024,0,0,0,0,66,4.847,77.36,163.713916,P-GPS,,49.9
796,497700,2026-01-09 20:15:09,0.0,5,7.438,0.0,0.0,0.0,21.2,4.7,-0.6,1024,1024,1024,1024,0,0,0,0,66,4.847,77.36,163.713916,P-GPS,,49.9
797,497800,2026-01-09 20:15:09,0.0,5,7.438,0.0,0.0,0.0,21.2,4.8,-0.8,1024,1024,1024,1024,0,0,0,0,66,4.847,77.36,163.713916,P-GPS,,49.9
798,497900,2026-01-09 20:15:09,0.0,5,7.438,0.0,0.0,0.0,21.2,4.8,-1.0,1024,1024,1024,1024,0,0,0,0,66,4.847,77.36,163.713916,P-GPS,,49.9
799,498000,2026-01-09 20:15:10,0.0,5,7.434,0.0,0.0,0.0,21.2,4.9,-1.2,1024,1024,1024,1024,0,0,0,0,66,4.893,77.36,163.713916,P-GPS,,49.9
800,498100,2026-01-09 20:15:10,0.0,5,7.434,0.0,0.0,0.0,21.2,4.7,-1.1,1024,1024,1024,1024,0,0,0,0,66,4.893,77.36,163.713916,P-GPS,,49.9
801,498200,2026-01-09 20:15:10,0.0,5,7.434,0.0,0.0,0.0,21.2,4.8,-1.2,1024,1024,1024,1024,0,0,0,0,66,4.893,77.36,163.713916,P-GPS,,49.9
802,498300,2026-01-09 20:15:10,0.0,5,7.434,0.0,0.0,0.0,21.2,4.8,-1.2,1024,1024,1024,1024,0,0,0,0,66,4.893,77.36,163.385832,P-GPS,,49.8
803,498400,2026-01-09 20:15:10,0.0,5,7.434,0.0,0.0,0.0,21.2,4.8,-1.2,1024,1024,1024,1024,0,0,0,0,66,4.893,77.36,163.385832,P-GPS,,49.8
804,498500,2026-01-09 20:15:10,0.0,5,7.434,0.0,0.0,0.0,21.2,4.6,-1.1,1024,1024,1024,1024,0,0,0,0,66,4.893,77.36,163.385832,P-GPS,,49.8
805,498600,2026-01-09 20:15:10,0.0,5,7.434,0.0,0.0,0.0,21.2,4.7,-1.1,1024,1024,1024,1024,0,0,0,0,66,4.893,77.36,163.385832,P-GPS,,49.8
806,498700,2026-01-09 20:15:10,0.0,5,7.434,0.0,0.0,0.0,21.2,4.7,-1.1,1024,1024,1024,1024,0,0,0,0,66,4.893,77.36,163.385832,P-GPS,,49.8
807,498800,2026-01-09 20:15:10,0.0,5,7.434,0.0,0.0,0.0,21.1,4.7,-1.3,1024,1024,1024,1024,0,0,0,0,66,4.893,77.36,163.385832,P-GPS,,49.8
808,498900,2026-01-09 20:15:10,0.0,5,7.434,0.0,0.0,0.0,21.1,4.5,-1.2,1024,1024,1024,1024,0,0,0,0,66,4.893,77.36,163.385832,P-GPS,,49.8
809,499000,2026-01-09 20:15:11,0.0,5,7.434,0.0,0.0,0.0,21.1,4.6,-1.3,1024,1024,1024,1024,0,0,0,0,66,4.893,77.36,163.385832,P-GPS,,49.8
810,499100,2026-01-09 20:15:11,0.0,5,7.432,0.0,0.0,0.0,21.1,4.6,-1.3,1024,1024,1024,1024,0,0,0,0,66,4.839,77.36,163.385832,P-GPS,,49.8
811,499200,2026-01-09 20:15:11,0.0,5,7.432,0.0,0.0,0.0,21.1,4.6,-1.3,1024,1024,1024,1024,0,0,0,0,66,4.839,77.36,163.385832,P-GPS,,49.8
812,499300,2026-01-09 20:15:11,0.0,5,7.432,0.0,0.0,0.0,21.2,4.5,-1.1,1024,1024,1024,1024,0,0,0,0,66,4.839,77.36,163.385832,P-GPS,,49.8
813,499400,2026-01-09 20:15:11,0.0,5,7.432,0.0,0.0,0.0,21.1,4.5,-0.9,1024,1024,1024,1024,0,0,0,0,66,4.839,77.36,163.057748,P-GPS,,49.7
814,499500,2026-01-09 20:15:11,0.0,5,7.432,0.0,0.0,0.0,21.2,4.6,-1.0,1024,1024,1024,1024,0,0,0,0,66,4.839,77.36,163.057748,P-GPS,,49.7
815,499600,2026-01-09 20:15:11,0.0,5,7.432,0.0,0.0,0.0,21.1,4.7,-1.1,1024,1024,1024,1024,0,0,0,0,66,4.839,77.36,163.057748,P-GPS,,49.7
816,499700,2026-01-09 20:15:11,0.0,5,7.432,0.0,0.0,0.0,21.1,4.8,-0.8,1024,1024,1024,1024,0,0,0,0,66,4.839,77.36,163.057748,P-GPS,,49.7
817,499800,2026-01-09 20:15:11,0.0,5,7.432,0.0,0.0,0.0,21.0,5.0,-0.8,1024,1024,1024,1024,0,0,0,0,66,4.839,77.36,163.057748,P-GPS,,49.7
818,499900,2026-01-09 20:15:11,0.0,5,7.432,0.0,0.0,0.0,21.0,5.0,-0.5,1024,1024,1024,1024,0,0,0,0,66,4.839,77.36,163.057748,P-GPS,,49.7
819,500000,2026-01-09 20:15:11,0.0,5,7.432,0.0,0.0,0.0,21.0,5.2,-0.4,1024,1024,1024,1024,0,0,0,0,66,4.839,77.36,163.057748,P-GPS,,49.7
820,500100,2026-01-09 20:15:12,0.0,5,7.432,0.0,0.0,0.0,21.1,5.1,-0.1,1024,1024,1024,1024,0,0,0,0,66,4.839,77.36,163.057748,P-GPS,,49.7
821,500200,2026-01-09 20:15:12,0.0,5,7.428,0.0,0.0,0.0,21.1,5.2,-0.1,1024,1024,1024,1024,0,0,0,0,66,4.895,77.54,163.057748,P-GPS,,49.7
822,500300,2026-01-09 20:15:12,0.0,5,7.428,0.0,0.0,0.0,21.0,5.1,0.0,1024,1024,1024,1024,0,0,0,0,66,4.895,77.54,163.057748,P-GPS,,49.7
823,500400,2026-01-09 20:15:12,0.0,5,7.428,0.0,0.0,0.0,21.0,5.0,0.0,1024,1024,1024,1024,0,0,0,0,66,4.895,77.54,163.057748,P-GPS,,49.7
824,500500,2026-01-09 20:15:12,0.0,5,7.428,0.0,0.0,0.0,21.0,4.7,0.1,1024,1024,1024,1024,0,0,0,0,66,4.895,77.54,163.057748,P-GPS,,49.7
825,500600,2026-01-09 20:15:12,0.0,5,7.428,0.0,0.0,0.0,21.1,4.5,0.2,1024,1024,1024,1024,0,0,0,0,66,4.895,77.54,163.057748,P-GPS,,49.7
826,500700,2026-01-09 20:15:12,0.0,5,7.428,0.0,0.0,0.0,21.1,4.7,0.3,1024,1024,1024,1024,0,0,0,0,66,4.895,77.54,162.729664,P-GPS,,49.6
827,500800,2026-01-09 20:15:12,0.0,5,7.428,0.0,0.0,0.0,21.1,4.7,0.2,1024,1024,1024,1024,0,0,0,0,66,4.895,77.54,162.729664,P-GPS,,49.6
828,500900,2026-01-09 20:15:12,0.0,5,7.428,0.0,0.0,0.0,21.0,4.6,0.2,1024,1024,1024,1024,0,0,0,0,66,4.895,77.54,162.729664,P-GPS,,49.6
829,501000,2026-01-09 20:15:13,0.0,5,7.428,0.0,0.0,0.0,21.1,4.8,0.2,1024,1024,1024,1024,0,0,0,0,66,4.895,77.54,162.729664,P-GPS,,49.6
830,501100,2026-01-09 20:15:13,0.0,5,7.428,0.0,0.0,0.0,21.1,4.7,0.2,1024,1024,1024,1024,0,0,0,0,66,4.895,77.54,162.729664,P-GPS,,49.6
831,501200,2026-01-09 20:15:13,0.0,5,7.428,0.0,0.0,0.0,21.1,4.8,0.0,1024,1024,1024,1024,0,0,0,0,66,4.895,77.54,162.729664,P-GPS,,49.6
832,501300,2026-01-09 20:15:13,0.0,5,7.43,0.0,0.0,0.0,21.0,4.7,0.0,1024,1024,1024,1024,0,0,0,0,66,4.945,77.54,162.729664,P-GPS,,49.6
833,501400,2026-01-09 20:15:13,0.0,5,7.43,0.0,0.0,0.0,21.1,4.7,0.0,1024,1024,1024,1024,0,0,0,0,66,4.945,77.54,162.729664,P-GPS,,49.6
834,501500,2026-01-09 20:15:13,0.0,5,7.43,0.0,0.0,0.0,21.1,4.6,-0.1,1024,1024,1024,1024,0,0,0,0,66,4.945,77.54,162.729664,P-GPS,,49.6
835,501600,2026-01-09 20:15:13,0.0,5,7.43,0.0,0.0,0.0,21.1,4.6,-0.3,1024,1024,1024,1024,0,0,0,0,66,4.945,77.54,162.729664,P-GPS,,49.6
836,501700,2026-01-09 20:15:13,0.0,5,7.43,0.0,0.0,0.0,21.2,4.5,-0.4,1024,1024,1024,1024,0,0,0,0,66,4.945,77.54,162.729664,P-GPS,,49.6
837,501800,2026-01-09 20:15:13,0.0,5,7.43,0.0,0.0,0.0,21.2,4.6,-0.3,1024,1024,1024,1024,0,0,0,0,66,4.945,77.54,162.729664,P-GPS,,49.6
838,501900,2026-01-09 20:15:13,0.0,5,7.43,0.0,0.0,0.0,21.1,4.5,-0.3,1024,1024,1024,1024,0,0,0,0,66,4.945,77.54,162.729664,P-GPS,,49.6
839,502000,2026-01-09 20:15:13,0.0,5,7.43,0.0,0.0,0.0,21.1,4.6,-0.3,1024,1024,1024,1024,0,0,0,0,66,4.945,77.54,162.729664,P-GPS,,49.6
840,502100,2026-01-09 20:15:14,0.0,5,7.43,0.0,0.0,0.0,21.1,4.4,-0.2,1024,1024,1024,1024,0,0,0,0,66,4.945,77.54,162.729664,P-GPS,,49.6
841,502200,2026-01-09 20:15:14,0.0,5,7.43,0.0,0.0,0.0,21.2,4.4,-0.1,1024,1024,1024,1024,0,0,0,0,66,4.945,77.54,162.729664,P-GPS,,49.6
842,502300,2026-01-09 20:15:14,0.0,5,7.43,0.0,0.0,0.0,21.3,4.4,-0.2,1024,1024,1024,1024,0,0,0,0,66,4.945,77.54,163.057748,P-GPS,,49.7
843,502400,2026-01-09 20:15:14,0.0,5,7.43,0.0,0.0,0.0,21.3,4.7,-0.5,1024,1024,1024,1024,0,0,0,0,66,4.945,77.54,163.057748,P-GPS,,49.7
844,502500,2026-01-09 20:15:14,0.0,5,7.43,0.0,0.0,0.0,21.3,4.8,-0.9,1024,1024,1024,1024,0,0,0,0,66,4.945,77.54,163.057748,P-GPS,,49.7
845,502600,2026-01-09 20:15:14,0.0,5,7.43,0.0,0.0,0.0,21.2,4.9,-1.3,1024,1024,1024,1024,0,0,0,0,66,4.945,77.54,163.057748,P-GPS,,49.7
846,502700,2026-01-09 20:15:14,0.0,5,7.43,0.0,0.0,0.0,21.2,4.9,-1.2,1024,1024,1024,1024,0,0,0,0,66,4.945,77.54,163.057748,P-GPS,,49.7
847,502800,2026-01-09 20:15:14,0.0,5,7.43,0.0,0.0,0.0,21.1,5.0,-1.1,1024,1024,1024,1024,0,0,0,0,66,4.945,77.54,163.057748,P-GPS,,49.7
848,502900,2026-01-09 20:15:14,0.0,5,7.43,0.0,0.0,0.0,21.1,4.9,-0.9,1024,1024,1024,1024,0,0,0,0,66,4.945,77.54,163.057748,P-GPS,,49.7
849,503000,2026-01-09 20:15:15,0.0,5,7.43,0.0,0.0,0.0,21.2,4.9,-0.5,1024,1024,1024,1024,0,0,0,0,66,4.945,77.54,163.057748,P-GPS,,49.7
850,503100,2026-01-09 20:15:15,0.0,5,7.43,0.0,0.0,0.0,21.2,5.0,-0.3,1024,1024,1024,1024,0,0,0,0,66,4.945,77.54,163.057748,P-GPS,,49.7
851,503200,2026-01-09 20:15:15,0.0,5,7.43,0.0,0.0,0.0,21.2,5.2,-0.2,1024,1024,1024,1024,0,0,0,0,66,4.945,77.54,163.057748,P-GPS,,49.7
852,503300,2026-01-09 20:15:15,0.0,5,7.43,0.0,0.0,0.0,21.2,5.2,-0.2,1024,1024,1024,1024,0,0,0,0,66,4.945,77.54,163.057748,P-GPS,,49.7
853,503400,2026-01-09 20:15:15,0.0,5,7.433,0.0,0.0,0.0,21.1,5.3,-0.3,1024,1024,1024,1024,0,0,0,0,66,4.848,77.54,163.057748,P-GPS,,49.7
854,503500,2026-01-09 20:15:15,0.0,5,7.433,0.0,0.0,0.0,21.1,5.1,-0.3,1024,1024,1024,1024,0,0,0,0,66,4.848,77.54,163.057748,P-GPS,,49.7
855,503600,2026-01-09 20:15:15,0.0,5,7.433,0.0,0.0,0.0,21.2,5.2,-0.2,1024,1024,1024,1024,0,0,0,0,66,4.848,77.54,163.057748,P-GPS,,49.7
856,503700,2026-01-09 20:15:15,0.0,5,7.433,0.0,0.0,0.0,21.1,5.3,-0.3,1024,1024,1024,1024,0,0,0,0,66,4.848,77.54,163.057748,P-GPS,,49.7
857,503800,2026-01-09 20:15:15,0.0,5,7.433,0.0,0.0,0.0,21.1,5.2,-0.2,1024,1024,1024,1024,0,0,0,0,66,4.848,77.54,163.057748,P-GPS,,49.7
858,503900,2026-01-09 20:15:15,0.0,5,7.433,0.0,0.0,0.0,21.2,4.9,0.0,1024,1024,1024,1024,0,0,0,0,66,4.848,77.54,163.057748,P-GPS,,49.7
859,504000,2026-01-09 20:15:15,0.0,5,7.433,0.0,0.0,0.0,21.2,4.9,-0.2,1024,1024,1024,1024,0,0,0,0,66,4.848,77.54,163.057748,P-GPS,,49.7
860,504100,2026-01-09 20:15:16,0.0,5,7.433,0.0,0.0,0.0,21.2,5.1,-0.3,1024,1024,1024,1024,0,0,0,0,66,4.848,77.54,163.057748,P-GPS,,49.7
861,504200,2026-01-09 20:15:16,0.0,5,7.433,0.0,0.0,0.0,21.2,5.2,-0.5,1024,1024,1024,1024,0,0,0,0,66,4.848,77.54,163.057748,P-GPS,,49.7
862,504300,2026-01-09 20:15:16,0.0,5,7.433,0.0,0.0,0.0,21.2,5.1,-0.6,1024,1024,1024,1024,0,0,0,0,66,4.848,77.54,163.057748,P-GPS,,49.7
863,504400,2026-01-09 20:15:16,0.0,5,7.433,0.0,0.0,0.0,21.2,5.2,-0.6,1024,1024,1024,1024,0,0,0,0,65,4.848,77.54,163.057748,P-GPS,,49.7
864,504500,2026-01-09 20:15:16,0.0,5,7.433,0.0,0.0,0.0,21.1,4.8,-0.6,1024,1024,1024,1024,0,0,0,0,65,4.848,77.54,163.057748,P-GPS,,49.7
865,504600,2026-01-09 20:15:16,0.0,5,7.438,0.0,0.0,0.0,21.1,4.9,-0.6,1024,1024,1024,1024,0,0,0,0,65,4.726,77.54,163.057748,P-GPS,,49.7
866,504700,2026-01-09 20:15:16,0.0,5,7.438,0.0,0.0,0.0,21.1,4.8,-0.5,1024,1024,1024,1024,0,0,0,0,65,4.726,77.54,163.057748,P-GPS,,49.7
867,504800,2026-01-09 20:15:16,0.0,5,7.438,0.0,0.0,0.0,21.2,4.9,-0.3,1024,1024,1024,1024,0,0,0,0,65,4.726,77.54,163.057748,P-GPS,,49.7
868,504900,2026-01-09 20:15:16,0.0,5,7.438,0.0,0.0,0.0,21.1,4.9,-0.3,1024,1024,1024,1024,0,0,0,0,65,4.726,77.54,163.057748,P-GPS,,49.7
869,505000,2026-01-09 20:15:17,0.0,5,7.438,0.0,0.0,0.0,21.1,5.0,-0.3,1024,1024,1024,1024,0,0,0,0,65,4.726,77.54,163.057748,P-GPS,,49.7
870,505100,2026-01-09 20:15:17,0.0,5,7.438,0.0,0.0,0.0,21.1,4.9,-0.2,1024,1024,1024,1024,0,0,0,0,65,4.726,77.54,163.057748,P-GPS,,49.7
871,505200,2026-01-09 20:15:17,0.0,5,7.438,0.0,0.0,0.0,21.1,5.0,-0.2,1024,1024,1024,1024,0,0,0,0,65,4.726,77.54,163.057748,P-GPS,,49.7
872,505300,2026-01-09 20:15:17,0.0,5,7.438,0.0,0.0,0.0,21.1,5.0,-0.4,1024,1024,1024,1024,0,0,0,0,65,4.726,77.54,163.057748,P-GPS,,49.7
873,505400,2026-01-09 20:15:17,0.0,5,7.438,0.0,0.0,0.0,21.1,5.1,-0.5,1024,1024,1024,1024,0,0,0,0,65,4.726,77.54,163.057748,P-GPS,,49.7
874,505500,2026-01-09 20:15:17,0.0,5,7.438,0.0,0.0,0.0,21.1,5.2,-0.3,1024,1024,1024,1024,0,0,0,0,65,4.726,77.54,163.057748,P-GPS,,49.7
875,505600,2026-01-09 20:15:17,0.0,5,7.438,0.0,0.0,0.0,21.0,5.2,-0.2,1024,1024,1024,1024,0,0,0,0,65,4.726,77.54,163.057748,P-GPS,,49.7
876,505700,2026-01-09 20:15:17,0.0,5,7.436,0.0,0.0,0.0,21.1,4.9,-0.1,1024,1024,1024,1024,0,0,0,0,65,4.732,77.54,163.057748,P-GPS,,49.7
877,505800,2026-01-09 20:15:17,0.0,5,7.436,0.0,0.0,0.0,21.1,4.8,-0.1,1024,1024,1024,1024,0,0,0,0,65,4.732,77.54,163.057748,P-GPS,,49.7
878,505900,2026-01-09 20:15:17,0.0,5,7.436,0.0,0.0,0.0,21.1,4.7,0.0,1024,1024,1024,1024,0,0,0,0,65,4.732,77.54,163.057748,P-GPS,,49.7
879,506000,2026-01-09 20:15:18,0.0,5,7.436,0.0,0.0,0.0,21.1,4.8,0.0,1024,1024,1024,1024,0,0,0,0,65,4.732,77.54,163.057748,P-GPS,,49.7
880,506100,2026-01-09 20:15:18,0.0,5,7.436,0.0,0.0,0.0,21.1,4.8,0.1,1024,1024,1024,1024,0,0,0,0,65,4.732,77.54,163.057748,P-GPS,,49.7
881,506200,2026-01-09 20:15:18,0.0,5,7.436,0.0,0.0,0.0,21.1,5.1,0.0,1024,1024,1024,1024,0,0,0,0,65,4.732,77.54,163.057748,P-GPS,,49.7
882,506300,2026-01-09 20:15:18,0.0,5,7.436,0.0,0.0,0.0,21.1,5.2,0.0,1024,1024,1024,1024,0,0,0,0,65,4.732,77.54,163.057748,P-GPS,,49.7
883,506400,2026-01-09 20:15:18,0.0,5,7.436,0.0,0.0,0.0,21.1,5.1,0.0,1024,1024,1024,1024,0,0,0,0,65,4.732,77.54,163.057748,P-GPS,,49.7
884,506500,2026-01-09 20:15:18,0.0,5,7.436,0.0,0.0,0.0,21.1,5.0,0.0,1024,1024,1024,1024,0,0,0,0,65,4.732,77.54,163.057748,P-GPS,,49.7
885,506600,2026-01-09 20:15:18,0.0,5,7.436,0.0,0.0,0.0,21.1,4.9,0.0,1024,1024,1024,1024,0,0,0,0,65,4.732,77.54,163.057748,P-GPS,,49.7
886,506700,2026-01-09 20:15:18,0.0,5,7.436,0.0,0.0,0.0,21.1,5.0,0.1,1024,1024,1024,1024,0,0,0,0,65,4.732,77.54,163.057748,P-GPS,,49.7
887,506800,2026-01-09 20:15:18,0.0,5,7.434,0.0,0.0,0.0,21.2,5.0,-0.1,1024,1024,1024,1024,0,0,0,0,65,4.769,77.54,163.057748,P-GPS,,49.7
888,506900,2026-01-09 20:15:18,0.0,5,7.434,0.0,0.0,0.0,21.2,5.1,-0.3,1024,1024,1024,1024,0,0,0,0,65,4.769,77.54,163.057748,P-GPS,,49.7
889,507000,2026-01-09 20:15:18,0.0,5,7.434,0.0,0.0,0.0,21.1,5.1,-0.3,1024,1024,1024,1024,0,0,0,0,65,4.769,77.54,163.057748,P-GPS,,49.7
890,507100,2026-01-09 20:15:19,0.0,5,7.434,0.0,0.0,0.0,21.1,5.2,-0.4,1024,1024,1024,1024,0,0,0,0,65,4.769,77.54,163.057748,P-GPS,,49.7
891,507200,2026-01-09 20:15:19,0.0,5,7.434,0.0,0.0,0.0,21.1,5.1,-0.4,1024,1024,1024,1024,0,0,0,0,65,4.769,77.54,163.057748,P-GPS,,49.7
892,507300,2026-01-09 20:15:19,0.0,5,7.434,0.0,0.0,0.0,21.1,5.0,-0.3,1024,1024,1024,1024,0,0,0,0,65,4.769,77.54,163.057748,P-GPS,,49.7
893,507400,2026-01-09 20:15:19,0.0,5,7.434,0.0,0.0,0.0,21.2,4.9,-0.3,1024,1024,1024,1024,0,0,0,0,65,4.769,77.54,163.057748,P-GPS,,49.7
894,507500,2026-01-09 20:15:19,0.0,5,7.434,0.0,0.0,0.0,21.2,4.7,-0.3,1024,1024,1024,1024,0,0,0,0,65,4.769,77.54,163.057748,P-GPS,,49.7
895,507600,2026-01-09 20:15:19,0.0,5,7.434,0.0,0.0,0.0,21.1,4.7,-0.2,1024,1024,1024,1024,0,0,0,0,65,4.769,77.54,163.057748,P-GPS,,49.7
896,507700,2026-01-09 20:15:19,0.0,5,7.434,0.0,0.0,0.0,21.2,4.8,-0.1,1024,1024,1024,1024,0,0,0,0,65,4.769,77.54,163.057748,P-GPS,,49.7
897,507800,2026-01-09 20:15:19,0.0,5,7.434,0.0,0.0,0.0,21.2,4.9,-0.2,1024,1024,1024,1024,0,0,0,0,65,4.769,77.54,163.057748,P-GPS,,49.7
898,507900,2026-01-09 20:15:19,0.0,5,7.438,0.0,0.0,0.0,21.2,5.1,0.0,1024,1024,1024,1024,0,0,0,0,65,4.76,77.54,163.057748,P-GPS,,49.7
899,508000,2026-01-09 20:15:20,0.0,5,7.438,0.0,0.0,0.0,21.2,5.2,0.0,1024,1024,1024,1024,0,0,0,0,65,4.76,77.54,163.057748,P-GPS,,49.7
900,508100,2026-01-09 20:15:20,0.0,5,7.438,0.0,0.0,0.0,21.1,5.2,-0.1,1024,1024,1024,1024,0,0,0,0,65,4.76,77.54,163.057748,P-GPS,,49.7
901,508200,2026-01-09 20:15:20,0.0,5,7.438,0.0,0.0,0.0,21.1,5.2,-0.1,1024,1024,1024,1024,0,0,0,0,65,4.76,77.54,163.057748,P-GPS,,49.7
902,508300,2026-01-09 20:15:20,0.0,5,7.438,0.0,0.0,0.0,21.1,5.0,-0.1,1024,1024,1024,1024,0,0,0,0,65,4.76,77.54,162.729664,P-GPS,,49.6
903,508400,2026-01-09 20:15:20,0.0,5,7.438,0.0,0.0,0.0,21.1,5.0,-0.1,1024,1024,1024,1024,0,0,0,0,65,4.76,77.54,162.729664,P-GPS,,49.6
904,508500,2026-01-09 20:15:20,0.0,5,7.438,0.0,0.0,0.0,21.1,4.9,-0.1,1024,1024,1024,1024,0,0,0,0,65,4.76,77.54,162.729664,P-GPS,,49.6
905,508600,2026-01-09 20:15:20,0.0,5,7.438,0.0,0.0,0.0,21.2,5.0,-0.1,1024,1024,1024,1024,0,0,0,0,65,4.76,77.54,162.729664,P-GPS,,49.6
906,508700,2026-01-09 20:15:20,0.0,5,7.438,0.0,0.0,0.0,21.2,5.0,-0.3,1024,1024,1024,1024,0,0,0,0,65,4.76,77.54,162.729664,P-GPS,,49.6
907,508800,2026-01-09 20:15:20,0.0,5,7.438,0.0,0.0,0.0,21.2,5.0,-0.4,1024,1024,1024,1024,0,0,0,0,65,4.76,77.54,162.729664,P-GPS,,49.6
908,508900,2026-01-09 20:15:20,0.0,5,7.438,0.0,0.0,0.0,21.2,5.1,-0.4,1024,1024,1024,1024,0,0,0,0,65,4.76,77.54,162.729664,P-GPS,,49.6
909,509000,2026-01-09 20:15:21,0.0,5,7.439,0.0,0.0,0.0,21.1,5.3,-0.3,1024,1024,1024,1024,0,0,0,0,65,4.74,77.54,162.729664,P-GPS,,49.6
910,509100,2026-01-09 20:15:21,0.0,5,7.439,0.0,0.0,0.0,21.2,5.4,-0.3,1024,1024,1024,1024,0,0,0,0,65,4.74,77.54,162.729664,P-GPS,,49.6
911,509200,2026-01-09 20:15:21,0.0,5,7.439,0.0,0.0,0.0,21.1,5.5,-0.2,1024,1024,1024,1024,0,0,0,0,65,4.74,77.54,162.729664,P-GPS,,49.6
912,509300,2026-01-09 20:15:21,0.0,5,7.439,0.0,0.0,0.0,21.2,5.7,-0.1,1024,1024,1024,1024,0,0,0,0,65,4.74,77.54,162.729664,P-GPS,,49.6
913,509400,2026-01-09 20:15:21,0.0,5,7.439,0.0,0.0,0.0,21.2,5.5,-0.3,1024,1024,1024,1024,0,0,0,0,65,4.74,77.54,162.729664,P-GPS,,49.6
914,509500,2026-01-09 20:15:21,0.0,5,7.439,0.0,0.0,0.0,21.1,5.4,-0.1,1024,1024,1024,1024,0,0,0,0,65,4.74,77.54,162.729664,P-GPS,,49.6
915,509600,2026-01-09 20:15:21,0.0,5,7.439,0.0,0.0,0.0,21.2,5.3,-0.1,1024,1024,1024,1024,0,0,0,0,65,4.74,77.54,162.729664,P-GPS,,49.6
916,509700,2026-01-09 20:15:21,0.0,5,7.439,0.0,0.0,0.0,21.2,5.3,-0.1,1024,1024,1024,1024,0,0,0,0,65,4.74,77.54,162.729664,P-GPS,,49.6
917,509800,2026-01-09 20:15:21,0.0,5,7.439,0.0,0.0,0.0,21.2,5.5,-0.1,1024,1024,1024,1024,0,0,0,0,65,4.74,77.54,162.729664,P-GPS,,49.6
918,509900,2026-01-09 20:15:21,0.0,5,7.439,0.0,0.0,0.0,21.2,5.1,-0.3,1024,1024,1024,1024,0,0,0,0,65,4.74,77.54,162.729664,P-GPS,,49.6
919,510000,2026-01-09 20:15:21,0.0,5,7.439,0.0,0.0,0.0,21.2,5.2,-0.6,1024,1024,1024,1024,0,0,0,0,65,4.74,77.54,162.729664,P-GPS,,49.6
920,510100,2026-01-09 20:15:22,0.0,5,7.437,0.0,0.0,0.0,21.2,5.1,-0.5,1024,1024,1024,1024,0,0,0,0,65,4.727,77.54,162.729664,P-GPS,,49.6
921,510200,2026-01-09 20:15:22,0.0,5,7.437,0.0,0.0,0.0,21.2,5.2,-0.4,1024,1024,1024,1024,0,0,0,0,65,4.727,77.54,162.40158,P-GPS,,49.5
922,510300,2026-01-09 20:15:22,0.0,5,7.437,0.0,0.0,0.0,21.2,5.1,-0.4,1024,1024,1024,1024,0,0,0,0,65,4.727,77.54,162.40158,P-GPS,,49.5
923,510400,2026-01-09 20:15:22,0.0,5,7.437,0.0,0.0,0.0,21.2,5.2,-0.4,1024,1024,1024,1024,0,0,0,0,65,4.727,77.54,162.40158,P-GPS,,49.5
924,510500,2026-01-09 20:15:22,0.0,5,7.437,0.0,0.0,0.0,21.1,5.3,-0.5,1024,1024,1024,1024,0,0,0,0,65,4.727,77.54,162.40158,P-GPS,,49.5
925,510600,2026-01-09 20:15:22,0.0,5,7.437,0.0,0.0,0.0,21.0,5.5,-0.5,1024,1024,1024,1024,0,0,0,0,65,4.727,77.54,162.40158,P-GPS,,49.5
926,510700,2026-01-09 20:15:22,0.0,5,7.437,0.0,0.0,0.0,21.0,5.4,-0.4,1024,1024,1024,1024,0,0,0,0,65,4.727,77.54,162.40158,P-GPS,,49.5
927,510800,2026-01-09 20:15:22,0.0,5,7.437,0.0,0.0,0.0,21.1,5.5,0.0,1024,1024,1024,1024,0,0,0,0,65,4.727,77.54,162.40158,P-GPS,,49.5
928,510900,2026-01-09 20:15:22,0.0,5,7.437,0.0,0.0,0.0,21.1,5.2,-0.1,1024,1024,1024,1024,0,0,0,0,65,4.727,77.54,162.40158,P-GPS,,49.5
929,511000,2026-01-09 20:15:23,0.0,5,7.437,0.0,0.0,0.0,21.2,5.2,0.0,1024,1024,1024,1024,0,0,0,0,65,4.727,77.54,162.40158,P-GPS,,49.5
930,511100,2026-01-09 20:15:23,0.0,5,7.437,0.0,0.0,0.0,21.2,5.3,-0.1,1024,1024,1024,1024,0,0,0,0,65,4.727,77.54,162.40158,P-GPS,,49.5
931,511200,2026-01-09 20:15:23,0.0,5,7.435,0.0,0.0,0.0,21.1,5.9,-0.4,1024,1024,1024,1024,0,0,0,0,65,4.731,77.54,162.073496,P-GPS,,49.4
932,511300,2026-01-09 20:15:23,0.0,5,7.435,0.0,0.0,0.0,21.1,6.2,-0.4,1024,1024,1024,1024,0,0,0,0,65,4.731,77.54,162.073496,P-GPS,,49.4
933,511400,2026-01-09 20:15:23,0.0,5,7.435,0.0,0.0,0.0,21.0,6.1,-0.4,1024,1024,1024,1024,0,0,0,0,65,4.731,77.54,162.073496,P-GPS,,49.4
934,511500,2026-01-09 20:15:23,0.0,5,7.435,0.0,0.0,0.0,21.0,6.3,-0.3,1024,1024,1024,1024,0,0,0,0,65,4.731,77.54,162.073496,P-GPS,,49.4
935,511600,2026-01-09 20:15:23,0.0,5,7.435,0.0,0.0,0.0,21.0,6.3,-0.5,1024,1024,1024,1024,0,0,0,0,65,4.731,77.54,162.073496,P-GPS,,49.4
936,511700,2026-01-09 20:15:23,0.0,5,7.435,0.0,0.0,0.0,21.1,6.0,-0.9,1024,1024,1024,1024,0,0,0,0,65,4.731,77.54,162.073496,P-GPS,,49.4
937,511800,2026-01-09 20:15:23,0.0,5,7.435,0.0,0.0,0.0,21.1,5.8,-1.3,1024,1024,1024,1024,0,0,0,0,65,4.731,77.54,162.073496,P-GPS,,49.4
938,511900,2026-01-09 20:15:23,0.0,5,7.435,0.0,0.0,0.0,21.1,5.7,-1.3,1024,1024,1024,1024,0,0,0,0,65,4.731,77.54,162.073496,P-GPS,,49.4
939,512000,2026-01-09 20:15:23,0.0,5,7.435,0.0,0.0,0.0,21.2,5.6,-1.2,1024,1024,1024,1024,0,0,0,0,65,4.731,77.54,162.073496,P-GPS,,49.4
940,512100,2026-01-09 20:15:24,0.0,5,7.435,0.0,0.0,0.0,21.2,5.4,-1.1,1024,1024,1024,1024,0,0,0,0,65,4.731,77.54,162.073496,P-GPS,,49.4
941,512200,2026-01-09 20:15:24,0.0,5,7.435,0.0,0.0,0.0,21.2,5.3,-1.1,1024,1024,1024,1024,0,0,0,0,65,4.731,77.54,162.073496,P-GPS,,49.4
942,512300,2026-01-09 20:15:24,0.0,5,7.43,0.0,0.0,0.0,21.1,5.2,-1.0,1024,1024,1024,1024,0,0,0,0,65,4.864,77.54,162.073496,P-GPS,,49.4
943,512400,2026-01-09 20:15:24,0.0,5,7.43,0.0,0.0,0.0,21.1,5.2,-1.0,1024,1024,1024,1024,0,0,0,0,65,4.864,77.54,162.073496,P-GPS,,49.4
944,512500,2026-01-09 20:15:24,0.0,5,7.43,0.0,0.0,0.0,21.1,5.0,-1.0,1024,1024,1024,1024,0,0,0,0,65,4.864,77.54,162.073496,P-GPS,,49.4
945,512600,2026-01-09 20:15:24,0.0,5,7.43,0.0,0.0,0.0,21.1,5.0,-0.7,1024,1024,1024,1024,0,0,0,0,65,4.864,77.54,162.073496,P-GPS,,49.4
946,512700,2026-01-09 20:15:24,0.0,5,7.43,0.0,0.0,0.0,21.1,5.1,-0.6,1024,1024,1024,1024,0,0,0,0,65,4.864,77.54,162.073496,P-GPS,,49.4
947,512800,2026-01-09 20:15:24,0.0,5,7.43,0.0,0.0,0.0,21.0,5.3,-0.5,1024,1024,1024,1024,0,0,0,0,65,4.864,77.54,162.073496,P-GPS,,49.4
948,512900,2026-01-09 20:15:24,0.0,5,7.43,0.0,0.0,0.0,21.1,5.1,-0.4,1024,1024,1024,1024,0,0,0,0,65,4.864,77.54,162.073496,P-GPS,,49.4
949,513000,2026-01-09 20:15:25,0.0,5,7.43,0.0,0.0,0.0,21.2,5.5,-0.8,1024,1024,1024,1024,0,0,0,0,65,4.864,77.54,162.073496,P-GPS,,49.4
950,513100,2026-01-09 20:15:25,0.0,5,7.43,0.0,0.0,0.0,21.2,5.5,-0.8,1024,1024,1024,1024,0,0,0,0,65,4.864,77.54,162.073496,P-GPS,,49.4
951,513200,2026-01-09 20:15:25,0.0,5,7.43,0.0,0.0,0.0,21.2,5.6,-0.8,1024,1024,1024,1024,0,0,0,0,65,4.864,77.54,162.073496,P-GPS,,49.4
952,513300,2026-01-09 20:15:25,0.0,5,7.43,0.0,0.0,0.0,21.3,5.7,-0.6,1024,1024,1024,1024,0,0,0,0,65,4.864,77.54,162.073496,P-GPS,,49.4
953,513400,2026-01-09 20:15:25,0.0,5,7.43,0.0,0.0,0.0,21.2,5.8,-0.8,1024,1024,1024,1024,0,0,0,0,65,4.864,77.54,162.073496,P-GPS,,49.4
954,513500,2026-01-09 20:15:25,0.0,5,7.43,0.0,0.0,0.0,21.1,6.2,-1.0,1024,1024,1024,1024,0,0,0,0,65,4.864,77.54,162.073496,P-GPS,,49.4
955,513600,2026-01-09 20:15:25,0.0,5,7.43,0.0,0.0,0.0,21.1,6.0,-1.0,1024,1024,1024,1024,0,0,0,0,65,4.864,77.54,162.073496,P-GPS,,49.4
956,513700,2026-01-09 20:15:25,0.0,5,7.43,0.0,0.0,0.0,21.1,6.0,-0.9,1024,1024,1024,1024,0,0,0,0,65,4.864,77.54,162.073496,P-GPS,,49.4
957,513800,2026-01-09 20:15:25,0.0,5,7.43,0.0,0.0,0.0,21.1,5.8,-0.6,1024,1024,1024,1024,0,0,0,0,65,4.864,77.54,162.073496,P-GPS,,49.4
958,513900,2026-01-09 20:15:25,0.0,5,7.43,0.0,0.0,0.0,21.0,5.6,-0.6,1024,1024,1024,1024,0,0,0,0,65,4.864,77.54,162.073496,P-GPS,,49.4
959,514000,2026-01-09 20:15:25,0.0,5,7.43,0.0,0.0,0.0,21.0,5.6,-0.4,1024,1024,1024,1024,0,0,0,0,65,4.864,77.54,162.073496,P-GPS,,49.4
960,514100,2026-01-09 20:15:26,0.0,5,7.43,0.0,0.0,0.0,21.0,5.4,-0.2,1024,1024,1024,1024,0,0,0,0,65,4.864,77.54,162.073496,P-GPS,,49.4
961,514200,2026-01-09 20:15:26,0.0,5,7.43,0.0,0.0,0.0,21.0,5.2,-0.3,1024,1024,1024,1024,0,0,0,0,65,4.864,77.54,162.073496,P-GPS,,49.4
962,514300,2026-01-09 20:15:26,0.0,5,7.43,0.0,0.0,0.0,21.1,5.4,-0.1,1024,1024,1024,1024,0,0,0,0,65,4.864,77.54,162.073496,P-GPS,,49.4
963,514400,2026-01-09 20:15:26,0.0,5,7.44,0.0,0.0,0.0,21.2,5.2,-0.4,1024,1024,1024,1024,0,0,0,0,65,4.728,77.54,162.073496,P-GPS,,49.4
964,514500,2026-01-09 20:15:26,0.0,5,7.44,0.0,0.0,0.0,21.2,5.3,-0.8,1024,1024,1024,1024,0,0,0,0,65,4.728,77.54,162.073496,P-GPS,,49.4
965,514600,2026-01-09 20:15:26,0.0,5,7.44,0.0,0.0,0.0,21.2,5.3,-0.9,1024,1024,1024,1024,0,0,0,0,65,4.728,77.54,162.073496,P-GPS,,49.4
966,514700,2026-01-09 20:15:26,0.0,5,7.44,0.0,0.0,0.0,21.2,5.2,-1.2,1024,1024,1024,1024,0,0,0,0,65,4.728,77.54,162.073496,P-GPS,,49.4
967,514800,2026-01-09 20:15:26,0.0,5,7.44,0.0,0.0,0.0,21.3,5.1,-1.4,1024,1024,1024,1024,0,0,0,0,65,4.728,77.54,162.073496,P-GPS,,49.4
968,514900,2026-01-09 20:15:26,0.0,5,7.44,0.0,0.0,0.0,21.2,5.5,-1.5,1024,1024,1024,1024,0,0,0,0,65,4.728,77.54,161.745412,P-GPS,,49.3
969,515000,2026-01-09 20:15:26,0.0,5,7.44,0.0,0.0,0.0,21.1,5.9,-1.3,1024,1024,1024,1024,0,0,0,0,65,4.728,77.54,161.745412,P-GPS,,49.3
970,515100,2026-01-09 20:15:27,0.0,5,7.44,0.0,0.0,0.0,21.1,5.9,-1.1,1024,1024,1024,1024,0,0,0,0,65,4.728,77.54,161.745412,P-GPS,,49.3
971,515200,2026-01-09 20:15:27,0.0,5,7.44,0.0,0.0,0.0,21.1,5.8,-0.9,1024,1024,1024,1024,0,0,0,0,65,4.728,77.54,161.745412,P-GPS,,49.3
972,515300,2026-01-09 20:15:27,0.0,5,7.44,0.0,0.0,0.0,21.1,5.7,-0.8,1024,1024,1024,1024,0,0,0,0,65,4.728,77.54,161.745412,P-GPS,,49.3
973,515400,2026-01-09 20:15:27,0.0,5,7.44,0.0,0.0,0.0,21.1,5.7,-0.8,1024,1024,1024,1024,0,0,0,0,65,4.728,77.54,161.745412,P-GPS,,49.3
974,515500,2026-01-09 20:15:27,0.0,5,7.44,0.0,0.0,0.0,21.0,5.6,-0.8,1024,1024,1024,1024,0,0,0,0,65,4.728,77.54,161.745412,P-GPS,,49.3
975,515600,2026-01-09 20:15:27,0.0,5,7.431,0.0,0.0,0.0,21.0,5.5,-0.9,1024,1024,1024,1024,0,0,0,0,65,4.717,77.72,161.745412,P-GPS,,49.3
976,515700,2026-01-09 20:15:27,0.0,5,7.431,0.0,0.0,0.0,21.0,5.4,-0.7,1024,1024,1024,1024,0,0,0,0,65,4.717,77.72,161.745412,P-GPS,,49.3
977,515800,2026-01-09 20:15:27,0.0,5,7.431,0.0,0.0,0.0,21.1,5.4,-0.7,1024,1024,1024,1024,0,0,0,0,65,4.717,77.72,161.745412,P-GPS,,49.3
978,515900,2026-01-09 20:15:27,0.0,5,7.431,0.0,0.0,0.0,21.1,5.3,-0.5,1024,1024,1024,1024,0,0,0,0,65,4.717,77.72,161.745412,P-GPS,,49.3
979,516000,2026-01-09 20:15:28,0.0,5,7.431,0.0,0.0,0.0,21.1,5.4,-0.6,1024,1024,1024,1024,0,0,0,0,65,4.717,77.72,161.745412,P-GPS,,49.3
980,516100,2026-01-09 20:15:28,0.0,5,7.431,0.0,0.0,0.0,21.1,5.4,-0.6,1024,1024,1024,1024,0,0,0,0,65,4.717,77.72,161.745412,P-GPS,,49.3
981,516200,2026-01-09 20:15:28,0.0,5,7.431,0.0,0.0,0.0,21.1,5.6,-0.8,1024,1024,1024,1024,0,0,0,0,65,4.717,77.72,161.745412,P-GPS,,49.3
982,516300,2026-01-09 20:15:28,0.0,5,7.431,0.0,0.0,0.0,21.1,5.8,-1.1,1024,1024,1024,1024,0,0,0,0,65,4.717,77.72,161.745412,P-GPS,,49.3
983,516400,2026-01-09 20:15:28,0.0,5,7.431,0.0,0.0,0.0,21.0,5.8,-1.2,1024,1024,1024,1024,0,0,0,0,65,4.717,77.72,161.745412,P-GPS,,49.3
984,516500,2026-01-09 20:15:28,0.0,5,7.431,0.0,0.0,0.0,21.0,5.7,-1.0,1024,1024,1024,1024,0,0,0,0,65,4.717,77.72,161.745412,P-GPS,,49.3
985,516600,2026-01-09 20:15:28,0.0,5,7.431,0.0,0.0,0.0,21.0,5.6,-0.9,1024,1024,1024,1024,0,0,0,0,65,4.717,77.72,161.745412,P-GPS,,49.3
986,516700,2026-01-09 20:15:28,0.0,5,7.43,0.0,0.0,0.0,21.0,5.3,-0.7,1024,1024,1024,1024,0,0,0,0,64,4.755,77.72,162.073496,P-GPS,,49.4
987,516800,2026-01-09 20:15:28,0.0,5,7.43,0.0,0.0,0.0,21.1,5.4,-0.8,1024,1024,1024,1024,0,0,0,0,64,4.755,77.72,162.073496,P-GPS,,49.4
988,516900,2026-01-09 20:15:28,0.0,5,7.43,0.0,0.0,0.0,21.0,5.4,-0.7,1024,1024,1024,1024,0,0,0,0,64,4.755,77.72,162.073496,P-GPS,,49.4
989,517000,2026-01-09 20:15:28,0.0,5,7.43,0.0,0.0,0.0,21.0,5.4,-0.6,1024,1024,1024,1024,0,0,0,0,64,4.755,77.72,162.073496,P-GPS,,49.4
990,517100,2026-01-09 20:15:29,0.0,5,7.43,0.0,0.0,0.0,21.1,5.3,-0.5,1024,1024,1024,1024,0,0,0,0,64,4.755,77.72,162.073496,P-GPS,,49.4
991,517200,2026-01-09 20:15:29,0.0,5,7.43,0.0,0.0,0.0,21.1,5.1,-0.6,1024,1024,1024,1024,0,0,0,0,64,4.755,77.72,162.073496,P-GPS,,49.4
992,517300,2026-01-09 20:15:29,0.0,5,7.43,0.0,0.0,0.0,21.1,5.1,-0.8,1024,1024,1024,1024,0,0,0,0,64,4.755,77.72,162.073496,P-GPS,,49.4
993,517400,2026-01-09 20:15:29,0.0,5,7.43,0.0,0.0,0.0,21.1,5.2,-1.0,1024,1024,1024,1024,0,0,0,0,64,4.755,77.72,162.073496,P-GPS,,49.4
994,517500,2026-01-09 20:15:29,0.0,5,7.43,0.0,0.0,0.0,21.1,5.3,-1.0,1024,1024,1024,1024,0,0,0,0,64,4.755,77.72,162.073496,P-GPS,,49.4
995,517600,2026-01-09 20:15:29,0.0,5,7.43,0.0,0.0,0.0,21.0,5.5,-1.1,1024,1024,1024,1024,0,0,0,0,64,4.755,77.72,162.073496,P-GPS,,49.4
996,517700,2026-01-09 20:15:29,0.0,5,7.43,0.0,0.0,0.0,21.0,5.4,-1.3,1024,1024,1024,1024,0,0,0,0,64,4.755,77.72,162.073496,P-GPS,,49.4
997,517800,2026-01-09 20:15:29,0.0,5,7.429,0.0,0.0,0.0,21.0,5.5,-1.1,1024,1024,1024,1024,0,0,0,0,64,4.803,77.72,162.073496,P-GPS,,49.4
998,517900,2026-01-09 20:15:29,0.0,5,7.429,0.0,0.0,0.0,21.0,5.4,-1.0,1024,1024,1024,1024,0,0,0,0,64,4.803,77.72,162.073496,P-GPS,,49.4
999,518000,2026-01-09 20:15:30,0.0,5,7.429,0.0,0.0,0.0,21.0,5.5,-1.0,1024,1024,1024,1024,0,0,0,0,64,4.803,77.72,162.073496,P-GPS,,49.4
1000,518100,2026-01-09 20:15:30,0.0,5,7.429,0.0,0.0,0.0,21.1,5.1,-0.8,1024,1024,1024,1024,0,0,0,0,64,4.803,77.72,162.073496,P-GPS,,49.4
1001,518200,2026-01-09 20:15:30,0.0,5,7.429,0.0,0.0,0.0,21.1,5.1,-0.7,1024,1024,1024,1024,0,0,0,0,64,4.803,77.72,162.073496,P-GPS,,49.4
1002,518300,2026-01-09 20:15:30,0.0,5,7.429,0.0,0.0,0.0,21.1,5.2,-0.7,1024,1024,1024,1024,0,0,0,0,64,4.803,77.72,162.073496,P-GPS,,49.4
1003,518400,2026-01-09 20:15:30,0.0,5,7.429,0.0,0.0,0.0,21.1,5.4,-0.8,1024,1024,1024,1024,0,0,0,0,64,4.803,77.72,162.073496,P-GPS,,49.4
1004,518500,2026-01-09 20:15:30,0.0,5,7.429,0.0,0.0,0.0,21.1,5.5,-1.0,1024,1024,1024,1024,0,0,0,0,64,4.803,77.72,162.073496,P-GPS,,49.4
1005,518600,2026-01-09 20:15:30,0.0,5,7.429,0.0,0.0,0.0,21.1,5.6,-1.0,1024,1024,1024,1024,0,0,0,0,64,4.803,77.72,162.073496,P-GPS,,49.4
1006,518700,2026-01-09 20:15:30,0.0,5,7.429,0.0,0.0,0.0,21.1,5.6,-1.1,1024,1024,1024,1024,0,0,0,0,64,4.803,77.72,162.073496,P-GPS,,49.4
1007,518800,2026-01-09 20:15:30,0.0,5,7.429,0.0,0.0,0.0,21.0,5.6,-1.2,1024,1024,1024,1024,0,0,0,0,64,4.803,77.72,162.073496,P-GPS,,49.4
1008,518900,2026-01-09 20:15:30,0.0,5,7.425,0.0,0.0,0.0,21.1,5.5,-1.3,1024,1024,1024,1024,0,0,0,0,64,4.864,77.72,162.073496,P-GPS,,49.4
1009,519000,2026-01-09 20:15:30,0.0,5,7.425,0.0,0.0,0.0,21.0,5.6,-1.3,1024,1024,1024,1024,0,0,0,0,64,4.864,77.72,162.40158,P-GPS,,49.5
1010,519100,2026-01-09 20:15:31,0.0,5,7.425,0.0,0.0,0.0,21.1,5.4,-1.3,1024,1024,1024,1024,0,0,0,0,64,4.864,77.72,162.40158,P-GPS,,49.5
1011,519200,2026-01-09 20:15:31,0.0,5,7.425,0.0,0.0,0.0,21.1,5.6,-1.2,1024,1024,1024,1024,0,0,0,0,64,4.864,77.72,162.40158,P-GPS,,49.5
1012,519300,2026-01-09 20:15:31,0.0,5,7.425,0.0,0.0,0.0,21.1,5.7,-1.3,1024,1024,1024,1024,0,0,0,0,64,4.864,77.72,162.40158,P-GPS,,49.5
1013,519400,2026-01-09 20:15:31,0.0,5,7.425,0.0,0.0,0.0,21.1,5.8,-1.4,1024,1024,1024,1024,0,0,0,0,64,4.864,77.72,162.40158,P-GPS,,49.5
1014,519500,2026-01-09 20:15:31,0.0,5,7.425,0.0,0.0,0.0,21.1,5.6,-1.4,1024,1024,1024,1024,0,0,0,0,64,4.864,77.72,162.40158,P-GPS,,49.5
1015,519600,2026-01-09 20:15:31,0.0,5,7.425,0.0,0.0,0.0,21.1,5.7,-1.3,1024,1024,1024,1024,0,0,0,0,64,4.864,77.72,162.40158,P-GPS,,49.5
1016,519700,2026-01-09 20:15:31,0.0,5,7.425,0.0,0.0,0.0,21.1,5.6,-1.3,1024,1024,1024,1024,0,0,0,0,64,4.864,77.72,162.40158,P-GPS,,49.5
1017,519800,2026-01-09 20:15:31,0.0,5,7.425,0.0,0.0,0.0,21.1,5.5,-1.5,1024,1024,1024,1024,0,0,0,0,64,4.864,77.72,162.40158,P-GPS,,49.5
1018,519900,2026-01-09 20:15:31,0.0,5,7.425,0.0,0.0,0.0,21.1,5.4,-1.6,1024,1024,1024,1024,0,0,0,0,64,4.864,77.72,162.40158,P-GPS,,49.5
1019,520000,2026-01-09 20:15:31,0.0,5,7.424,0.0,0.0,0.0,21.0,5.5,-1.5,1024,1024,1024,1024,0,0,0,0,64,4.88,77.72,162.40158,P-GPS,,49.5
1020,520100,2026-01-09 20:15:32,0.0,5,7.424,0.0,0.0,0.0,21.1,5.6,-1.2,1024,1024,1024,1024,0,0,0,0,64,4.88,77.72,162.40158,P-GPS,,49.5
1021,520200,2026-01-09 20:15:32,0.0,5,7.424,0.0,0.0,0.0,21.1,5.6,-1.0,1024,1024,1024,1024,0,0,0,0,64,4.88,77.72,162.40158,P-GPS,,49.5
1022,520300,2026-01-09 20:15:32,0.0,5,7.424,0.0,0.0,0.0,21.1,5.8,-1.1,1024,1024,1024,1024,0,0,0,0,64,4.88,77.72,162.40158,P-GPS,,49.5
1023,520400,2026-01-09 20:15:32,0.0,5,7.424,0.0,0.0,0.0,21.1,5.9,-1.0,1024,1024,1024,1024,0,0,0,0,64,4.88,77.72,162.40158,P-GPS,,49.5
1024,520500,2026-01-09 20:15:32,0.0,5,7.424,0.0,0.0,0.0,21.1,6.0,-0.9,1024,1024,1024,1024,0,0,0,0,64,4.88,77.72,162.729664,P-GPS,,49.6
1025,520600,2026-01-09 20:15:32,0.0,5,7.424,0.0,0.0,0.0,21.1,5.9,-1.2,1024,1024,1024,1024,0,0,0,0,64,4.88,77.72,162.729664,P-GPS,,49.6
1026,520700,2026-01-09 20:15:32,0.0,5,7.424,0.0,0.0,0.0,21.1,5.8,-1.6,1024,1024,1024,1024,0,0,0,0,64,4.88,77.72,162.729664,P-GPS,,49.6
1027,520800,2026-01-09 20:15:32,0.0,5,7.424,0.0,0.0,0.0,21.1,5.6,-1.7,1024,1024,1024,1024,0,0,0,0,64,4.88,77.72,162.729664,P-GPS,,49.6
1028,520900,2026-01-09 20:15:32,0.0,5,7.424,0.0,0.0,0.0,21.1,5.6,-1.8,1024,1024,1024,1024,0,0,0,0,64,4.88,77.72,162.729664,P-GPS,,49.6
1029,521000,2026-01-09 20:15:33,0.0,5,7.424,0.0,0.0,0.0,21.1,5.7,-1.8,1024,1024,1024,1024,0,0,0,0,64,4.88,77.72,162.729664,P-GPS,,49.6
1030,521100,2026-01-09 20:15:33,0.0,5,7.425,0.0,0.0,0.0,21.1,5.7,-1.7,1024,1024,1024,1024,0,0,0,0,64,4.846,77.72,162.729664,P-GPS,,49.6
1031,521200,2026-01-09 20:15:33,0.0,5,7.425,0.0,0.0,0.0,21.1,5.7,-1.6,1024,1024,1024,1024,0,0,0,0,64,4.846,77.72,162.729664,P-GPS,,49.6
1032,521300,2026-01-09 20:15:33,0.0,5,7.425,0.0,0.0,0.0,21.1,5.7,-1.7,1024,1024,1024,1024,0,0,0,0,64,4.846,77.72,162.729664,P-GPS,,49.6
1033,521400,2026-01-09 20:15:33,0.0,5,7.425,0.0,0.0,0.0,21.1,5.7,-1.5,1024,1024,1024,1024,0,0,0,0,64,4.846,77.72,162.729664,P-GPS,,49.6
