time(millisecond),timestamp,speed(mph),gpslevel,voltage(v),xSpeed(mph),ySpeed(mph),zSpeed(mph),compass_heading(degrees),pitch(degrees),roll(degrees),rc_elevator,rc_aileron,rc_throttle,rc_rudder,rc_elevator(percent),rc_aileron(percent),rc_throttle(percent),rc_rudder(percent),battery_percent,current(A),battery_temperature(f),ascent(feet),flycState,message,height_above_takeoff(meters)
149200,2026-01-09 12:39:22,0.0,5,7.697,0.0,0.0,-4.250186,25.3,0.8,-1.5,1024,1024,1684,1024,0,0,100,0,89,5.977,68.0,26.902888,P-GPS,,8.2
149300,2026-01-09 12:39:22,0.0,5,7.697,0.0,0.0,-4.250186,25.3,0.6,-1.4,1024,1024,1684,1024,0,0,100,0,89,5.977,68.0,27.559056,P-GPS,,8.4
149400,2026-01-09 12:39:22,0.0,5,7.697,0.0,0.0,-4.250186,25.2,0.4,-1.2,1024,1024,1684,1024,0,0,100,0,89,5.977,68.0,28.215224,P-GPS,,8.6
149500,2026-01-09 12:39:22,0.0,5,7.697,0.0,0.0,-4.250186,25.2,0.0,-1.2,1024,1024,1684,1024,0,0,100,0,89,5.977,68.0,28.871392,P-GPS,,8.8
149600,2026-01-09 12:39:22,0.0,5,7.697,0.0,0.0,-4.250186,25.3,-0.3,-1.2,1024,1024,1684,1024,0,0,100,0,89,5.977,68.0,29.52756,P-GPS,,9.0
149700,2026-01-09 12:39:22,0.223694,5,7.697,-0.223694,0.0,-4.250186,25.5,-1.3,-0.2,1024,1024,1684,1024,0,0,100,0,89,5.977,68.0,30.183728,P-GPS,,9.2
149800,2026-01-09 12:39:22,0.0,5,7.697,0.0,0.0,-4.250186,25.4,-0.9,-0.9,1024,1024,1684,1024,0,0,100,0,89,5.977,68.0,30.839896,P-GPS,,9.4
149900,2026-01-09 12:39:22,0.0,5,7.735,0.0,0.0,-4.47388,25.4,-0.7,-1.3,1024,1024,1684,1024,0,0,100,0,89,5.468,68.0,31.496064,P-GPS,,9.6
150000,2026-01-09 12:39:22,0.0,5,7.735,0.0,0.0,-4.47388,25.4,-0.2,-1.2,1024,1024,1684,1024,0,0,100,0,89,5.468,68.0,32.152232,P-GPS,,9.8
150100,2026-01-09 12:39:23,0.0,5,7.735,0.0,0.0,-4.250186,25.5,0.0,-0.8,1024,1024,1684,1024,0,0,100,0,89,5.468,68.0,32.8084,P-GPS,,10.0
150200,2026-01-09 12:39:23,0.0,5,7.735,0.0,0.0,-4.47388,25.5,0.1,-0.7,1024,1024,1024,1024,0,0,0,0,89,5.468,68.0,33.464568,P-GPS,,10.2
150300,2026-01-09 12:39:23,0.0,5,7.735,0.0,0.0,-4.47388,25.5,0.0,-0.9,1024,1024,1024,1024,0,0,0,0,89,5.468,68.0,34.120736,P-GPS,,10.4
150400,2026-01-09 12:39:23,0.0,5,7.735,0.0,0.0,-4.250186,25.5,-0.6,-0.8,1024,1024,1024,1024,0,0,0,0,89,5.468,68.0,35.104988,P-GPS,,10.7
150500,2026-01-09 12:39:23,0.0,5,7.735,0.0,0.0,-3.802798,25.4,-0.6,-0.6,1024,1024,1024,1024,0,0,0,0,89,5.468,68.0,35.433072,P-GPS,,10.8
150600,2026-01-09 12:39:23,0.0,5,7.735,0.0,0.0,-3.131716,25.4,-0.8,-0.4,1024,1024,1024,1024,0,0,0,0,89,5.468,68.0,36.08924,P-GPS,,11.0
150700,2026-01-09 12:39:23,0.0,5,7.735,0.0,0.0,-2.460634,25.4,-0.9,-0.4,1024,1024,1024,1024,0,0,0,0,89,5.468,68.0,36.417324,P-GPS,,11.1
150800,2026-01-09 12:39:23,0.0,5,7.802,0.0,0.0,-1.565858,25.4,-0.7,-0.6,1024,1024,1024,1024,0,0,0,0,89,4.832,68.0,36.745408,P-GPS,,11.2
150900,2026-01-09 12:39:23,0.0,5,7.802,0.0,0.0,-0.894776,25.3,-0.2,-0.8,1024,1024,1024,1024,0,0,0,0,89,4.832,68.0,37.073492,P-GPS,,11.3
151000,2026-01-09 12:39:23,0.0,5,7.802,0.0,0.0,-0.447388,25.3,0.2,-1.4,1024,1024,1024,1024,0,0,0,0,89,4.832,68.0,37.401576,P-GPS,,11.4
151100,2026-01-09 12:39:23,0.0,5,7.802,0.0,0.0,-0.223694,25.2,-0.3,-1.7,1024,1024,1024,1024,0,0,0,0,89,4.832,68.0,37.401576,P-GPS,,11.4
151200,2026-01-09 12:39:24,0.0,5,7.802,0.0,0.0,0.0,25.3,-0.7,-1.6,1024,1024,1024,1024,0,0,0,0,89,4.832,68.0,37.401576,P-GPS,,11.4
151300,2026-01-09 12:39:24,0.0,5,7.802,0.0,0.0,0.0,25.4,-0.6,-1.6,1024,1024,1024,1024,0,0,0,0,89,4.832,68.0,37.401576,P-GPS,,11.4
151400,2026-01-09 12:39:24,0.0,5,7.802,0.0,0.0,0.0,25.4,-0.2,-1.8,1024,1024,1024,1024,0,0,0,0,89,4.832,68.0,37.72966,P-GPS,,11.5
151500,2026-01-09 12:39:24,0.0,5,7.802,0.0,0.0,0.0,25.4,0.2,-1.9,1024,1024,1024,1024,0,0,0,0,89,4.832,68.0,37.72966,P-GPS,,11.5
151600,2026-01-09 12:39:24,0.0,5,7.802,0.0,0.0,0.0,25.3,0.6,-2.3,1024,1024,1024,1024,0,0,0,0,89,4.832,68.0,37.72966,P-GPS,,11.5
151700,2026-01-09 12:39:24,0.0,5,7.802,0.0,0.0,0.0,25.3,0.7,-2.6,1024,1024,1024,1024,0,0,0,0,89,4.832,68.0,37.72966,P-GPS,,11.5
151800,2026-01-09 12:39:24,0.0,5,7.802,0.0,0.0,0.0,25.5,0.0,-2.5,1024,1024,1024,1024,0,0,0,0,89,4.832,68.0,38.057744,P-GPS,,11.6
151900,2026-01-09 12:39:24,0.0,5,7.802,0.0,0.0,0.0,25.5,-0.2,-3.0,1024,1024,1024,1024,0,0,0,0,89,4.832,68.0,38.057744,P-GPS,,11.6
152000,2026-01-09 12:39:24,0.0,5,7.802,0.0,0.0,0.0,25.5,0.0,-3.2,1024,1024,1024,1024,0,0,0,0,89,4.832,68.0,38.057744,P-GPS,,11.6
152100,2026-01-09 12:39:25,0.0,5,7.802,0.0,0.0,0.0,25.3,0.0,-3.5,1024,1024,1024,1024,0,0,0,0,89,4.832,68.0,38.057744,P-GPS,,11.6
152200,2026-01-09 12:39:25,0.0,5,7.802,-0.223694,0.0,0.0,25.3,0.1,-4.2,1024,1024,1024,1024,0,0,0,0,89,4.832,68.0,38.385828,P-GPS,,11.7
152300,2026-01-09 12:39:25,0.223694,5,7.802,-0.223694,0.0,0.0,25.3,-1.0,-4.8,1024,1024,1024,1024,0,0,0,0,89,4.832,68.0,38.385828,P-GPS,,11.7
152400,2026-01-09 12:39:25,0.223694,5,7.802,-0.223694,0.0,0.0,25.3,-1.5,-5.1,1024,1024,1024,1024,0,0,0,0,89,4.832,68.0,38.713912,P-GPS,,11.8
152500,2026-01-09 12:39:25,0.223694,5,7.802,-0.223694,0.0,0.0,25.4,-2.3,-5.6,1024,1024,1024,1024,0,0,0,0,89,4.832,68.0,38.713912,P-GPS,,11.8
152600,2026-01-09 12:39:25,0.0,5,7.802,0.0,0.0,0.0,25.3,-1.8,-6.0,1024,1024,1024,1024,0,0,0,0,89,4.832,68.0,39.041996,P-GPS,,11.9
152700,2026-01-09 12:39:25,0.0,5,7.802,0.0,0.0,0.0,25.6,-2.1,-6.1,1024,1024,1024,1024,0,0,0,0,89,4.832,68.0,39.041996,P-GPS,,11.9
152800,2026-01-09 12:39:25,0.0,5,7.802,0.0,0.0,0.0,25.8,-1.3,-5.6,1024,1024,1024,1024,0,0,0,0,89,4.832,68.0,39.041996,P-GPS,,11.9
152900,2026-01-09 12:39:25,0.0,5,7.779,0.0,0.0,0.0,25.8,-0.5,-5.5,1024,1024,1024,1024,0,0,0,0,89,4.053,68.0,39.041996,P-GPS,,11.9
153000,2026-01-09 12:39:25,0.223694,5,7.779,0.223694,0.0,0.0,25.7,-0.3,-5.1,1024,1024,1024,1024,0,0,0,0,89,4.053,68.0,39.041996,P-GPS,,11.9
153100,2026-01-09 12:39:25,0.223694,5,7.779,0.223694,0.0,0.0,25.6,0.5,-4.5,1024,1024,1024,1024,0,0,0,0,89,4.053,68.0,39.041996,P-GPS,,11.9
153200,2026-01-09 12:39:26,0.223694,5,7.779,0.223694,0.0,0.0,25.6,1.0,-3.8,1024,1024,1024,1024,0,0,0,0,89,4.053,68.0,39.041996,P-GPS,,11.9
153300,2026-01-09 12:39:26,0.223694,5,7.779,0.223694,0.0,0.0,25.6,1.1,-3.1,1024,1024,1024,1024,0,0,0,0,89,4.053,68.0,38.713912,P-GPS,,11.8
153400,2026-01-09 12:39:26,0.223694,5,7.779,0.223694,0.0,0.0,25.5,1.7,-2.6,1024,1024,1024,1024,0,0,0,0,89,4.053,68.0,38.713912,P-GPS,,11.8
153500,2026-01-09 12:39:26,0.223694,5,7.779,0.223694,0.0,0.0,25.7,1.9,-1.6,1024,1024,1024,1024,0,0,0,0,89,4.053,68.0,38.713912,P-GPS,,11.8
153600,2026-01-09 12:39:26,0.223694,5,7.779,0.223694,0.0,0.0,25.6,2.2,-1.6,1024,1024,1024,1024,0,0,0,0,89,4.053,68.0,38.713912,P-GPS,,11.8
153700,2026-01-09 12:39:26,0.223694,5,7.779,0.223694,0.0,0.0,25.6,2.0,-2.3,1024,1024,1024,1024,0,0,0,0,89,4.053,68.0,38.713912,P-GPS,,11.8
153800,2026-01-09 12:39:26,0.0,5,7.779,0.0,0.0,0.0,25.5,1.3,-2.3,1024,1024,1024,1024,0,0,0,0,89,4.053,68.0,38.713912,P-GPS,,11.8
153900,2026-01-09 12:39:26,0.0,5,7.779,0.0,0.0,0.0,25.0,1.8,-2.8,1024,1024,1024,1024,0,0,0,0,89,4.053,68.0,38.713912,P-GPS,,11.8
154000,2026-01-09 12:39:26,0.0,5,7.757,0.0,0.0,0.0,24.8,0.9,-3.3,1024,1024,1024,1024,0,0,0,0,89,4.952,68.0,38.385828,P-GPS,,11.7
154100,2026-01-09 12:39:26,0.223694,5,7.757,0.0,-0.223694,0.0,25.1,0.7,-2.2,1024,1024,1024,1024,0,0,0,0,89,4.952,68.0,38.385828,P-GPS,,11.7
154200,2026-01-09 12:39:27,0.223694,5,7.757,0.0,-0.223694,0.0,25.4,-0.2,-1.4,1024,1024,1024,1024,0,0,0,0,89,4.952,68.0,38.385828,P-GPS,,11.7
154300,2026-01-09 12:39:27,0.223694,5,7.757,0.0,-0.223694,0.0,25.5,-0.5,-0.9,1024,1024,1024,1024,0,0,0,0,89,4.952,68.0,38.385828,P-GPS,,11.7
154400,2026-01-09 12:39:27,0.223694,5,7.757,0.0,-0.223694,0.0,25.5,-1.4,-1.1,1024,1024,1024,1024,0,0,0,0,89,4.952,68.0,38.385828,P-GPS,,11.7
154500,2026-01-09 12:39:27,0.223694,5,7.757,0.0,-0.223694,0.0,25.5,-1.8,-1.7,1024,1024,1024,1024,0,0,0,0,89,4.952,68.0,38.385828,P-GPS,,11.7
154600,2026-01-09 12:39:27,0.0,5,7.757,0.0,0.0,0.0,25.5,-1.6,-2.0,1024,1024,1024,1024,0,0,0,0,89,4.952,68.0,38.385828,P-GPS,,11.7
154700,2026-01-09 12:39:27,0.0,5,7.757,0.0,0.0,0.0,25.5,-1.5,-1.9,1024,1024,1024,1024,0,0,0,0,89,4.952,68.0,38.385828,P-GPS,,11.7
154800,2026-01-09 12:39:27,0.0,5,7.757,0.0,0.0,0.0,25.5,-1.5,-1.8,1024,1024,1024,1024,0,0,0,0,89,4.952,68.0,38.385828,P-GPS,,11.7
154900,2026-01-09 12:39:27,0.0,5,7.757,0.0,0.0,0.0,25.6,-1.7,-2.0,1024,1024,1024,1024,0,0,0,0,89,4.952,68.0,38.057744,P-GPS,,11.6
155000,2026-01-09 12:39:27,0.0,5,7.757,0.0,0.0,0.0,25.5,-1.1,-2.1,1024,1024,1024,1024,0,0,0,0,89,4.952,68.0,38.057744,P-GPS,,11.6
155100,2026-01-09 12:39:27,0.0,5,7.734,0.0,0.0,0.0,25.6,-0.8,-1.5,1024,1024,1024,1024,0,0,0,0,89,5.215,68.18,38.057744,P-GPS,,11.6
155200,2026-01-09 12:39:28,0.0,5,7.734,0.0,0.0,0.0,25.5,-0.3,-2.1,1024,1024,1024,1024,0,0,0,0,89,5.215,68.18,38.057744,P-GPS,,11.6
155300,2026-01-09 12:39:28,0.0,5,7.734,0.0,0.0,0.0,25.6,-0.2,-1.3,1024,1024,1024,1024,0,0,0,0,89,5.215,68.18,38.057744,P-GPS,,11.6
155400,2026-01-09 12:39:28,0.0,5,7.734,0.0,0.0,0.0,25.5,-0.6,-1.4,1024,1024,1024,1024,0,0,0,0,89,5.215,68.18,38.057744,P-GPS,,11.6
155500,2026-01-09 12:39:28,0.0,5,7.734,0.0,0.0,0.0,25.4,-0.7,-1.9,1024,1024,1024,1024,0,0,0,0,89,5.215,68.18,37.72966,P-GPS,,11.5
155600,2026-01-09 12:39:28,0.0,5,7.734,0.0,0.0,0.0,25.4,-1.0,-2.3,1024,1024,1024,1024,0,0,0,0,89,5.215,68.18,37.72966,P-GPS,,11.5
155700,2026-01-09 12:39:28,0.0,5,7.734,0.0,0.0,0.0,25.3,-1.3,-2.4,1024,1024,1024,1024,0,0,0,0,89,5.215,68.18,37.72966,P-GPS,,11.5
155800,2026-01-09 12:39:28,0.0,5,7.734,0.0,0.0,0.0,25.4,-1.5,-2.1,1024,1024,1024,1024,0,0,0,0,89,5.215,68.18,37.72966,P-GPS,,11.5
155900,2026-01-09 12:39:28,0.0,5,7.734,0.0,0.0,0.0,25.4,-1.5,-1.9,1024,1024,1024,1024,0,0,0,0,89,5.215,68.18,37.72966,P-GPS,,11.5
156000,2026-01-09 12:39:28,0.0,5,7.734,0.0,0.0,0.0,25.3,-1.6,-2.2,1024,1024,1024,1024,0,0,0,0,89,5.215,68.18,37.72966,P-GPS,,11.5
156100,2026-01-09 12:39:29,0.0,5,7.734,0.0,0.0,0.0,25.6,-2.5,-1.7,1024,1024,1024,1024,0,0,0,0,89,5.215,68.18,37.72966,P-GPS,,11.5
156200,2026-01-09 12:39:29,0.0,5,7.761,0.0,0.0,0.0,25.6,-2.5,-1.4,1024,1024,1024,1024,0,0,0,0,89,4.873,68.0,37.72966,P-GPS,,11.5
156300,2026-01-09 12:39:29,0.0,5,7.761,0.0,0.0,0.0,25.5,-1.9,-1.7,1024,1024,1024,1024,0,0,0,0,89,4.873,68.0,37.72966,P-GPS,,11.5
156400,2026-01-09 12:39:29,0.0,5,7.761,0.0,0.0,0.0,25.5,-1.5,-1.5,1024,1024,1024,1024,0,0,0,0,89,4.873,68.0,37.72966,P-GPS,,11.5
156500,2026-01-09 12:39:29,0.0,5,7.761,0.0,0.0,0.0,25.4,-1.8,-1.3,1024,1024,1024,1024,0,0,0,0,89,4.873,68.0,37.72966,P-GPS,,11.5
156600,2026-01-09 12:39:29,0.0,5,7.761,0.0,0.0,0.0,25.5,-1.6,-1.0,1024,1024,1024,1024,0,0,0,0,89,4.873,68.0,37.72966,P-GPS,,11.5
156700,2026-01-09 12:39:29,0.0,5,7.761,0.0,0.0,0.0,25.5,-1.5,-1.5,1024,1024,1024,1024,0,0,0,0,89,4.873,68.0,37.72966,P-GPS,,11.5
156800,2026-01-09 12:39:29,0.0,5,7.761,0.0,0.0,0.0,25.5,-1.4,-2.1,1024,1024,1024,1024,0,0,0,0,89,4.873,68.0,37.401576,P-GPS,,11.4
156900,2026-01-09 12:39:29,0.0,5,7.761,0.0,0.0,0.0,25.4,-1.2,-2.2,1024,1024,1024,1024,0,0,0,0,89,4.873,68.0,37.401576,P-GPS,,11.4
157000,2026-01-09 12:39:29,0.0,5,7.761,0.0,0.0,0.0,25.4,-1.2,-2.6,1024,1024,1024,1024,0,0,0,0,89,4.873,68.0,37.401576,P-GPS,,11.4
157100,2026-01-09 12:39:29,0.0,5,7.761,0.0,0.0,0.0,25.3,-0.6,-3.0,1024,1024,1024,1024,0,0,0,0,89,4.873,68.0,37.401576,P-GPS,,11.4
157200,2026-01-09 12:39:30,0.0,5,7.761,0.0,0.0,0.0,25.3,-0.1,-2.6,1024,1024,1024,1024,0,0,0,0,89,4.873,68.0,37.401576,P-GPS,,11.4
157300,2026-01-09 12:39:30,0.0,5,7.747,0.0,0.0,0.0,25.4,-0.1,-2.2,1024,1024,1024,1024,0,0,0,0,89,4.966,68.0,37.401576,P-GPS,,11.4
157400,2026-01-09 12:39:30,0.0,5,7.747,0.0,0.0,0.0,25.6,-0.5,-1.3,1024,1024,1024,1024,0,0,0,0,89,4.966,68.0,37.073492,P-GPS,,11.3
157500,2026-01-09 12:39:30,0.0,5,7.747,0.0,0.0,0.0,25.6,-0.5,-0.7,1024,1024,1024,1024,0,0,0,0,89,4.966,68.0,37.073492,P-GPS,,11.3
157600,2026-01-09 12:39:30,0.0,5,7.747,0.0,0.0,0.0,25.5,-0.7,-0.9,1024,1024,1024,1024,0,0,0,0,89,4.966,68.0,37.073492,P-GPS,,11.3
157700,2026-01-09 12:39:30,0.0,5,7.747,0.0,0.0,0.0,25.4,-0.5,-1.3,1024,1024,1024,1024,0,0,0,0,89,4.966,68.0,37.073492,P-GPS,,11.3
157800,2026-01-09 12:39:30,0.0,5,7.747,0.0,0.0,0.0,25.4,-0.6,-1.5,1024,1024,1024,1024,0,0,0,0,89,4.966,68.0,37.073492,P-GPS,,11.3
157900,2026-01-09 12:39:30,0.0,5,7.747,0.0,0.0,0.0,25.5,-0.7,-1.5,1024,1024,1024,1024,0,0,0,0,89,4.966,68.0,37.073492,P-GPS,,11.3
158000,2026-01-09 12:39:30,0.0,5,7.747,0.0,0.0,0.0,25.4,-0.7,-1.5,1024,1024,1024,1024,0,0,0,0,89,4.966,68.0,37.073492,P-GPS,,11.3
158100,2026-01-09 12:39:30,0.0,5,7.747,0.0,0.0,0.0,25.5,-1.0,-1.4,1024,1024,1024,1024,0,0,0,0,89,4.966,68.0,36.745408,P-GPS,,11.2
158200,2026-01-09 12:39:31,0.0,5,7.747,0.0,0.0,0.0,25.4,-0.8,-1.9,1024,1024,1024,1024,0,0,0,0,89,4.966,68.0,36.745408,P-GPS,,11.2
158300,2026-01-09 12:39:31,0.0,5,7.747,0.0,0.0,0.0,25.5,-0.4,-2.2,1024,1024,1024,1024,0,0,0,0,89,4.966,68.0,36.745408,P-GPS,,11.2
158400,2026-01-09 12:39:31,0.0,5,7.755,0.0,0.0,0.0,25.4,-0.1,-2.1,1024,1024,1024,1024,0,0,0,0,89,4.66,68.18,36.745408,P-GPS,,11.2
158500,2026-01-09 12:39:31,0.0,5,7.755,0.0,0.0,0.0,25.4,-0.2,-2.1,1024,1024,1024,1024,0,0,0,0,89,4.66,68.18,36.745408,P-GPS,,11.2
158600,2026-01-09 12:39:31,0.0,5,7.755,0.0,0.0,0.0,25.4,-0.3,-2.0,1024,1024,1024,1024,0,0,0,0,89,4.66,68.18,36.745408,P-GPS,,11.2
158700,2026-01-09 12:39:31,0.0,5,7.755,0.0,0.0,0.0,25.5,-0.5,-1.9,1024,1024,1024,1024,0,0,0,0,89,4.66,68.18,36.745408,P-GPS,,11.2
158800,2026-01-09 12:39:31,0.0,5,7.755,0.0,0.0,0.0,25.5,-0.8,-1.7,1024,1024,1024,1024,0,0,0,0,89,4.66,68.18,36.745408,P-GPS,,11.2
158900,2026-01-09 12:39:31,0.0,5,7.755,0.0,0.0,0.0,25.5,-1.1,-1.6,1024,1024,1024,1024,0,0,0,0,89,4.66,68.18,36.417324,P-GPS,,11.1
159000,2026-01-09 12:39:31,0.0,5,7.755,0.0,0.0,0.0,25.4,-1.2,-1.6,1024,1024,1024,1024,0,0,0,0,89,4.66,68.18,36.417324,P-GPS,,11.1
159100,2026-01-09 12:39:31,0.0,5,7.755,0.0,0.0,0.0,25.4,-1.1,-1.5,1024,1024,1024,1024,0,0,0,0,89,4.66,68.18,36.417324,P-GPS,,11.1
159200,2026-01-09 12:39:32,0.0,5,7.755,0.0,0.0,0.0,25.4,-1.3,-1.5,1024,1024,1024,1024,0,0,0,0,89,4.66,68.18,36.417324,P-GPS,,11.1
159300,2026-01-09 12:39:32,0.0,5,7.755,0.0,0.0,0.0,25.4,-1.5,-1.6,1024,1024,1024,1024,0,0,0,0,89,4.66,68.18,36.417324,P-GPS,,11.1
159400,2026-01-09 12:39:32,0.0,5,7.755,0.0,0.0,0.0,25.4,-1.5,-1.7,1024,1024,1024,1024,0,0,0,0,89,4.66,68.18,36.417324,P-GPS,,11.1
159500,2026-01-09 12:39:32,0.0,5,7.752,0.0,0.0,0.0,25.3,-1.1,-1.5,1024,1024,1024,1024,0,0,0,0,89,4.679,68.18,36.417324,P-GPS,,11.1
159600,2026-01-09 12:39:32,0.0,5,7.752,0.0,0.0,0.0,25.3,-1.1,-1.3,1024,1024,1024,1024,0,0,0,0,89,4.679,68.18,36.417324,P-GPS,,11.1
159700,2026-01-09 12:39:32,0.0,5,7.752,0.0,0.0,0.0,25.3,-0.5,-1.5,1024,1024,1024,1024,0,0,0,0,89,4.679,68.18,36.08924,P-GPS,,11.0
159800,2026-01-09 12:39:32,0.0,5,7.752,0.0,0.0,0.0,25.3,-0.3,-1.6,1024,1024,1024,1024,0,0,0,0,89,4.679,68.18,36.08924,P-GPS,,11.0
159900,2026-01-09 12:39:32,0.0,5,7.752,0.0,0.0,0.0,25.3,-0.1,-1.8,1024,1024,1024,1024,0,0,0,0,89,4.679,68.18,36.08924,P-GPS,,11.0
160000,2026-01-09 12:39:32,0.0,5,7.752,0.0,0.0,0.0,25.5,-0.2,-1.6,1024,1024,1024,1024,0,0,0,0,89,4.679,68.18,36.08924,P-GPS,,11.0
160100,2026-01-09 12:39:32,0.0,5,7.752,0.0,0.0,0.0,25.5,0.0,-1.4,1024,1024,1024,1024,0,0,0,0,89,4.679,68.18,36.08924,P-GPS,,11.0
160200,2026-01-09 12:39:33,0.0,5,7.752,0.0,0.0,0.0,25.4,0.2,-1.7,1024,1024,1024,1024,0,0,0,0,89,4.679,68.18,36.08924,P-GPS,,11.0
160300,2026-01-09 12:39:33,0.0,5,7.752,0.0,0.0,0.0,25.4,0.2,-1.6,1024,1024,1024,1024,0,0,0,0,89,4.679,68.18,36.08924,P-GPS,,11.0
160400,2026-01-09 12:39:33,0.0,5,7.752,0.0,0.0,0.0,25.5,-0.2,-1.5,1024,1024,1024,1024,0,0,0,0,89,4.679,68.18,35.761156,P-GPS,,10.9
160500,2026-01-09 12:39:33,0.0,5,7.752,0.0,0.0,0.0,25.5,-0.4,-1.6,1024,1024,1024,1024,0,0,0,0,89,4.679,68.18,35.761156,P-GPS,,10.9
160600,2026-01-09 12:39:33,0.0,5,7.753,0.0,0.0,0.0,25.5,-0.8,-1.5,1024,1024,1024,1024,0,0,0,0,89,4.823,68.18,35.761156,P-GPS,,10.9
160700,2026-01-09 12:39:33,0.0,5,7.753,0.0,0.0,0.0,25.6,-0.9,-0.9,1024,1024,1024,1024,0,0,0,0,89,4.823,68.18,35.761156,P-GPS,,10.9
160800,2026-01-09 12:39:33,0.0,5,7.753,0.0,0.0,0.0,25.5,-0.6,-1.1,1024,1024,1024,1024,0,0,0,0,89,4.823,68.18,35.761156,P-GPS,,10.9
160900,2026-01-09 12:39:33,0.0,5,7.753,0.0,0.0,0.0,25.4,-0.4,-1.3,1024,1024,1024,1024,0,0,0,0,89,4.823,68.18,35.761156,P-GPS,,10.9
161000,2026-01-09 12:39:33,0.0,5,7.753,0.0,0.0,0.0,25.3,-0.1,-1.4,1024,1024,1024,1024,0,0,0,0,89,4.823,68.18,35.761156,P-GPS,,10.9
161100,2026-01-09 12:39:33,0.0,5,7.753,0.0,0.0,0.0,25.5,-0.4,-1.1,1024,1024,1024,1024,0,0,0,0,89,4.823,68.18,35.761156,P-GPS,,10.9
161200,2026-01-09 12:39:34,0.0,5,7.753,0.0,0.0,0.0,25.6,-0.6,-1.1,1024,1024,1024,1024,0,0,0,0,89,4.823,68.18,35.761156,P-GPS,,10.9
161300,2026-01-09 12:39:34,0.0,5,7.753,0.0,0.0,0.0,25.6,-0.2,-1.0,1024,1024,1024,1024,0,0,0,0,89,4.823,68.18,35.761156,P-GPS,,10.9
161400,2026-01-09 12:39:34,0.0,5,7.753,0.0,0.0,0.0,25.6,0.2,-1.3,1024,1024,1024,1024,0,0,0,0,89,4.823,68.18,35.761156,P-GPS,,10.9
161500,2026-01-09 12:39:34,0.0,5,7.753,0.0,0.0,0.0,25.5,0.5,-1.5,1024,1024,1024,1024,0,0,0,0,89,4.823,68.18,35.761156,P-GPS,,10.9
161600,2026-01-09 12:39:34,0.0,5,7.753,0.0,0.0,0.0,25.3,0.3,-2.1,1024,1024,1024,1024,0,0,0,0,89,4.823,68.18,35.761156,P-GPS,,10.9
161700,2026-01-09 12:39:34,0.0,5,7.745,0.0,0.0,0.0,25.2,0.1,-2.3,1024,1024,1024,1024,0,0,0,0,88,4.763,68.18,35.761156,P-GPS,,10.9
161800,2026-01-09 12:39:34,0.0,5,7.745,0.0,0.0,0.0,25.3,-0.3,-2.0,1024,1024,1024,1024,0,0,0,0,88,4.763,68.18,35.761156,P-GPS,,10.9
161900,2026-01-09 12:39:34,0.0,5,7.745,0.0,0.0,0.0,25.4,-0.6,-1.8,1024,1024,1024,1024,0,0,0,0,88,4.763,68.18,35.433072,P-GPS,,10.8
162000,2026-01-09 12:39:34,0.0,5,7.745,0.0,0.0,0.0,25.6,-0.7,-1.4,1024,1024,1024,1024,0,0,0,0,88,4.763,68.18,35.433072,P-GPS,,10.8
162100,2026-01-09 12:39:34,0.0,5,7.745,0.0,0.0,0.0,25.6,-0.6,-0.9,1024,1024,1024,1024,0,0,0,0,88,4.763,68.18,35.433072,P-GPS,,10.8
162200,2026-01-09 12:39:35,0.0,5,7.745,0.0,0.0,0.0,25.5,-0.6,-1.1,1024,1024,1024,1024,0,0,0,0,88,4.763,68.18,35.433072,P-GPS,,10.8
162300,2026-01-09 12:39:35,0.0,5,7.745,0.0,0.0,0.0,25.4,-0.8,-1.2,1024,1024,1024,1024,0,0,0,0,88,4.763,68.18,35.433072,P-GPS,,10.8
162400,2026-01-09 12:39:35,0.0,5,7.745,0.0,0.0,0.0,25.4,-0.7,-0.9,1024,1024,1024,1024,0,0,0,0,88,4.763,68.18,35.433072,P-GPS,,10.8
162500,2026-01-09 12:39:35,0.0,5,7.745,0.0,0.0,0.0,25.4,-0.4,-0.4,1024,1024,1024,1024,0,0,0,0,88,4.763,68.18,35.433072,P-GPS,,10.8
162600,2026-01-09 12:39:35,0.0,5,7.745,0.0,0.0,0.0,25.4,-0.8,-0.7,1024,1024,1024,1024,0,0,0,0,88,4.763,68.18,35.433072,P-GPS,,10.8
162700,2026-01-09 12:39:35,0.0,5,7.745,0.0,0.0,0.0,25.4,-0.7,-0.8,1024,1024,1024,1024,0,0,0,0,88,4.763,68.18,35.433072,P-GPS,,10.8
162800,2026-01-09 12:39:35,0.0,5,7.752,0.0,0.0,0.0,25.5,-0.3,-1.0,1024,1024,1024,1024,0,0,0,0,88,4.542,68.18,35.433072,P-GPS,,10.8
162900,2026-01-09 12:39:35,0.0,5,7.752,0.0,0.0,0.0,25.6,-0.7,-0.9,1024,1024,1024,1024,0,0,0,0,88,4.542,68.18,35.433072,P-GPS,,10.8
163000,2026-01-09 12:39:35,0.0,5,7.752,0.0,0.0,0.0,25.6,-0.4,-1.6,1024,1024,1024,1024,0,0,0,0,88,4.542,68.18,35.433072,P-GPS,,10.8
163100,2026-01-09 12:39:36,0.0,5,7.752,0.0,0.0,0.0,25.6,-0.4,-1.7,1024,1024,1024,1024,0,0,0,0,88,4.542,68.18,35.433072,P-GPS,,10.8
163200,2026-01-09 12:39:36,0.0,5,7.752,0.0,0.0,0.0,25.7,0.0,-1.7,1024,1024,1024,1024,0,0,0,0,88,4.542,68.18,35.433072,P-GPS,,10.8
163300,2026-01-09 12:39:36,0.0,5,7.752,0.0,0.0,0.0,25.7,0.2,-1.7,1024,1024,1024,1024,0,0,0,0,88,4.542,68.18,35.433072,P-GPS,,10.8
163400,2026-01-09 12:39:36,0.0,5,7.752,0.0,0.0,0.0,25.6,0.6,-1.8,1024,1024,1024,1024,0,0,0,0,88,4.542,68.18,35.433072,P-GPS,,10.8
163500,2026-01-09 12:39:36,0.0,5,7.752,0.0,0.0,0.0,25.5,0.6,-1.6,1024,1024,1024,1024,0,0,0,0,88,4.542,68.18,35.433072,P-GPS,,10.8
163600,2026-01-09 12:39:36,0.0,5,7.752,0.0,0.0,0.0,25.4,0.5,-1.6,1024,1024,1024,1024,0,0,0,0,88,4.542,68.18,35.433072,P-GPS,,10.8
163700,2026-01-09 12:39:36,0.0,5,7.752,0.0,0.0,0.0,25.4,0.6,-1.5,1024,1024,1024,1024,0,0,0,0,88,4.542,68.18,35.433072,P-GPS,,10.8
163800,2026-01-09 12:39:36,0.0,5,7.752,0.0,0.0,0.0,25.3,0.2,-1.4,1024,1024,1024,1024,0,0,0,0,88,4.542,68.18,35.433072,P-GPS,,10.8
163900,2026-01-09 12:39:36,0.0,5,7.752,0.0,0.0,0.0,25.4,0.1,-0.9,1024,1024,1024,1024,0,0,0,0,88,4.542,68.18,35.433072,P-GPS,,10.8
164000,2026-01-09 12:39:36,0.0,5,7.752,0.0,0.0,0.0,25.4,0.3,-0.7,1024,1024,1024,1024,0,0,0,0,88,4.542,68.18,35.433072,P-GPS,,10.8
164100,2026-01-09 12:39:36,0.0,5,7.752,0.0,0.0,0.0,25.1,0.0,-0.7,1024,1024,1024,1024,0,0,0,0,88,4.542,68.18,35.433072,P-GPS,,10.8
164200,2026-01-09 12:39:37,0.0,5,7.752,0.0,0.0,0.0,25.1,0.0,-0.6,1024,1024,1024,1024,0,0,0,0,88,4.542,68.18,35.433072,P-GPS,,10.8
164300,2026-01-09 12:39:37,0.0,5,7.752,0.0,0.0,0.0,25.1,-0.1,-0.9,1024,1024,1024,1024,0,0,0,0,88,4.542,68.18,35.433072,P-GPS,,10.8
164400,2026-01-09 12:39:37,0.223694,5,7.752,0.0,-0.223694,0.0,25.1,-0.3,-0.7,1024,1024,1024,1024,0,0,0,0,88,4.542,68.18,35.433072,P-GPS,,10.8
164500,2026-01-09 12:39:37,0.223694,5,7.752,0.0,-0.223694,0.0,25.3,-1.0,1.1,1024,1024,1024,1024,0,0,0,0,88,4.542,68.18,35.761156,P-GPS,,10.9
164600,2026-01-09 12:39:37,0.0,5,7.752,0.0,0.0,0.0,25.4,-1.3,1.1,1024,1024,1024,1024,0,0,0,0,88,4.542,68.18,35.761156,P-GPS,,10.9
164700,2026-01-09 12:39:37,0.0,5,7.752,0.0,0.0,0.0,25.4,-1.9,0.9,1024,1024,1024,1024,0,0,0,0,88,4.542,68.18,35.761156,P-GPS,,10.9
164800,2026-01-09 12:39:37,0.0,5,7.752,0.0,0.0,0.0,25.4,-1.8,0.3,1024,1024,1024,1024,0,0,0,0,88,4.542,68.18,35.761156,P-GPS,,10.9
164900,2026-01-09 12:39:37,0.0,5,7.752,0.0,0.0,0.0,25.5,-1.8,0.0,1024,1024,1024,1024,0,0,0,0,88,4.542,68.18,35.761156,P-GPS,,10.9
165000,2026-01-09 12:39:37,0.0,5,7.756,0.0,0.0,0.0,25.5,-1.5,0.0,1024,1024,1024,1024,0,0,0,0,88,4.547,68.36,35.761156,P-GPS,,10.9
165100,2026-01-09 12:39:38,0.0,5,7.756,0.0,0.0,0.0,25.4,-0.8,0.0,1024,1024,1024,1024,0,0,0,0,88,4.547,68.36,35.761156,P-GPS,,10.9
165200,2026-01-09 12:39:38,0.0,5,7.756,0.0,0.0,0.0,25.3,-0.3,-0.1,1024,1024,1024,1024,0,0,0,0,88,4.547,68.36,35.761156,P-GPS,,10.9
165300,2026-01-09 12:39:38,0.0,5,7.756,0.0,0.0,0.0,25.4,-0.1,0.0,1024,1024,1024,1024,0,0,0,0,88,4.547,68.36,35.761156,P-GPS,,10.9
165400,2026-01-09 12:39:38,0.0,5,7.756,0.0,0.0,0.0,25.5,0.0,0.0,1024,1024,1024,1024,0,0,0,0,88,4.547,68.36,35.761156,P-GPS,,10.9
165500,2026-01-09 12:39:38,0.0,5,7.756,0.0,0.0,0.0,25.6,0.1,0.0,1024,1024,1024,1024,0,0,0,0,88,4.547,68.36,35.433072,P-GPS,,10.8
165600,2026-01-09 12:39:38,0.0,5,7.756,0.0,0.0,0.0,25.6,0.3,0.0,1024,1024,1024,1024,0,0,0,0,88,4.547,68.36,35.433072,P-GPS,,10.8
165700,2026-01-09 12:39:38,0.0,5,7.756,0.0,0.0,0.0,25.6,0.5,-0.1,1024,1024,1024,1024,0,0,0,0,88,4.547,68.36,35.433072,P-GPS,,10.8
165800,2026-01-09 12:39:38,0.0,5,7.756,0.0,0.0,0.0,25.6,0.3,-0.4,1024,1024,1024,1024,0,0,0,0,88,4.547,68.36,35.433072,P-GPS,,10.8
165900,2026-01-09 12:39:38,0.0,5,7.756,0.0,0.0,0.0,25.6,0.3,-0.3,1024,1024,1024,1024,0,0,0,0,88,4.547,68.36,35.433072,P-GPS,,10.8
166000,2026-01-09 12:39:38,0.0,5,7.756,0.0,0.0,0.0,25.7,0.0,-0.6,1024,1024,1024,1024,0,0,0,0,88,4.547,68.36,35.433072,P-GPS,,10.8
166100,2026-01-09 12:39:38,0.0,5,7.756,0.0,0.0,0.0,25.7,-0.1,-0.7,1024,1024,1024,1024,0,0,0,0,88,4.547,68.36,35.433072,P-GPS,,10.8
166200,2026-01-09 12:39:39,0.0,5,7.756,0.0,0.0,0.0,25.6,0.1,-1.0,1024,1024,1024,1024,0,0,0,0,88,4.547,68.36,35.433072,P-GPS,,10.8
166300,2026-01-09 12:39:39,0.0,5,7.756,0.0,0.0,0.0,25.5,0.0,-1.6,1024,1024,1024,1024,0,0,0,0,88,4.547,68.36,35.433072,P-GPS,,10.8
166400,2026-01-09 12:39:39,0.0,5,7.756,0.0,0.0,0.0,25.5,-0.1,-1.8,1024,1024,1024,1024,0,0,0,0,88,4.547,68.36,35.433072,P-GPS,,10.8
166500,2026-01-09 12:39:39,0.0,5,7.756,0.0,0.0,0.0,25.6,-0.4,-2.0,1024,1024,1024,1024,0,0,0,0,88,4.547,68.36,35.433072,P-GPS,,10.8
166600,2026-01-09 12:39:39,0.0,5,7.756,0.0,0.0,0.0,25.5,0.4,-1.7,1024,1024,1024,1024,0,0,0,0,88,4.547,68.36,35.104988,P-GPS,,10.7
166700,2026-01-09 12:39:39,0.0,5,7.756,0.0,0.0,0.0,25.4,0.9,-2.3,1024,1024,1024,1024,0,0,0,0,88,4.547,68.36,35.104988,P-GPS,,10.7
166800,2026-01-09 12:39:39,0.0,5,7.756,0.0,0.0,0.0,25.4,0.1,-2.7,1024,1024,1024,1024,0,0,0,0,88,4.547,68.36,35.104988,P-GPS,,10.7
166900,2026-01-09 12:39:39,0.0,5,7.752,0.0,0.0,0.0,25.4,0.0,-2.8,1024,1024,1024,1024,0,0,0,0,88,4.569,68.36,35.433072,P-GPS,,10.8
167000,2026-01-09 12:39:39,0.0,5,7.752,0.0,0.0,0.0,25.4,-0.1,-3.0,1024,1024,1024,1024,0,0,0,0,88,4.569,68.36,35.433072,P-GPS,,10.8
167100,2026-01-09 12:39:40,0.0,5,7.752,0.0,0.0,0.0,25.4,-0.1,-3.0,1024,1024,1024,1024,0,0,0,0,88,4.569,68.36,35.433072,P-GPS,,10.8
167200,2026-01-09 12:39:40,0.0,5,7.752,0.0,0.0,0.0,25.4,0.0,-2.7,1024,1024,1024,1024,0,0,0,0,88,4.569,68.36,35.433072,P-GPS,,10.8
167300,2026-01-09 12:39:40,0.0,5,7.752,0.0,0.0,0.0,25.6,-0.2,-2.6,1024,1024,1024,1024,0,0,0,0,88,4.569,68.36,35.433072,P-GPS,,10.8
167400,2026-01-09 12:39:40,0.0,5,7.752,0.0,0.0,0.0,25.8,-0.3,-3.0,1024,1024,1024,1024,0,0,0,0,88,4.569,68.36,35.433072,P-GPS,,10.8
167500,2026-01-09 12:39:40,0.0,5,7.752,0.0,0.0,0.0,25.8,-0.6,-3.0,1024,1024,1024,1024,0,0,0,0,88,4.569,68.36,35.433072,P-GPS,,10.8
167600,2026-01-09 12:39:40,0.0,5,7.752,0.0,0.0,0.0,25.7,-0.7,-2.8,1024,1024,1024,1024,0,0,0,0,88,4.569,68.36,35.433072,P-GPS,,10.8
167700,2026-01-09 12:39:40,0.0,5,7.752,0.0,0.0,0.0,25.6,-0.1,-2.8,1024,1024,1024,1024,0,0,0,0,88,4.569,68.36,35.433072,P-GPS,,10.8
167800,2026-01-09 12:39:40,0.0,5,7.752,0.0,0.0,0.0,25.5,0.1,-2.8,1024,1024,1024,1024,0,0,0,0,88,4.569,68.36,35.433072,P-GPS,,10.8
167900,2026-01-09 12:39:40,0.0,5,7.748,0.0,0.0,0.0,25.5,0.5,-2.8,1024,1024,1024,1024,0,0,0,0,88,4.726,68.54,35.433072,P-GPS,,10.8
168000,2026-01-09 12:39:40,0.0,5,7.748,0.0,0.0,0.0,25.5,1.0,-2.6,1024,1024,1024,1024,0,0,0,0,88,4.726,68.54,35.433072,P-GPS,,10.8
168100,2026-01-09 12:39:40,0.0,5,7.748,0.0,0.0,0.0,25.5,1.0,-2.6,1024,1024,1024,1024,0,0,0,0,88,4.726,68.54,35.433072,P-GPS,,10.8
168200,2026-01-09 12:39:41,0.0,5,7.748,0.0,0.0,0.0,25.5,1.2,-2.7,1024,1024,1024,1024,0,0,0,0,88,4.726,68.54,35.433072,P-GPS,,10.8
168300,2026-01-09 12:39:41,0.0,5,7.748,0.0,0.0,0.0,25.7,0.8,-2.5,1024,1024,1024,1024,0,0,0,0,88,4.726,68.54,35.433072,P-GPS,,10.8
168400,2026-01-09 12:39:41,0.0,5,7.748,0.0,0.0,0.0,25.7,0.5,-2.5,1024,1024,1024,1024,0,0,0,0,88,4.726,68.54,35.433072,P-GPS,,10.8
168500,2026-01-09 12:39:41,0.0,5,7.748,0.0,0.0,0.0,25.5,0.7,-2.6,1024,1024,1024,1024,0,0,0,0,88,4.726,68.54,35.433072,P-GPS,,10.8
168600,2026-01-09 12:39:41,0.0,5,7.748,0.0,0.0,0.0,25.6,0.5,-2.5,1024,1024,1024,1024,0,0,0,0,88,4.726,68.54,35.433072,P-GPS,,10.8
168700,2026-01-09 12:39:41,0.0,5,7.748,0.0,0.0,0.0,25.5,0.4,-2.5,1024,1024,1024,1024,0,0,0,0,88,4.726,68.54,35.433072,P-GPS,,10.8
168800,2026-01-09 12:39:41,0.0,5,7.737,0.0,0.0,0.0,25.5,0.4,-2.5,1024,1024,1024,1024,0,0,0,0,88,4.935,68.54,35.433072,P-GPS,,10.8
168900,2026-01-09 12:39:41,0.0,5,7.737,0.0,0.0,0.0,25.5,0.0,-2.5,1024,1024,1024,1024,0,0,0,0,88,4.935,68.54,35.433072,P-GPS,,10.8
169000,2026-01-09 12:39:41,0.0,5,7.737,0.0,0.0,0.0,25.4,0.2,-2.4,1024,1024,1024,1024,0,0,0,0,88,4.935,68.54,35.433072,P-GPS,,10.8
169100,2026-01-09 12:39:42,0.0,5,7.737,0.0,0.0,0.0,25.5,0.0,-2.4,1024,1024,1024,1024,0,0,0,0,88,4.935,68.54,35.433072,P-GPS,,10.8
169200,2026-01-09 12:39:42,0.0,5,7.737,0.0,0.0,0.0,25.6,-0.3,-2.2,1024,1024,1024,1024,0,0,0,0,88,4.935,68.54,35.433072,P-GPS,,10.8
169300,2026-01-09 12:39:42,0.0,5,7.737,0.0,0.0,0.0,25.7,-0.2,-1.6,1024,1024,1024,1024,0,0,0,0,88,4.935,68.54,35.433072,P-GPS,,10.8
169400,2026-01-09 12:39:42,0.0,5,7.737,0.0,0.0,0.0,25.7,0.2,-1.5,1024,1024,1024,1024,0,0,0,0,88,4.935,68.54,35.433072,P-GPS,,10.8
169500,2026-01-09 12:39:42,0.0,5,7.737,0.0,0.0,0.0,25.5,0.2,-1.7,1024,1024,1024,1024,0,0,0,0,88,4.935,68.54,35.104988,P-GPS,,10.7
169600,2026-01-09 12:39:42,0.0,5,7.737,0.0,0.0,0.0,25.5,0.8,-1.8,1024,1024,1024,1024,0,0,0,0,88,4.935,68.54,35.104988,P-GPS,,10.7
169700,2026-01-09 12:39:42,0.0,5,7.737,0.0,0.0,0.0,25.4,0.7,-2.0,1024,1024,1024,1024,0,0,0,0,88,4.935,68.54,35.104988,P-GPS,,10.7
169800,2026-01-09 12:39:42,0.0,5,7.737,0.0,0.0,0.0,25.4,0.7,-2.0,1024,1024,1024,1024,0,0,0,0,88,4.935,68.54,35.104988,P-GPS,,10.7
169900,2026-01-09 12:39:42,0.0,5,7.741,0.0,0.0,0.0,25.4,0.7,-1.8,1024,1024,1024,1024,0,0,0,0,88,4.776,68.54,35.104988,P-GPS,,10.7
170000,2026-01-09 12:39:42,0.0,5,7.741,0.0,0.0,0.0,25.3,0.7,-1.8,1024,1024,1024,1024,0,0,0,0,88,4.776,68.54,35.104988,P-GPS,,10.7
170100,2026-01-09 12:39:42,0.0,5,7.741,0.0,0.0,0.0,25.3,0.5,-1.8,1024,1024,1024,1024,0,0,0,0,88,4.776,68.54,35.104988,P-GPS,,10.7
170200,2026-01-09 12:39:43,0.0,5,7.741,0.0,0.0,0.0,25.3,0.3,-2.0,1024,1024,1024,1024,0,0,0,0,88,4.776,68.54,35.104988,P-GPS,,10.7
170300,2026-01-09 12:39:43,0.0,5,7.741,0.0,0.0,0.0,25.3,0.0,-2.2,1024,1024,1024,1024,0,0,0,0,88,4.776,68.54,35.104988,P-GPS,,10.7
170400,2026-01-09 12:39:43,0.0,5,7.741,0.0,0.0,0.0,25.3,0.1,-2.6,1024,1024,1024,1024,0,0,0,0,88,4.776,68.54,35.433072,P-GPS,,10.8
170500,2026-01-09 12:39:43,0.0,5,7.741,0.0,0.0,0.0,25.3,0.0,-2.6,1024,1024,1024,1024,0,0,0,0,88,4.776,68.54,35.433072,P-GPS,,10.8
170600,2026-01-09 12:39:43,0.0,5,7.741,0.0,0.0,0.0,25.5,-0.4,-2.6,1024,1024,1024,1024,0,0,0,0,88,4.776,68.54,35.433072,P-GPS,,10.8
170700,2026-01-09 12:39:43,0.0,5,7.741,0.0,0.0,0.0,25.5,-0.5,-2.9,1024,1024,1024,1024,0,0,0,0,88,4.776,68.54,35.433072,P-GPS,,10.8
170800,2026-01-09 12:39:43,0.0,5,7.741,0.0,0.0,0.0,25.5,-0.4,-3.1,1024,1024,1024,1024,0,0,0,0,88,4.776,68.54,35.433072,P-GPS,,10.8
170900,2026-01-09 12:39:43,0.0,5,7.741,0.0,0.0,0.0,25.5,-0.3,-3.3,1024,1024,1024,1024,0,0,0,0,88,4.764,68.54,35.433072,P-GPS,,10.8
171000,2026-01-09 12:39:43,0.0,5,7.741,0.0,0.0,0.0,25.5,-0.2,-3.4,1024,1024,1024,1024,0,0,0,0,88,4.764,68.54,35.433072,P-GPS,,10.8
171100,2026-01-09 12:39:44,0.0,5,7.741,0.0,0.0,0.0,25.5,0.0,-2.9,1024,1024,1024,1024,0,0,0,0,88,4.764,68.54,35.433072,P-GPS,,10.8
171200,2026-01-09 12:39:44,0.0,5,7.741,0.0,0.0,0.0,25.4,0.5,-2.9,1024,1024,1024,1024,0,0,0,0,88,4.764,68.54,35.433072,P-GPS,,10.8
171300,2026-01-09 12:39:44,0.0,5,7.741,0.0,0.0,0.0,25.3,0.7,-3.1,1024,1024,1024,1024,0,0,0,0,88,4.764,68.54,35.433072,P-GPS,,10.8
171400,2026-01-09 12:39:44,0.0,5,7.741,0.0,0.0,0.0,25.4,0.3,-3.0,1024,1024,1024,1024,0,0,0,0,88,4.764,68.54,35.433072,P-GPS,,10.8
171500,2026-01-09 12:39:44,0.0,5,7.741,0.0,0.0,0.0,25.4,0.0,-2.9,1024,1024,1024,1024,0,0,0,0,88,4.764,68.54,35.433072,P-GPS,,10.8
171600,2026-01-09 12:39:44,0.0,5,7.741,0.0,0.0,0.0,25.5,-0.3,-2.9,1024,1024,1024,1024,0,0,0,0,88,4.764,68.54,35.433072,P-GPS,,10.8
171700,2026-01-09 12:39:44,0.0,5,7.741,0.0,0.0,0.0,25.5,-0.6,-2.6,1024,1024,1024,1024,0,0,0,0,88,4.764,68.54,35.433072,P-GPS,,10.8
171800,2026-01-09 12:39:44,0.0,5,7.741,0.0,0.0,0.0,25.5,-0.3,-2.5,1024,1024,1024,1024,0,0,0,0,88,4.764,68.54,35.433072,P-GPS,,10.8
171900,2026-01-09 12:39:44,0.0,5,7.734,0.0,0.0,0.0,25.4,-0.4,-3.2,1024,1024,1024,1024,0,0,0,0,88,4.859,68.54,35.761156,P-GPS,,10.9
172000,2026-01-09 12:39:44,0.0,5,7.734,0.0,0.0,0.0,25.5,-0.6,-3.5,1024,1024,1024,1024,0,0,0,0,88,4.859,68.54,35.761156,P-GPS,,10.9
172100,2026-01-09 12:39:44,0.0,5,7.734,0.0,0.0,0.0,25.4,-0.9,-3.8,1024,1024,1024,1024,0,0,0,0,88,4.859,68.54,35.761156,P-GPS,,10.9
172200,2026-01-09 12:39:45,0.0,5,7.734,0.0,0.0,0.0,25.4,-1.4,-4.0,1024,1024,1024,1024,0,0,0,0,88,4.859,68.54,35.761156,P-GPS,,10.9
172300,2026-01-09 12:39:45,0.0,5,7.734,0.0,0.0,0.0,25.4,-1.8,-4.3,1024,1024,1024,1024,0,0,0,0,88,4.859,68.54,36.08924,P-GPS,,11.0
172400,2026-01-09 12:39:45,0.0,5,7.734,0.0,0.0,0.0,25.5,-1.9,-4.4,1024,1024,1024,1024,0,0,0,0,88,4.859,68.54,36.08924,P-GPS,,11.0
172500,2026-01-09 12:39:45,0.0,5,7.734,0.0,0.0,0.0,25.4,-1.4,-4.4,1024,1024,1024,1024,0,0,0,0,88,4.859,68.54,36.08924,P-GPS,,11.0
172600,2026-01-09 12:39:45,0.0,5,7.734,0.0,0.0,0.0,25.3,-0.9,-4.6,1024,1024,1024,1024,0,0,0,0,88,4.859,68.54,36.08924,P-GPS,,11.0
172700,2026-01-09 12:39:45,0.0,5,7.734,0.0,0.0,0.0,25.4,-1.3,-4.4,1024,1024,1024,1024,0,0,0,0,88,4.859,68.54,36.08924,P-GPS,,11.0
172800,2026-01-09 12:39:45,0.0,5,7.734,0.0,0.0,0.0,25.4,-1.0,-4.1,1024,1024,1024,1024,0,0,0,0,88,4.859,68.54,36.08924,P-GPS,,11.0
172900,2026-01-09 12:39:45,0.0,5,7.734,0.0,0.0,0.0,25.3,-0.7,-4.1,1024,1024,1024,1024,0,0,0,0,88,4.859,68.54,36.08924,P-GPS,,11.0
173000,2026-01-09 12:39:45,0.0,5,7.734,0.0,0.0,0.0,25.3,-1.4,-3.8,1024,1024,1024,1024,0,0,0,0,88,4.859,68.54,36.08924,P-GPS,,11.0
173100,2026-01-09 12:39:45,0.0,5,7.734,0.0,0.0,0.0,25.5,-2.2,-3.9,1024,1024,1024,1024,0,0,0,0,88,4.859,68.54,36.08924,P-GPS,,11.0
173200,2026-01-09 12:39:46,0.0,5,7.734,0.0,0.0,0.0,25.5,-2.9,-4.1,1024,1024,1024,1024,0,0,0,0,88,4.859,68.54,36.08924,P-GPS,,11.0
173300,2026-01-09 12:39:46,0.0,5,7.734,0.0,0.0,0.0,25.5,-2.6,-3.6,1024,1024,1024,1024,0,0,0,0,88,4.859,68.54,36.08924,P-GPS,,11.0
173400,2026-01-09 12:39:46,0.0,5,7.734,0.0,0.0,0.0,25.6,-2.5,-2.9,1024,1024,1024,1024,0,0,0,0,88,4.859,68.54,36.08924,P-GPS,,11.0
173500,2026-01-09 12:39:46,0.0,5,7.734,0.0,0.0,0.0,25.7,-3.0,-2.6,1024,1024,1024,1024,0,0,0,0,88,4.859,68.54,36.08924,P-GPS,,11.0
173600,2026-01-09 12:39:46,0.0,5,7.734,0.0,0.0,0.0,25.8,-2.9,-2.7,1024,1024,1024,1024,0,0,0,0,88,4.859,68.54,36.08924,P-GPS,,11.0
173700,2026-01-09 12:39:46,0.0,5,7.734,0.0,0.0,0.0,25.9,-3.0,-2.5,1024,1024,1024,1024,0,0,0,0,88,4.859,68.54,36.08924,P-GPS,,11.0
173800,2026-01-09 12:39:46,0.0,5,7.734,0.0,0.0,0.0,25.8,-3.1,-3.4,1024,1024,1024,1024,0,0,0,0,88,4.859,68.54,36.08924,P-GPS,,11.0
173900,2026-01-09 12:39:46,0.0,5,7.734,0.0,0.0,0.0,25.7,-2.6,-3.9,1024,1024,1024,1024,0,0,0,0,88,4.859,68.54,36.08924,P-GPS,,11.0
174000,2026-01-09 12:39:46,0.0,5,7.735,0.0,0.0,0.0,25.5,-2.1,-3.7,1024,1024,1024,1024,0,0,0,0,88,4.738,68.72,36.08924,P-GPS,,11.0
174100,2026-01-09 12:39:46,0.0,5,7.735,0.0,0.0,0.0,25.4,-1.6,-4.1,1024,1024,1024,1024,0,0,0,0,88,4.738,68.72,36.08924,P-GPS,,11.0
174200,2026-01-09 12:39:47,0.0,5,7.735,0.0,0.0,0.0,25.5,-1.2,-4.3,1024,1024,1024,1024,0,0,0,0,88,4.738,68.72,36.08924,P-GPS,,11.0
174300,2026-01-09 12:39:47,0.0,5,7.735,0.0,0.0,0.0,25.4,-0.9,-5.0,1024,1024,1024,1024,0,0,0,0,88,4.738,68.72,36.08924,P-GPS,,11.0
174400,2026-01-09 12:39:47,0.0,5,7.735,0.0,0.0,0.0,25.3,0.1,-4.9,1024,1024,1024,1024,0,0,0,0,88,4.738,68.72,36.08924,P-GPS,,11.0
174500,2026-01-09 12:39:47,0.0,5,7.735,0.0,0.0,0.0,25.5,0.7,-4.6,1024,1024,1024,1024,0,0,0,0,88,4.738,68.72,36.08924,P-GPS,,11.0
174600,2026-01-09 12:39:47,0.0,5,7.735,0.0,0.0,0.0,25.6,0.0,-4.4,1024,1024,1024,1024,0,0,0,0,88,4.738,68.72,36.08924,P-GPS,,11.0
174700,2026-01-09 12:39:47,0.0,5,7.735,0.0,0.0,0.0,25.6,-0.2,-4.4,1024,1024,1024,1024,0,0,0,0,88,4.738,68.72,36.08924,P-GPS,,11.0
174800,2026-01-09 12:39:47,0.0,5,7.735,0.0,0.0,0.0,25.4,-1.0,-4.4,1024,1024,1024,1024,0,0,0,0,88,4.738,68.72,36.08924,P-GPS,,11.0
174900,2026-01-09 12:39:47,0.0,5,7.735,0.0,0.0,0.0,25.4,-1.5,-4.7,1024,1024,1024,1024,0,0,0,0,88,4.738,68.72,36.08924,P-GPS,,11.0
175000,2026-01-09 12:39:47,0.0,5,7.735,0.0,0.0,0.0,25.5,-1.9,-4.5,1024,1024,1024,1024,0,0,0,0,88,4.738,68.72,36.08924,P-GPS,,11.0
175100,2026-01-09 12:39:47,0.0,5,7.736,0.0,0.0,0.0,25.5,-2.5,-4.4,1024,1024,1024,1024,0,0,0,0,88,4.884,68.72,36.08924,P-GPS,,11.0
175200,2026-01-09 12:39:48,0.0,5,7.736,0.0,0.0,0.0,25.5,-2.6,-4.4,1024,1024,1024,1024,0,0,0,0,88,4.884,68.72,36.08924,P-GPS,,11.0
175300,2026-01-09 12:39:48,0.0,5,7.736,0.0,0.0,0.0,25.6,-2.2,-4.5,1024,1024,1024,1024,0,0,0,0,88,4.884,68.72,36.08924,P-GPS,,11.0
175400,2026-01-09 12:39:48,0.0,5,7.736,0.0,0.0,0.0,25.6,-1.6,-4.4,1024,1024,1024,1024,0,0,0,0,88,4.884,68.72,36.08924,P-GPS,,11.0
175500,2026-01-09 12:39:48,0.0,5,7.736,0.0,0.0,0.0,25.5,-1.2,-4.3,1024,1024,1024,1024,0,0,0,0,88,4.884,68.72,36.08924,P-GPS,,11.0
175600,2026-01-09 12:39:48,0.0,5,7.736,0.0,0.0,0.0,25.5,-0.9,-4.0,1024,1024,1024,1024,0,0,0,0,88,4.884,68.72,36.08924,P-GPS,,11.0
175700,2026-01-09 12:39:48,0.0,5,7.736,0.0,0.0,0.0,25.4,-0.9,-4.2,1024,1024,1024,1024,0,0,0,0,88,4.884,68.72,36.417324,P-GPS,,11.1
175800,2026-01-09 12:39:48,0.0,5,7.736,0.0,0.0,0.0,25.3,-0.2,-4.0,1024,1024,1024,1024,0,0,0,0,88,4.884,68.72,36.417324,P-GPS,,11.1
175900,2026-01-09 12:39:48,0.0,5,7.736,0.0,0.0,0.0,25.4,0.0,-4.1,1024,1024,1024,1024,0,0,0,0,88,4.884,68.72,36.417324,P-GPS,,11.1
176000,2026-01-09 12:39:48,0.0,5,7.736,0.0,0.0,0.0,25.7,-0.8,-3.9,1024,1024,1024,1024,0,0,0,0,88,4.884,68.72,36.417324,P-GPS,,11.1
176100,2026-01-09 12:39:48,0.0,5,7.736,0.0,0.0,0.0,25.8,-2.4,-4.2,1024,1024,1684,1024,0,0,100,0,88,4.884,68.72,36.417324,P-GPS,,11.1
176200,2026-01-09 12:39:49,0.0,5,7.737,0.0,0.0,0.0,25.7,-3.0,-4.9,1024,1024,1684,1024,0,0,100,0,88,4.708,68.72,36.417324,P-GPS,,11.1
176300,2026-01-09 12:39:49,0.223694,5,7.737,-0.223694,0.0,0.0,26.0,-4.5,-4.7,1024,1024,1684,1024,0,0,100,0,88,4.708,68.72,36.417324,P-GPS,,11.1
176400,2026-01-09 12:39:49,0.223694,5,7.737,-0.223694,0.0,0.0,26.2,-4.5,-4.0,1024,1024,1684,1024,0,0,100,0,88,4.708,68.72,36.417324,P-GPS,,11.1
176500,2026-01-09 12:39:49,0.223694,5,7.737,-0.223694,0.0,-0.447388,26.1,-3.6,-3.8,1024,1024,1684,1024,0,0,100,0,88,4.708,68.72,36.745408,P-GPS,,11.2
176600,2026-01-09 12:39:49,0.223694,5,7.737,-0.223694,0.0,-1.11847,26.0,-3.1,-4.5,1024,1024,1684,1024,0,0,100,0,88,4.708,68.72,37.073492,P-GPS,,11.3
176700,2026-01-09 12:39:49,0.223694,5,7.737,-0.223694,0.0,-1.789552,26.1,-4.3,-5.4,1024,1024,1684,1024,0,0,100,0,88,4.708,68.72,37.401576,P-GPS,,11.4
176800,2026-01-09 12:39:49,0.223694,5,7.737,-0.223694,0.0,-2.684328,26.1,-5.0,-5.9,1024,1024,1684,1024,0,0,100,0,88,4.708,68.72,38.057744,P-GPS,,11.6
176900,2026-01-09 12:39:49,0.0,5,7.737,0.0,0.0,-3.35541,26.0,-4.6,-6.3,1024,1024,1684,1024,0,0,100,0,88,4.708,68.72,38.713912,P-GPS,,11.8
270500,2026-01-09 12:41:23,0.0,5,7.683,0.0,0.0,4.026492,25.5,-2.0,-3.1,1024,1024,364,1024,0,0,-100,0,82,4.378,71.96,39.041996,P-GPS,,11.9
270600,2026-01-09 12:41:23,0.0,5,7.683,0.0,0.0,3.802798,25.7,-2.9,-1.5,1024,1024,364,1024,0,0,-100,0,82,4.378,71.96,38.385828,P-GPS,,11.7
270700,2026-01-09 12:41:23,0.0,5,7.683,0.0,0.0,3.802798,25.7,-3.6,-1.3,1024,1024,364,1024,0,0,-100,0,82,4.378,71.96,37.72966,P-GPS,,11.5
270800,2026-01-09 12:41:23,0.0,5,7.683,0.0,0.0,3.802798,26.1,-3.5,-1.7,1024,1024,364,1024,0,0,-100,0,82,4.378,71.96,37.073492,P-GPS,,11.3
270900,2026-01-09 12:41:23,0.0,5,7.683,0.0,0.0,3.802798,25.9,-2.7,-2.0,1024,1024,364,1024,0,0,-100,0,82,4.378,71.96,36.417324,P-GPS,,11.1
271000,2026-01-09 12:41:23,0.0,5,7.683,0.0,0.0,3.802798,25.7,-2.4,-3.1,1024,1024,364,1024,0,0,-100,0,82,4.378,71.96,35.433072,P-GPS,,10.8
271100,2026-01-09 12:41:23,0.223694,5,7.683,0.223694,0.0,3.802798,25.5,-1.9,-2.7,1024,1024,364,1024,0,0,-100,0,82,4.378,71.96,34.776904,P-GPS,,10.6
271200,2026-01-09 12:41:24,0.223694,5,7.683,0.223694,0.0,4.026492,25.4,-1.1,-2.6,1024,1024,364,1024,0,0,-100,0,82,4.378,71.96,34.120736,P-GPS,,10.4
271300,2026-01-09 12:41:24,0.223694,5,7.7,0.223694,0.0,4.250186,25.4,0.7,-2.9,1024,1024,364,1024,0,0,-100,0,82,3.88,71.96,33.136484,P-GPS,,10.1
271400,2026-01-09 12:41:24,0.223694,5,7.7,0.223694,0.0,4.250186,25.4,1.3,-1.4,1024,1024,364,1024,0,0,-100,0,82,3.88,71.96,32.480316,P-GPS,,9.9
271500,2026-01-09 12:41:24,0.223694,5,7.7,0.223694,0.0,4.250186,25.5,0.1,-1.0,1024,1024,364,1024,0,0,-100,0,82,3.88,71.96,31.824148,P-GPS,,9.7
271600,2026-01-09 12:41:24,0.223694,5,7.7,0.223694,0.0,4.250186,25.5,0.1,-1.0,1024,1024,364,1024,0,0,-100,0,82,3.88,71.96,30.839896,P-GPS,,9.4
271700,2026-01-09 12:41:24,0.223694,5,7.7,0.0,0.0,4.250186,25.6,-0.1,-1.3,1024,1024,364,1024,0,0,-100,0,82,3.88,71.96,30.183728,P-GPS,,9.2
271800,2026-01-09 12:41:24,0.0,5,7.7,0.0,0.0,4.026492,25.8,0.6,-2.0,1024,1024,364,1024,0,0,-100,0,82,3.88,71.96,29.855644,P-GPS,,9.1
271900,2026-01-09 12:41:24,0.0,5,7.7,0.0,0.0,4.026492,25.9,-0.2,-2.0,1024,1024,364,1024,0,0,-100,0,82,3.88,71.96,29.199476,P-GPS,,8.9
272000,2026-01-09 12:41:24,0.0,5,7.7,0.0,0.0,4.026492,25.7,0.4,-2.0,1024,1024,364,1024,0,0,-100,0,82,3.88,71.96,28.871392,P-GPS,,8.8
272100,2026-01-09 12:41:24,0.0,5,7.7,0.0,0.0,4.026492,25.5,0.3,-1.9,1024,1024,364,1024,0,0,-100,0,82,3.88,71.96,28.215224,P-GPS,,8.6
272200,2026-01-09 12:41:25,0.0,5,7.7,0.0,0.0,3.802798,25.4,-0.1,-1.3,1024,1024,364,1024,0,0,-100,0,82,3.88,71.96,27.88714,P-GPS,,8.5
272300,2026-01-09 12:41:25,0.0,5,7.7,0.0,0.0,3.802798,25.5,-0.8,-2.2,1024,1024,364,1024,0,0,-100,0,82,3.88,71.96,27.230972,P-GPS,,8.3
