index,time(millisecond),timestamp,speed(mph),gpslevel,voltage(v),xSpeed(mph),ySpeed(mph),zSpeed(mph),compass_heading(degrees),pitch(degrees),roll(degrees),rc_elevator,rc_aileron,rc_throttle,rc_rudder,rc_elevator(percent),rc_aileron(percent),rc_throttle(percent),rc_rudder(percent),battery_percent,current(A),battery_temperature(f),ascent(feet),flycState,message,height_above_takeoff(meters)
89,289900,2026-01-09 20:11:37,0.0,5,7.577,0.0,0.0,0.0,12.0,1.9,-1.0,1024,1024,1024,1024,0,0,0,0,79,6.016,72.68,37.401576,P-GPS,,11.4
90,290000,2026-01-09 20:11:37,0.0,5,7.577,0.0,0.0,0.0,11.9,1.8,-1.0,1024,1024,1024,1024,0,0,0,0,79,6.016,72.68,37.401576,P-GPS,,11.4
91,290100,2026-01-09 20:11:38,0.0,5,7.643,0.0,0.0,0.0,11.9,1.8,-1.0,1024,1024,1024,1024,0,0,0,0,79,4.494,72.68,37.401576,P-GPS,,11.4
92,290200,2026-01-09 20:11:38,0.0,5,7.643,0.0,0.0,0.0,11.9,1.6,-0.8,1024,1024,1024,1024,0,0,0,0,79,4.494,72.68,37.401576,P-GPS,,11.4
93,290300,2026-01-09 20:11:38,0.0,5,7.643,0.0,0.0,0.0,11.9,1.6,-0.7,1024,1024,1024,1024,0,0,0,0,79,4.494,72.68,37.401576,P-GPS,,11.4
94,290400,2026-01-09 20:11:38,0.0,5,7.643,0.0,0.0,0.0,11.9,1.5,-0.4,1024,1024,1024,1024,0,0,0,0,79,4.494,72.68,37.401576,P-GPS,,11.4
95,290500,2026-01-09 20:11:38,0.0,5,7.643,0.0,0.0,0.0,11.9,1.5,-0.4,1024,1024,1024,1024,0,0,0,0,79,4.494,72.68,37.401576,P-GPS,,11.4
96,290600,2026-01-09 20:11:38,0.0,5,7.643,0.0,0.0,0.0,11.8,1.4,-0.5,1024,1024,1024,1024,0,0,0,0,79,4.494,72.68,37.401576,P-GPS,,11.4
97,290700,2026-01-09 20:11:38,0.0,5,7.643,0.0,0.0,0.0,11.7,1.5,-0.5,1024,1024,1024,1024,0,0,0,0,79,4.494,72.68,37.401576,P-GPS,,11.4
98,290800,2026-01-09 20:11:38,0.0,5,7.643,0.0,0.0,0.0,11.7,1.3,-0.5,1024,1024,1024,1024,0,0,0,0,79,4.494,72.68,37.401576,P-GPS,,11.4
99,290900,2026-01-09 20:11:38,0.0,5,7.643,0.0,0.0,0.0,11.7,1.2,-0.5,1024,1024,1024,1024,0,0,0,0,79,4.494,72.68,37.073492,P-GPS,,11.3
100,291000,2026-01-09 20:11:39,0.0,5,7.643,0.0,0.0,0.0,11.8,1.5,-0.7,1024,1024,1024,1024,0,0,0,0,79,4.494,72.68,37.073492,P-GPS,,11.3
101,291100,2026-01-09 20:11:39,0.0,5,7.643,0.0,0.0,0.0,11.8,1.6,-0.4,1024,1024,1024,1024,0,0,0,0,79,4.494,72.68,37.073492,P-GPS,,11.3
102,291200,2026-01-09 20:11:39,0.0,5,7.632,0.0,0.0,0.0,11.8,1.0,-0.4,1024,1024,1024,1024,0,0,0,0,79,5.1,72.68,37.073492,P-GPS,,11.3
103,291300,2026-01-09 20:11:39,0.0,5,7.632,0.0,0.0,0.0,11.8,1.2,-0.3,1024,1024,1024,1024,0,0,0,0,79,5.1,72.68,37.073492,P-GPS,,11.3
104,291400,2026-01-09 20:11:39,0.0,5,7.632,0.0,0.0,0.0,11.8,1.4,0.0,1024,1024,1024,1024,0,0,0,0,79,5.1,72.68,37.073492,P-GPS,,11.3
105,291500,2026-01-09 20:11:39,0.0,5,7.632,0.0,0.0,0.0,11.8,1.5,0.0,1024,1024,1024,1024,0,0,0,0,79,5.1,72.68,37.073492,P-GPS,,11.3
106,291600,2026-01-09 20:11:39,0.0,5,7.632,0.0,0.0,0.0,11.8,1.4,-0.1,1024,1024,1024,1024,0,0,0,0,79,5.1,72.68,37.073492,P-GPS,,11.3
107,291700,2026-01-09 20:11:39,0.0,5,7.632,0.0,0.0,0.0,11.9,0.9,0.0,1024,1024,1024,1024,0,0,0,0,79,5.1,72.68,37.073492,P-GPS,,11.3
108,291800,2026-01-09 20:11:39,0.0,5,7.632,0.0,0.0,0.0,11.9,1.0,0.2,1024,1024,1024,1024,0,0,0,0,79,5.1,72.68,37.073492,P-GPS,,11.3
109,291900,2026-01-09 20:11:39,0.0,5,7.632,0.0,0.0,0.0,11.9,1.4,0.2,1024,1024,1024,1024,0,0,0,0,79,5.1,72.68,37.073492,P-GPS,,11.3
110,292000,2026-01-09 20:11:39,0.0,5,7.632,0.0,0.0,0.0,11.9,1.5,0.4,1024,1024,1024,1024,0,0,0,0,79,5.1,72.68,36.745408,P-GPS,,11.2
111,292100,2026-01-09 20:11:40,0.0,5,7.632,0.0,0.0,0.0,11.8,1.5,0.6,1024,1024,1024,1024,0,0,0,0,79,5.1,72.68,36.745408,P-GPS,,11.2
112,292200,2026-01-09 20:11:40,0.0,5,7.632,0.0,0.0,0.0,11.8,1.8,0.7,1024,1024,1024,1024,0,0,0,0,79,5.1,72.68,36.745408,P-GPS,,11.2
113,292300,2026-01-09 20:11:40,0.0,5,7.632,0.0,0.0,0.0,11.8,2.2,0.5,1024,1024,1024,1024,0,0,0,0,79,5.1,72.68,36.745408,P-GPS,,11.2
114,292400,2026-01-09 20:11:40,0.0,5,7.632,0.0,0.0,0.0,11.8,2.3,0.4,1024,1024,1024,1024,0,0,0,0,79,5.1,72.68,36.745408,P-GPS,,11.2
115,292500,2026-01-09 20:11:40,0.0,5,7.632,0.0,0.0,0.0,11.8,2.0,0.6,1024,1024,1024,1024,0,0,0,0,79,5.1,72.68,36.745408,P-GPS,SD card speed low. Normal use may be affected. Replace SD card (Code: 10028). Gimbal stuck. Make sure gimbal cover is removed and manually check whether gimbal can rotate freely (Code: 40002),11.2
116,292600,2026-01-09 20:11:40,0.0,5,7.632,0.0,0.0,0.0,11.8,1.9,0.5,1024,1024,1024,1024,0,0,0,0,79,5.1,72.68,36.745408,P-GPS,,11.2
117,292700,2026-01-09 20:11:40,0.0,5,7.632,0.0,0.0,0.0,11.8,2.0,0.5,1024,1024,1024,1024,0,0,0,0,79,5.1,72.68,36.745408,P-GPS,,11.2
118,292800,2026-01-09 20:11:40,0.0,5,7.632,0.0,0.0,0.0,11.7,2.1,0.5,1024,1024,1024,1024,0,0,0,0,79,5.1,72.68,37.073492,P-GPS,,11.3
119,292900,2026-01-09 20:11:40,0.0,5,7.632,0.0,0.0,0.0,11.8,1.9,0.4,1024,1024,1024,1024,0,0,0,0,79,5.1,72.68,37.073492,P-GPS,,11.3
120,293000,2026-01-09 20:11:41,0.0,5,7.632,0.0,0.0,0.0,11.7,2.2,0.2,1024,1024,1024,1024,0,0,0,0,79,5.1,72.68,37.073492,P-GPS,,11.3
121,293100,2026-01-09 20:11:41,0.0,5,7.632,0.0,0.0,0.0,11.8,2.4,0.2,1024,1024,1024,1024,0,0,0,0,79,5.1,72.68,37.073492,P-GPS,,11.3
122,293200,2026-01-09 20:11:41,0.0,5,7.632,0.0,0.0,0.0,11.8,2.4,0.4,1024,1024,1024,1024,0,0,0,0,79,5.1,72.68,37.073492,P-GPS,,11.3
123,293300,2026-01-09 20:11:41,0.0,5,7.632,0.0,0.0,0.0,11.8,2.3,0.3,1024,1024,1024,1024,0,0,0,0,79,5.1,72.68,37.073492,P-GPS,,11.3
124,293400,2026-01-09 20:11:41,0.0,5,7.638,0.0,0.0,0.0,11.7,2.3,0.4,1024,1024,1024,1024,0,0,0,0,79,5.031,72.68,37.073492,P-GPS,,11.3
125,293500,2026-01-09 20:11:41,0.0,5,7.638,0.0,0.0,0.0,11.7,2.4,0.4,1024,1024,1024,1024,0,0,0,0,79,5.031,72.68,37.073492,P-GPS,,11.3
126,293600,2026-01-09 20:11:41,0.0,5,7.638,0.0,0.0,0.0,11.7,2.2,0.5,1024,1024,1024,1024,0,0,0,0,79,5.031,72.68,37.073492,P-GPS,,11.3
127,293700,2026-01-09 20:11:41,0.0,5,7.638,0.0,0.0,0.0,11.6,2.2,0.3,1024,1024,1024,1024,0,0,0,0,79,5.031,72.68,37.073492,P-GPS,,11.3
128,293800,2026-01-09 20:11:41,0.0,5,7.638,0.0,0.0,0.0,11.6,2.3,0.4,1024,1024,1024,1024,0,0,0,0,79,5.031,72.68,37.073492,P-GPS,,11.3
129,293900,2026-01-09 20:11:41,0.0,5,7.638,0.0,0.0,0.0,11.6,2.6,0.3,1024,1024,1024,1024,0,0,0,0,79,5.031,72.68,37.073492,P-GPS,,11.3
130,294000,2026-01-09 20:11:42,0.0,5,7.638,0.0,0.0,0.0,11.6,2.8,0.3,1024,1024,1024,1024,0,0,0,0,79,5.031,72.68,37.073492,P-GPS,,11.3
131,294100,2026-01-09 20:11:42,0.0,5,7.638,0.0,0.0,0.0,11.6,2.9,0.3,1024,1024,1024,1024,0,0,0,0,79,5.031,72.68,37.073492,P-GPS,,11.3
132,294200,2026-01-09 20:11:42,0.0,5,7.638,0.0,0.0,0.0,11.6,2.8,0.2,1024,1024,1024,1024,0,0,0,0,79,5.031,72.68,37.073492,P-GPS,,11.3
133,294300,2026-01-09 20:11:42,0.0,5,7.638,0.0,0.0,0.0,11.6,2.7,0.0,1024,1024,1024,1024,0,0,0,0,79,5.031,72.68,37.073492,P-GPS,,11.3
134,294400,2026-01-09 20:11:42,0.0,5,7.638,0.0,0.0,0.0,11.6,2.7,0.0,1024,1024,1024,1024,0,0,0,0,79,5.031,72.68,37.073492,P-GPS,,11.3
135,294500,2026-01-09 20:11:42,0.0,5,7.637,0.0,0.0,0.0,11.7,2.9,0.3,1024,1024,1024,1024,0,0,0,0,79,4.923,72.86,37.073492,P-GPS,,11.3
136,294600,2026-01-09 20:11:42,0.0,5,7.637,0.0,0.0,0.0,11.7,2.8,0.4,1024,1024,1024,1024,0,0,0,0,79,4.923,72.86,37.073492,P-GPS,,11.3
137,294700,2026-01-09 20:11:42,0.0,5,7.637,0.0,0.0,0.0,11.8,2.9,0.3,1024,1024,1024,1024,0,0,0,0,79,4.923,72.86,37.073492,P-GPS,,11.3
138,294800,2026-01-09 20:11:42,0.0,5,7.637,0.0,0.0,0.0,11.7,3.2,0.2,1024,1024,1024,1024,0,0,0,0,79,4.923,72.86,37.073492,P-GPS,,11.3
139,294900,2026-01-09 20:11:42,0.0,5,7.637,0.0,0.0,0.0,11.7,3.1,0.2,1024,1024,1024,1024,0,0,0,0,79,4.923,72.86,37.073492,P-GPS,,11.3
140,295000,2026-01-09 20:11:42,0.0,5,7.637,0.0,0.0,0.0,11.7,3.0,0.3,1024,1024,1024,1024,0,0,0,0,79,4.923,72.86,37.073492,P-GPS,,11.3
141,295100,2026-01-09 20:11:43,0.0,5,7.637,0.0,0.0,0.0,11.7,3.0,0.1,1024,1024,1024,1024,0,0,0,0,79,4.923,72.86,37.073492,P-GPS,,11.3
142,295200,2026-01-09 20:11:43,0.0,5,7.637,0.0,0.0,0.0,11.7,2.9,0.1,1024,1024,1024,1024,0,0,0,0,79,4.923,72.86,37.073492,P-GPS,,11.3
143,295300,2026-01-09 20:11:43,0.0,5,7.637,0.0,0.0,0.0,11.6,3.0,-0.4,1024,1024,1024,1024,0,0,0,0,79,4.923,72.86,37.073492,P-GPS,,11.3
144,295400,2026-01-09 20:11:43,0.0,5,7.637,0.0,0.0,0.0,11.6,3.1,-0.7,1024,1024,1024,1024,0,0,0,0,79,4.923,72.86,37.073492,P-GPS,,11.3
145,295500,2026-01-09 20:11:43,0.0,5,7.637,0.0,0.0,0.0,11.6,2.9,-0.4,1024,1024,1024,1024,0,0,0,0,79,4.923,72.86,37.073492,P-GPS,,11.3
146,295600,2026-01-09 20:11:43,0.0,5,7.635,0.0,0.0,0.0,11.6,3.1,-0.5,1024,1024,1024,1024,0,0,0,0,79,4.912,72.86,37.073492,P-GPS,,11.3
147,295700,2026-01-09 20:11:43,0.0,5,7.635,0.0,0.0,0.0,11.6,3.0,-0.6,1024,1024,1024,1024,0,0,0,0,79,4.912,72.86,37.073492,P-GPS,,11.3
148,295800,2026-01-09 20:11:43,0.0,5,7.635,0.0,0.0,0.0,11.6,2.5,-0.5,1024,1024,1024,1024,0,0,0,0,79,4.912,72.86,37.073492,P-GPS,,11.3
149,295900,2026-01-09 20:11:43,0.0,5,7.635,0.0,0.0,0.0,11.6,2.6,-0.4,1024,1024,1024,1024,0,0,0,0,79,4.912,72.86,37.073492,P-GPS,,11.3
150,296000,2026-01-09 20:11:44,0.0,5,7.635,0.0,0.0,0.0,11.6,2.9,-0.4,1024,1024,1024,1024,0,0,0,0,79,4.912,72.86,37.073492,P-GPS,,11.3
151,296100,2026-01-09 20:11:44,0.0,5,7.635,0.0,0.0,0.0,11.6,2.7,-0.5,1024,1024,1024,1024,0,0,0,0,79,4.912,72.86,37.073492,P-GPS,,11.3
152,296200,2026-01-09 20:11:44,0.0,5,7.635,0.0,0.0,0.0,11.5,3.0,-0.5,1024,1024,1024,1024,0,0,0,0,79,4.912,72.86,37.073492,P-GPS,,11.3
153,296300,2026-01-09 20:11:44,0.0,5,7.635,0.0,0.0,0.0,11.6,3.0,-0.3,1024,1024,1024,1024,0,0,0,0,79,4.912,72.86,37.073492,P-GPS,,11.3
154,296400,2026-01-09 20:11:44,0.0,5,7.635,0.0,0.0,0.0,11.6,3.1,-0.2,1024,1024,1024,1024,0,0,0,0,79,4.912,72.86,37.073492,P-GPS,,11.3
155,296500,2026-01-09 20:11:44,0.0,5,7.635,0.0,0.0,0.0,11.6,3.1,-0.2,1024,1024,1024,1024,0,0,0,0,79,4.912,72.86,37.073492,P-GPS,,11.3
156,296600,2026-01-09 20:11:44,0.0,5,7.635,0.0,0.0,0.0,11.6,3.1,0.0,1024,1024,1024,1024,0,0,0,0,79,4.912,72.86,37.073492,P-GPS,,11.3
157,296700,2026-01-09 20:11:44,0.0,5,7.636,0.0,0.0,0.0,11.6,3.0,-0.1,1024,1024,1024,1024,0,0,0,0,79,4.832,72.86,37.073492,P-GPS,,11.3
158,296800,2026-01-09 20:11:44,0.0,5,7.636,0.0,0.0,0.0,11.6,3.0,-0.1,1024,1024,1024,1024,0,0,0,0,79,4.832,72.86,37.073492,P-GPS,,11.3
159,296900,2026-01-09 20:11:44,0.0,5,7.636,0.0,0.0,0.0,11.7,3.0,-0.1,1024,1024,1024,1024,0,0,0,0,79,4.832,72.86,36.745408,P-GPS,,11.2
160,297000,2026-01-09 20:11:44,0.0,5,7.636,0.0,0.0,0.0,11.7,3.1,-0.1,1024,1024,1024,1024,0,0,0,0,79,4.832,72.86,36.745408,P-GPS,,11.2
161,297100,2026-01-09 20:11:45,0.0,5,7.636,0.0,0.0,0.0,11.7,3.3,-0.2,1024,1024,1024,1024,0,0,0,0,79,4.832,72.86,36.745408,P-GPS,,11.2
162,297200,2026-01-09 20:11:45,0.0,5,7.636,0.0,0.0,0.0,11.7,3.3,-0.1,1024,1024,1024,1024,0,0,0,0,79,4.832,72.86,36.745408,P-GPS,,11.2
163,297300,2026-01-09 20:11:45,0.0,5,7.636,0.0,0.0,0.0,11.7,3.0,0.0,1024,1024,1024,1024,0,0,0,0,79,4.832,72.86,36.745408,P-GPS,,11.2
164,297400,2026-01-09 20:11:45,0.0,5,7.636,0.0,0.0,0.0,11.7,2.9,-0.1,1024,1024,1024,1024,0,0,0,0,79,4.832,72.86,36.745408,P-GPS,,11.2
165,297500,2026-01-09 20:11:45,0.0,5,7.636,0.0,0.0,0.0,11.7,2.7,-0.2,1024,1024,1024,1024,0,0,0,0,79,4.832,72.86,36.745408,P-GPS,,11.2
166,297600,2026-01-09 20:11:45,0.0,5,7.636,0.0,0.0,0.0,11.7,2.5,-0.1,1024,1024,1024,1024,0,0,0,0,79,4.832,72.86,36.745408,P-GPS,,11.2
167,297700,2026-01-09 20:11:45,0.0,5,7.636,0.0,0.0,0.0,11.8,2.4,-0.1,1024,1024,1024,1024,0,0,0,0,79,4.832,72.86,36.745408,P-GPS,,11.2
168,297800,2026-01-09 20:11:45,0.0,5,7.632,0.0,0.0,0.0,11.7,2.5,-0.3,1024,1024,1024,1024,0,0,0,0,79,4.828,72.86,36.745408,P-GPS,,11.2
169,297900,2026-01-09 20:11:45,0.0,5,7.632,0.0,0.0,0.0,11.7,2.5,-0.5,1024,1024,1024,1024,0,0,0,0,79,4.828,72.86,36.745408,P-GPS,,11.2
170,298000,2026-01-09 20:11:45,0.0,5,7.632,0.0,0.0,0.0,11.6,2.6,-0.6,1024,1024,1024,1024,0,0,0,0,79,4.828,72.86,36.745408,P-GPS,,11.2
171,298100,2026-01-09 20:11:46,0.0,5,7.632,0.0,0.0,0.0,11.7,2.5,-0.4,1024,1024,1024,1024,0,0,0,0,79,4.828,72.86,36.745408,P-GPS,,11.2
172,298200,2026-01-09 20:11:46,0.0,5,7.632,0.0,0.0,0.0,11.7,2.5,-0.3,1024,1024,1024,1024,0,0,0,0,79,4.828,72.86,36.745408,P-GPS,,11.2
173,298300,2026-01-09 20:11:46,0.0,5,7.632,0.0,0.0,0.0,11.7,2.2,-0.2,1024,1024,1024,1024,0,0,0,0,79,4.828,72.86,36.745408,P-GPS,,11.2
174,298400,2026-01-09 20:11:46,0.0,5,7.632,0.0,0.0,0.0,11.7,2.3,-0.2,1024,1024,1024,1024,0,0,0,0,79,4.828,72.86,36.745408,P-GPS,,11.2
175,298500,2026-01-09 20:11:46,0.0,5,7.632,0.0,0.0,0.0,11.7,2.8,-0.3,1024,1024,1024,1024,0,0,0,0,79,4.828,72.86,36.745408,P-GPS,,11.2
176,298600,2026-01-09 20:11:46,0.0,5,7.632,0.0,0.0,0.0,11.7,2.7,-0.2,1024,1024,1024,1024,0,0,0,0,79,4.828,72.86,36.745408,P-GPS,,11.2
177,298700,2026-01-09 20:11:46,0.0,5,7.632,0.0,0.0,0.0,11.8,2.3,-0.2,1024,1024,1024,1024,0,0,0,0,79,4.828,72.86,36.745408,P-GPS,,11.2
178,298800,2026-01-09 20:11:46,0.0,5,7.632,0.0,0.0,0.0,11.7,2.3,0.0,1024,1024,1024,1024,0,0,0,0,79,4.828,72.86,36.745408,P-GPS,,11.2
179,298900,2026-01-09 20:11:46,0.0,5,7.631,0.0,0.0,0.0,11.8,2.1,0.0,1024,1024,1024,1024,0,0,0,0,79,4.939,72.86,36.745408,P-GPS,,11.2
180,299000,2026-01-09 20:11:46,0.0,5,7.631,0.0,0.0,0.0,11.7,2.4,-0.2,1024,1024,1024,1024,0,0,0,0,79,4.939,72.86,36.745408,P-GPS,,11.2
181,299100,2026-01-09 20:11:47,0.0,5,7.631,0.0,0.0,0.0,11.7,2.5,-0.1,1024,1024,1024,1024,0,0,0,0,79,4.939,72.86,36.745408,P-GPS,,11.2
182,299200,2026-01-09 20:11:47,0.0,5,7.631,0.0,0.0,0.0,11.8,2.7,0.0,1024,1024,1024,1024,0,0,0,0,79,4.939,72.86,36.745408,P-GPS,,11.2
183,299300,2026-01-09 20:11:47,0.0,5,7.631,0.0,0.0,0.0,11.8,3.0,0.1,1024,1024,1024,1024,0,0,0,0,79,4.939,72.86,36.745408,P-GPS,,11.2
184,299400,2026-01-09 20:11:47,0.0,5,7.631,0.0,0.0,0.0,11.8,2.8,0.0,1024,1024,1024,1024,0,0,0,0,79,4.939,72.86,36.745408,P-GPS,,11.2
185,299500,2026-01-09 20:11:47,0.0,5,7.631,0.0,0.0,0.0,11.7,3.2,-0.2,1024,1024,1024,1024,0,0,0,0,79,4.939,72.86,36.745408,P-GPS,,11.2
186,299600,2026-01-09 20:11:47,0.0,5,7.631,0.0,0.0,0.0,11.8,2.7,0.0,1024,1024,1024,1024,0,0,0,0,79,4.939,72.86,36.745408,P-GPS,,11.2
187,299700,2026-01-09 20:11:47,0.0,5,7.631,0.0,0.0,0.0,11.8,2.4,0.0,1024,1024,1024,1024,0,0,0,0,79,4.939,72.86,36.745408,P-GPS,,11.2
188,299800,2026-01-09 20:11:47,0.0,5,7.631,0.0,0.0,0.0,11.7,2.4,0.0,1024,1024,1024,1024,0,0,0,0,79,4.939,72.86,36.745408,P-GPS,,11.2
189,299900,2026-01-09 20:11:47,0.0,5,7.631,0.0,0.0,0.0,11.7,2.5,0.0,1024,1024,1024,1024,0,0,0,0,79,4.939,72.86,36.745408,P-GPS,,11.2
190,300000,2026-01-09 20:11:48,0.0,5,7.623,0.0,0.0,0.0,11.7,2.5,0.2,1024,1024,1024,1024,0,0,0,0,79,5.001,72.86,36.745408,P-GPS,,11.2
191,300100,2026-01-09 20:11:48,0.0,5,7.623,0.0,0.0,0.0,11.6,2.4,-0.2,1024,1024,1024,1024,0,0,0,0,79,5.001,72.86,36.745408,P-GPS,,11.2
192,300200,2026-01-09 20:11:48,0.0,5,7.623,0.0,0.0,0.0,11.6,2.4,-0.8,1024,1024,1024,1024,0,0,0,0,79,5.001,72.86,37.073492,P-GPS,,11.3
193,300300,2026-01-09 20:11:48,0.0,5,7.623,0.0,0.0,0.0,11.6,2.4,-1.2,1024,1024,1024,1024,0,0,0,0,79,5.001,72.86,37.073492,P-GPS,,11.3
194,300400,2026-01-09 20:11:48,0.0,5,7.623,0.0,0.0,0.0,11.6,2.6,-1.2,1024,1024,1024,1024,0,0,0,0,79,5.001,72.86,37.073492,P-GPS,,11.3
195,300500,2026-01-09 20:11:48,0.0,5,7.623,0.0,0.0,0.0,11.6,2.5,-0.9,1024,1024,1024,1024,0,0,0,0,79,5.001,72.86,37.073492,P-GPS,,11.3
196,300600,2026-01-09 20:11:48,0.0,5,7.623,0.0,0.0,0.0,11.7,2.2,-1.0,1024,1024,1024,1024,0,0,0,0,79,5.001,72.86,37.073492,P-GPS,,11.3
197,300700,2026-01-09 20:11:48,0.0,5,7.623,0.0,0.0,0.0,11.7,2.3,-1.1,1024,1024,1024,1024,0,0,0,0,79,5.001,72.86,37.073492,P-GPS,,11.3
198,300800,2026-01-09 20:11:48,0.0,5,7.623,0.0,0.0,0.0,11.6,2.2,-1.0,1024,1024,1024,1024,0,0,0,0,79,5.001,72.86,37.073492,P-GPS,,11.3
199,300900,2026-01-09 20:11:48,0.0,5,7.623,0.0,0.0,0.0,11.7,2.4,-1.3,1024,1024,1024,1024,0,0,0,0,79,5.001,72.86,37.073492,P-GPS,,11.3
200,301000,2026-01-09 20:11:49,0.0,5,7.623,0.0,0.0,0.0,11.7,2.2,-1.3,1024,1024,1024,1024,0,0,0,0,79,5.001,72.86,37.073492,P-GPS,,11.3
201,301100,2026-01-09 20:11:49,0.0,5,7.628,0.0,0.0,0.0,11.7,2.2,-1.0,1024,1024,1024,1024,0,0,0,0,79,4.832,72.86,37.073492,P-GPS,,11.3
202,301200,2026-01-09 20:11:49,0.0,5,7.628,0.0,0.0,0.0,11.8,2.5,-1.1,1024,1024,1024,1024,0,0,0,0,79,4.832,72.86,37.073492,P-GPS,,11.3
203,301300,2026-01-09 20:11:49,0.0,5,7.628,0.0,0.0,0.0,11.8,2.6,-1.0,1024,1024,1024,1024,0,0,0,0,79,4.832,72.86,37.401576,P-GPS,,11.4
204,301400,2026-01-09 20:11:49,0.0,5,7.628,0.0,0.0,0.0,11.7,2.1,-1.9,1024,1024,1024,1024,0,0,0,0,79,4.832,72.86,37.401576,P-GPS,,11.4
205,301500,2026-01-09 20:11:49,0.0,5,7.628,0.0,0.0,0.0,11.8,2.6,-1.9,1024,1024,1024,1024,0,0,0,0,79,4.832,72.86,37.401576,P-GPS,,11.4
206,301600,2026-01-09 20:11:49,0.0,5,7.628,0.0,0.0,0.0,11.8,3.1,-1.6,1024,1024,1024,1024,0,0,0,0,79,4.832,72.86,37.401576,P-GPS,,11.4
207,301700,2026-01-09 20:11:49,0.0,5,7.628,0.0,0.0,0.0,11.8,3.0,-1.5,1024,1024,1024,1024,0,0,0,0,79,4.832,72.86,37.401576,P-GPS,,11.4
208,301800,2026-01-09 20:11:49,0.0,5,7.628,0.0,0.0,0.0,11.8,3.1,-1.5,1024,1024,1024,1024,0,0,0,0,79,4.832,72.86,37.401576,P-GPS,,11.4
209,301900,2026-01-09 20:11:49,0.0,5,7.628,0.0,0.0,0.0,11.8,3.3,-1.2,1024,1024,1024,1024,0,0,0,0,79,4.832,72.86,37.401576,P-GPS,,11.4
210,302000,2026-01-09 20:11:49,0.0,5,7.628,0.0,0.0,0.0,11.7,3.4,-1.2,1024,1024,1024,1024,0,0,0,0,79,4.832,72.86,37.401576,P-GPS,,11.4
211,302100,2026-01-09 20:11:50,0.0,5,7.628,0.0,0.0,0.0,11.7,3.3,-1.3,1024,1024,1024,1024,0,0,0,0,79,4.832,72.86,37.401576,P-GPS,,11.4
212,302200,2026-01-09 20:11:50,0.0,5,7.623,0.0,0.0,0.0,11.7,3.4,-1.2,1024,1024,1024,1024,0,0,0,0,79,4.889,73.04,37.401576,P-GPS,,11.4
213,302300,2026-01-09 20:11:50,0.0,5,7.623,0.0,0.0,0.0,11.7,3.8,-1.1,1024,1024,1024,1024,0,0,0,0,79,4.889,73.04,37.72966,P-GPS,,11.5
214,302400,2026-01-09 20:11:50,0.0,5,7.623,0.0,0.0,0.0,11.7,3.8,-0.9,1024,1024,1024,1024,0,0,0,0,79,4.889,73.04,37.72966,P-GPS,,11.5
215,302500,2026-01-09 20:11:50,0.0,5,7.623,0.0,0.0,0.0,11.7,3.6,-1.1,1024,1024,1024,1024,0,0,0,0,79,4.889,73.04,37.72966,P-GPS,,11.5
216,302600,2026-01-09 20:11:50,0.0,5,7.623,0.0,0.0,0.0,11.7,3.3,-1.5,1024,1024,1024,1024,0,0,0,0,79,4.889,73.04,37.72966,P-GPS,,11.5
217,302700,2026-01-09 20:11:50,0.0,5,7.623,0.0,0.0,0.0,11.8,3.4,-1.1,1024,1024,1024,1024,0,0,0,0,79,4.889,73.04,37.72966,P-GPS,,11.5
218,302800,2026-01-09 20:11:50,0.0,5,7.623,0.0,0.0,0.0,11.8,3.4,-1.0,1024,1024,1024,1024,0,0,0,0,79,4.889,73.04,37.72966,P-GPS,,11.5
219,302900,2026-01-09 20:11:50,0.0,5,7.623,0.0,0.0,0.0,11.7,3.5,-0.8,1024,1024,1024,1024,0,0,0,0,79,4.889,73.04,37.72966,P-GPS,,11.5
220,303000,2026-01-09 20:11:51,0.0,5,7.623,0.0,0.0,0.0,11.7,3.3,-0.7,1024,1024,1024,1024,0,0,0,0,79,4.889,73.04,37.72966,P-GPS,,11.5
221,303100,2026-01-09 20:11:51,0.0,5,7.623,0.0,0.0,0.0,11.7,3.2,-0.6,1024,1024,1024,1024,0,0,0,0,79,4.889,73.04,37.72966,P-GPS,,11.5
222,303200,2026-01-09 20:11:51,0.0,5,7.623,0.0,0.0,0.0,11.7,2.8,-0.6,1024,1024,1024,1024,0,0,0,0,79,4.889,73.04,37.72966,P-GPS,,11.5
223,303300,2026-01-09 20:11:51,0.0,5,7.625,0.0,0.0,0.0,11.7,2.6,-0.8,1024,1024,1024,1024,0,0,0,0,78,5.06,73.04,37.72966,P-GPS,,11.5
224,303400,2026-01-09 20:11:51,0.0,5,7.625,0.0,0.0,0.0,11.7,2.5,-0.8,1024,1024,1024,1024,0,0,0,0,78,5.06,73.04,37.72966,P-GPS,,11.5
225,303500,2026-01-09 20:11:51,0.0,5,7.625,0.0,0.0,0.0,11.7,2.5,-0.9,1024,1024,1024,1024,0,0,0,0,78,5.06,73.04,37.72966,P-GPS,,11.5
226,303600,2026-01-09 20:11:51,0.0,5,7.625,0.0,0.0,0.0,11.7,2.5,-1.2,1024,1024,1024,1024,0,0,0,0,78,5.06,73.04,37.72966,P-GPS,,11.5
227,303700,2026-01-09 20:11:51,0.0,5,7.625,0.0,0.0,0.0,11.7,2.7,-1.4,1024,1024,1024,1024,0,0,0,0,78,5.06,73.04,37.72966,P-GPS,,11.5
228,303800,2026-01-09 20:11:51,0.0,5,7.625,0.0,0.0,0.0,11.6,2.8,-1.2,1024,1024,1024,1024,0,0,0,0,78,5.06,73.04,37.72966,P-GPS,,11.5
229,303900,2026-01-09 20:11:51,0.0,5,7.625,0.0,0.0,0.0,11.6,2.8,-1.1,1024,1024,1024,1024,0,0,0,0,78,5.06,73.04,37.72966,P-GPS,,11.5
230,304000,2026-01-09 20:11:51,0.0,5,7.625,0.0,0.0,0.0,11.6,2.9,-0.9,1024,1024,1024,1024,0,0,0,0,78,5.06,73.04,37.72966,P-GPS,,11.5
231,304100,2026-01-09 20:11:52,0.0,5,7.625,0.0,0.0,0.0,11.6,3.2,-0.8,1024,1024,1024,1024,0,0,0,0,78,5.06,73.04,37.72966,P-GPS,,11.5
232,304200,2026-01-09 20:11:52,0.0,5,7.625,0.0,0.0,0.0,11.6,3.1,-0.9,1024,1024,1024,1024,0,0,0,0,78,5.06,73.04,37.72966,P-GPS,,11.5
233,304300,2026-01-09 20:11:52,0.0,5,7.625,0.0,0.0,0.0,11.6,3.1,-1.1,1024,1024,1024,1024,0,0,0,0,78,5.06,73.04,37.72966,P-GPS,,11.5
234,304400,2026-01-09 20:11:52,0.0,5,7.625,0.0,0.0,0.0,11.6,3.1,-1.2,1024,1024,1024,1024,0,0,0,0,78,5.06,73.04,37.401576,P-GPS,,11.4
235,304500,2026-01-09 20:11:52,0.0,5,7.625,0.0,0.0,0.0,11.5,2.8,-1.1,1024,1024,1024,1024,0,0,0,0,78,5.06,73.04,37.401576,P-GPS,,11.4
236,304600,2026-01-09 20:11:52,0.0,5,7.625,0.0,0.0,0.0,11.5,2.7,-1.2,1024,1024,1024,1024,0,0,0,0,78,5.06,73.04,37.401576,P-GPS,,11.4
237,304700,2026-01-09 20:11:52,0.0,5,7.625,0.0,0.0,0.0,11.6,2.6,-1.5,1024,1024,1024,1024,0,0,0,0,78,5.06,73.04,37.401576,P-GPS,,11.4
238,304800,2026-01-09 20:11:52,0.0,5,7.625,0.0,0.0,0.0,11.6,2.3,-1.4,1024,1024,1024,1024,0,0,0,0,78,5.06,73.04,37.401576,P-GPS,,11.4
239,304900,2026-01-09 20:11:52,0.0,5,7.625,0.0,0.0,0.0,11.7,2.1,-1.4,1024,1024,1024,1024,0,0,0,0,78,5.06,73.04,37.401576,P-GPS,,11.4
240,305000,2026-01-09 20:11:53,0.0,5,7.625,0.0,0.0,0.0,11.8,2.1,-1.3,1024,1024,1024,1024,0,0,0,0,78,5.06,73.04,37.401576,P-GPS,,11.4
241,305100,2026-01-09 20:11:53,0.0,5,7.625,0.0,0.0,0.0,11.7,2.0,-1.3,1024,1024,1024,1024,0,0,0,0,78,5.06,73.04,37.401576,P-GPS,,11.4
242,305200,2026-01-09 20:11:53,0.0,5,7.625,0.0,0.0,0.0,11.7,2.0,-1.1,1024,1024,1024,1024,0,0,0,0,78,5.06,73.04,37.401576,P-GPS,,11.4
243,305300,2026-01-09 20:11:53,0.0,5,7.625,0.0,0.0,0.0,11.6,2.2,-0.9,1024,1024,1024,1024,0,0,0,0,78,5.06,73.04,37.073492,P-GPS,,11.3
244,305400,2026-01-09 20:11:53,0.0,5,7.625,0.0,0.0,0.0,11.6,2.3,-0.6,1024,1024,1024,1024,0,0,0,0,78,5.06,73.04,37.073492,P-GPS,,11.3
245,305500,2026-01-09 20:11:53,0.0,5,7.625,0.0,0.0,0.0,11.6,2.4,-0.5,1024,1024,1024,1024,0,0,0,0,78,5.06,73.04,37.073492,P-GPS,,11.3
246,305600,2026-01-09 20:11:53,0.0,5,7.62,0.0,0.0,0.0,11.5,2.3,-0.5,1024,1024,1024,1024,0,0,0,0,78,4.852,73.04,37.073492,P-GPS,,11.3
247,305700,2026-01-09 20:11:53,0.0,5,7.62,0.0,0.0,0.0,11.5,1.8,-0.4,1024,1024,1024,1024,0,0,0,0,78,4.852,73.04,37.073492,P-GPS,,11.3
248,305800,2026-01-09 20:11:53,0.0,5,7.62,0.0,0.0,0.0,11.4,2.1,-0.5,1024,1024,1024,1024,0,0,0,0,78,4.852,73.04,37.073492,P-GPS,,11.3
249,305900,2026-01-09 20:11:53,0.0,5,7.62,0.0,0.0,0.0,11.5,2.2,-0.6,1024,1024,1024,1024,0,0,0,0,78,4.852,73.04,37.073492,P-GPS,,11.3
250,306000,2026-01-09 20:11:53,0.0,5,7.62,0.0,0.0,0.0,11.6,2.0,-0.7,1024,1024,1024,1024,0,0,0,0,78,4.852,73.04,37.073492,P-GPS,,11.3
251,306100,2026-01-09 20:11:54,0.0,5,7.62,0.0,0.0,0.0,11.6,1.9,-0.9,1024,1024,1024,1024,0,0,0,0,78,4.852,73.04,37.073492,P-GPS,,11.3
252,306200,2026-01-09 20:11:54,0.0,5,7.62,0.0,0.0,0.0,11.6,1.6,-1.2,1024,1024,1024,1024,0,0,0,0,78,4.852,73.04,37.073492,P-GPS,,11.3
253,306300,2026-01-09 20:11:54,0.0,5,7.62,0.0,0.0,0.0,11.7,1.6,-1.2,1024,1024,1024,1024,0,0,0,0,78,4.852,73.04,37.073492,P-GPS,,11.3
254,306400,2026-01-09 20:11:54,0.0,5,7.62,0.0,0.0,0.0,11.8,1.6,-1.3,1024,1024,1024,1024,0,0,0,0,78,4.852,73.04,37.073492,P-GPS,,11.3
255,306500,2026-01-09 20:11:54,0.0,5,7.62,0.0,0.0,0.0,11.8,1.6,-1.3,1024,1024,1024,1024,0,0,0,0,78,4.852,73.04,37.073492,P-GPS,,11.3
256,306600,2026-01-09 20:11:54,0.0,5,7.62,0.0,0.0,0.0,11.8,1.5,-1.2,1024,1024,1024,1024,0,0,0,0,78,4.852,73.04,37.073492,P-GPS,,11.3
257,306700,2026-01-09 20:11:54,0.0,5,7.626,0.0,0.0,0.0,11.7,1.7,-1.2,1024,1024,1024,1024,0,0,0,0,78,4.785,73.04,37.073492,P-GPS,,11.3
258,306800,2026-01-09 20:11:54,0.0,5,7.626,0.0,0.0,0.0,11.7,2.0,-1.2,1024,1024,1024,1024,0,0,0,0,78,4.785,73.04,37.073492,P-GPS,,11.3
259,306900,2026-01-09 20:11:54,0.0,5,7.626,0.0,0.0,0.0,11.7,2.2,-1.4,1024,1024,1024,1024,0,0,0,0,78,4.785,73.04,37.073492,P-GPS,,11.3
260,307000,2026-01-09 20:11:55,0.0,5,7.626,0.0,0.0,0.0,11.7,2.4,-1.3,1024,1024,1024,1024,0,0,0,0,78,4.785,73.04,37.073492,P-GPS,,11.3
261,307100,2026-01-09 20:11:55,0.0,5,7.626,0.0,0.0,0.0,11.6,2.5,-1.1,1024,1024,1024,1024,0,0,0,0,78,4.785,73.04,37.073492,P-GPS,,11.3
262,307200,2026-01-09 20:11:55,0.0,5,7.626,0.0,0.0,0.0,11.6,2.4,-1.1,1024,1024,1024,1024,0,0,0,0,78,4.785,73.04,37.073492,P-GPS,,11.3
263,307300,2026-01-09 20:11:55,0.0,5,7.626,0.0,0.0,0.0,11.6,2.3,-0.9,1024,1024,1024,1024,0,0,0,0,78,4.785,73.04,37.073492,P-GPS,,11.3
264,307400,2026-01-09 20:11:55,0.0,5,7.626,0.0,0.0,0.0,11.6,2.2,-0.7,1024,1024,1024,1024,0,0,0,0,78,4.785,73.04,37.073492,P-GPS,,11.3
265,307500,2026-01-09 20:11:55,0.0,5,7.626,0.0,0.0,0.0,11.6,2.0,-0.5,1024,1024,1024,1024,0,0,0,0,78,4.785,73.04,37.073492,P-GPS,,11.3
266,307600,2026-01-09 20:11:55,0.0,5,7.626,0.0,0.0,0.0,11.6,1.9,-0.6,1024,1024,1024,1024,0,0,0,0,78,4.785,73.04,37.073492,P-GPS,,11.3
267,307700,2026-01-09 20:11:55,0.0,5,7.626,0.0,0.0,0.0,11.7,1.8,-0.7,1024,1024,1024,1024,0,0,0,0,78,4.785,73.04,37.073492,P-GPS,,11.3
268,307800,2026-01-09 20:11:55,0.0,5,7.63,0.0,0.0,0.0,11.7,2.0,-0.8,1024,1024,1024,1024,0,0,0,0,78,4.646,73.04,37.073492,P-GPS,,11.3
269,307900,2026-01-09 20:11:55,0.0,5,7.63,0.0,0.0,0.0,11.7,2.0,-0.8,1024,1024,1024,1024,0,0,0,0,78,4.646,73.04,37.073492,P-GPS,,11.3
270,308000,2026-01-09 20:11:55,0.0,5,7.63,0.0,0.0,0.0,11.7,2.0,-0.8,1024,1024,1024,1024,0,0,0,0,78,4.646,73.04,37.073492,P-GPS,,11.3
271,308100,2026-01-09 20:11:56,0.0,5,7.63,0.0,0.0,0.0,11.7,2.2,-0.9,1024,1024,1024,1024,0,0,0,0,78,4.646,73.04,37.073492,P-GPS,,11.3
272,308200,2026-01-09 20:11:56,0.0,5,7.63,0.0,0.0,0.0,11.8,2.3,-0.8,1024,1024,1024,1024,0,0,0,0,78,4.646,73.04,37.073492,P-GPS,,11.3
273,308300,2026-01-09 20:11:56,0.0,5,7.63,0.0,0.0,0.0,11.7,2.3,-0.9,1024,1024,1024,1024,0,0,0,0,78,4.646,73.04,37.073492,P-GPS,,11.3
274,308400,2026-01-09 20:11:56,0.0,5,7.63,0.0,0.0,0.0,11.7,2.2,-1.1,1024,1024,1024,1024,0,0,0,0,78,4.646,73.04,37.073492,P-GPS,,11.3
275,308500,2026-01-09 20:11:56,0.0,5,7.63,0.0,0.0,0.0,11.7,2.4,-1.2,1024,1024,1024,1024,0,0,0,0,78,4.646,73.04,37.073492,P-GPS,,11.3
276,308600,2026-01-09 20:11:56,0.0,5,7.63,0.0,0.0,0.0,11.7,2.5,-1.5,1024,1024,1024,1024,0,0,0,0,78,4.646,73.04,37.073492,P-GPS,,11.3
277,308700,2026-01-09 20:11:56,0.0,5,7.63,0.0,0.0,0.0,11.7,2.6,-1.6,1024,1024,1024,1024,0,0,0,0,78,4.646,73.04,36.745408,P-GPS,,11.2
278,308800,2026-01-09 20:11:56,0.0,5,7.63,0.0,0.0,0.0,11.8,2.7,-1.7,1024,1024,1024,1024,0,0,0,0,78,4.646,73.04,36.745408,P-GPS,,11.2
279,308900,2026-01-09 20:11:56,0.0,5,7.623,0.0,0.0,0.0,11.8,2.7,-1.5,1024,1024,1024,1024,0,0,0,0,78,4.709,73.22,36.745408,P-GPS,,11.2
280,309000,2026-01-09 20:11:56,0.0,5,7.623,0.0,0.0,0.0,11.8,2.5,-1.5,1024,1024,1024,1024,0,0,0,0,78,4.709,73.22,36.745408,P-GPS,,11.2
281,309100,2026-01-09 20:11:57,0.0,5,7.623,0.0,0.0,0.0,11.8,2.6,-1.4,1024,1024,1024,1024,0,0,0,0,78,4.709,73.22,36.745408,P-GPS,,11.2
282,309200,2026-01-09 20:11:57,0.0,5,7.623,0.0,0.0,0.0,11.7,2.7,-1.4,1024,1024,1024,1024,0,0,0,0,78,4.709,73.22,36.745408,P-GPS,,11.2
283,309300,2026-01-09 20:11:57,0.0,5,7.623,0.0,0.0,0.0,11.7,2.7,-1.4,1024,1024,1024,1024,0,0,0,0,78,4.709,73.22,36.745408,P-GPS,,11.2
284,309400,2026-01-09 20:11:57,0.0,5,7.623,0.0,0.0,0.0,11.7,2.8,-1.3,1024,1024,1024,1024,0,0,0,0,78,4.709,73.22,36.745408,P-GPS,,11.2
285,309500,2026-01-09 20:11:57,0.0,5,7.623,0.0,0.0,0.0,11.7,3.0,-1.1,1024,1024,1024,1024,0,0,0,0,78,4.709,73.22,36.745408,P-GPS,,11.2
286,309600,2026-01-09 20:11:57,0.0,5,7.623,0.0,0.0,0.0,11.6,3.1,-1.3,1024,1024,1024,1024,0,0,0,0,78,4.709,73.22,36.745408,P-GPS,,11.2
287,309700,2026-01-09 20:11:57,0.0,5,7.623,0.0,0.0,0.0,11.6,3.2,-1.4,1024,1024,1024,1024,0,0,0,0,78,4.709,73.22,36.745408,P-GPS,,11.2
288,309800,2026-01-09 20:11:57,0.0,5,7.623,0.0,0.0,0.0,11.7,2.9,-1.5,1024,1024,1024,1024,0,0,0,0,78,4.709,73.22,36.745408,P-GPS,,11.2
289,309900,2026-01-09 20:11:57,0.0,5,7.623,0.0,0.0,0.0,11.7,2.7,-1.8,1024,1024,1024,1024,0,0,0,0,78,4.709,73.22,36.745408,P-GPS,,11.2
290,310000,2026-01-09 20:11:58,0.0,5,7.623,0.0,0.0,0.0,11.8,2.5,-1.6,1024,1024,1024,1024,0,0,0,0,78,4.717,73.22,36.745408,P-GPS,,11.2
291,310100,2026-01-09 20:11:58,0.0,5,7.623,0.0,0.0,0.0,11.8,2.5,-1.4,1024,1024,1024,1024,0,0,0,0,78,4.717,73.22,36.745408,P-GPS,,11.2
292,310200,2026-01-09 20:11:58,0.0,5,7.623,0.0,0.0,0.0,11.8,2.6,-1.4,1024,1024,1024,1024,0,0,0,0,78,4.717,73.22,36.745408,P-GPS,,11.2
293,310300,2026-01-09 20:11:58,0.0,5,7.623,0.0,0.0,0.0,11.8,2.8,-1.3,1024,1024,1024,1024,0,0,0,0,78,4.717,73.22,36.745408,P-GPS,,11.2
294,310400,2026-01-09 20:11:58,0.0,5,7.623,0.0,0.0,0.0,11.7,2.8,-1.3,1024,1024,1024,1024,0,0,0,0,78,4.717,73.22,36.745408,P-GPS,,11.2
295,310500,2026-01-09 20:11:58,0.0,5,7.623,0.0,0.0,0.0,11.7,2.8,-1.4,1024,1024,1024,1024,0,0,0,0,78,4.717,73.22,36.745408,P-GPS,,11.2
296,310600,2026-01-09 20:11:58,0.0,5,7.623,0.0,0.0,0.0,11.7,2.7,-1.4,1024,1024,1024,1024,0,0,0,0,78,4.717,73.22,36.745408,P-GPS,,11.2
297,310700,2026-01-09 20:11:58,0.0,5,7.623,0.0,0.0,0.0,11.7,2.7,-1.3,1024,1024,1024,1024,0,0,0,0,78,4.717,73.22,36.745408,P-GPS,,11.2
298,310800,2026-01-09 20:11:58,0.0,5,7.623,0.0,0.0,0.0,11.7,3.0,-1.3,1024,1024,1024,1024,0,0,0,0,78,4.717,73.22,36.745408,P-GPS,,11.2
299,310900,2026-01-09 20:11:58,0.0,5,7.623,0.0,0.0,0.0,11.6,2.9,-1.4,1024,1024,1024,1024,0,0,0,0,78,4.717,73.22,36.745408,P-GPS,,11.2
300,311000,2026-01-09 20:11:59,0.0,5,7.623,0.0,0.0,0.0,11.6,3.1,-1.4,1024,1024,1024,1024,0,0,0,0,78,4.717,73.22,36.745408,P-GPS,,11.2
301,311100,2026-01-09 20:11:59,0.0,5,7.626,0.0,0.0,0.0,11.6,3.2,-1.4,1024,1024,1024,1024,0,0,0,0,78,4.696,73.22,36.745408,P-GPS,,11.2
302,311200,2026-01-09 20:11:59,0.0,5,7.626,0.0,0.0,0.0,11.6,3.5,-1.3,1024,1024,1024,1024,0,0,0,0,78,4.696,73.22,36.745408,P-GPS,,11.2
303,311300,2026-01-09 20:11:59,0.0,5,7.626,0.0,0.0,0.0,11.7,3.4,-1.4,1024,1024,1024,1024,0,0,0,0,78,4.696,73.22,36.745408,P-GPS,,11.2
304,311400,2026-01-09 20:11:59,0.0,5,7.626,0.0,0.0,0.0,11.7,3.4,-1.5,1024,1024,1024,1024,0,0,0,0,78,4.696,73.22,36.745408,P-GPS,,11.2
305,311500,2026-01-09 20:11:59,0.0,5,7.626,0.0,0.0,0.0,11.7,3.3,-1.6,1024,1024,1024,1024,0,0,0,0,78,4.696,73.22,36.745408,P-GPS,,11.2
306,311600,2026-01-09 20:11:59,0.0,5,7.626,0.0,0.0,0.0,11.6,3.5,-1.4,1024,1024,1024,1024,0,0,0,0,78,4.696,73.22,36.745408,P-GPS,,11.2
307,311700,2026-01-09 20:11:59,0.0,5,7.626,0.0,0.0,0.0,11.7,3.5,-1.4,1024,1024,1024,1024,0,0,0,0,78,4.696,73.22,36.745408,P-GPS,,11.2
308,311800,2026-01-09 20:11:59,0.0,5,7.626,0.0,0.0,0.0,11.7,3.4,-1.6,1024,1024,1024,1024,0,0,0,0,78,4.696,73.22,36.745408,P-GPS,,11.2
309,311900,2026-01-09 20:11:59,0.0,5,7.626,0.0,0.0,0.0,11.7,3.4,-1.6,1024,1024,1024,1024,0,0,0,0,78,4.696,73.22,36.745408,P-GPS,,11.2
310,312000,2026-01-09 20:12:00,0.0,5,7.626,0.0,0.0,0.0,11.7,3.4,-1.5,1024,1024,1024,1024,0,0,0,0,78,4.696,73.22,36.745408,P-GPS,,11.2
311,312100,2026-01-09 20:12:00,0.0,5,7.626,0.0,0.0,0.0,11.7,3.3,-1.5,1024,1024,1024,1024,0,0,0,0,78,4.696,73.22,36.745408,P-GPS,,11.2
312,312200,2026-01-09 20:12:00,0.0,5,7.624,0.0,0.0,0.0,11.6,3.5,-1.5,1024,1024,1024,1024,0,0,0,0,78,4.685,73.22,36.745408,P-GPS,,11.2
313,312300,2026-01-09 20:12:00,0.0,5,7.624,0.0,0.0,0.0,11.6,3.6,-1.3,1024,1024,1024,1024,0,0,0,0,78,4.685,73.22,36.417324,P-GPS,,11.1
314,312400,2026-01-09 20:12:00,0.0,5,7.624,0.0,0.0,0.0,11.6,3.7,-1.3,1024,1024,1024,1024,0,0,0,0,78,4.685,73.22,36.417324,P-GPS,,11.1
315,312500,2026-01-09 20:12:00,0.0,5,7.624,0.0,0.0,0.0,11.6,3.8,-1.0,1024,1024,1024,1024,0,0,0,0,78,4.685,73.22,36.417324,P-GPS,,11.1
316,312600,2026-01-09 20:12:00,0.0,5,7.624,0.0,0.0,0.0,11.6,3.8,-1.0,1024,1024,1024,1024,0,0,0,0,78,4.685,73.22,36.417324,P-GPS,,11.1
317,312700,2026-01-09 20:12:00,0.0,5,7.624,0.0,0.0,0.0,11.6,3.7,-0.9,1024,1024,1024,1024,0,0,0,0,78,4.685,73.22,36.417324,P-GPS,,11.1
318,312800,2026-01-09 20:12:00,0.0,5,7.624,0.0,0.0,0.0,11.6,3.5,-0.9,1024,1024,1024,1024,0,0,0,0,78,4.685,73.22,36.417324,P-GPS,,11.1
319,312900,2026-01-09 20:12:00,0.0,5,7.624,0.0,0.0,0.0,11.6,3.3,-1.1,1024,1024,1024,1024,0,0,0,0,78,4.685,73.22,36.417324,P-GPS,,11.1
320,313000,2026-01-09 20:12:00,0.0,5,7.624,0.0,0.0,0.0,11.6,3.1,-1.2,1024,1024,1024,1024,0,0,0,0,78,4.685,73.22,36.417324,P-GPS,,11.1
321,313100,2026-01-09 20:12:01,0.0,5,7.624,0.0,0.0,0.0,11.6,3.1,-1.3,1024,1024,1024,1024,0,0,0,0,78,4.685,73.22,36.417324,P-GPS,,11.1
322,313200,2026-01-09 20:12:01,0.0,5,7.624,0.0,0.0,0.0,11.7,3.0,-1.5,1024,1024,1024,1024,0,0,0,0,78,4.685,73.22,36.417324,P-GPS,,11.1
323,313300,2026-01-09 20:12:01,0.0,5,7.624,0.0,0.0,0.0,11.7,2.9,-1.6,1024,1024,1024,1024,0,0,0,0,78,4.685,73.22,36.08924,P-GPS,,11.0
324,313400,2026-01-09 20:12:01,0.0,5,7.624,0.0,0.0,0.0,11.7,3.1,-1.5,1024,1024,1024,1024,0,0,0,0,78,4.685,73.22,36.08924,P-GPS,,11.0
