index,time(millisecond),timestamp,speed(mph),gpslevel,voltage(v),xSpeed(mph),ySpeed(mph),zSpeed(mph),compass_heading(degrees),pitch(degrees),roll(degrees),rc_elevator,rc_aileron,rc_throttle,rc_rudder,rc_elevator(percent),rc_aileron(percent),rc_throttle(percent),rc_rudder(percent),battery_percent,current(A),battery_temperature(f),ascent(feet),flycState,message,height_above_takeoff(meters)
807,221600,2026-01-09 20:10:18,0.0,5,7.627,0.0,0.0,0.0,5.5,5.8,-2.6,1024,1024,1024,1024,0,0,0,0,84,5.79,70.88,165.68242,P-GPS,,50.5
808,221700,2026-01-09 20:10:18,0.0,5,7.697,0.0,0.0,0.0,5.5,5.9,-2.7,1024,1024,1024,1024,0,0,0,0,84,3.972,70.88,166.010504,P-GPS,,50.6
809,221800,2026-01-09 20:10:18,0.0,5,7.697,0.0,0.0,0.0,5.5,6.1,-2.7,1024,1024,1024,1024,0,0,0,0,84,3.972,70.88,166.010504,P-GPS,,50.6
810,221900,2026-01-09 20:10:18,0.0,5,7.697,0.0,0.0,0.0,5.5,6.2,-2.8,1024,1024,1024,1024,0,0,0,0,84,3.972,70.88,166.010504,P-GPS,,50.6
811,222000,2026-01-09 20:10:18,0.0,5,7.697,0.0,0.0,0.0,5.5,6.1,-2.8,1024,1024,1024,1024,0,0,0,0,84,3.972,70.88,166.010504,P-GPS,,50.6
812,222100,2026-01-09 20:10:19,0.0,5,7.697,0.0,0.0,0.0,5.5,5.8,-2.6,1024,1024,1024,1024,0,0,0,0,84,3.972,70.88,166.010504,P-GPS,,50.6
813,222200,2026-01-09 20:10:19,0.0,5,7.697,0.0,0.0,0.0,5.5,5.8,-2.6,1024,1024,1024,1024,0,0,0,0,84,3.972,70.88,166.010504,P-GPS,,50.6
814,222300,2026-01-09 20:10:19,0.0,5,7.697,0.0,0.0,0.0,5.5,5.7,-2.5,1024,1024,1024,1024,0,0,0,0,84,3.972,70.88,166.010504,P-GPS,,50.6
815,222400,2026-01-09 20:10:19,0.0,5,7.697,0.0,0.0,0.0,5.5,5.7,-2.5,1024,1024,1024,1024,0,0,0,0,84,3.972,70.88,166.010504,P-GPS,,50.6
816,222500,2026-01-09 20:10:19,0.0,5,7.697,0.0,0.0,0.0,5.6,5.3,-2.4,1024,1024,1024,1024,0,0,0,0,84,3.972,70.88,166.010504,P-GPS,,50.6
817,222600,2026-01-09 20:10:19,0.0,5,7.697,0.0,0.0,0.0,5.5,5.6,-2.4,1024,1024,1024,1024,0,0,0,0,84,3.972,70.88,166.010504,P-GPS,,50.6
818,222700,2026-01-09 20:10:19,0.0,5,7.697,0.0,0.0,0.0,5.5,5.3,-2.3,1024,1024,1024,1024,0,0,0,0,84,3.972,70.88,166.010504,P-GPS,,50.6
819,222800,2026-01-09 20:10:19,0.0,5,7.686,0.0,0.0,0.0,5.5,5.3,-2.2,1024,1024,1024,1024,0,0,0,0,83,4.712,70.88,166.010504,P-GPS,,50.6
820,222900,2026-01-09 20:10:19,0.0,5,7.686,0.0,0.0,0.0,5.5,5.0,-2.1,1024,1024,1024,1024,0,0,0,0,83,4.712,70.88,166.010504,P-GPS,,50.6
821,223000,2026-01-09 20:10:20,0.0,5,7.686,0.0,0.0,0.0,5.5,5.3,-2.3,1024,1024,1024,1024,0,0,0,0,83,4.712,70.88,166.010504,P-GPS,,50.6
822,223100,2026-01-09 20:10:20,0.0,5,7.686,0.0,0.0,0.0,5.5,5.2,-2.1,1024,1024,1024,1024,0,0,0,0,83,4.712,70.88,166.010504,P-GPS,,50.6
823,223200,2026-01-09 20:10:20,0.0,5,7.686,0.0,0.0,0.0,5.5,5.3,-2.0,1024,1024,1024,1024,0,0,0,0,83,4.712,70.88,166.010504,P-GPS,,50.6
824,223300,2026-01-09 20:10:20,0.0,5,7.686,0.0,0.0,0.0,5.6,5.0,-1.9,1024,1024,1024,1024,0,0,0,0,83,4.712,70.88,166.010504,P-GPS,,50.6
825,223400,2026-01-09 20:10:20,0.0,5,7.686,0.0,0.0,0.0,5.6,5.0,-2.0,1024,1024,1024,1024,0,0,0,0,83,4.712,70.88,166.010504,P-GPS,,50.6
826,223500,2026-01-09 20:10:20,0.0,5,7.686,0.0,0.0,0.0,5.6,5.0,-1.8,1024,1024,1024,1024,0,0,0,0,83,4.712,70.88,166.010504,P-GPS,,50.6
827,223600,2026-01-09 20:10:20,0.0,5,7.686,0.0,0.0,0.0,5.6,4.8,-1.7,1024,1024,1024,1024,0,0,0,0,83,4.712,70.88,166.010504,P-GPS,,50.6
828,223700,2026-01-09 20:10:20,0.0,5,7.686,0.0,0.0,0.0,5.6,4.6,-1.9,1024,1024,1024,1024,0,0,0,0,83,4.712,70.88,165.68242,P-GPS,,50.5
829,223800,2026-01-09 20:10:20,0.0,5,7.686,0.0,0.0,0.0,5.5,4.8,-2.0,1024,1024,1024,1024,0,0,0,0,83,4.712,70.88,165.68242,P-GPS,,50.5
830,223900,2026-01-09 20:10:20,0.0,5,7.684,0.0,0.0,0.0,5.5,4.6,-2.0,1024,1024,1024,1024,0,0,0,0,83,4.686,70.88,165.68242,P-GPS,,50.5
831,224000,2026-01-09 20:10:20,0.0,5,7.684,0.0,0.0,0.0,5.5,4.6,-1.9,1024,1024,1024,1024,0,0,0,0,83,4.686,70.88,165.68242,P-GPS,,50.5
832,224100,2026-01-09 20:10:21,0.0,5,7.684,0.0,0.0,0.0,5.5,4.3,-2.1,1024,1024,1024,1024,0,0,0,0,83,4.686,70.88,165.68242,P-GPS,,50.5
833,224200,2026-01-09 20:10:21,0.0,5,7.684,0.0,0.0,0.0,5.5,4.4,-2.2,1024,1024,1024,1024,0,0,0,0,83,4.686,70.88,165.68242,P-GPS,,50.5
834,224300,2026-01-09 20:10:21,0.0,5,7.684,0.0,0.0,0.0,5.5,4.4,-2.2,1024,1024,1024,1024,0,0,0,0,83,4.686,70.88,165.68242,P-GPS,,50.5
835,224400,2026-01-09 20:10:21,0.0,5,7.684,0.0,0.0,0.0,5.5,4.6,-2.1,1024,1024,1024,1024,0,0,0,0,83,4.686,70.88,165.68242,P-GPS,,50.5
836,224500,2026-01-09 20:10:21,0.0,5,7.684,0.0,0.0,0.0,5.5,4.4,-2.0,1024,1024,1024,1024,0,0,0,0,83,4.686,70.88,165.68242,P-GPS,,50.5
837,224600,2026-01-09 20:10:21,0.0,5,7.684,0.0,0.0,0.0,5.5,4.6,-2.2,1024,1024,1024,1024,0,0,0,0,83,4.686,70.88,165.68242,P-GPS,,50.5
838,224700,2026-01-09 20:10:21,0.0,5,7.684,0.0,0.0,0.0,5.5,4.5,-2.3,1024,1024,1024,1024,0,0,0,0,83,4.686,70.88,165.68242,P-GPS,,50.5
839,224800,2026-01-09 20:10:21,0.0,5,7.684,0.0,0.0,0.0,5.5,4.7,-2.3,1024,1024,1024,1024,0,0,0,0,83,4.686,70.88,165.68242,P-GPS,,50.5
840,224900,2026-01-09 20:10:21,0.0,5,7.684,0.0,0.0,0.0,5.5,4.5,-2.3,1024,1024,1024,1024,0,0,0,0,83,4.686,70.88,165.68242,P-GPS,,50.5
841,225000,2026-01-09 20:10:22,0.0,5,7.685,0.0,0.0,0.0,5.5,4.7,-2.3,1024,1024,1024,1024,0,0,0,0,83,4.645,70.88,165.68242,P-GPS,,50.5
842,225100,2026-01-09 20:10:22,0.0,5,7.685,0.0,0.0,0.0,5.5,4.7,-2.2,1024,1024,1024,1024,0,0,0,0,83,4.645,70.88,165.68242,P-GPS,,50.5
843,225200,2026-01-09 20:10:22,0.0,5,7.685,0.0,0.0,0.0,5.5,4.8,-2.2,1024,1024,1024,1024,0,0,0,0,83,4.645,70.88,165.68242,P-GPS,,50.5
844,225300,2026-01-09 20:10:22,0.0,5,7.685,0.0,0.0,0.0,5.5,4.7,-2.3,1024,1024,1024,1024,0,0,0,0,83,4.645,70.88,165.68242,P-GPS,,50.5
845,225400,2026-01-09 20:10:22,0.0,5,7.685,0.0,0.0,0.0,5.5,4.9,-2.2,1024,1024,1024,1024,0,0,0,0,83,4.645,70.88,165.68242,P-GPS,,50.5
846,225500,2026-01-09 20:10:22,0.0,5,7.685,0.0,0.0,0.0,5.5,4.8,-2.2,1024,1024,1024,1024,0,0,0,0,83,4.645,70.88,165.68242,P-GPS,,50.5
847,225600,2026-01-09 20:10:22,0.0,5,7.685,0.0,0.0,0.0,5.5,4.9,-2.3,1024,1024,1024,1024,0,0,0,0,83,4.645,70.88,165.68242,P-GPS,,50.5
848,225700,2026-01-09 20:10:22,0.0,5,7.685,0.0,0.0,0.0,5.5,5.1,-2.2,1024,1024,1024,1024,0,0,0,0,83,4.645,70.88,165.68242,P-GPS,,50.5
849,225800,2026-01-09 20:10:22,0.0,5,7.685,0.0,0.0,0.0,5.5,5.2,-2.1,1024,1024,1024,1024,0,0,0,0,83,4.645,70.88,165.68242,P-GPS,,50.5
850,225900,2026-01-09 20:10:22,0.0,5,7.685,0.0,0.0,0.0,5.5,5.0,-2.1,1024,1024,1024,1024,0,0,0,0,83,4.645,70.88,165.68242,P-GPS,,50.5
851,226000,2026-01-09 20:10:22,0.0,5,7.683,0.0,0.0,0.0,5.5,5.1,-2.2,1024,1024,1024,1024,0,0,0,0,83,4.68,70.88,165.68242,P-GPS,,50.5
852,226100,2026-01-09 20:10:23,0.0,5,7.683,0.0,0.0,0.0,5.5,5.2,-2.2,1024,1024,1024,1024,0,0,0,0,83,4.68,70.88,165.68242,P-GPS,,50.5
853,226200,2026-01-09 20:10:23,0.0,5,7.683,0.0,0.0,0.0,5.5,5.3,-2.1,1024,1024,1024,1024,0,0,0,0,83,4.68,70.88,165.68242,P-GPS,,50.5
854,226300,2026-01-09 20:10:23,0.0,5,7.683,0.0,0.0,0.0,5.5,5.2,-2.2,1024,1024,1024,1024,0,0,0,0,83,4.68,70.88,165.68242,P-GPS,,50.5
855,226400,2026-01-09 20:10:23,0.0,5,7.683,0.0,0.0,0.0,5.5,5.3,-2.2,1024,1024,1024,1024,0,0,0,0,83,4.68,70.88,165.354336,P-GPS,,50.4
856,226500,2026-01-09 20:10:23,0.0,5,7.683,0.0,0.0,0.0,5.5,5.3,-2.1,1024,1024,1024,1024,0,0,0,0,83,4.68,70.88,165.354336,P-GPS,,50.4
857,226600,2026-01-09 20:10:23,0.0,5,7.683,0.0,0.0,0.0,5.5,5.5,-2.0,1024,1024,1024,1024,0,0,0,0,83,4.68,70.88,165.354336,P-GPS,,50.4
858,226700,2026-01-09 20:10:23,0.0,5,7.683,0.0,0.0,0.0,5.5,5.4,-2.0,1024,1024,1024,1024,0,0,0,0,83,4.68,70.88,165.354336,P-GPS,,50.4
859,226800,2026-01-09 20:10:23,0.0,5,7.683,0.0,0.0,0.0,5.5,5.4,-2.1,1024,1024,1024,1024,0,0,0,0,83,4.68,70.88,165.354336,P-GPS,,50.4
860,226900,2026-01-09 20:10:23,0.0,5,7.683,0.0,0.0,0.0,5.5,5.2,-2.2,1024,1024,1024,1024,0,0,0,0,83,4.68,70.88,165.354336,P-GPS,,50.4
861,227000,2026-01-09 20:10:24,0.0,5,7.683,0.0,0.0,0.0,5.5,5.2,-2.2,1024,1024,1024,1024,0,0,0,0,83,4.68,70.88,165.354336,P-GPS,,50.4
862,227100,2026-01-09 20:10:24,0.0,5,7.683,0.0,0.0,0.0,5.5,5.0,-2.2,1024,1024,1024,1024,0,0,0,0,83,4.68,70.88,165.354336,P-GPS,,50.4
863,227200,2026-01-09 20:10:24,0.0,5,7.678,0.0,0.0,0.0,5.5,5.0,-2.0,1024,1024,1024,1024,0,0,0,0,83,4.772,70.88,165.354336,P-GPS,,50.4
864,227300,2026-01-09 20:10:24,0.0,5,7.678,0.0,0.0,0.0,5.5,5.0,-1.8,1024,1024,1024,1024,0,0,0,0,83,4.772,70.88,165.354336,P-GPS,,50.4
865,227400,2026-01-09 20:10:24,0.0,5,7.678,0.0,0.0,0.0,5.5,5.1,-1.5,1024,1024,1024,1024,0,0,0,0,83,4.772,70.88,165.354336,P-GPS,,50.4
866,227500,2026-01-09 20:10:24,0.0,5,7.678,0.0,0.0,0.0,5.5,5.2,-1.6,1024,1024,1024,1024,0,0,0,0,83,4.772,70.88,165.354336,P-GPS,,50.4
867,227600,2026-01-09 20:10:24,0.0,5,7.678,0.0,0.0,0.0,5.5,5.2,-1.7,1024,1024,1024,1024,0,0,0,0,83,4.772,70.88,165.354336,P-GPS,,50.4
868,227700,2026-01-09 20:10:24,0.0,5,7.678,0.0,0.0,0.0,5.6,5.0,-1.9,1024,1024,1024,1024,0,0,0,0,83,4.772,70.88,165.354336,P-GPS,,50.4
869,227800,2026-01-09 20:10:24,0.0,5,7.678,0.0,0.0,0.0,5.5,5.1,-2.1,1024,1024,1024,1024,0,0,0,0,83,4.772,70.88,165.354336,P-GPS,,50.4
870,227900,2026-01-09 20:10:24,0.0,5,7.678,0.0,0.0,0.0,5.5,4.9,-2.0,1024,1024,1024,1024,0,0,0,0,83,4.772,70.88,165.354336,P-GPS,,50.4
871,228000,2026-01-09 20:10:24,0.0,5,7.678,0.0,0.0,0.0,5.5,4.9,-2.1,1024,1024,1024,1024,0,0,0,0,83,4.772,70.88,165.354336,P-GPS,,50.4
872,228100,2026-01-09 20:10:25,0.0,5,7.678,0.0,0.0,0.0,5.5,4.9,-2.3,1024,1024,1024,1024,0,0,0,0,83,4.772,70.88,165.354336,P-GPS,,50.4
873,228200,2026-01-09 20:10:25,0.0,5,7.678,0.0,0.0,0.0,5.4,5.1,-2.3,1024,1024,1024,1024,0,0,0,0,83,4.772,70.88,165.026252,P-GPS,,50.3
874,228300,2026-01-09 20:10:25,0.0,5,7.676,0.0,0.0,0.0,5.5,5.0,-2.1,1024,1024,1024,1024,0,0,0,0,83,4.786,70.88,165.026252,P-GPS,,50.3
875,228400,2026-01-09 20:10:25,0.0,5,7.676,0.0,0.0,0.0,5.5,5.1,-2.0,1024,1024,1024,1024,0,0,0,0,83,4.786,70.88,165.026252,P-GPS,,50.3
876,228500,2026-01-09 20:10:25,0.0,5,7.676,0.0,0.0,0.0,5.5,5.0,-1.9,1024,1024,1024,1024,0,0,0,0,83,4.786,70.88,165.026252,P-GPS,,50.3
877,228600,2026-01-09 20:10:25,0.0,5,7.676,0.0,0.0,0.0,5.5,5.2,-1.9,1024,1024,1024,1024,0,0,0,0,83,4.786,70.88,165.026252,P-GPS,,50.3
878,228700,2026-01-09 20:10:25,0.0,5,7.676,0.0,0.0,0.0,5.5,5.2,-1.8,1024,1024,1024,1024,0,0,0,0,83,4.786,70.88,165.026252,P-GPS,,50.3
879,228800,2026-01-09 20:10:25,0.0,5,7.676,0.0,0.0,0.0,5.5,5.5,-1.9,1024,1024,1024,1024,0,0,0,0,83,4.786,70.88,165.026252,P-GPS,,50.3
880,228900,2026-01-09 20:10:25,0.0,5,7.676,0.0,0.0,0.0,5.5,5.2,-2.0,1024,1024,1024,1024,0,0,0,0,83,4.786,70.88,165.026252,P-GPS,,50.3
881,229000,2026-01-09 20:10:26,0.0,5,7.676,0.0,0.0,0.0,5.5,5.3,-2.0,1024,1024,1024,1024,0,0,0,0,83,4.786,70.88,165.026252,P-GPS,,50.3
882,229100,2026-01-09 20:10:26,0.0,5,7.676,0.0,0.0,0.0,5.5,5.3,-2.0,1024,1024,1024,1024,0,0,0,0,83,4.786,70.88,165.026252,P-GPS,,50.3
883,229200,2026-01-09 20:10:26,0.0,5,7.676,0.0,0.0,0.0,5.5,5.3,-2.0,1024,1024,1024,1024,0,0,0,0,83,4.786,70.88,165.026252,P-GPS,,50.3
884,229300,2026-01-09 20:10:26,0.0,5,7.676,0.0,0.0,0.0,5.4,5.2,-2.1,1024,1024,1024,1024,0,0,0,0,83,4.786,70.88,165.026252,P-GPS,,50.3
885,229400,2026-01-09 20:10:26,0.0,5,7.676,0.0,0.0,0.0,5.4,5.2,-2.0,1024,1024,1024,1024,0,0,0,0,83,4.786,70.88,165.026252,P-GPS,,50.3
886,229500,2026-01-09 20:10:26,0.0,5,7.676,0.0,0.0,0.0,5.5,4.9,-1.9,1024,1024,1024,1024,0,0,0,0,83,4.786,70.88,164.698168,P-GPS,,50.2
887,229600,2026-01-09 20:10:26,0.0,5,7.676,0.0,0.0,0.0,5.5,5.0,-1.8,1024,1024,1024,1024,0,0,0,0,83,4.786,70.88,164.698168,P-GPS,,50.2
888,229700,2026-01-09 20:10:26,0.0,5,7.676,0.0,0.0,0.0,5.5,5.0,-1.7,1024,1024,1024,1024,0,0,0,0,83,4.786,70.88,164.698168,P-GPS,,50.2
889,229800,2026-01-09 20:10:26,0.0,5,7.676,0.0,0.0,0.0,5.5,5.1,-1.8,1024,1024,1024,1024,0,0,0,0,83,4.786,70.88,164.698168,P-GPS,,50.2
890,229900,2026-01-09 20:10:26,0.0,5,7.676,0.0,0.0,0.0,5.5,5.0,-2.0,1024,1024,1024,1024,0,0,0,0,83,4.786,70.88,164.698168,P-GPS,,50.2
891,230000,2026-01-09 20:10:27,0.0,5,7.676,0.0,0.0,0.0,5.5,5.2,-2.1,1024,1024,1024,1024,0,0,0,0,83,4.786,70.88,164.698168,P-GPS,,50.2
892,230100,2026-01-09 20:10:27,0.0,5,7.676,0.0,0.0,0.0,5.4,5.3,-2.0,1024,1024,1024,1024,0,0,0,0,83,4.786,70.88,164.698168,P-GPS,,50.2
893,230200,2026-01-09 20:10:27,0.0,5,7.676,0.0,0.0,0.0,5.5,5.1,-2.0,1024,1024,1024,1024,0,0,0,0,83,4.786,70.88,164.698168,P-GPS,,50.2
894,230300,2026-01-09 20:10:27,0.0,5,7.676,0.0,0.0,0.0,5.5,4.9,-1.9,1024,1024,1024,1024,0,0,0,0,83,4.786,70.88,164.698168,P-GPS,,50.2
895,230400,2026-01-09 20:10:27,0.0,5,7.678,0.0,0.0,0.0,5.4,4.9,-1.9,1024,1024,1024,1024,0,0,0,0,83,4.754,71.06,164.698168,P-GPS,,50.2
896,230500,2026-01-09 20:10:27,0.0,5,7.678,0.0,0.0,0.0,5.4,4.8,-2.2,1024,1024,1024,1024,0,0,0,0,83,4.754,71.06,164.698168,P-GPS,,50.2
897,230600,2026-01-09 20:10:27,0.0,5,7.678,0.0,0.0,0.0,5.5,4.8,-2.2,1024,1024,1024,1024,0,0,0,0,83,4.754,71.06,164.698168,P-GPS,,50.2
898,230700,2026-01-09 20:10:27,0.0,5,7.678,0.0,0.0,0.0,5.5,4.7,-2.2,1024,1024,1024,1024,0,0,0,0,83,4.754,71.06,164.698168,P-GPS,,50.2
899,230800,2026-01-09 20:10:27,0.0,5,7.678,0.0,0.0,0.0,5.6,4.8,-2.3,1024,1024,1024,1024,0,0,0,0,83,4.754,71.06,164.698168,P-GPS,,50.2
900,230900,2026-01-09 20:10:27,0.0,5,7.678,0.0,0.0,0.0,5.6,4.7,-2.3,1024,1024,1024,1024,0,0,0,0,83,4.754,71.06,164.698168,P-GPS,,50.2
901,231000,2026-01-09 20:10:27,0.0,5,7.678,0.0,0.0,0.0,5.5,4.8,-2.4,1024,1024,1024,1024,0,0,0,0,83,4.754,71.06,164.698168,P-GPS,,50.2
902,231100,2026-01-09 20:10:28,0.0,5,7.678,0.0,0.0,0.0,5.5,4.8,-2.3,1024,1024,1024,1024,0,0,0,0,83,4.754,71.06,164.698168,P-GPS,,50.2
903,231200,2026-01-09 20:10:28,0.0,5,7.678,0.0,0.0,0.0,5.5,4.8,-2.3,1024,1024,1024,1024,0,0,0,0,83,4.754,71.06,164.698168,P-GPS,,50.2
904,231300,2026-01-09 20:10:28,0.0,5,7.678,0.0,0.0,0.0,5.5,4.5,-2.2,1024,1024,1024,1024,0,0,0,0,83,4.754,71.06,164.698168,P-GPS,,50.2
905,231400,2026-01-09 20:10:28,0.0,5,7.678,0.0,0.0,0.0,5.5,4.5,-2.1,1024,1024,1024,1024,0,0,0,0,83,4.754,71.06,164.698168,P-GPS,,50.2
906,231500,2026-01-09 20:10:28,0.0,5,7.678,0.0,0.0,0.0,5.5,4.5,-2.1,1024,1024,1024,1024,0,0,0,0,83,4.754,71.06,164.698168,P-GPS,,50.2
907,231600,2026-01-09 20:10:28,0.0,5,7.676,0.0,0.0,0.0,5.5,4.6,-2.1,1024,1024,1024,1024,0,0,0,0,83,4.807,71.06,164.698168,P-GPS,,50.2
908,231700,2026-01-09 20:10:28,0.0,5,7.676,0.0,0.0,0.0,5.6,4.5,-2.1,1024,1024,1024,1024,0,0,0,0,83,4.807,71.06,164.698168,P-GPS,,50.2
909,231800,2026-01-09 20:10:28,0.0,5,7.676,0.0,0.0,0.0,5.6,4.6,-2.2,1024,1024,1024,1024,0,0,0,0,83,4.807,71.06,164.698168,P-GPS,,50.2
910,231900,2026-01-09 20:10:28,0.0,5,7.676,0.0,0.0,0.0,5.5,4.6,-2.3,1024,1024,1024,1024,0,0,0,0,83,4.807,71.06,165.026252,P-GPS,,50.3
911,232000,2026-01-09 20:10:29,0.0,5,7.676,0.0,0.0,0.0,5.5,4.7,-2.4,1024,1024,1024,1024,0,0,0,0,83,4.807,71.06,165.026252,P-GPS,,50.3
912,232100,2026-01-09 20:10:29,0.0,5,7.676,0.0,0.0,0.0,5.5,4.4,-2.4,1024,1024,1024,1024,0,0,0,0,83,4.807,71.06,165.026252,P-GPS,,50.3
913,232200,2026-01-09 20:10:29,0.0,5,7.676,0.0,0.0,0.0,5.4,4.5,-2.4,1024,1024,1024,1024,0,0,0,0,83,4.807,71.06,165.026252,P-GPS,,50.3
914,232300,2026-01-09 20:10:29,0.0,5,7.676,0.0,0.0,0.0,5.4,4.4,-2.4,1024,1024,1024,1024,0,0,0,0,83,4.807,71.06,165.026252,P-GPS,,50.3
915,232400,2026-01-09 20:10:29,0.0,5,7.676,0.0,0.0,0.0,5.5,4.6,-2.3,1024,1024,1024,1024,0,0,0,0,83,4.807,71.06,165.026252,P-GPS,,50.3
916,232500,2026-01-09 20:10:29,0.0,5,7.676,0.0,0.0,0.0,5.5,4.7,-2.0,1024,1024,1024,1024,0,0,0,0,83,4.807,71.06,165.026252,P-GPS,,50.3
917,232600,2026-01-09 20:10:29,0.0,5,7.676,0.0,0.0,0.0,5.5,4.7,-2.0,1024,1024,1024,1024,0,0,0,0,83,4.807,71.06,165.026252,P-GPS,,50.3
918,232700,2026-01-09 20:10:29,0.0,5,7.679,0.0,0.0,0.0,5.5,4.8,-2.0,1024,1024,1024,1024,0,0,0,0,83,4.662,71.06,165.026252,P-GPS,,50.3
919,232800,2026-01-09 20:10:29,0.0,5,7.679,0.0,0.0,0.0,5.5,4.9,-2.1,1024,1024,1024,1024,0,0,0,0,83,4.662,71.06,165.026252,P-GPS,,50.3
920,232900,2026-01-09 20:10:29,0.0,5,7.679,0.0,0.0,0.0,5.5,4.7,-2.2,1024,1024,1024,1024,0,0,0,0,83,4.662,71.06,165.026252,P-GPS,,50.3
921,233000,2026-01-09 20:10:29,0.0,5,7.679,0.0,0.0,0.0,5.6,4.8,-2.4,1024,1024,1024,1024,0,0,0,0,83,4.662,71.06,165.026252,P-GPS,,50.3
922,233100,2026-01-09 20:10:30,0.0,5,7.679,0.0,0.0,0.0,5.6,4.8,-2.4,1024,1024,1024,1024,0,0,0,0,83,4.662,71.06,165.026252,P-GPS,,50.3
923,233200,2026-01-09 20:10:30,0.0,5,7.679,0.0,0.0,0.0,5.5,4.9,-2.5,1024,1024,1024,1024,0,0,0,0,83,4.662,71.06,165.354336,P-GPS,,50.4
924,233300,2026-01-09 20:10:30,0.0,5,7.679,0.0,0.0,0.0,5.5,4.9,-2.7,1024,1024,1024,1024,0,0,0,0,83,4.662,71.06,165.354336,P-GPS,,50.4
925,233400,2026-01-09 20:10:30,0.0,5,7.679,0.0,0.0,0.0,5.5,4.8,-2.9,1024,1024,1024,1024,0,0,0,0,83,4.662,71.06,165.354336,P-GPS,,50.4
926,233500,2026-01-09 20:10:30,0.0,5,7.679,0.0,0.0,0.0,5.5,4.7,-3.0,1024,1024,1024,1024,0,0,0,0,83,4.662,71.06,165.354336,P-GPS,,50.4
927,233600,2026-01-09 20:10:30,0.0,5,7.679,0.0,0.0,0.0,5.5,4.8,-3.0,1024,1024,1024,1024,0,0,0,0,83,4.662,71.06,165.354336,P-GPS,,50.4
928,233700,2026-01-09 20:10:30,0.0,5,7.679,0.0,0.0,0.0,5.5,4.7,-2.9,1024,1024,1024,1024,0,0,0,0,83,4.662,71.06,165.354336,P-GPS,,50.4
929,233800,2026-01-09 20:10:30,0.0,5,7.677,0.0,0.0,0.0,5.5,4.7,-3.0,1024,1024,1024,1024,0,0,0,0,83,4.733,71.06,165.354336,P-GPS,,50.4
930,233900,2026-01-09 20:10:30,0.0,5,7.677,0.0,0.0,0.0,5.6,4.6,-2.9,1024,1024,1024,1024,0,0,0,0,83,4.733,71.06,165.354336,P-GPS,,50.4
931,234000,2026-01-09 20:10:31,0.0,5,7.677,0.0,0.0,0.0,5.5,4.8,-2.8,1024,1024,1024,1024,0,0,0,0,83,4.733,71.06,165.354336,P-GPS,,50.4
932,234100,2026-01-09 20:10:31,0.0,5,7.677,0.0,0.0,0.0,5.5,4.9,-2.7,1024,1024,1024,1024,0,0,0,0,83,4.733,71.06,165.354336,P-GPS,,50.4
933,234200,2026-01-09 20:10:31,0.0,5,7.677,0.0,0.0,0.0,5.5,5.1,-2.6,1024,1024,1024,1024,0,0,0,0,83,4.733,71.06,165.354336,P-GPS,,50.4
934,234300,2026-01-09 20:10:31,0.0,5,7.677,0.0,0.0,0.0,5.5,5.1,-2.6,1024,1024,1024,1024,0,0,0,0,83,4.733,71.06,165.354336,P-GPS,,50.4
935,234400,2026-01-09 20:10:31,0.0,5,7.677,0.0,0.0,0.0,5.5,5.3,-2.5,1024,1024,1024,1024,0,0,0,0,83,4.733,71.06,165.354336,P-GPS,,50.4
936,234500,2026-01-09 20:10:31,0.0,5,7.677,0.0,0.0,0.0,5.5,5.3,-2.5,1024,1024,1024,1024,0,0,0,0,83,4.733,71.06,165.68242,P-GPS,,50.5
937,234600,2026-01-09 20:10:31,0.0,5,7.677,0.0,0.0,0.0,5.5,5.4,-2.4,1024,1024,1024,1024,0,0,0,0,83,4.733,71.06,165.68242,P-GPS,,50.5
938,234700,2026-01-09 20:10:31,0.0,5,7.677,0.0,0.0,0.0,5.5,5.5,-2.3,1024,1024,1024,1024,0,0,0,0,83,4.733,71.06,165.68242,P-GPS,,50.5
939,234800,2026-01-09 20:10:31,0.0,5,7.677,0.0,0.0,0.0,5.5,5.4,-2.4,1024,1024,1024,1024,0,0,0,0,83,4.733,71.06,165.68242,P-GPS,,50.5
940,234900,2026-01-09 20:10:31,0.0,5,7.677,0.0,0.0,0.0,5.5,5.0,-2.5,1024,1024,1024,1024,0,0,0,0,83,4.777,71.06,165.68242,P-GPS,,50.5
941,235000,2026-01-09 20:10:31,0.0,5,7.677,0.0,0.0,0.0,5.5,5.1,-2.5,1024,1024,1024,1024,0,0,0,0,83,4.777,71.06,165.68242,P-GPS,,50.5
942,235100,2026-01-09 20:10:32,0.0,5,7.677,0.0,0.0,0.0,5.5,5.4,-2.5,1024,1024,1024,1024,0,0,0,0,83,4.777,71.06,165.68242,P-GPS,,50.5
943,235200,2026-01-09 20:10:32,0.0,5,7.677,0.0,0.0,0.0,5.5,5.6,-2.6,1024,1024,1024,1024,0,0,0,0,83,4.777,71.06,165.68242,P-GPS,,50.5
944,235300,2026-01-09 20:10:32,0.0,5,7.677,0.0,0.0,0.0,5.5,5.6,-2.7,1024,1024,1024,1024,0,0,0,0,83,4.777,71.06,165.68242,P-GPS,,50.5
945,235400,2026-01-09 20:10:32,0.0,5,7.677,0.0,0.0,0.0,5.5,5.7,-2.7,1024,1024,1024,1024,0,0,0,0,83,4.777,71.06,165.68242,P-GPS,,50.5
946,235500,2026-01-09 20:10:32,0.0,5,7.677,0.0,0.0,0.0,5.5,5.4,-2.5,1024,1024,1024,1024,0,0,0,0,83,4.777,71.06,165.68242,P-GPS,,50.5
947,235600,2026-01-09 20:10:32,0.0,5,7.677,0.0,0.0,0.0,5.5,5.4,-2.3,1024,1024,1024,1024,0,0,0,0,83,4.777,71.06,165.354336,P-GPS,,50.4
948,235700,2026-01-09 20:10:32,0.0,5,7.677,0.0,0.0,0.0,5.5,5.3,-2.1,1024,1024,1024,1024,0,0,0,0,83,4.777,71.06,165.354336,P-GPS,,50.4
949,235800,2026-01-09 20:10:32,0.0,5,7.677,0.0,0.0,0.0,5.5,5.4,-2.0,1024,1024,1024,1024,0,0,0,0,83,4.777,71.06,165.354336,P-GPS,,50.4
950,235900,2026-01-09 20:10:32,0.0,5,7.677,0.0,0.0,0.0,5.4,5.4,-2.0,1024,1024,1024,1024,0,0,0,0,83,4.777,71.06,165.354336,P-GPS,,50.4
951,236000,2026-01-09 20:10:32,0.0,5,7.672,0.0,0.0,0.0,5.4,5.6,-1.9,1024,1024,1024,1024,0,0,0,0,83,4.78,71.24,165.354336,P-GPS,,50.4
952,236100,2026-01-09 20:10:33,0.0,5,7.672,0.0,0.0,0.0,5.4,5.7,-1.9,1024,1024,1024,1024,0,0,0,0,83,4.78,71.24,165.354336,P-GPS,,50.4
953,236200,2026-01-09 20:10:33,0.0,5,7.672,0.0,0.0,0.0,5.4,5.7,-2.0,1024,1024,1024,1024,0,0,0,0,83,4.78,71.24,165.354336,P-GPS,,50.4
954,236300,2026-01-09 20:10:33,0.0,5,7.672,0.0,0.0,0.0,5.4,5.5,-1.9,1024,1024,1024,1024,0,0,0,0,83,4.78,71.24,165.354336,P-GPS,,50.4
955,236400,2026-01-09 20:10:33,0.0,5,7.672,0.0,0.0,0.0,5.5,5.5,-1.8,1024,1024,1024,1024,0,0,0,0,83,4.78,71.24,165.354336,P-GPS,,50.4
956,236500,2026-01-09 20:10:33,0.0,5,7.672,0.0,0.0,0.0,5.4,5.5,-1.8,1024,1024,1024,1024,0,0,0,0,83,4.78,71.24,165.354336,P-GPS,,50.4
957,236600,2026-01-09 20:10:33,0.0,5,7.672,0.0,0.0,0.0,5.4,5.5,-2.0,1024,1024,1024,1024,0,0,0,0,83,4.78,71.24,165.026252,P-GPS,,50.3
958,236700,2026-01-09 20:10:33,0.0,5,7.672,0.0,0.0,0.0,5.4,5.4,-2.0,1024,1024,1024,1024,0,0,0,0,83,4.78,71.24,165.026252,P-GPS,,50.3
959,236800,2026-01-09 20:10:33,0.0,5,7.672,0.0,0.0,0.0,5.4,5.4,-2.1,1024,1024,1024,1024,0,0,0,0,83,4.78,71.24,165.026252,P-GPS,,50.3
960,236900,2026-01-09 20:10:33,0.0,5,7.672,0.0,0.0,0.0,5.4,5.5,-2.0,1024,1024,1024,1024,0,0,0,0,83,4.78,71.24,165.026252,P-GPS,,50.3
961,237000,2026-01-09 20:10:34,0.0,5,7.672,0.0,0.0,0.0,5.4,5.5,-2.0,1024,1024,1024,1024,0,0,0,0,83,4.78,71.24,165.026252,P-GPS,,50.3
962,237100,2026-01-09 20:10:34,0.0,5,7.679,0.0,0.0,0.0,5.4,5.2,-2.0,1024,1024,1024,1024,0,0,0,0,83,4.687,71.24,165.026252,P-GPS,,50.3
963,237200,2026-01-09 20:10:34,0.0,5,7.679,0.0,0.0,0.0,5.4,5.1,-2.0,1024,1024,1024,1024,0,0,0,0,83,4.687,71.24,165.026252,P-GPS,,50.3
964,237300,2026-01-09 20:10:34,0.0,5,7.679,0.0,0.0,0.0,5.4,5.0,-1.9,1024,1024,1024,1024,0,0,0,0,83,4.687,71.24,165.026252,P-GPS,,50.3
965,237400,2026-01-09 20:10:34,0.0,5,7.679,0.0,0.0,0.0,5.4,5.1,-1.9,1024,1024,1024,1024,0,0,0,0,83,4.687,71.24,165.026252,P-GPS,,50.3
966,237500,2026-01-09 20:10:34,0.0,5,7.679,0.0,0.0,0.0,5.4,4.9,-1.8,1024,1024,1024,1024,0,0,0,0,83,4.687,71.24,164.698168,P-GPS,,50.2
967,237600,2026-01-09 20:10:34,0.0,5,7.679,0.0,0.0,0.0,5.4,4.9,-1.7,1024,1024,1024,1024,0,0,0,0,83,4.687,71.24,164.698168,P-GPS,,50.2
968,237700,2026-01-09 20:10:34,0.0,5,7.679,0.0,0.0,0.0,5.4,4.9,-1.7,1024,1024,1024,1024,0,0,0,0,83,4.687,71.24,164.698168,P-GPS,,50.2
969,237800,2026-01-09 20:10:34,0.0,5,7.679,0.0,0.0,0.0,5.4,5.0,-1.7,1024,1024,1024,1024,0,0,0,0,83,4.687,71.24,164.698168,P-GPS,,50.2
970,237900,2026-01-09 20:10:34,0.0,5,7.679,0.0,0.0,0.0,5.4,5.0,-1.9,1024,1024,1024,1024,0,0,0,0,83,4.687,71.24,164.698168,P-GPS,,50.2
971,238000,2026-01-09 20:10:35,0.0,5,7.679,0.0,0.0,0.0,5.4,5.1,-2.1,1024,1024,1024,1024,0,0,0,0,83,4.687,71.24,164.698168,P-GPS,,50.2
972,238100,2026-01-09 20:10:35,0.0,5,7.679,0.0,0.0,0.0,5.5,5.0,-2.2,1024,1024,1024,1024,0,0,0,0,83,4.687,71.24,164.698168,P-GPS,,50.2
973,238200,2026-01-09 20:10:35,0.0,5,7.677,0.0,0.0,0.0,5.5,5.1,-2.3,1024,1024,1024,1024,0,0,0,0,83,4.682,71.24,164.698168,P-GPS,,50.2
974,238300,2026-01-09 20:10:35,0.0,5,7.677,0.0,0.0,0.0,5.5,5.1,-2.2,1024,1024,1024,1024,0,0,0,0,83,4.682,71.24,164.698168,P-GPS,,50.2
975,238400,2026-01-09 20:10:35,0.0,5,7.677,0.0,0.0,0.0,5.5,5.2,-2.2,1024,1024,1024,1024,0,0,0,0,83,4.682,71.24,164.698168,P-GPS,,50.2
976,238500,2026-01-09 20:10:35,0.0,5,7.677,0.0,0.0,0.0,5.5,5.0,-2.3,1024,1024,1024,1024,0,0,0,0,83,4.682,71.24,164.698168,P-GPS,,50.2
977,238600,2026-01-09 20:10:35,0.0,5,7.677,0.0,0.0,0.0,5.5,5.1,-2.3,1024,1024,1024,1024,0,0,0,0,83,4.682,71.24,164.698168,P-GPS,,50.2
978,238700,2026-01-09 20:10:35,0.0,5,7.677,0.0,0.0,0.0,5.5,5.0,-2.2,1024,1024,1024,1024,0,0,0,0,83,4.682,71.24,164.698168,P-GPS,,50.2
979,238800,2026-01-09 20:10:35,0.0,5,7.677,0.0,0.0,0.0,5.5,5.0,-2.0,1024,1024,1024,1024,0,0,0,0,83,4.682,71.24,164.698168,P-GPS,,50.2
980,238900,2026-01-09 20:10:35,0.0,5,7.677,0.0,0.0,0.0,5.5,5.0,-1.9,1024,1024,1024,1024,0,0,0,0,83,4.682,71.24,164.698168,P-GPS,,50.2
981,239000,2026-01-09 20:10:36,0.0,5,7.677,0.0,0.0,0.0,5.6,5.1,-2.0,1024,1024,1024,1024,0,0,0,0,83,4.682,71.24,164.698168,P-GPS,,50.2
982,239100,2026-01-09 20:10:36,0.0,5,7.677,0.0,0.0,0.0,5.6,5.0,-2.0,1024,1024,1024,1024,0,0,0,0,83,4.682,71.24,164.698168,P-GPS,,50.2
983,239200,2026-01-09 20:10:36,0.0,5,7.677,0.0,0.0,0.0,5.6,5.0,-2.2,1024,1024,1024,1024,0,0,0,0,83,4.682,71.24,164.698168,P-GPS,,50.2
984,239300,2026-01-09 20:10:36,0.0,5,7.671,0.0,0.0,0.0,5.5,4.9,-2.3,1024,1024,1024,1024,0,0,0,0,82,4.788,71.06,164.698168,P-GPS,,50.2
985,239400,2026-01-09 20:10:36,0.0,5,7.671,0.0,0.0,0.0,5.5,5.0,-2.4,1024,1024,1024,1024,0,0,0,0,82,4.788,71.06,164.698168,P-GPS,,50.2
986,239500,2026-01-09 20:10:36,0.0,5,7.671,0.0,0.0,0.0,5.5,4.8,-2.2,1024,1024,1024,1024,0,0,0,0,82,4.788,71.06,164.698168,P-GPS,,50.2
987,239600,2026-01-09 20:10:36,0.0,5,7.671,0.0,0.0,0.0,5.5,5.0,-2.1,1024,1024,1024,1024,0,0,0,0,82,4.788,71.06,164.698168,P-GPS,,50.2
988,239700,2026-01-09 20:10:36,0.0,5,7.671,0.0,0.0,0.0,5.5,4.9,-2.3,1024,1024,1024,1024,0,0,0,0,82,4.788,71.06,164.698168,P-GPS,,50.2
989,239800,2026-01-09 20:10:36,0.0,5,7.671,0.0,0.0,0.0,5.5,4.9,-2.3,1024,1024,1024,1024,0,0,0,0,82,4.788,71.06,164.698168,P-GPS,,50.2
990,239900,2026-01-09 20:10:36,0.0,5,7.671,0.0,0.0,0.0,5.4,4.9,-2.3,1024,1024,1024,1024,0,0,0,0,82,4.788,71.06,164.370084,P-GPS,,50.1
991,240000,2026-01-09 20:10:36,0.0,5,7.671,0.0,0.0,0.0,5.4,5.0,-2.3,1024,1024,1024,1024,0,0,0,0,82,4.788,71.06,164.370084,P-GPS,,50.1
992,240100,2026-01-09 20:10:37,0.0,5,7.671,0.0,0.0,0.0,5.5,4.9,-2.2,1024,1024,1024,1024,0,0,0,0,82,4.788,71.06,164.370084,P-GPS,,50.1
993,240200,2026-01-09 20:10:37,0.0,5,7.671,0.0,0.0,0.0,5.4,5.0,-2.3,1024,1024,1024,1024,0,0,0,0,82,4.788,71.06,164.370084,P-GPS,,50.1
994,240300,2026-01-09 20:10:37,0.0,5,7.671,0.0,0.0,0.0,5.5,4.8,-2.3,1024,1024,1024,1024,0,0,0,0,82,4.788,71.06,164.370084,P-GPS,,50.1
995,240400,2026-01-09 20:10:37,0.0,5,7.671,0.0,0.0,0.0,5.5,4.9,-2.2,1024,1024,1024,1024,0,0,0,0,82,4.788,71.06,164.370084,P-GPS,,50.1
996,240500,2026-01-09 20:10:37,0.0,5,7.671,0.0,0.0,0.0,5.5,4.9,-2.1,1024,1024,1024,1024,0,0,0,0,82,4.788,71.06,164.370084,P-GPS,,50.1
997,240600,2026-01-09 20:10:37,0.0,5,7.671,0.0,0.0,0.0,5.4,5.0,-2.0,1024,1024,1024,1024,0,0,0,0,82,4.788,71.06,164.370084,P-GPS,,50.1
998,240700,2026-01-09 20:10:37,0.0,5,7.671,0.0,0.0,0.0,5.4,4.9,-2.1,1024,1024,1024,1024,0,0,0,0,82,4.788,71.06,164.370084,P-GPS,,50.1
999,240800,2026-01-09 20:10:37,0.0,5,7.671,0.0,0.0,0.0,5.4,4.9,-1.9,1024,1024,1024,1024,0,0,0,0,82,4.788,71.06,164.370084,P-GPS,,50.1
1000,240900,2026-01-09 20:10:37,0.0,5,7.671,0.0,0.0,0.0,5.4,4.9,-1.8,1024,1024,1024,1024,0,0,0,0,82,4.788,71.06,164.370084,P-GPS,,50.1
1001,241000,2026-01-09 20:10:38,0.0,5,7.671,0.0,0.0,0.0,5.4,5.1,-1.8,1024,1024,1024,1024,0,0,0,0,82,4.788,71.06,164.370084,P-GPS,,50.1
1002,241100,2026-01-09 20:10:38,0.0,5,7.671,0.0,0.0,0.0,5.4,4.9,-1.9,1024,1024,1024,1024,0,0,0,0,82,4.788,71.06,164.370084,P-GPS,,50.1
1003,241200,2026-01-09 20:10:38,0.0,5,7.671,0.0,0.0,0.0,5.4,4.8,-2.0,1024,1024,1024,1024,0,0,0,0,82,4.788,71.06,164.370084,P-GPS,,50.1
1004,241300,2026-01-09 20:10:38,0.0,5,7.671,0.0,0.0,0.0,5.4,4.8,-1.9,1024,1024,1024,1024,0,0,0,0,82,4.788,71.06,164.370084,P-GPS,,50.1
1005,241400,2026-01-09 20:10:38,0.0,5,7.674,0.0,0.0,0.0,5.4,4.8,-1.9,1024,1024,1024,1024,0,0,0,0,82,4.741,71.06,164.370084,P-GPS,,50.1
1006,241500,2026-01-09 20:10:38,0.0,5,7.674,0.0,0.0,0.0,5.4,4.7,-2.0,1024,1024,1024,1024,0,0,0,0,82,4.741,71.06,164.370084,P-GPS,,50.1
1007,241600,2026-01-09 20:10:38,0.0,5,7.674,0.0,0.0,0.0,5.4,4.7,-1.9,1024,1024,1024,1024,0,0,0,0,82,4.741,71.06,164.370084,P-GPS,,50.1
1008,241700,2026-01-09 20:10:38,0.0,5,7.674,0.0,0.0,0.0,5.5,4.6,-1.8,1024,1024,1024,1024,0,0,0,0,82,4.741,71.06,164.370084,P-GPS,,50.1
1009,241800,2026-01-09 20:10:38,0.0,5,7.674,0.0,0.0,0.0,5.4,4.7,-1.9,1024,1024,1024,1024,0,0,0,0,82,4.741,71.06,164.370084,P-GPS,,50.1
1010,241900,2026-01-09 20:10:38,0.0,5,7.674,0.0,0.0,0.0,5.4,4.6,-1.9,1024,1024,1024,1024,0,0,0,0,82,4.741,71.06,164.370084,P-GPS,,50.1
1011,242000,2026-01-09 20:10:39,0.0,5,7.674,0.0,0.0,0.0,5.4,4.7,-1.8,1024,1024,1024,1024,0,0,0,0,82,4.741,71.06,164.370084,P-GPS,,50.1
1012,242100,2026-01-09 20:10:39,0.0,5,7.674,0.0,0.0,0.0,5.4,4.6,-1.8,1024,1024,1024,1024,0,0,0,0,82,4.741,71.06,164.370084,P-GPS,,50.1
1013,242200,2026-01-09 20:10:39,0.0,5,7.674,0.0,0.0,0.0,5.4,4.7,-1.8,1024,1024,1024,1024,0,0,0,0,82,4.741,71.06,164.370084,P-GPS,,50.1
1014,242300,2026-01-09 20:10:39,0.0,5,7.674,0.0,0.0,0.0,5.4,4.7,-1.7,1024,1024,1024,1024,0,0,0,0,82,4.741,71.06,164.370084,P-GPS,,50.1
1015,242400,2026-01-09 20:10:39,0.0,5,7.674,0.0,0.0,0.0,5.5,4.7,-1.8,1024,1024,1024,1024,0,0,0,0,82,4.741,71.06,164.370084,P-GPS,,50.1
1016,242500,2026-01-09 20:10:39,0.0,5,7.674,0.0,0.0,0.0,5.5,4.5,-1.9,1024,1024,1024,1024,0,0,0,0,82,4.741,71.06,164.370084,P-GPS,,50.1
1017,242600,2026-01-09 20:10:39,0.0,5,7.672,0.0,0.0,0.0,5.6,4.4,-2.1,1024,1024,1024,1024,0,0,0,0,82,4.758,71.06,164.370084,P-GPS,,50.1
1018,242700,2026-01-09 20:10:39,0.0,5,7.672,0.0,0.0,0.0,5.6,4.3,-2.1,1024,1024,1024,1024,0,0,0,0,82,4.758,71.06,164.370084,P-GPS,,50.1
1019,242800,2026-01-09 20:10:39,0.0,5,7.672,0.0,0.0,0.0,5.5,4.4,-2.1,1024,1024,1024,1024,0,0,0,0,82,4.758,71.06,164.370084,P-GPS,,50.1
1020,242900,2026-01-09 20:10:39,0.0,5,7.672,0.0,0.0,0.0,5.5,4.4,-2.1,1024,1024,1024,1024,0,0,0,0,82,4.758,71.06,164.370084,P-GPS,,50.1
1021,243000,2026-01-09 20:10:39,0.0,5,7.672,0.0,0.0,0.0,5.5,4.5,-1.9,1024,1024,1024,1024,0,0,0,0,82,4.758,71.06,164.370084,P-GPS,,50.1
1022,243100,2026-01-09 20:10:40,0.0,5,7.672,0.0,0.0,0.0,5.4,4.4,-1.8,1024,1024,1024,1024,0,0,0,0,82,4.758,71.06,164.370084,P-GPS,,50.1
1023,243200,2026-01-09 20:10:40,0.0,5,7.672,0.0,0.0,0.0,5.4,4.6,-1.8,1024,1024,1024,1024,0,0,0,0,82,4.758,71.06,164.370084,P-GPS,,50.1
1024,243300,2026-01-09 20:10:40,0.0,5,7.672,0.0,0.0,0.0,5.5,4.6,-1.9,1024,1024,1024,1024,0,0,0,0,82,4.758,71.06,164.370084,P-GPS,,50.1
1025,243400,2026-01-09 20:10:40,0.0,5,7.672,0.0,0.0,0.0,5.5,4.6,-1.9,1024,1024,1024,1024,0,0,0,0,82,4.758,71.06,164.698168,P-GPS,,50.2
1026,243500,2026-01-09 20:10:40,0.0,5,7.672,0.0,0.0,0.0,5.5,4.6,-1.8,1024,1024,1024,1024,0,0,0,0,82,4.758,71.06,164.698168,P-GPS,,50.2
1027,243600,2026-01-09 20:10:40,0.0,5,7.672,0.0,0.0,0.0,5.6,4.6,-1.9,1024,1024,1024,1024,0,0,0,0,82,4.758,71.06,164.698168,P-GPS,,50.2
1028,243700,2026-01-09 20:10:40,0.0,5,7.669,0.0,0.0,0.0,5.6,4.5,-1.9,1024,1024,1024,1024,0,0,0,0,82,4.765,71.24,164.698168,P-GPS,,50.2
1029,243800,2026-01-09 20:10:40,0.0,5,7.669,0.0,0.0,0.0,5.6,4.5,-2.1,1024,1024,1024,1024,0,0,0,0,82,4.765,71.24,164.698168,P-GPS,,50.2
1030,243900,2026-01-09 20:10:40,0.0,5,7.669,0.0,0.0,0.0,5.6,4.6,-2.3,1024,1024,1024,1024,0,0,0,0,82,4.765,71.24,164.698168,P-GPS,,50.2
1031,244000,2026-01-09 20:10:41,0.0,5,7.669,0.0,0.0,0.0,5.6,4.6,-2.4,1024,1024,1024,1024,0,0,0,0,82,4.765,71.24,164.698168,P-GPS,,50.2
1032,244100,2026-01-09 20:10:41,0.0,5,7.669,0.0,0.0,0.0,5.6,4.7,-2.3,1024,1024,1024,1024,0,0,0,0,82,4.765,71.24,164.698168,P-GPS,,50.2
1033,244200,2026-01-09 20:10:41,0.0,5,7.669,0.0,0.0,0.0,5.6,4.7,-2.3,1024,1024,1024,1024,0,0,0,0,82,4.765,71.24,164.698168,P-GPS,,50.2
1034,244300,2026-01-09 20:10:41,0.0,5,7.669,0.0,0.0,0.0,5.6,4.6,-2.4,1024,1024,1024,1024,0,0,0,0,82,4.765,71.24,164.698168,P-GPS,,50.2
1035,244400,2026-01-09 20:10:41,0.0,5,7.669,0.0,0.0,0.0,5.6,4.5,-2.4,1024,1024,1024,1024,0,0,0,0,82,4.765,71.24,164.698168,P-GPS,,50.2
1036,244500,2026-01-09 20:10:41,0.0,5,7.669,0.0,0.0,0.0,5.6,4.7,-2.4,1024,1024,1024,1024,0,0,0,0,82,4.765,71.24,164.698168,P-GPS,,50.2
1037,244600,2026-01-09 20:10:41,0.0,5,7.669,0.0,0.0,0.0,5.6,4.8,-2.4,1024,1024,1024,1024,0,0,0,0,82,4.765,71.24,165.026252,P-GPS,,50.3
1038,244700,2026-01-09 20:10:41,0.0,5,7.669,0.0,0.0,0.0,5.6,4.7,-2.3,1024,1024,1024,1024,0,0,0,0,82,4.765,71.24,165.026252,P-GPS,,50.3
1039,244800,2026-01-09 20:10:41,0.0,5,7.67,0.0,0.0,0.0,5.6,4.7,-2.3,1024,1024,1024,1024,0,0,0,0,82,4.731,71.42,165.026252,P-GPS,,50.3
1040,244900,2026-01-09 20:10:41,0.0,5,7.67,0.0,0.0,0.0,5.6,4.9,-2.5,1024,1024,1024,1024,0,0,0,0,82,4.731,71.42,165.026252,P-GPS,,50.3
1041,245000,2026-01-09 20:10:41,0.0,5,7.67,0.0,0.0,0.0,5.6,5.0,-2.5,1024,1024,1024,1024,0,0,0,0,82,4.731,71.42,165.026252,P-GPS,,50.3
