time(millisecond),timestamp,speed(mph),gpslevel,voltage(v),xSpeed(mph),ySpeed(mph),zSpeed(mph),compass_heading(degrees),pitch(degrees),roll(degrees),rc_elevator,rc_aileron,rc_throttle,rc_rudder,rc_elevator(percent),rc_aileron(percent),rc_throttle(percent),rc_rudder(percent),battery_percent,current(A),battery_temperature(f),ascent(feet),flycState,message,height_above_takeoff(meters)
434100,2026-01-09 12:44:43,0.223694,5,7.501,0.223694,0.0,0.0,38.5,-4.0,-3.7,1024,1024,1024,1024,0,0,0,0,71,4.725,75.74,33.464568,P-GPS,,10.2
434200,2026-01-09 12:44:43,0.447388,5,7.501,0.447388,0.0,0.0,38.6,-3.5,-2.8,1024,1024,1024,1024,0,0,0,0,71,4.725,75.74,33.464568,P-GPS,,10.2
434300,2026-01-09 12:44:43,0.223694,5,7.501,0.223694,0.0,0.0,38.5,-3.0,-2.2,1024,1024,1024,1024,0,0,0,0,71,4.725,75.74,33.464568,P-GPS,,10.2
434400,2026-01-09 12:44:43,0.223694,5,7.501,0.223694,0.0,0.0,38.4,-2.4,-2.0,1024,1024,1024,1024,0,0,0,0,71,4.725,75.74,33.464568,P-GPS,,10.2
434500,2026-01-09 12:44:44,0.223694,5,7.501,0.223694,0.0,0.0,38.4,-2.9,-2.2,1024,1024,1024,1024,0,0,0,0,71,4.725,75.74,33.136484,P-GPS,,10.1
434600,2026-01-09 12:44:44,0.223694,5,7.501,0.223694,0.0,0.0,38.4,-2.9,-2.0,1024,1024,1024,1024,0,0,0,0,71,4.725,75.74,33.136484,P-GPS,,10.1
434700,2026-01-09 12:44:44,0.223694,5,7.482,0.223694,0.0,0.0,38.5,-2.9,-1.5,1024,1024,1024,1024,0,0,0,0,71,6.058,75.74,33.136484,P-GPS,,10.1
434800,2026-01-09 12:44:44,0.223694,5,7.482,0.223694,0.0,0.0,38.5,-2.8,-1.8,1024,1024,1024,1024,0,0,0,0,71,6.058,75.74,33.136484,P-GPS,,10.1
434900,2026-01-09 12:44:44,0.223694,5,7.482,0.223694,0.0,0.0,38.3,-2.2,-1.9,1024,1024,1024,1024,0,0,0,0,71,6.058,75.74,33.136484,P-GPS,,10.1
435000,2026-01-09 12:44:44,0.223694,5,7.482,0.0,0.0,0.0,38.3,-3.5,-1.6,1024,1024,1024,1024,0,0,0,0,71,6.058,75.74,33.136484,P-GPS,,10.1
435100,2026-01-09 12:44:44,0.0,5,7.482,0.0,0.0,0.0,38.3,-3.7,-1.6,1024,1024,1024,1024,0,0,0,0,71,6.058,75.74,32.8084,P-GPS,,10.0
435200,2026-01-09 12:44:44,0.223694,5,7.482,0.223694,0.0,0.0,38.3,-3.5,-1.0,1024,1024,1024,1024,0,0,0,0,71,6.058,75.74,32.8084,P-GPS,,10.0
435300,2026-01-09 12:44:44,0.0,5,7.482,0.0,0.0,0.0,38.4,-2.9,-0.5,1024,1024,1024,1024,0,0,0,0,71,6.058,75.74,32.8084,P-GPS,,10.0
435400,2026-01-09 12:44:44,0.0,5,7.482,0.0,0.0,0.0,38.4,-2.7,-0.3,1024,1024,1024,1024,0,0,0,0,71,6.058,75.74,32.8084,P-GPS,,10.0
435500,2026-01-09 12:44:45,0.0,5,7.482,0.0,0.0,0.0,38.4,-2.5,-0.2,1024,1024,1024,1024,0,0,0,0,71,6.058,75.74,32.8084,P-GPS,,10.0
435600,2026-01-09 12:44:45,0.0,5,7.482,0.0,0.0,0.0,38.4,-2.7,-0.4,1024,1024,1024,1024,0,0,0,0,71,6.058,75.74,32.8084,P-GPS,,10.0
435700,2026-01-09 12:44:45,0.0,5,7.482,0.0,0.0,0.0,38.4,-2.6,-0.6,1024,1024,1024,1024,0,0,0,0,71,6.058,75.74,32.8084,P-GPS,,10.0
435800,2026-01-09 12:44:45,0.0,5,7.499,0.0,0.0,0.0,38.4,-2.7,-0.9,1024,1024,1024,1024,0,0,0,0,71,5.295,75.92,32.8084,P-GPS,,10.0
435900,2026-01-09 12:44:45,0.0,5,7.499,0.0,0.0,0.0,38.3,-2.7,-1.0,1024,1024,1024,1024,0,0,0,0,71,5.295,75.92,32.8084,P-GPS,,10.0
436000,2026-01-09 12:44:45,0.0,5,7.499,0.0,0.0,0.0,38.3,-3.0,-1.2,1024,1024,1024,1024,0,0,0,0,71,5.295,75.92,32.8084,P-GPS,,10.0
436100,2026-01-09 12:44:45,0.0,5,7.499,0.0,0.0,0.0,38.5,-2.3,-0.5,1024,1024,1024,1024,0,0,0,0,71,5.295,75.92,32.8084,P-GPS,,10.0
436200,2026-01-09 12:44:45,0.0,5,7.499,0.0,0.0,0.0,38.5,-3.1,-0.5,1024,1024,1024,1024,0,0,0,0,71,5.295,75.92,32.8084,P-GPS,,10.0
436300,2026-01-09 12:44:45,0.0,5,7.499,0.0,0.0,0.0,38.4,-3.0,-0.9,1024,1024,1024,1024,0,0,0,0,71,5.295,75.92,32.480316,P-GPS,,9.9
436400,2026-01-09 12:44:45,0.0,5,7.499,0.0,0.0,0.0,38.3,-3.5,-0.9,1024,1024,1024,1024,0,0,0,0,71,5.295,75.92,32.480316,P-GPS,,9.9
436500,2026-01-09 12:44:46,0.0,5,7.499,0.0,0.0,0.0,38.3,-3.3,-1.4,1024,1024,1024,1024,0,0,0,0,71,5.295,75.92,32.480316,P-GPS,,9.9
436600,2026-01-09 12:44:46,0.0,5,7.499,0.0,0.0,0.0,38.3,-3.4,-1.8,1024,1024,1024,1024,0,0,0,0,71,5.295,75.92,32.480316,P-GPS,,9.9
436700,2026-01-09 12:44:46,0.0,5,7.499,0.0,0.0,0.0,38.3,-3.1,-2.0,1024,1024,1024,1024,0,0,0,0,71,5.295,75.92,32.480316,P-GPS,,9.9
436800,2026-01-09 12:44:46,0.0,5,7.499,0.0,0.0,0.0,38.3,-2.8,-2.0,1024,1024,1024,1024,0,0,0,0,71,5.295,75.92,32.480316,P-GPS,,9.9
436900,2026-01-09 12:44:46,0.0,5,7.509,0.0,0.0,0.0,38.3,-3.0,-1.9,1024,1024,1024,1024,0,0,0,0,71,4.886,75.92,32.480316,P-GPS,,9.9
437000,2026-01-09 12:44:46,0.0,5,7.509,0.0,0.0,0.0,38.2,-2.7,-1.8,1024,1024,1024,1024,0,0,0,0,71,4.886,75.92,32.152232,P-GPS,,9.8
437100,2026-01-09 12:44:46,0.0,5,7.509,0.0,0.0,0.0,38.2,-2.4,-2.1,1024,1024,1024,1024,0,0,0,0,71,4.886,75.92,32.152232,P-GPS,,9.8
437200,2026-01-09 12:44:46,0.0,5,7.509,0.0,0.0,0.0,38.4,-2.8,-1.9,1024,1024,1024,1024,0,0,0,0,71,4.886,75.92,32.152232,P-GPS,,9.8
437300,2026-01-09 12:44:46,0.0,5,7.509,0.0,0.0,0.0,38.5,-3.6,-1.6,1024,1024,1024,1024,0,0,0,0,71,4.886,75.92,32.152232,P-GPS,,9.8
437400,2026-01-09 12:44:46,0.0,5,7.509,0.0,0.0,0.0,38.4,-2.9,-1.3,1024,1024,1024,1024,0,0,0,0,71,4.886,75.92,32.152232,P-GPS,,9.8
437500,2026-01-09 12:44:47,0.0,5,7.509,0.0,0.0,0.0,38.3,-3.1,-1.6,1024,1024,1024,1024,0,0,0,0,71,4.886,75.92,32.152232,P-GPS,,9.8
437600,2026-01-09 12:44:47,0.0,5,7.509,0.0,0.0,0.0,38.3,-3.0,-1.9,1024,1024,1024,1024,0,0,0,0,71,4.886,75.92,32.152232,P-GPS,,9.8
437700,2026-01-09 12:44:47,0.223694,5,7.509,-0.223694,0.0,0.0,38.0,-2.7,-2.5,1024,1024,1024,1024,0,0,0,0,71,4.886,75.92,32.152232,P-GPS,,9.8
437800,2026-01-09 12:44:47,0.223694,5,7.509,-0.223694,0.0,0.0,38.0,-4.2,-3.3,1024,1024,1024,1024,0,0,0,0,71,4.886,75.92,32.152232,P-GPS,,9.8
437900,2026-01-09 12:44:47,0.0,5,7.509,0.0,0.0,0.0,38.2,-5.5,-2.4,1024,1024,1024,1024,0,0,0,0,71,4.886,75.92,31.824148,P-GPS,,9.7
438000,2026-01-09 12:44:47,0.0,5,7.508,0.0,0.0,0.0,38.4,-5.8,-1.7,1024,1024,1024,1024,0,0,0,0,70,4.743,75.92,31.824148,P-GPS,,9.7
438100,2026-01-09 12:44:47,0.0,5,7.508,0.0,0.0,0.0,38.5,-5.0,-1.4,1024,1024,1024,1024,0,0,0,0,70,4.743,75.92,31.824148,P-GPS,,9.7
438200,2026-01-09 12:44:47,0.0,5,7.508,0.0,0.0,0.0,38.4,-3.2,-1.6,1024,1024,1024,1024,0,0,0,0,70,4.743,75.92,31.824148,P-GPS,,9.7
438300,2026-01-09 12:44:47,0.0,5,7.508,0.0,0.0,0.0,38.0,-1.9,-3.7,1024,1024,1024,1024,0,0,0,0,70,4.743,75.92,31.496064,P-GPS,,9.6
438400,2026-01-09 12:44:47,0.0,5,7.508,0.0,0.0,0.0,38.4,-4.3,-2.3,1024,1024,1024,1024,0,0,0,0,70,4.743,75.92,31.496064,P-GPS,,9.6
438500,2026-01-09 12:44:48,0.0,5,7.508,0.0,0.0,0.0,38.6,-6.2,-1.7,1024,1024,1024,1024,0,0,0,0,70,4.743,75.92,31.496064,P-GPS,,9.6
438600,2026-01-09 12:44:48,0.0,5,7.508,0.0,0.0,0.0,38.6,-5.8,-0.8,1024,1024,1024,1024,0,0,0,0,70,4.743,75.92,31.16798,P-GPS,,9.5
438700,2026-01-09 12:44:48,0.0,5,7.508,0.0,0.0,0.0,38.4,-5.0,-1.1,1024,1024,1024,1024,0,0,0,0,70,4.743,75.92,31.16798,P-GPS,,9.5
438800,2026-01-09 12:44:48,0.0,5,7.508,0.0,0.0,0.0,38.4,-4.4,-0.8,1024,1024,1024,1024,0,0,0,0,70,4.743,75.92,31.16798,P-GPS,,9.5
438900,2026-01-09 12:44:48,0.0,5,7.508,0.0,0.0,0.0,38.4,-3.9,-0.7,1024,1024,1024,1024,0,0,0,0,70,4.743,75.92,31.16798,P-GPS,,9.5
439000,2026-01-09 12:44:48,0.0,5,7.508,0.0,0.0,0.0,38.0,-2.5,-1.5,1024,1024,1024,1024,0,0,0,0,70,4.743,75.92,31.16798,P-GPS,,9.5
439100,2026-01-09 12:44:48,0.0,5,7.508,0.0,0.0,0.0,38.0,-2.2,-1.4,1024,1024,1024,1024,0,0,0,0,70,4.743,75.92,31.16798,P-GPS,,9.5
439200,2026-01-09 12:44:48,0.0,5,7.508,0.0,0.0,0.0,38.1,-2.2,-1.1,1024,1024,1024,1024,0,0,0,0,70,4.743,75.92,31.16798,P-GPS,,9.5
439300,2026-01-09 12:44:48,0.0,5,7.508,0.0,0.0,0.0,38.2,-2.6,-0.7,1024,1024,1024,1024,0,0,0,0,70,4.743,75.92,31.16798,P-GPS,,9.5
439400,2026-01-09 12:44:48,0.0,5,7.508,0.0,0.0,0.0,38.3,-2.6,-1.0,1024,1024,1024,1024,0,0,0,0,70,4.743,75.92,31.16798,P-GPS,,9.5
439500,2026-01-09 12:44:49,0.0,5,7.508,0.0,0.0,0.0,38.4,-2.6,-0.8,1024,1024,1024,1024,0,0,0,0,70,4.743,75.92,30.839896,P-GPS,,9.4
439600,2026-01-09 12:44:49,0.0,5,7.508,0.0,0.0,0.0,38.5,-2.6,-0.5,1024,1024,1024,1024,0,0,0,0,70,4.743,75.92,30.839896,P-GPS,,9.4
439700,2026-01-09 12:44:49,0.0,5,7.508,0.0,0.0,0.0,38.6,-2.6,-0.2,1024,1024,1024,1024,0,0,0,0,70,4.743,75.92,30.839896,P-GPS,,9.4
439800,2026-01-09 12:44:49,0.0,5,7.508,0.0,0.0,0.0,38.6,-2.2,0.0,1024,1024,1024,1024,0,0,0,0,70,4.743,75.92,30.839896,P-GPS,,9.4
439900,2026-01-09 12:44:49,0.0,5,7.508,0.0,0.0,0.0,38.6,-1.6,0.0,1024,1024,1024,1024,0,0,0,0,70,4.743,75.92,30.839896,P-GPS,,9.4
440000,2026-01-09 12:44:49,0.0,5,7.508,0.0,0.0,0.0,38.5,-1.3,-0.4,1024,1024,1024,1024,0,0,0,0,70,4.743,75.92,30.839896,P-GPS,,9.4
440100,2026-01-09 12:44:49,0.0,5,7.508,0.0,0.0,0.0,38.4,-1.3,-0.4,1024,1024,1024,1024,0,0,0,0,70,4.743,75.92,30.839896,P-GPS,,9.4
440200,2026-01-09 12:44:49,0.0,5,7.515,0.0,0.0,0.0,38.3,-1.2,-1.0,1024,1024,1024,1024,0,0,0,0,70,4.768,75.92,30.839896,P-GPS,,9.4
440300,2026-01-09 12:44:49,0.0,5,7.515,0.0,0.0,0.0,38.4,-1.4,-1.0,1024,1024,1024,1024,0,0,0,0,70,4.768,75.92,30.839896,P-GPS,,9.4
440400,2026-01-09 12:44:50,0.0,5,7.515,0.0,0.0,0.0,38.4,-2.0,-1.2,1024,1024,1024,1024,0,0,0,0,70,4.768,75.92,30.839896,P-GPS,,9.4
440500,2026-01-09 12:44:50,0.0,5,7.515,0.0,0.0,0.0,38.4,-1.9,-1.6,1024,1024,1024,1024,0,0,0,0,70,4.768,75.92,31.16798,P-GPS,,9.5
440600,2026-01-09 12:44:50,0.0,5,7.515,0.0,0.0,0.0,38.4,-2.1,-1.9,1024,1024,1024,1024,0,0,0,0,70,4.768,75.92,31.16798,P-GPS,,9.5
440700,2026-01-09 12:44:50,0.0,5,7.515,0.0,0.0,0.0,38.5,-2.5,-1.8,1024,1024,1024,1024,0,0,0,0,70,4.768,75.92,31.16798,P-GPS,,9.5
440800,2026-01-09 12:44:50,0.0,5,7.515,0.0,0.0,0.0,38.5,-3.0,-1.9,1024,1024,1024,1024,0,0,0,0,70,4.768,75.92,31.16798,P-GPS,,9.5
440900,2026-01-09 12:44:50,0.0,5,7.515,0.0,0.0,0.0,38.5,-2.8,-2.0,1024,1024,1024,1024,0,0,0,0,70,4.768,75.92,31.16798,P-GPS,,9.5
441000,2026-01-09 12:44:50,0.0,5,7.515,0.0,0.0,0.0,38.5,-3.0,-2.2,1024,1024,1024,1024,0,0,0,0,70,4.768,75.92,31.16798,P-GPS,,9.5
441100,2026-01-09 12:44:50,0.0,5,7.515,0.0,0.0,0.0,38.5,-3.2,-2.4,1024,1024,1024,1024,0,0,0,0,70,4.768,75.92,31.16798,P-GPS,,9.5
441200,2026-01-09 12:44:50,0.0,5,7.515,0.0,0.0,0.0,38.6,-3.8,-2.2,1024,1024,1024,1024,0,0,0,0,70,4.768,75.92,31.16798,P-GPS,,9.5
441300,2026-01-09 12:44:50,0.0,5,7.504,0.0,0.0,0.0,38.6,-5.0,-2.5,1024,1024,1024,1024,0,0,0,0,70,4.806,75.92,31.16798,P-GPS,,9.5
441400,2026-01-09 12:44:50,0.0,5,7.504,0.0,0.0,0.0,38.8,-4.8,-3.3,1024,1024,1024,1024,0,0,0,0,70,4.806,75.92,31.496064,P-GPS,,9.6
441500,2026-01-09 12:44:51,0.223694,5,7.504,0.0,0.223694,0.0,38.8,-3.4,-4.3,1024,1024,1024,1024,0,0,0,0,70,4.806,75.92,31.496064,P-GPS,,9.6
441600,2026-01-09 12:44:51,0.223694,5,7.504,0.0,0.223694,0.0,38.5,-1.8,-4.9,1024,1024,1024,1024,0,0,0,0,70,4.806,75.92,31.496064,P-GPS,,9.6
441700,2026-01-09 12:44:51,0.223694,5,7.504,0.0,0.223694,0.0,38.6,-1.3,-5.1,1024,1024,1024,1024,0,0,0,0,70,4.806,75.92,31.496064,P-GPS,,9.6
441800,2026-01-09 12:44:51,0.223694,5,7.504,0.0,0.223694,0.0,38.4,-0.9,-5.6,1024,1024,1024,1024,0,0,0,0,70,4.806,75.92,31.824148,P-GPS,,9.7
441900,2026-01-09 12:44:51,0.0,5,7.504,0.0,0.0,0.0,38.4,-1.0,-5.1,1024,1024,1024,1024,0,0,0,0,70,4.806,75.92,31.824148,P-GPS,,9.7
442000,2026-01-09 12:44:51,0.0,5,7.504,0.0,0.0,0.0,38.5,-1.7,-4.6,1024,1024,1024,1024,0,0,0,0,70,4.806,75.92,31.824148,P-GPS,,9.7
442100,2026-01-09 12:44:51,0.0,5,7.504,0.0,0.0,0.0,38.5,-1.9,-4.6,1024,1024,1024,1024,0,0,0,0,70,4.806,75.92,32.152232,P-GPS,,9.8
442200,2026-01-09 12:44:51,0.0,5,7.504,0.0,0.0,0.0,38.4,-2.0,-4.6,1024,1024,1024,1024,0,0,0,0,70,4.806,75.92,32.152232,P-GPS,,9.8
442300,2026-01-09 12:44:51,0.0,5,7.504,0.0,0.0,0.0,38.7,-3.0,-3.9,1024,1024,1024,1024,0,0,0,0,70,4.806,75.92,32.152232,P-GPS,,9.8
442400,2026-01-09 12:44:51,0.0,5,7.49,0.0,0.0,0.0,38.7,-2.7,-3.7,1024,1024,1024,1024,0,0,0,0,70,5.248,75.92,32.480316,P-GPS,,9.9
442500,2026-01-09 12:44:52,0.0,5,7.49,0.0,0.0,0.0,38.7,-1.7,-3.7,1024,1024,1024,1024,0,0,0,0,70,5.248,75.92,32.480316,P-GPS,,9.9
442600,2026-01-09 12:44:52,0.0,5,7.49,0.0,0.0,0.0,38.5,-1.2,-4.0,1024,1024,1024,1024,0,0,0,0,70,5.248,75.92,32.480316,P-GPS,,9.9
442700,2026-01-09 12:44:52,0.0,5,7.49,0.0,0.0,0.0,38.5,-0.7,-4.0,1024,1024,1024,1024,0,0,0,0,70,5.248,75.92,32.480316,P-GPS,,9.9
442800,2026-01-09 12:44:52,0.0,5,7.49,0.0,0.0,0.0,38.4,-0.4,-4.3,1024,1024,1024,1024,0,0,0,0,70,5.248,75.92,32.480316,P-GPS,,9.9
442900,2026-01-09 12:44:52,0.0,5,7.49,0.0,0.0,0.0,38.5,-0.9,-3.9,1024,1024,1024,1024,0,0,0,0,70,5.248,75.92,32.480316,P-GPS,,9.9
443000,2026-01-09 12:44:52,0.0,5,7.49,0.0,0.0,0.0,38.5,-1.4,-3.4,1024,1024,1024,1024,0,0,0,0,70,5.248,75.92,32.480316,P-GPS,,9.9
443100,2026-01-09 12:44:52,0.0,5,7.49,0.0,0.0,0.0,38.6,-2.0,-3.0,1024,1024,1024,1024,0,0,0,0,70,5.248,75.92,32.480316,P-GPS,,9.9
443200,2026-01-09 12:44:52,0.0,5,7.49,0.0,0.0,0.0,38.6,-1.9,-3.1,1024,1024,1024,1024,0,0,0,0,70,5.248,75.92,32.480316,P-GPS,,9.9
443300,2026-01-09 12:44:52,0.0,5,7.49,0.0,0.0,0.0,38.5,-1.9,-3.1,1024,1024,1024,1024,0,0,0,0,70,5.248,75.92,32.480316,P-GPS,,9.9
443400,2026-01-09 12:44:52,0.0,5,7.49,0.0,0.0,0.0,38.5,-1.7,-3.0,1024,1024,1024,1024,0,0,0,0,70,5.248,75.92,32.480316,P-GPS,,9.9
443500,2026-01-09 12:44:53,0.0,5,7.476,0.0,0.0,0.0,38.4,-1.6,-2.9,1024,1024,1024,1024,0,0,0,0,70,5.219,75.92,32.152232,P-GPS,,9.8
443600,2026-01-09 12:44:53,0.0,5,7.476,0.0,0.0,0.0,38.4,-1.4,-2.7,1024,1024,1024,1024,0,0,0,0,70,5.219,75.92,32.152232,P-GPS,,9.8
443700,2026-01-09 12:44:53,0.0,5,7.476,0.0,0.0,0.0,38.5,-0.8,-2.1,1024,1024,1024,1024,0,0,0,0,70,5.219,75.92,32.152232,P-GPS,,9.8
443800,2026-01-09 12:44:53,0.0,5,7.476,0.0,0.0,0.0,38.4,-0.7,-3.0,1024,1024,1024,1024,0,0,0,0,70,5.219,75.92,32.152232,P-GPS,,9.8
443900,2026-01-09 12:44:53,0.0,5,7.476,0.0,0.0,0.0,38.4,-0.7,-3.3,1024,1024,1024,1024,0,0,0,0,70,5.219,75.92,32.152232,P-GPS,,9.8
444000,2026-01-09 12:44:53,0.0,5,7.476,0.0,0.0,0.0,38.4,-0.9,-3.8,1024,1024,1024,1024,0,0,0,0,70,5.219,75.92,32.152232,P-GPS,,9.8
444100,2026-01-09 12:44:53,0.0,5,7.476,0.0,0.0,0.0,38.3,-0.4,-3.9,1024,1024,1024,1024,0,0,0,0,70,5.219,75.92,32.152232,P-GPS,,9.8
444200,2026-01-09 12:44:53,0.0,5,7.476,0.0,0.0,0.0,38.4,-0.7,-4.2,1024,1024,1024,1024,0,0,0,0,70,5.219,75.92,32.152232,P-GPS,,9.8
444300,2026-01-09 12:44:53,0.0,5,7.476,0.0,0.0,0.0,38.5,-0.6,-4.6,1024,1024,1024,1024,0,0,0,0,70,5.219,75.92,32.152232,P-GPS,,9.8
444400,2026-01-09 12:44:53,0.0,5,7.476,0.0,0.0,0.0,38.4,-0.6,-5.0,1024,1024,1024,1024,0,0,0,0,70,5.219,75.92,32.152232,P-GPS,,9.8
444500,2026-01-09 12:44:54,0.0,5,7.476,0.0,0.0,0.0,38.4,-0.6,-5.0,1024,1024,1024,1024,0,0,0,0,70,5.219,75.92,32.152232,P-GPS,,9.8
444600,2026-01-09 12:44:54,0.0,5,7.468,0.0,0.0,0.0,38.5,-0.7,-5.0,1024,1024,1024,1024,0,0,0,0,70,5.409,75.92,32.152232,P-GPS,,9.8
444700,2026-01-09 12:44:54,0.0,5,7.468,0.0,0.0,0.0,38.4,-0.7,-4.9,1024,1024,1024,1024,0,0,0,0,70,5.409,75.92,32.152232,P-GPS,,9.8
444800,2026-01-09 12:44:54,0.0,5,7.468,0.0,0.0,0.0,38.5,-0.6,-4.1,1024,1024,1024,1024,0,0,0,0,70,5.409,75.92,32.152232,P-GPS,,9.8
444900,2026-01-09 12:44:54,0.0,5,7.468,0.0,0.0,0.0,38.4,-0.4,-4.4,1024,1024,1024,1024,0,0,0,0,70,5.409,75.92,32.152232,P-GPS,,9.8
445000,2026-01-09 12:44:54,0.0,5,7.468,0.0,0.0,0.0,38.4,-0.8,-4.8,1024,1024,1024,1024,0,0,0,0,70,5.409,75.92,32.152232,P-GPS,,9.8
445100,2026-01-09 12:44:54,0.0,5,7.468,0.0,0.0,0.0,38.5,-0.9,-4.9,1024,1024,1024,1024,0,0,0,0,70,5.409,75.92,32.480316,P-GPS,,9.9
445200,2026-01-09 12:44:54,0.0,5,7.468,0.0,0.0,0.0,38.6,-1.2,-4.7,1024,1024,1024,1024,0,0,0,0,70,5.409,75.92,32.480316,P-GPS,,9.9
445300,2026-01-09 12:44:54,0.0,5,7.468,0.0,0.0,0.0,38.5,-1.2,-4.9,1024,1024,1024,1024,0,0,0,0,70,5.409,75.92,32.480316,P-GPS,,9.9
445400,2026-01-09 12:44:54,0.0,5,7.468,0.0,0.0,0.0,38.6,-1.1,-5.0,1024,1024,1024,1024,0,0,0,0,70,5.409,75.92,32.480316,P-GPS,,9.9
445500,2026-01-09 12:44:55,0.0,5,7.468,0.0,0.0,0.0,38.7,-0.9,-4.9,1024,1024,1024,1024,0,0,0,0,70,5.409,75.92,32.480316,P-GPS,,9.9
445600,2026-01-09 12:44:55,0.0,5,7.468,0.0,0.0,0.0,38.6,-0.6,-5.3,1024,1024,1024,1024,0,0,0,0,70,5.409,75.92,32.8084,P-GPS,,10.0
445700,2026-01-09 12:44:55,0.0,5,7.466,0.0,0.0,0.0,38.6,-0.7,-5.6,1024,1024,1024,1024,0,0,0,0,70,5.464,75.92,32.8084,P-GPS,,10.0
445800,2026-01-09 12:44:55,0.0,5,7.466,0.0,0.0,0.0,38.4,-0.1,-5.8,1024,1024,1024,1024,0,0,0,0,70,5.464,75.92,32.8084,P-GPS,,10.0
445900,2026-01-09 12:44:55,0.0,5,7.466,0.0,0.0,0.0,38.5,0.0,-5.8,1024,1024,1024,1024,0,0,0,0,70,5.464,75.92,33.136484,P-GPS,,10.1
446000,2026-01-09 12:44:55,0.0,5,7.466,0.0,0.0,0.0,38.7,-0.5,-5.8,1024,1024,1024,1024,0,0,0,0,70,5.464,75.92,33.136484,P-GPS,,10.1
446100,2026-01-09 12:44:55,0.0,5,7.466,0.0,0.0,0.0,38.5,-0.3,-6.0,1024,1024,1024,1024,0,0,0,0,70,5.464,75.92,33.136484,P-GPS,,10.1
446200,2026-01-09 12:44:55,0.0,5,7.466,0.0,0.0,0.0,38.4,0.0,-5.7,1024,1024,1024,1024,0,0,0,0,70,5.464,75.92,33.136484,P-GPS,,10.1
446300,2026-01-09 12:44:55,0.0,5,7.466,0.0,0.0,0.0,38.3,0.4,-5.9,1024,1024,1024,1024,0,0,0,0,70,5.464,75.92,33.136484,P-GPS,,10.1
446400,2026-01-09 12:44:56,0.0,5,7.466,0.0,0.0,0.0,38.4,0.1,-5.9,1024,1024,1024,1024,0,0,0,0,70,5.464,75.92,33.136484,P-GPS,,10.1
446500,2026-01-09 12:44:56,0.0,5,7.466,0.0,0.0,0.0,38.4,0.2,-5.6,1024,1024,1024,1024,0,0,0,0,70,5.464,75.92,33.136484,P-GPS,,10.1
446600,2026-01-09 12:44:56,0.0,5,7.466,0.0,0.0,0.0,38.5,-0.4,-5.7,1024,1024,1024,1024,0,0,0,0,70,5.464,75.92,33.136484,P-GPS,,10.1
446700,2026-01-09 12:44:56,0.0,5,7.466,0.0,0.0,0.0,38.7,-1.0,-5.8,1024,1024,1024,1024,0,0,0,0,70,5.464,75.92,33.136484,P-GPS,,10.1
446800,2026-01-09 12:44:56,0.0,5,7.47,0.0,0.0,0.0,38.5,-1.2,-6.4,1024,1024,1024,1024,0,0,0,0,70,5.296,75.92,33.136484,P-GPS,,10.1
446900,2026-01-09 12:44:56,0.0,5,7.47,0.0,0.0,0.0,38.6,-1.4,-6.1,1024,1024,1024,1024,0,0,0,0,70,5.296,75.92,33.136484,P-GPS,,10.1
447000,2026-01-09 12:44:56,0.0,5,7.47,0.0,0.0,0.0,38.8,-1.2,-6.7,1024,1024,1024,1024,0,0,0,0,70,5.296,75.92,33.464568,P-GPS,,10.2
447100,2026-01-09 12:44:56,0.0,5,7.47,0.0,0.0,0.0,38.8,-1.2,-7.1,1024,1024,1024,1024,0,0,0,0,70,5.296,75.92,33.464568,P-GPS,,10.2
447200,2026-01-09 12:44:56,0.0,5,7.47,0.0,0.0,0.0,38.8,-1.7,-7.4,1024,1024,1024,1024,0,0,0,0,70,5.296,75.92,33.464568,P-GPS,,10.2
447300,2026-01-09 12:44:56,0.0,5,7.47,0.0,0.0,0.0,38.7,-1.4,-7.3,1024,1024,1024,1024,0,0,0,0,70,5.296,75.92,33.464568,P-GPS,,10.2
447400,2026-01-09 12:44:56,0.0,5,7.47,0.0,0.0,0.0,38.5,-1.3,-7.0,1024,1024,1024,1024,0,0,0,0,70,5.296,75.92,33.464568,P-GPS,,10.2
447500,2026-01-09 12:44:57,0.0,5,7.47,0.0,0.0,0.0,38.5,-1.2,-6.8,1024,1024,1024,1024,0,0,0,0,70,5.296,75.92,33.464568,P-GPS,,10.2
447600,2026-01-09 12:44:57,0.0,5,7.47,0.0,0.0,0.0,38.4,-1.4,-6.6,1024,1024,1024,1024,0,0,0,0,70,5.296,75.92,33.464568,P-GPS,,10.2
447700,2026-01-09 12:44:57,0.0,5,7.47,0.0,0.0,0.0,38.4,-1.7,-6.3,1024,1024,1024,1024,0,0,0,0,70,5.296,75.92,33.464568,P-GPS,,10.2
447800,2026-01-09 12:44:57,0.0,5,7.47,0.0,0.0,0.0,38.5,-2.0,-6.2,1024,1024,1024,1024,0,0,0,0,70,5.296,75.92,33.464568,P-GPS,,10.2
447900,2026-01-09 12:44:57,0.0,5,7.474,0.0,0.0,0.0,38.6,-2.1,-6.2,1024,1024,1024,1024,0,0,0,0,70,5.18,75.92,33.136484,P-GPS,,10.1
448000,2026-01-09 12:44:57,0.0,5,7.474,0.0,0.0,0.0,38.6,-2.2,-6.2,1024,1024,1024,1024,0,0,0,0,70,5.18,75.92,33.136484,P-GPS,,10.1
448100,2026-01-09 12:44:57,0.0,5,7.474,0.0,0.0,0.0,38.5,-1.5,-6.1,1024,1024,1024,1024,0,0,0,0,70,5.18,75.92,33.136484,P-GPS,,10.1
448200,2026-01-09 12:44:57,0.0,5,7.474,0.0,0.0,0.0,38.5,-1.2,-6.0,1024,1024,1024,1024,0,0,0,0,70,5.18,75.92,33.136484,P-GPS,,10.1
448300,2026-01-09 12:44:57,0.0,5,7.474,0.0,0.0,0.0,38.5,-1.3,-6.0,1024,1024,1024,1024,0,0,0,0,70,5.18,75.92,33.136484,P-GPS,,10.1
448400,2026-01-09 12:44:57,0.0,5,7.474,0.0,0.0,0.0,38.5,-0.6,-5.8,1024,1024,1024,1024,0,0,0,0,70,5.18,75.92,32.8084,P-GPS,,10.0
448500,2026-01-09 12:44:58,0.0,5,7.474,0.0,0.0,0.0,38.6,-0.2,-5.4,1024,1024,1024,1024,0,0,0,0,70,5.18,75.92,32.8084,P-GPS,,10.0
448600,2026-01-09 12:44:58,0.0,5,7.474,0.0,0.0,0.0,38.4,-0.2,-5.5,1024,1024,1024,1024,0,0,0,0,70,5.18,75.92,32.8084,P-GPS,,10.0
448700,2026-01-09 12:44:58,0.0,5,7.474,0.0,0.0,0.0,38.5,-0.2,-5.4,1024,1024,1024,1024,0,0,0,0,70,5.18,75.92,32.8084,P-GPS,,10.0
448800,2026-01-09 12:44:58,0.0,5,7.474,0.0,0.0,0.0,38.4,-0.1,-5.4,1024,1024,1024,1024,0,0,0,0,70,5.18,75.92,32.8084,P-GPS,,10.0
448900,2026-01-09 12:44:58,0.0,5,7.474,0.0,0.0,0.0,38.3,0.0,-5.2,1024,1024,1024,1024,0,0,0,0,70,5.18,75.92,32.8084,P-GPS,,10.0
449000,2026-01-09 12:44:58,0.0,5,7.477,0.0,0.0,0.0,38.3,-0.1,-5.3,1024,1024,1024,1024,0,0,0,0,70,5.178,76.1,32.8084,P-GPS,,10.0
449100,2026-01-09 12:44:58,0.0,5,7.477,0.0,0.0,0.0,38.2,-0.2,-5.1,1024,1024,1024,1024,0,0,0,0,70,5.178,76.1,32.8084,P-GPS,,10.0
449200,2026-01-09 12:44:58,0.0,5,7.477,0.0,0.0,0.0,38.4,-0.7,-5.1,1024,1024,1024,1024,0,0,0,0,70,5.178,76.1,32.8084,P-GPS,,10.0
449300,2026-01-09 12:44:58,0.0,5,7.477,0.0,0.0,0.0,38.1,-0.3,-5.5,1024,1024,1024,1024,0,0,0,0,70,5.178,76.1,32.8084,P-GPS,,10.0
449400,2026-01-09 12:44:59,0.0,5,7.477,0.0,0.0,0.0,37.9,0.4,-5.6,1024,1024,1024,1024,0,0,0,0,70,5.178,76.1,32.8084,P-GPS,,10.0
449500,2026-01-09 12:44:59,0.0,5,7.477,0.0,0.0,0.0,38.1,-0.2,-4.9,1024,1024,1024,1024,0,0,0,0,70,5.178,76.1,32.480316,P-GPS,,9.9
449600,2026-01-09 12:44:59,0.0,5,7.477,0.0,0.0,0.0,38.4,-2.1,-4.3,1024,1024,1024,1024,0,0,0,0,70,5.178,76.1,32.480316,P-GPS,,9.9
449700,2026-01-09 12:44:59,0.0,5,7.477,0.0,0.0,0.0,38.4,-2.0,-4.3,1024,1024,1024,1024,0,0,0,0,70,5.178,76.1,32.480316,P-GPS,,9.9
449800,2026-01-09 12:44:59,0.0,5,7.477,0.0,0.0,0.0,38.2,-0.8,-4.9,1024,1024,1024,1024,0,0,0,0,70,5.178,76.1,32.480316,P-GPS,,9.9
449900,2026-01-09 12:44:59,0.0,5,7.477,0.0,0.0,0.0,38.3,-0.8,-4.4,1024,1024,1024,1024,0,0,0,0,70,5.178,76.1,32.480316,P-GPS,,9.9
450000,2026-01-09 12:44:59,0.0,5,7.477,0.0,0.0,0.0,38.3,-1.0,-4.1,1024,1024,1024,1024,0,0,0,0,70,5.178,76.1,32.480316,P-GPS,,9.9
450100,2026-01-09 12:44:59,0.0,5,7.473,0.0,0.0,0.0,38.3,-0.3,-4.5,1024,1024,1024,1024,0,0,0,0,70,4.967,76.1,32.480316,P-GPS,,9.9
450200,2026-01-09 12:44:59,0.0,5,7.473,0.0,0.0,0.0,38.3,0.2,-4.5,1024,1024,1024,1024,0,0,0,0,70,4.967,76.1,32.480316,P-GPS,,9.9
450300,2026-01-09 12:44:59,0.0,5,7.473,0.0,0.0,0.0,38.3,-0.1,-4.6,1024,1024,1024,1024,0,0,0,0,70,4.967,76.1,32.480316,P-GPS,,9.9
450400,2026-01-09 12:44:59,0.0,5,7.473,0.0,0.0,0.0,38.3,0.0,-4.4,1024,1024,1024,1024,0,0,0,0,70,4.967,76.1,32.480316,P-GPS,,9.9
450500,2026-01-09 12:45:00,0.0,5,7.473,0.0,0.0,0.0,38.4,-0.2,-4.1,1024,1024,1024,1024,0,0,0,0,70,4.967,76.1,32.480316,P-GPS,,9.9
450600,2026-01-09 12:45:00,0.0,5,7.473,0.0,0.0,0.0,38.5,-0.9,-4.1,1024,1024,1024,1024,0,0,0,0,70,4.967,76.1,32.480316,P-GPS,,9.9
450700,2026-01-09 12:45:00,0.0,5,7.473,0.0,0.0,0.0,38.5,-0.8,-4.5,1024,1024,1024,1024,0,0,0,0,70,4.967,76.1,32.480316,P-GPS,,9.9
450800,2026-01-09 12:45:00,0.0,5,7.473,0.0,0.0,0.0,38.6,-0.9,-4.5,1024,1024,1024,1024,0,0,0,0,70,4.967,76.1,32.8084,P-GPS,,10.0
450900,2026-01-09 12:45:00,0.0,5,7.473,0.0,0.0,0.0,38.4,-0.5,-4.8,1024,1024,1024,1024,0,0,0,0,70,4.967,76.1,32.8084,P-GPS,,10.0
451000,2026-01-09 12:45:00,0.0,5,7.473,0.0,0.0,0.0,38.4,0.0,-5.3,1024,1024,1024,1024,0,0,0,0,70,4.967,76.1,32.8084,P-GPS,,10.0
451100,2026-01-09 12:45:00,0.0,5,7.473,0.0,0.0,0.0,38.3,0.0,-5.4,1024,1024,1024,1024,0,0,0,0,70,4.967,76.1,32.8084,P-GPS,,10.0
451200,2026-01-09 12:45:00,0.0,5,7.473,0.0,0.0,0.0,38.4,-0.1,-4.8,1024,1024,1024,1024,0,0,0,0,70,4.967,76.1,32.8084,P-GPS,,10.0
451300,2026-01-09 12:45:00,0.0,5,7.473,0.0,0.0,0.0,38.5,0.0,-4.4,1024,1024,1024,1024,0,0,0,0,70,4.967,76.1,32.8084,P-GPS,,10.0
451400,2026-01-09 12:45:00,0.0,5,7.473,0.0,0.0,0.0,38.4,0.0,-4.0,1024,1024,1024,1024,0,0,0,0,70,4.967,76.1,32.8084,P-GPS,,10.0
451500,2026-01-09 12:45:01,0.0,5,7.473,0.0,0.0,0.0,38.4,0.0,-3.5,1024,1024,1024,1024,0,0,0,0,70,4.967,76.1,32.8084,P-GPS,,10.0
451600,2026-01-09 12:45:01,0.0,5,7.473,0.0,0.0,0.0,38.6,-1.1,-3.4,1024,1024,1024,1024,0,0,0,0,70,4.967,76.1,32.8084,P-GPS,,10.0
451700,2026-01-09 12:45:01,0.0,5,7.473,0.0,0.0,0.0,38.5,-0.6,-3.1,1024,1024,1024,1024,0,0,0,0,70,4.967,76.1,32.8084,P-GPS,,10.0
451800,2026-01-09 12:45:01,0.0,5,7.473,0.0,0.0,0.0,38.5,0.1,-3.8,1024,1024,1024,1024,0,0,0,0,70,4.967,76.1,32.8084,P-GPS,,10.0
451900,2026-01-09 12:45:01,0.0,5,7.473,0.0,0.0,0.0,38.5,-0.1,-3.7,1024,1024,1024,1024,0,0,0,0,70,4.967,76.1,32.8084,P-GPS,,10.0
452000,2026-01-09 12:45:01,0.0,5,7.473,0.0,0.0,0.0,38.5,-0.2,-3.8,1024,1024,1024,1024,0,0,0,0,70,4.967,76.1,32.8084,P-GPS,,10.0
452100,2026-01-09 12:45:01,0.0,5,7.473,0.0,0.0,0.0,38.5,-0.2,-4.0,1024,1024,1024,1024,0,0,0,0,70,4.967,76.1,32.8084,P-GPS,,10.0
452200,2026-01-09 12:45:01,0.0,5,7.473,0.0,0.0,0.0,38.6,-0.4,-3.9,1024,1024,1024,1024,0,0,0,0,70,4.967,76.1,32.8084,P-GPS,,10.0
452300,2026-01-09 12:45:01,0.0,5,7.473,0.0,0.0,0.0,38.5,0.1,-4.2,1024,1024,1024,1024,0,0,0,0,70,4.967,76.1,32.8084,P-GPS,,10.0
452400,2026-01-09 12:45:01,0.0,5,7.471,0.0,0.0,0.0,38.5,0.3,-4.0,1024,1024,1024,1024,0,0,0,0,70,5.094,76.1,32.8084,P-GPS,,10.0
452500,2026-01-09 12:45:02,0.0,5,7.471,0.0,0.0,0.0,38.5,1.2,-4.3,1024,1024,1024,1024,0,0,0,0,70,5.094,76.1,32.8084,P-GPS,,10.0
452600,2026-01-09 12:45:02,0.0,5,7.471,0.0,0.0,0.0,38.4,1.3,-4.5,1024,1024,1024,1024,0,0,0,0,70,5.094,76.1,32.8084,P-GPS,,10.0
452700,2026-01-09 12:45:02,0.0,5,7.471,0.0,0.0,0.0,38.4,0.7,-4.3,1024,1024,1024,1024,0,0,0,0,70,5.094,76.1,32.8084,P-GPS,,10.0
452800,2026-01-09 12:45:02,0.0,5,7.471,0.0,0.0,0.0,38.3,0.2,-5.1,1024,1024,1024,1024,0,0,0,0,70,5.094,76.1,32.8084,P-GPS,,10.0
452900,2026-01-09 12:45:02,0.0,5,7.471,0.0,0.0,0.0,38.3,0.5,-5.7,1024,1024,1024,1024,0,0,0,0,70,5.094,76.1,32.8084,P-GPS,,10.0
453000,2026-01-09 12:45:02,0.0,5,7.471,0.0,0.0,0.0,38.4,0.1,-5.3,1024,1024,1024,1024,0,0,0,0,70,5.094,76.1,33.136484,P-GPS,,10.1
453100,2026-01-09 12:45:02,0.0,5,7.471,0.0,0.0,0.0,38.4,-0.1,-5.8,1024,1024,1024,1024,0,0,0,0,70,5.094,76.1,33.136484,P-GPS,,10.1
453200,2026-01-09 12:45:02,0.0,5,7.471,0.0,0.0,0.0,38.3,0.4,-5.9,1024,1024,1024,1024,0,0,0,0,70,5.094,76.1,33.136484,P-GPS,,10.1
453300,2026-01-09 12:45:02,0.0,5,7.471,0.0,0.0,0.0,38.4,0.9,-5.5,1024,1024,1024,1024,0,0,0,0,70,5.094,76.1,33.136484,P-GPS,,10.1
453400,2026-01-09 12:45:02,0.0,5,7.471,0.0,0.0,0.0,38.4,0.9,-5.2,1024,1024,1024,1024,0,0,0,0,70,5.094,76.1,33.136484,P-GPS,,10.1
453500,2026-01-09 12:45:03,0.0,5,7.483,0.0,0.0,0.0,38.3,0.9,-5.2,1024,1024,1024,1024,0,0,0,0,69,4.923,76.1,33.136484,P-GPS,,10.1
453600,2026-01-09 12:45:03,0.0,5,7.483,0.0,0.0,0.0,38.5,0.0,-4.4,1024,1024,1024,1024,0,0,0,0,69,4.923,76.1,33.136484,P-GPS,,10.1
453700,2026-01-09 12:45:03,0.0,5,7.483,0.0,0.0,0.0,38.3,0.0,-4.6,1024,1024,1024,1024,0,0,0,0,69,4.923,76.1,33.136484,P-GPS,,10.1
453800,2026-01-09 12:45:03,0.0,5,7.483,0.0,0.0,0.0,38.4,-0.3,-5.1,1024,1024,1024,1024,0,0,0,0,69,4.923,76.1,33.136484,P-GPS,,10.1
453900,2026-01-09 12:45:03,0.0,5,7.483,0.0,0.0,0.0,38.3,-0.7,-5.1,1024,1024,1024,1024,0,0,0,0,69,4.923,76.1,33.136484,P-GPS,,10.1
454000,2026-01-09 12:45:03,0.0,5,7.483,0.0,0.0,0.0,38.4,-1.5,-4.8,1024,1024,1024,1024,0,0,0,0,69,4.923,76.1,33.136484,P-GPS,,10.1
454100,2026-01-09 12:45:03,0.223694,5,7.483,0.0,-0.223694,0.0,38.5,-1.5,-3.9,1024,1024,1024,1024,0,0,0,0,69,4.923,76.1,33.136484,P-GPS,,10.1
454200,2026-01-09 12:45:03,0.0,5,7.483,0.0,0.0,0.0,38.6,-0.9,-2.8,1024,1024,1024,1024,0,0,0,0,69,4.923,76.1,33.136484,P-GPS,,10.1
454300,2026-01-09 12:45:03,0.0,5,7.483,0.0,0.0,0.0,38.4,-0.3,-2.8,1024,1024,1024,1024,0,0,0,0,69,4.923,76.1,33.136484,P-GPS,,10.1
454400,2026-01-09 12:45:04,0.0,5,7.483,0.0,0.0,0.0,38.2,-0.6,-2.8,1024,1024,1024,1024,0,0,0,0,69,4.923,76.1,33.136484,P-GPS,,10.1
454500,2026-01-09 12:45:04,0.0,5,7.483,0.0,0.0,0.0,38.2,0.7,-3.4,1024,1024,1024,1024,0,0,0,0,69,4.923,76.1,33.136484,P-GPS,,10.1
454600,2026-01-09 12:45:04,0.0,5,7.458,0.0,0.0,0.0,38.3,-1.5,-3.8,1024,1024,1024,1024,0,0,0,0,69,5.094,76.1,33.136484,P-GPS,,10.1
454700,2026-01-09 12:45:04,0.0,5,7.458,0.0,0.0,0.0,38.4,-1.4,-3.6,1024,1024,1024,1024,0,0,0,0,69,5.094,76.1,32.8084,P-GPS,,10.0
454800,2026-01-09 12:45:04,0.0,5,7.458,0.0,0.0,0.0,38.3,-1.1,-3.9,1024,1024,1024,1024,0,0,0,0,69,5.094,76.1,33.136484,P-GPS,,10.1
454900,2026-01-09 12:45:04,0.0,5,7.458,0.0,0.0,0.0,38.2,-0.6,-4.6,1024,1024,1024,1024,0,0,0,0,69,5.094,76.1,33.136484,P-GPS,,10.1
455000,2026-01-09 12:45:04,0.0,5,7.458,0.0,0.0,0.0,38.1,0.1,-4.5,1024,1024,1024,1024,0,0,0,0,69,5.094,76.1,33.136484,P-GPS,,10.1
455100,2026-01-09 12:45:04,0.0,5,7.458,0.0,0.0,0.0,38.2,-0.6,-4.6,1024,1024,1024,1024,0,0,0,0,69,5.094,76.1,32.8084,P-GPS,,10.0
455200,2026-01-09 12:45:04,0.0,5,7.458,0.0,0.0,0.0,38.3,-1.2,-4.2,1024,1024,1024,1024,0,0,0,0,69,5.094,76.1,32.8084,P-GPS,,10.0
455300,2026-01-09 12:45:04,0.0,5,7.458,0.0,0.0,0.0,38.4,-1.3,-4.2,1024,1024,1024,1024,0,0,0,0,69,5.094,76.1,32.8084,P-GPS,,10.0
455400,2026-01-09 12:45:04,0.0,5,7.458,0.0,0.0,0.0,38.5,-1.1,-4.1,1024,1024,1024,1024,0,0,0,0,69,5.094,76.1,32.8084,P-GPS,,10.0
455500,2026-01-09 12:45:05,0.0,5,7.458,0.0,0.0,0.0,38.6,-0.9,-4.1,1024,1024,1024,1024,0,0,0,0,69,5.094,76.1,32.8084,P-GPS,,10.0
455600,2026-01-09 12:45:05,0.0,5,7.458,0.0,0.0,0.0,38.6,-0.9,-4.0,1024,1024,1024,1024,0,0,0,0,69,5.094,76.1,32.8084,P-GPS,,10.0
455700,2026-01-09 12:45:05,0.0,5,7.478,0.0,0.0,0.0,38.5,-0.1,-4.1,1024,1024,1024,1024,0,0,0,0,69,4.93,76.1,32.480316,P-GPS,,9.9
455800,2026-01-09 12:45:05,0.0,5,7.478,0.0,0.0,0.0,38.4,1.2,-4.2,1024,1024,1024,1024,0,0,0,0,69,4.93,76.1,32.480316,P-GPS,,9.9
455900,2026-01-09 12:45:05,0.0,5,7.478,0.0,0.0,0.0,38.3,1.9,-4.2,1024,1024,1024,1024,0,0,0,0,69,4.93,76.1,32.480316,P-GPS,,9.9
456000,2026-01-09 12:45:05,0.0,5,7.478,0.0,0.0,0.0,38.4,1.6,-4.3,1024,1024,1024,1024,0,0,0,0,69,4.93,76.1,32.480316,P-GPS,,9.9
456100,2026-01-09 12:45:05,0.0,5,7.478,0.0,0.0,0.0,38.5,0.7,-3.9,1024,1024,1024,1024,0,0,0,0,69,4.93,76.1,32.480316,P-GPS,,9.9
456200,2026-01-09 12:45:05,0.0,5,7.478,0.0,0.0,0.0,38.4,0.7,-3.9,1024,1024,1024,1024,0,0,0,0,69,4.93,76.1,32.480316,P-GPS,,9.9
456300,2026-01-09 12:45:05,0.0,5,7.478,0.0,0.0,0.0,38.6,0.0,-3.8,1024,1024,1024,1024,0,0,0,0,69,4.93,76.1,32.480316,P-GPS,,9.9
456400,2026-01-09 12:45:05,0.0,5,7.478,0.0,0.0,0.0,38.5,0.0,-4.1,1024,1024,1024,1024,0,0,0,0,69,4.93,76.1,32.152232,P-GPS,,9.8
456500,2026-01-09 12:45:06,0.0,5,7.478,0.0,0.0,0.0,38.3,0.7,-4.2,1024,1024,1024,1024,0,0,0,0,69,4.93,76.1,32.152232,P-GPS,,9.8
456600,2026-01-09 12:45:06,0.0,5,7.478,0.0,0.0,0.0,38.3,0.5,-4.1,1024,1024,1024,1024,0,0,0,0,69,4.93,76.1,32.152232,P-GPS,,9.8
456700,2026-01-09 12:45:06,0.0,5,7.478,0.0,0.0,0.0,38.4,0.7,-3.9,1024,1024,1024,1024,0,0,0,0,69,4.93,76.1,32.152232,P-GPS,,9.8
456800,2026-01-09 12:45:06,0.0,5,7.47,0.0,0.0,0.0,38.3,1.5,-3.7,1024,1024,1024,1024,0,0,0,0,69,5.023,76.28,32.152232,P-GPS,,9.8
456900,2026-01-09 12:45:06,0.0,5,7.47,0.0,0.0,0.0,38.0,1.9,-3.7,1024,1024,1024,1024,0,0,0,0,69,5.023,76.28,32.152232,P-GPS,,9.8
457000,2026-01-09 12:45:06,0.0,5,7.47,0.0,0.0,0.0,38.0,0.4,-3.6,1024,1024,1024,1024,0,0,0,0,69,5.023,76.28,32.152232,P-GPS,,9.8
457100,2026-01-09 12:45:06,0.3131716,5,7.47,-0.223694,-0.223694,0.0,38.2,-0.8,-3.7,1024,1024,1024,1024,0,0,0,0,69,5.023,76.28,31.824148,P-GPS,,9.7
457200,2026-01-09 12:45:06,0.3131716,5,7.47,-0.223694,-0.223694,0.0,38.2,-1.8,-3.8,1024,1024,1024,1024,0,0,0,0,69,5.023,76.28,31.824148,P-GPS,,9.7
457300,2026-01-09 12:45:06,0.3131716,5,7.47,-0.223694,-0.223694,0.0,38.4,-3.0,-3.4,1024,1024,1024,1024,0,0,0,0,69,5.023,76.28,31.824148,P-GPS,,9.7
457400,2026-01-09 12:45:06,0.3131716,5,7.47,-0.223694,-0.223694,0.0,38.5,-4.1,-3.2,1024,1024,1024,1024,0,0,0,0,69,5.023,76.28,31.824148,P-GPS,,9.7
457500,2026-01-09 12:45:07,0.0,5,7.47,0.0,0.0,0.0,38.4,-3.5,-3.4,1024,1024,1024,1024,0,0,0,0,69,5.023,76.28,31.824148,P-GPS,,9.7
457600,2026-01-09 12:45:07,0.0,5,7.47,0.0,0.0,0.0,38.4,-2.5,-3.3,1024,1024,1024,1024,0,0,0,0,69,5.023,76.28,31.824148,P-GPS,,9.7
457700,2026-01-09 12:45:07,0.0,5,7.47,0.0,0.0,0.0,38.4,-1.8,-3.1,1024,1024,1024,1024,0,0,0,0,69,5.023,76.28,31.824148,P-GPS,,9.7
457800,2026-01-09 12:45:07,0.0,5,7.47,0.0,0.0,0.0,38.5,-2.1,-2.7,1024,1024,1024,1024,0,0,0,0,69,5.023,76.28,31.824148,P-GPS,,9.7
457900,2026-01-09 12:45:07,0.0,5,7.46,0.0,0.0,0.0,38.4,-1.9,-3.0,1024,1024,1684,1024,0,0,100,0,69,5.017,76.28,31.824148,P-GPS,,9.7
458000,2026-01-09 12:45:07,0.0,5,7.46,0.0,0.0,0.0,38.3,-2.1,-3.7,1024,1024,1684,1024,0,0,100,0,69,5.017,76.28,31.496064,P-GPS,,9.6
458100,2026-01-09 12:45:07,0.0,5,7.46,0.0,0.0,0.0,38.4,-1.5,-3.1,1024,1024,1684,1024,0,0,100,0,69,5.017,76.28,31.496064,P-GPS,,9.6
