time(millisecond),timestamp,speed(mph),gpslevel,voltage(v),xSpeed(mph),ySpeed(mph),zSpeed(mph),compass_heading(degrees),pitch(degrees),roll(degrees),rc_elevator,rc_aileron,rc_throttle,rc_rudder,rc_elevator(percent),rc_aileron(percent),rc_throttle(percent),rc_rudder(percent),battery_percent,current(A),battery_temperature(f),ascent(feet),flycState,message,height_above_takeoff(meters)
502600,2026-01-09 12:45:52,0.0,5,7.36,0.0,0.0,-4.250186,38.5,-1.9,-4.4,1024,1024,1684,1024,0,0,100,0,66,6.285,77.36,158.136488,P-GPS,,48.2
502700,2026-01-09 12:45:52,0.0,5,7.36,0.0,0.0,-4.250186,38.4,-2.4,-4.8,1024,1024,1684,1024,0,0,100,0,66,6.285,77.36,158.792656,P-GPS,,48.4
502800,2026-01-09 12:45:52,0.0,5,7.36,0.0,0.0,-4.250186,38.4,-2.1,-4.9,1024,1024,1684,1024,0,0,100,0,66,6.285,77.36,159.448824,P-GPS,,48.6
502900,2026-01-09 12:45:52,0.0,5,7.36,0.0,0.0,-4.47388,38.5,-2.9,-5.4,1024,1024,1684,1024,0,0,100,0,66,6.285,77.36,160.104992,P-GPS,,48.8
503000,2026-01-09 12:45:52,0.0,5,7.36,0.0,0.0,-4.47388,38.5,-3.4,-5.5,1024,1024,1684,1024,0,0,100,0,66,6.285,77.36,160.76116,P-GPS,,49.0
503100,2026-01-09 12:45:52,0.0,5,7.36,0.0,0.0,-4.47388,38.4,-3.4,-5.3,1024,1024,1684,1024,0,0,100,0,66,6.285,77.36,161.417328,P-GPS,,49.2
503200,2026-01-09 12:45:52,0.0,5,7.33,0.0,0.0,-4.47388,38.4,-3.4,-5.1,1024,1024,1024,1024,0,0,0,0,66,6.667,77.36,162.073496,P-GPS,,49.4
503300,2026-01-09 12:45:52,0.0,5,7.33,0.0,0.0,-4.47388,38.4,-3.4,-4.3,1024,1024,1024,1024,0,0,0,0,66,6.667,77.36,162.729664,P-GPS,,49.6
503400,2026-01-09 12:45:52,0.0,5,7.33,0.0,0.0,-4.250186,38.4,-4.5,-4.5,1024,1024,1024,1024,0,0,0,0,66,6.667,77.36,163.385832,P-GPS,,49.8
503500,2026-01-09 12:45:53,0.0,5,7.33,0.0,0.0,-3.802798,38.3,-3.9,-4.5,1024,1024,1024,1024,0,0,0,0,66,6.667,77.36,163.713916,P-GPS,,49.9
503600,2026-01-09 12:45:53,0.0,5,7.33,0.0,0.0,-3.131716,38.3,-3.8,-4.6,1024,1024,1024,1024,0,0,0,0,66,6.667,77.36,164.370084,P-GPS,,50.1
503700,2026-01-09 12:45:53,0.0,5,7.33,0.0,0.0,-2.460634,38.3,-3.7,-4.3,1024,1024,1024,1024,0,0,0,0,66,6.667,77.36,164.698168,P-GPS,,50.2
503800,2026-01-09 12:45:53,0.0,5,7.33,0.0,0.0,-1.565858,38.3,-3.6,-4.0,1024,1024,1024,1024,0,0,0,0,66,6.667,77.36,165.026252,P-GPS,,50.3
503900,2026-01-09 12:45:53,0.0,5,7.33,0.0,0.0,-0.894776,38.4,-3.7,-3.8,1024,1024,1024,1024,0,0,0,0,66,6.667,77.36,165.026252,P-GPS,,50.3
504000,2026-01-09 12:45:53,0.0,5,7.33,0.0,0.0,-0.447388,38.4,-3.5,-3.9,1024,1024,1024,1024,0,0,0,0,66,6.667,77.36,165.354336,P-GPS,,50.4
504100,2026-01-09 12:45:53,0.0,5,7.453,0.0,0.0,-0.223694,38.4,-4.1,-4.1,1024,1024,1024,1024,0,0,0,0,66,4.759,77.36,165.354336,P-GPS,,50.4
504200,2026-01-09 12:45:53,0.0,5,7.453,0.0,0.0,0.0,38.4,-4.1,-4.2,1024,1024,1024,1024,0,0,0,0,66,4.759,77.36,165.354336,P-GPS,,50.4
504300,2026-01-09 12:45:53,0.0,5,7.453,0.0,0.0,0.0,38.3,-4.2,-4.1,1024,1024,1024,1024,0,0,0,0,66,4.759,77.36,165.354336,P-GPS,,50.4
504400,2026-01-09 12:45:53,0.0,5,7.453,0.0,0.0,0.0,38.3,-3.8,-4.1,1024,1024,1024,1024,0,0,0,0,66,4.759,77.36,165.354336,P-GPS,,50.4
504500,2026-01-09 12:45:54,0.0,5,7.453,0.0,0.0,0.0,38.2,-3.7,-4.3,1024,1024,1024,1024,0,0,0,0,66,4.759,77.36,165.354336,P-GPS,,50.4
504600,2026-01-09 12:45:54,0.0,5,7.453,0.0,0.0,0.0,38.3,-4.2,-4.1,1024,1024,1024,1024,0,0,0,0,66,4.759,77.36,165.68242,P-GPS,,50.5
504700,2026-01-09 12:45:54,0.0,5,7.453,0.0,0.0,0.0,38.3,-4.5,-3.8,1024,1024,1024,1024,0,0,0,0,66,4.759,77.36,165.68242,P-GPS,,50.5
504800,2026-01-09 12:45:54,0.0,5,7.453,0.0,0.0,0.0,38.4,-4.5,-3.6,1024,1024,1024,1024,0,0,0,0,66,4.759,77.36,165.68242,P-GPS,,50.5
504900,2026-01-09 12:45:54,0.0,5,7.453,0.0,0.0,0.0,38.5,-5.0,-3.2,1024,1024,1024,1024,0,0,0,0,66,4.759,77.36,166.010504,P-GPS,,50.6
505000,2026-01-09 12:45:54,0.0,5,7.453,0.0,0.0,0.0,38.5,-5.0,-3.1,1024,1024,1024,1024,0,0,0,0,66,4.759,77.36,166.010504,P-GPS,,50.6
505100,2026-01-09 12:45:54,0.0,5,7.453,0.0,0.0,0.0,38.5,-4.9,-3.0,1024,1024,1024,1024,0,0,0,0,66,4.759,77.36,166.010504,P-GPS,,50.6
505200,2026-01-09 12:45:54,0.0,5,7.453,0.0,0.0,0.0,38.5,-4.9,-3.2,1024,1024,1024,1024,0,0,0,0,66,4.759,77.36,166.010504,P-GPS,,50.6
505300,2026-01-09 12:45:54,0.0,5,7.453,0.0,0.0,0.0,38.5,-4.3,-3.3,1024,1024,1024,1024,0,0,0,0,65,4.759,77.36,166.010504,P-GPS,,50.6
505400,2026-01-09 12:45:54,0.0,5,7.453,0.0,0.0,0.0,38.5,-4.0,-3.3,1024,1024,1024,1024,0,0,0,0,65,4.759,77.36,166.010504,P-GPS,,50.6
505500,2026-01-09 12:45:55,0.0,5,7.453,0.0,0.0,0.0,38.5,-4.2,-3.2,1024,1024,1024,1024,0,0,0,0,65,4.759,77.36,166.010504,P-GPS,,50.6
505600,2026-01-09 12:45:55,0.0,5,7.453,0.0,0.0,0.0,38.5,-4.2,-3.1,1024,1024,1024,1024,0,0,0,0,65,4.759,77.36,166.010504,P-GPS,,50.6
505700,2026-01-09 12:45:55,0.0,5,7.453,0.0,0.0,0.0,38.4,-3.9,-3.0,1024,1024,1024,1024,0,0,0,0,65,4.759,77.36,166.010504,P-GPS,,50.6
505800,2026-01-09 12:45:55,0.0,5,7.453,0.0,0.0,0.0,38.4,-3.9,-2.7,1024,1024,1024,1024,0,0,0,0,65,4.759,77.36,166.010504,P-GPS,,50.6
505900,2026-01-09 12:45:55,0.0,5,7.453,0.0,0.0,0.0,38.4,-4.1,-2.5,1024,1024,1024,1024,0,0,0,0,65,4.759,77.36,166.338588,P-GPS,,50.7
506000,2026-01-09 12:45:55,0.0,5,7.453,0.0,0.0,0.0,38.4,-4.3,-2.5,1024,1024,1024,1024,0,0,0,0,65,4.759,77.36,166.338588,P-GPS,,50.7
506100,2026-01-09 12:45:55,0.0,5,7.453,0.0,0.0,0.0,38.4,-4.5,-2.6,1024,1024,1024,1024,0,0,0,0,65,4.759,77.36,166.338588,P-GPS,,50.7
506200,2026-01-09 12:45:55,0.0,5,7.453,0.0,0.0,0.0,38.4,-4.4,-2.5,1024,1024,1024,1024,0,0,0,0,65,4.759,77.36,166.338588,P-GPS,,50.7
506300,2026-01-09 12:45:55,0.0,5,7.42,0.0,0.0,0.0,38.4,-4.4,-2.5,1024,1024,1024,1024,0,0,0,0,65,4.752,77.54,166.338588,P-GPS,,50.7
506400,2026-01-09 12:45:55,0.0,5,7.42,0.0,0.0,0.0,38.4,-4.5,-2.5,1024,1024,1024,1024,0,0,0,0,65,4.752,77.54,166.338588,P-GPS,,50.7
506500,2026-01-09 12:45:56,0.0,5,7.42,0.0,0.0,0.0,38.3,-4.4,-2.6,1024,1024,1024,1024,0,0,0,0,65,4.752,77.54,166.338588,P-GPS,,50.7
506600,2026-01-09 12:45:56,0.0,5,7.42,0.0,0.0,0.0,38.3,-4.2,-2.6,1024,1024,1024,1024,0,0,0,0,65,4.752,77.54,166.338588,P-GPS,,50.7
506700,2026-01-09 12:45:56,0.0,5,7.42,0.0,0.0,0.0,38.2,-3.5,-2.8,1024,1024,1024,1024,0,0,0,0,65,4.752,77.54,166.338588,P-GPS,,50.7
506800,2026-01-09 12:45:56,0.0,5,7.42,0.0,0.0,0.0,38.2,-3.3,-3.0,1024,1024,1024,1024,0,0,0,0,65,4.752,77.54,166.338588,P-GPS,,50.7
506900,2026-01-09 12:45:56,0.0,5,7.42,0.0,0.0,0.0,38.2,-2.7,-3.4,1024,1024,1024,1024,0,0,0,0,65,4.752,77.54,166.338588,P-GPS,,50.7
507000,2026-01-09 12:45:56,0.0,5,7.42,0.0,0.0,0.0,38.3,-2.7,-3.4,1024,1024,1024,1024,0,0,0,0,65,4.752,77.54,166.338588,P-GPS,,50.7
507100,2026-01-09 12:45:56,0.0,5,7.42,0.0,0.0,0.0,38.4,-2.4,-3.7,1024,1024,1024,1024,0,0,0,0,65,4.752,77.54,166.338588,P-GPS,,50.7
507200,2026-01-09 12:45:56,0.0,5,7.42,0.0,0.0,0.0,38.4,-2.7,-3.7,1024,1024,1024,1024,0,0,0,0,65,4.752,77.54,166.338588,P-GPS,,50.7
507300,2026-01-09 12:45:56,0.0,5,7.42,0.0,0.0,0.0,38.5,-2.7,-3.7,1024,1024,1024,1024,0,0,0,0,65,4.752,77.54,166.338588,P-GPS,,50.7
507400,2026-01-09 12:45:57,0.0,5,7.421,0.0,0.0,0.0,38.4,-2.3,-4.1,1024,1024,1024,1024,0,0,0,0,65,4.845,77.54,166.338588,P-GPS,,50.7
507500,2026-01-09 12:45:57,0.0,5,7.421,0.0,0.0,0.0,38.4,-1.9,-4.6,1024,1024,1024,1024,0,0,0,0,65,4.845,77.54,166.010504,P-GPS,,50.6
507600,2026-01-09 12:45:57,0.0,5,7.421,0.0,0.0,0.223694,38.3,-1.5,-4.8,1024,1024,1024,1024,0,0,0,0,65,4.845,77.54,166.010504,P-GPS,,50.6
507700,2026-01-09 12:45:57,0.0,5,7.421,0.0,0.0,0.223694,38.2,-1.6,-4.9,1024,1024,1024,1024,0,0,0,0,65,4.845,77.54,166.010504,P-GPS,,50.6
507800,2026-01-09 12:45:57,0.0,5,7.421,0.0,0.0,0.223694,38.3,-1.4,-4.7,1024,1024,1024,1024,0,0,0,0,65,4.845,77.54,166.010504,P-GPS,,50.6
507900,2026-01-09 12:45:57,0.0,5,7.421,0.0,0.0,0.0,38.4,-1.0,-4.4,1024,1024,1024,1024,0,0,0,0,65,4.845,77.54,166.010504,P-GPS,,50.6
508000,2026-01-09 12:45:57,0.0,5,7.421,0.0,0.0,0.0,38.4,-1.6,-4.3,1024,1024,1024,1024,0,0,0,0,65,4.845,77.54,166.010504,P-GPS,,50.6
508100,2026-01-09 12:45:57,0.0,5,7.421,0.0,0.0,0.0,38.4,-1.1,-5.1,1024,1024,1024,1024,0,0,0,0,65,4.845,77.54,166.010504,P-GPS,,50.6
508200,2026-01-09 12:45:57,0.0,5,7.421,0.0,0.0,0.0,38.4,-0.5,-5.3,1024,1024,1024,1024,0,0,0,0,65,4.845,77.54,166.010504,P-GPS,,50.6
508300,2026-01-09 12:45:57,0.0,5,7.421,0.0,0.0,0.0,38.5,-0.4,-4.4,1024,1024,1024,1024,0,0,0,0,65,4.845,77.54,166.010504,P-GPS,,50.6
508400,2026-01-09 12:45:57,0.0,5,7.421,0.0,0.0,0.0,38.5,-1.3,-4.1,1024,1024,1024,1024,0,0,0,0,65,4.845,77.54,166.010504,P-GPS,,50.6
508500,2026-01-09 12:45:58,0.0,5,7.424,0.0,0.0,0.0,38.4,-0.4,-4.2,1024,1024,1024,1024,0,0,0,0,65,4.801,77.54,166.010504,P-GPS,,50.6
508600,2026-01-09 12:45:58,0.0,5,7.424,0.0,0.0,0.0,38.3,0.0,-4.8,1024,1024,1024,1024,0,0,0,0,65,4.801,77.54,166.010504,P-GPS,,50.6
508700,2026-01-09 12:45:58,0.0,5,7.424,0.0,0.0,0.0,38.4,0.0,-5.1,1024,1024,1024,1024,0,0,0,0,65,4.801,77.54,166.010504,P-GPS,,50.6
508800,2026-01-09 12:45:58,0.0,5,7.424,0.0,0.0,0.0,38.3,0.3,-5.0,1024,1024,1024,1024,0,0,0,0,65,4.801,77.54,166.010504,P-GPS,,50.6
508900,2026-01-09 12:45:58,0.0,5,7.424,0.0,0.0,0.0,38.3,0.1,-5.5,1024,1024,1024,1024,0,0,0,0,65,4.801,77.54,166.338588,P-GPS,,50.7
509000,2026-01-09 12:45:58,0.0,5,7.424,0.0,0.0,0.0,38.2,0.0,-5.5,1024,1024,1024,1024,0,0,0,0,65,4.801,77.54,166.338588,P-GPS,,50.7
509100,2026-01-09 12:45:58,0.0,5,7.424,0.0,0.0,0.0,38.3,-0.2,-5.1,1024,1024,1024,1024,0,0,0,0,65,4.801,77.54,166.338588,P-GPS,,50.7
509200,2026-01-09 12:45:58,0.0,5,7.424,0.0,0.0,0.0,38.3,-0.6,-5.8,1024,1024,1024,1024,0,0,0,0,65,4.801,77.54,166.010504,P-GPS,,50.6
509300,2026-01-09 12:45:58,0.0,5,7.424,0.0,0.0,0.0,38.2,-0.6,-6.0,1024,1024,1024,1024,0,0,0,0,65,4.801,77.54,166.010504,P-GPS,,50.6
509400,2026-01-09 12:45:59,0.0,5,7.424,0.0,0.0,0.223694,38.2,-0.9,-5.6,1024,1024,1024,1024,0,0,0,0,65,4.801,77.54,166.010504,P-GPS,,50.6
509500,2026-01-09 12:45:59,0.0,5,7.424,0.0,0.0,0.223694,38.3,-1.6,-4.8,1024,1024,1024,1024,0,0,0,0,65,4.801,77.54,166.010504,P-GPS,,50.6
509600,2026-01-09 12:45:59,0.0,5,7.411,0.0,0.0,0.0,38.7,-2.6,-4.3,1024,1024,1024,1024,0,0,0,0,65,4.81,77.54,166.010504,P-GPS,,50.6
509700,2026-01-09 12:45:59,0.0,5,7.411,0.0,0.0,0.0,38.5,-1.2,-4.3,1024,1024,1024,1024,0,0,0,0,65,4.81,77.54,165.68242,P-GPS,,50.5
509800,2026-01-09 12:45:59,0.0,5,7.411,0.0,0.0,0.0,38.6,-1.6,-4.1,1024,1024,1024,1024,0,0,0,0,65,4.81,77.54,165.68242,P-GPS,,50.5
509900,2026-01-09 12:45:59,0.0,5,7.411,0.0,0.0,0.0,38.5,-1.3,-3.6,1024,1024,1024,1024,0,0,0,0,65,4.81,77.54,165.68242,P-GPS,,50.5
510000,2026-01-09 12:45:59,0.0,5,7.411,0.0,0.0,0.0,38.5,-1.2,-3.5,1024,1024,1024,1024,0,0,0,0,65,4.81,77.54,165.68242,P-GPS,,50.5
510100,2026-01-09 12:45:59,0.0,5,7.411,0.0,0.0,0.0,38.4,-0.6,-4.1,1024,1024,1024,1024,0,0,0,0,65,4.81,77.54,165.68242,P-GPS,,50.5
510200,2026-01-09 12:45:59,0.0,5,7.411,0.0,0.0,0.0,38.1,0.0,-4.4,1024,1024,1024,1024,0,0,0,0,65,4.81,77.54,165.354336,P-GPS,,50.4
510300,2026-01-09 12:45:59,0.0,5,7.411,0.0,0.0,0.0,38.1,-1.3,-4.1,1024,1024,1024,1024,0,0,0,0,65,4.81,77.54,165.354336,P-GPS,,50.4
510400,2026-01-09 12:45:59,0.0,5,7.411,0.0,0.0,0.0,38.3,-2.3,-3.5,1024,1024,1024,1024,0,0,0,0,65,4.81,77.54,165.354336,P-GPS,,50.4
510500,2026-01-09 12:46:00,0.0,5,7.411,0.0,0.0,0.0,38.3,-1.4,-3.4,1024,1024,1024,1024,0,0,0,0,65,4.81,77.54,165.354336,P-GPS,,50.4
510600,2026-01-09 12:46:00,0.0,5,7.411,0.0,0.0,0.0,38.4,-1.3,-3.5,1024,1024,1024,1024,0,0,0,0,65,4.81,77.54,165.354336,P-GPS,,50.4
510700,2026-01-09 12:46:00,0.0,5,7.422,0.0,0.0,0.0,38.4,-0.9,-3.7,1024,1024,1024,1024,0,0,0,0,65,5.0,77.54,165.354336,P-GPS,,50.4
510800,2026-01-09 12:46:00,0.0,5,7.422,0.0,0.0,0.0,38.5,-1.5,-3.9,1024,1024,1024,1024,0,0,0,0,65,5.0,77.54,165.354336,P-GPS,,50.4
510900,2026-01-09 12:46:00,0.0,5,7.422,0.0,0.0,0.0,38.5,-1.6,-3.9,1024,1024,1024,1024,0,0,0,0,65,5.0,77.54,165.354336,P-GPS,,50.4
511000,2026-01-09 12:46:00,0.0,5,7.422,0.0,0.0,0.0,38.6,-1.0,-4.4,1024,1024,1024,1024,0,0,0,0,65,5.0,77.54,165.354336,P-GPS,,50.4
511100,2026-01-09 12:46:00,0.0,5,7.422,0.0,0.0,0.0,38.6,-1.3,-5.1,1024,1024,1024,1024,0,0,0,0,65,5.0,77.54,165.354336,P-GPS,,50.4
511200,2026-01-09 12:46:00,0.0,5,7.422,0.0,0.0,0.0,38.6,-1.0,-5.3,1024,1024,1024,1024,0,0,0,0,65,5.0,77.54,165.354336,P-GPS,,50.4
511300,2026-01-09 12:46:00,0.0,5,7.422,0.0,0.0,0.0,38.7,-1.7,-5.7,1024,1024,1024,1024,0,0,0,0,65,5.0,77.54,165.354336,P-GPS,,50.4
511400,2026-01-09 12:46:01,0.0,5,7.422,0.0,0.0,0.0,38.7,-1.8,-5.4,1024,1024,1024,1024,0,0,0,0,65,5.0,77.54,165.354336,P-GPS,,50.4
511500,2026-01-09 12:46:01,0.0,5,7.422,0.0,0.0,0.0,38.4,-0.9,-5.6,1024,1024,1024,1024,0,0,0,0,65,5.0,77.54,165.354336,P-GPS,,50.4
511600,2026-01-09 12:46:01,0.0,5,7.422,0.0,0.0,0.0,38.5,-1.2,-5.0,1024,1024,1024,1024,0,0,0,0,65,5.0,77.54,165.354336,P-GPS,,50.4
511700,2026-01-09 12:46:01,0.0,5,7.422,0.0,0.0,0.0,38.7,-1.7,-4.7,1024,1024,1024,1024,0,0,0,0,65,5.0,77.54,165.354336,P-GPS,,50.4
511800,2026-01-09 12:46:01,0.0,5,7.423,0.0,0.0,0.0,38.6,-1.5,-4.7,1024,1024,1024,1024,0,0,0,0,65,4.712,77.54,165.354336,P-GPS,,50.4
511900,2026-01-09 12:46:01,0.0,5,7.423,0.0,0.0,0.0,38.6,-1.6,-5.0,1024,1024,1024,1024,0,0,0,0,65,4.712,77.54,165.354336,P-GPS,,50.4
512000,2026-01-09 12:46:01,0.0,5,7.423,0.0,0.0,0.0,38.6,-2.0,-4.9,1024,1024,1024,1024,0,0,0,0,65,4.712,77.54,165.354336,P-GPS,,50.4
512100,2026-01-09 12:46:01,0.0,5,7.423,0.0,0.0,0.0,38.6,-2.1,-4.8,1024,1024,1024,1024,0,0,0,0,65,4.712,77.54,165.354336,P-GPS,,50.4
512200,2026-01-09 12:46:01,0.0,5,7.423,0.0,0.0,0.0,38.5,-1.8,-5.0,1024,1024,1024,1024,0,0,0,0,65,4.712,77.54,165.354336,P-GPS,,50.4
512300,2026-01-09 12:46:01,0.0,5,7.423,0.0,0.0,0.0,38.7,-2.2,-4.8,1024,1024,1024,1024,0,0,0,0,65,4.712,77.54,165.354336,P-GPS,,50.4
512400,2026-01-09 12:46:01,0.0,5,7.423,0.0,0.0,0.0,38.8,-2.3,-5.0,1024,1024,1024,1024,0,0,0,0,65,4.712,77.54,165.354336,P-GPS,,50.4
512500,2026-01-09 12:46:02,0.0,5,7.423,0.0,0.0,0.0,38.7,-2.2,-5.7,1024,1024,1024,1024,0,0,0,0,65,4.712,77.54,165.354336,P-GPS,,50.4
512600,2026-01-09 12:46:02,0.0,5,7.423,0.0,0.0,0.0,38.7,-1.3,-5.9,1024,1024,1024,1024,0,0,0,0,65,4.712,77.54,165.354336,P-GPS,,50.4
512700,2026-01-09 12:46:02,0.0,5,7.423,0.0,0.0,0.0,38.7,-1.5,-6.3,1024,1024,1024,1024,0,0,0,0,65,4.712,77.54,165.354336,P-GPS,,50.4
512800,2026-01-09 12:46:02,0.0,5,7.423,0.0,0.0,0.0,38.6,-1.0,-6.5,1024,1024,1024,1024,0,0,0,0,65,4.712,77.54,165.354336,P-GPS,,50.4
512900,2026-01-09 12:46:02,0.0,5,7.42,0.0,0.0,0.0,38.5,-0.6,-6.6,1024,1024,1024,1024,0,0,0,0,65,4.798,77.54,165.354336,P-GPS,,50.4
513000,2026-01-09 12:46:02,0.0,5,7.42,0.0,0.0,0.0,38.4,-0.5,-6.6,1024,1024,1024,1024,0,0,0,0,65,4.798,77.54,165.354336,P-GPS,,50.4
513100,2026-01-09 12:46:02,0.0,5,7.42,0.0,0.0,0.0,38.4,-0.8,-6.5,1024,1024,1024,1024,0,0,0,0,65,4.798,77.54,165.354336,P-GPS,,50.4
513200,2026-01-09 12:46:02,0.0,5,7.42,0.0,0.0,0.0,38.4,-0.8,-5.7,1024,1024,1024,1024,0,0,0,0,65,4.798,77.54,165.354336,P-GPS,,50.4
513300,2026-01-09 12:46:02,0.0,5,7.42,0.0,0.0,0.0,38.6,-1.9,-4.9,1024,1024,1024,1024,0,0,0,0,65,4.798,77.54,165.354336,P-GPS,,50.4
513400,2026-01-09 12:46:02,0.0,5,7.42,0.0,0.0,0.0,38.6,-2.1,-4.7,1024,1024,1024,1024,0,0,0,0,65,4.798,77.54,165.354336,P-GPS,,50.4
513500,2026-01-09 12:46:03,0.0,5,7.42,0.0,0.0,0.0,38.7,-2.6,-5.0,1024,1024,1024,1024,0,0,0,0,65,4.798,77.54,165.354336,P-GPS,,50.4
513600,2026-01-09 12:46:03,0.0,5,7.42,0.0,0.0,0.0,38.5,-2.5,-5.0,1024,1024,1024,1024,0,0,0,0,65,4.798,77.54,165.026252,P-GPS,,50.3
513700,2026-01-09 12:46:03,0.0,5,7.42,0.0,0.0,0.0,38.3,-2.1,-5.6,1024,1024,1024,1024,0,0,0,0,65,4.798,77.54,165.026252,P-GPS,,50.3
513800,2026-01-09 12:46:03,0.0,5,7.42,0.0,0.0,0.0,38.3,-2.3,-5.5,1024,1024,1024,1024,0,0,0,0,65,4.798,77.54,165.026252,P-GPS,,50.3
513900,2026-01-09 12:46:03,0.0,5,7.42,0.0,0.0,0.0,38.4,-2.5,-5.1,1024,1024,1024,1024,0,0,0,0,65,4.798,77.54,165.026252,P-GPS,,50.3
514000,2026-01-09 12:46:03,0.0,5,7.414,0.0,0.0,0.0,38.4,-2.7,-4.9,1024,1024,1024,1024,0,0,0,0,65,4.762,77.72,165.026252,P-GPS,,50.3
514100,2026-01-09 12:46:03,0.0,5,7.414,0.0,0.0,0.0,38.5,-2.7,-4.7,1024,1024,1024,1024,0,0,0,0,65,4.762,77.72,165.026252,P-GPS,,50.3
514200,2026-01-09 12:46:03,0.0,5,7.414,0.0,0.0,0.0,38.4,-2.8,-4.9,1024,1024,1024,1024,0,0,0,0,65,4.762,77.72,165.026252,P-GPS,,50.3
514300,2026-01-09 12:46:03,0.0,5,7.414,0.0,0.0,0.0,38.4,-2.9,-4.9,1024,1024,1024,1024,0,0,0,0,65,4.762,77.72,164.698168,P-GPS,,50.2
514400,2026-01-09 12:46:03,0.0,5,7.414,0.0,0.0,0.0,38.4,-2.8,-4.6,1024,1024,1024,1024,0,0,0,0,65,4.762,77.72,164.698168,P-GPS,,50.2
514500,2026-01-09 12:46:04,0.0,5,7.414,0.0,0.0,0.0,38.5,-2.7,-4.6,1024,1024,1024,1024,0,0,0,0,65,4.762,77.72,164.698168,P-GPS,,50.2
514600,2026-01-09 12:46:04,0.0,5,7.414,0.0,0.0,0.0,38.6,-3.0,-4.3,1024,1024,1024,1024,0,0,0,0,65,4.762,77.72,164.698168,P-GPS,,50.2
514700,2026-01-09 12:46:04,0.0,5,7.414,0.0,0.0,0.0,38.5,-2.9,-4.4,1024,1024,1024,1024,0,0,0,0,65,4.762,77.72,164.698168,P-GPS,,50.2
514800,2026-01-09 12:46:04,0.0,5,7.414,0.0,0.0,0.0,38.5,-2.8,-4.3,1024,1024,1024,1024,0,0,0,0,65,4.762,77.72,164.698168,P-GPS,,50.2
514900,2026-01-09 12:46:04,0.0,5,7.414,0.0,0.0,0.0,38.4,-2.7,-4.6,1024,1024,1024,1024,0,0,0,0,65,4.762,77.72,164.698168,P-GPS,,50.2
515000,2026-01-09 12:46:04,0.0,5,7.414,0.0,0.0,0.0,38.5,-2.7,-4.5,1024,1024,1024,1024,0,0,0,0,65,4.762,77.72,164.698168,P-GPS,,50.2
515100,2026-01-09 12:46:04,0.0,5,7.417,0.0,0.0,0.0,38.6,-3.3,-4.2,1024,1024,1024,1024,0,0,0,0,65,4.813,77.72,164.698168,P-GPS,,50.2
515200,2026-01-09 12:46:04,0.0,5,7.417,0.0,0.0,0.0,38.6,-4.0,-3.6,1024,1024,1024,1024,0,0,0,0,65,4.813,77.72,164.698168,P-GPS,,50.2
515300,2026-01-09 12:46:04,0.0,5,7.417,0.0,0.0,0.0,38.6,-4.3,-3.7,1024,1024,1024,1024,0,0,0,0,65,4.813,77.72,164.698168,P-GPS,,50.2
515400,2026-01-09 12:46:04,0.0,5,7.417,0.0,0.0,0.0,38.6,-4.5,-3.5,1024,1024,1024,1024,0,0,0,0,65,4.813,77.72,164.698168,P-GPS,,50.2
515500,2026-01-09 12:46:05,0.0,5,7.417,0.0,0.0,0.0,38.6,-5.0,-3.1,1024,1024,1024,1024,0,0,0,0,65,4.813,77.72,165.026252,P-GPS,,50.3
515600,2026-01-09 12:46:05,0.0,5,7.417,0.0,0.0,0.0,38.5,-4.4,-3.1,1024,1024,1024,1024,0,0,0,0,65,4.813,77.72,165.026252,P-GPS,,50.3
515700,2026-01-09 12:46:05,0.0,5,7.417,0.0,0.0,0.0,38.6,-3.9,-3.4,1024,1024,1024,1024,0,0,0,0,65,4.813,77.72,165.026252,P-GPS,,50.3
515800,2026-01-09 12:46:05,0.0,5,7.417,0.0,0.0,-0.223694,38.6,-3.8,-3.2,1024,1024,1024,1024,0,0,0,0,65,4.813,77.72,165.026252,P-GPS,,50.3
515900,2026-01-09 12:46:05,0.0,5,7.417,0.0,0.0,-0.223694,38.5,-3.9,-3.2,1024,1024,1024,1024,0,0,0,0,65,4.813,77.72,165.026252,P-GPS,,50.3
516000,2026-01-09 12:46:05,0.0,5,7.417,0.0,0.0,0.0,38.4,-4.1,-2.9,1024,1024,1024,1024,0,0,0,0,65,4.813,77.72,165.026252,P-GPS,,50.3
516100,2026-01-09 12:46:05,0.0,5,7.417,0.0,0.0,0.0,38.4,-5.2,-2.6,1024,1024,1024,1024,0,0,0,0,65,4.813,77.72,165.026252,P-GPS,,50.3
516200,2026-01-09 12:46:05,0.0,5,7.417,0.0,0.0,0.0,38.3,-5.1,-2.4,1024,1024,1024,1024,0,0,0,0,65,4.813,77.72,165.026252,P-GPS,,50.3
516300,2026-01-09 12:46:05,0.0,5,7.417,0.0,0.0,0.0,38.2,-4.3,-2.2,1024,1024,1024,1024,0,0,0,0,65,4.813,77.72,165.026252,P-GPS,,50.3
516400,2026-01-09 12:46:05,0.0,5,7.417,0.0,0.0,0.0,38.2,-4.2,-1.7,1024,1024,1024,1024,0,0,0,0,65,4.813,77.72,165.026252,P-GPS,,50.3
516500,2026-01-09 12:46:06,0.0,5,7.417,0.0,0.0,0.0,38.1,-3.3,-1.5,1024,1024,1024,1024,0,0,0,0,65,4.813,77.72,165.354336,P-GPS,,50.4
516600,2026-01-09 12:46:06,0.0,5,7.417,0.0,0.0,0.0,38.2,-4.2,-0.4,1024,1024,1024,1024,0,0,0,0,65,4.813,77.72,165.354336,P-GPS,,50.4
516700,2026-01-09 12:46:06,0.3131716,5,7.417,0.223694,0.223694,0.0,38.2,-2.0,-2.0,1024,1024,1024,1024,0,0,0,0,65,4.813,77.72,165.354336,P-GPS,,50.4
516800,2026-01-09 12:46:06,0.3131716,5,7.417,0.223694,0.223694,0.0,38.2,-0.5,-3.5,1024,1024,1024,1024,0,0,0,0,65,4.813,77.72,165.354336,P-GPS,,50.4
516900,2026-01-09 12:46:06,0.223694,5,7.417,0.0,0.223694,-0.223694,38.2,0.3,-4.2,1024,1024,1024,1024,0,0,0,0,65,4.813,77.72,165.354336,P-GPS,,50.4
517000,2026-01-09 12:46:06,0.223694,5,7.417,0.0,0.447388,0.0,38.3,0.6,-5.0,1024,1024,1024,1024,0,0,0,0,65,4.813,77.72,165.354336,P-GPS,,50.4
517100,2026-01-09 12:46:06,0.223694,5,7.417,0.0,0.223694,0.0,38.5,0.8,-5.6,1024,1024,1024,1024,0,0,0,0,65,4.813,77.72,165.354336,P-GPS,,50.4
517200,2026-01-09 12:46:06,0.223694,5,7.417,0.0,0.223694,0.0,38.6,0.5,-5.2,1024,1024,1024,1024,0,0,0,0,65,4.813,77.72,165.354336,P-GPS,,50.4
517300,2026-01-09 12:46:06,0.223694,5,7.452,0.0,0.223694,0.0,38.6,0.6,-5.3,1024,1024,1024,1024,0,0,0,0,64,4.339,77.72,165.354336,P-GPS,,50.4
517400,2026-01-09 12:46:06,0.223694,5,7.452,0.0,0.223694,0.0,38.4,1.0,-5.0,1024,1024,1024,1024,0,0,0,0,64,4.339,77.72,165.354336,P-GPS,,50.4
517500,2026-01-09 12:46:07,0.0,5,7.452,0.0,0.0,0.0,38.4,0.0,-5.3,1024,1024,1024,1024,0,0,0,0,64,4.339,77.72,165.354336,P-GPS,,50.4
517600,2026-01-09 12:46:07,0.0,5,7.452,0.0,0.0,0.0,38.3,0.5,-5.1,1024,1024,1024,1024,0,0,0,0,64,4.339,77.72,165.354336,P-GPS,,50.4
517700,2026-01-09 12:46:07,0.0,5,7.452,0.0,0.0,0.0,38.3,0.3,-4.7,1024,1024,1024,1024,0,0,0,0,64,4.339,77.72,165.354336,P-GPS,,50.4
517800,2026-01-09 12:46:07,0.0,5,7.452,0.0,0.0,0.0,38.4,-0.4,-4.5,1024,1024,1024,1024,0,0,0,0,64,4.339,77.72,165.354336,P-GPS,,50.4
517900,2026-01-09 12:46:07,0.0,5,7.452,0.0,0.0,0.0,38.5,-0.8,-4.4,1024,1024,1024,1024,0,0,0,0,64,4.339,77.72,165.354336,P-GPS,,50.4
518000,2026-01-09 12:46:07,0.0,5,7.452,0.0,0.0,0.0,38.6,-1.3,-4.2,1024,1024,1024,1024,0,0,0,0,64,4.339,77.72,165.354336,P-GPS,,50.4
518100,2026-01-09 12:46:07,0.0,5,7.452,0.0,0.0,0.0,38.7,-0.1,-3.7,1024,1024,1024,1024,0,0,0,0,64,4.339,77.72,165.354336,P-GPS,,50.4
518200,2026-01-09 12:46:07,0.0,5,7.452,0.0,0.0,0.0,38.6,-0.2,-4.1,1024,1024,1024,1024,0,0,0,0,64,4.339,77.72,165.68242,P-GPS,,50.5
518300,2026-01-09 12:46:07,0.0,5,7.452,0.0,0.0,0.0,38.6,-0.6,-4.7,1024,1024,1024,1024,0,0,0,0,64,4.339,77.72,165.68242,P-GPS,,50.5
518400,2026-01-09 12:46:07,0.0,5,7.427,0.0,0.0,0.0,38.8,-0.8,-4.6,1024,1024,1024,1024,0,0,0,0,64,4.293,77.72,165.68242,P-GPS,,50.5
518500,2026-01-09 12:46:08,0.0,5,7.427,0.0,0.0,0.0,38.9,-0.7,-5.2,1024,1024,1024,1024,0,0,0,0,64,4.293,77.72,165.68242,P-GPS,,50.5
518600,2026-01-09 12:46:08,0.0,5,7.427,0.0,0.0,0.0,38.9,-0.8,-5.7,1024,1024,1024,1024,0,0,0,0,64,4.293,77.72,165.68242,P-GPS,,50.5
518700,2026-01-09 12:46:08,0.0,5,7.427,0.0,0.0,0.0,38.9,-1.1,-5.9,1024,1024,1024,1024,0,0,0,0,64,4.293,77.72,165.68242,P-GPS,,50.5
518800,2026-01-09 12:46:08,0.0,5,7.427,0.0,0.0,0.0,38.9,-1.5,-6.3,1024,1024,1024,1024,0,0,0,0,64,4.293,77.72,165.68242,P-GPS,,50.5
518900,2026-01-09 12:46:08,0.0,5,7.427,0.0,0.0,0.0,38.8,-1.4,-6.3,1024,1024,1024,1024,0,0,0,0,64,4.293,77.72,166.010504,P-GPS,,50.6
519000,2026-01-09 12:46:08,0.0,5,7.427,0.0,0.0,0.0,38.6,-1.4,-6.6,1024,1024,1024,1024,0,0,0,0,64,4.293,77.72,166.010504,P-GPS,,50.6
519100,2026-01-09 12:46:08,0.0,5,7.427,0.0,0.0,0.0,38.6,-1.5,-6.5,1024,1024,1024,1024,0,0,0,0,64,4.293,77.72,166.010504,P-GPS,,50.6
519200,2026-01-09 12:46:08,0.0,5,7.427,0.0,0.0,0.0,38.5,-1.0,-6.4,1024,1024,1024,1024,0,0,0,0,64,4.293,77.72,166.010504,P-GPS,,50.6
519300,2026-01-09 12:46:08,0.0,5,7.427,0.0,0.0,0.0,38.6,-1.2,-6.1,1024,1024,1024,1024,0,0,0,0,64,4.293,77.72,166.010504,P-GPS,,50.6
519400,2026-01-09 12:46:08,0.0,5,7.427,0.0,0.0,0.0,38.4,-0.9,-6.2,1024,1024,1024,1024,0,0,0,0,64,4.293,77.72,166.010504,P-GPS,,50.6
519500,2026-01-09 12:46:09,0.0,5,7.424,0.0,0.0,0.0,38.4,-0.6,-6.0,1024,1024,1024,1024,0,0,0,0,64,4.592,77.72,166.010504,P-GPS,,50.6
519600,2026-01-09 12:46:09,0.0,5,7.424,0.0,0.0,0.0,38.5,-0.4,-5.8,1024,1024,1024,1024,0,0,0,0,64,4.592,77.72,166.010504,P-GPS,,50.6
519700,2026-01-09 12:46:09,0.0,5,7.424,0.0,0.0,0.0,38.7,-0.9,-5.8,1024,1024,1024,1024,0,0,0,0,64,4.592,77.72,166.010504,P-GPS,,50.6
519800,2026-01-09 12:46:09,0.0,5,7.424,0.0,0.0,0.0,38.7,-0.7,-5.5,1024,1024,1024,1024,0,0,0,0,64,4.592,77.72,166.010504,P-GPS,,50.6
519900,2026-01-09 12:46:09,0.0,5,7.424,0.0,0.0,0.0,38.6,-1.1,-5.8,1024,1024,1024,1024,0,0,0,0,64,4.592,77.72,165.68242,P-GPS,,50.5
520000,2026-01-09 12:46:09,0.0,5,7.424,0.0,0.0,0.0,38.6,-1.4,-5.9,1024,1024,1024,1024,0,0,0,0,64,4.592,77.72,165.68242,P-GPS,,50.5
520100,2026-01-09 12:46:09,0.0,5,7.424,0.0,0.0,0.0,38.6,-1.5,-5.4,1024,1024,1024,1024,0,0,0,0,64,4.592,77.72,165.68242,P-GPS,,50.5
520200,2026-01-09 12:46:09,0.0,5,7.424,0.0,0.0,0.0,38.5,-0.2,-5.8,1024,1024,1024,1024,0,0,0,0,64,4.592,77.72,165.68242,P-GPS,,50.5
520300,2026-01-09 12:46:09,0.0,5,7.424,0.0,0.0,0.0,38.7,-1.0,-5.6,1024,1024,1024,1024,0,0,0,0,64,4.592,77.72,165.68242,P-GPS,,50.5
520400,2026-01-09 12:46:10,0.0,5,7.424,0.0,0.0,0.0,38.7,-1.0,-5.5,1024,1024,1024,1024,0,0,0,0,64,4.592,77.72,165.354336,P-GPS,,50.4
520500,2026-01-09 12:46:10,0.0,5,7.424,0.0,0.0,0.0,38.6,-1.3,-5.8,1024,1024,1024,1024,0,0,0,0,64,4.592,77.72,165.354336,P-GPS,,50.4
520600,2026-01-09 12:46:10,0.223694,5,7.454,0.0,-0.223694,0.0,38.5,-1.3,-5.3,1024,1024,1024,1024,0,0,0,0,64,4.108,77.72,165.354336,P-GPS,,50.4
520700,2026-01-09 12:46:10,0.223694,5,7.454,0.0,-0.223694,0.0,38.4,-1.7,-5.5,1024,1024,1024,1024,0,0,0,0,64,4.108,77.72,165.026252,P-GPS,,50.3
520800,2026-01-09 12:46:10,0.223694,5,7.454,0.0,-0.223694,0.0,38.4,-2.8,-4.3,1024,1024,1024,1024,0,0,0,0,64,4.108,77.72,165.026252,P-GPS,,50.3
520900,2026-01-09 12:46:10,0.223694,5,7.454,0.0,-0.223694,0.0,38.3,-2.4,-4.6,1024,1024,1024,1024,0,0,0,0,64,4.108,77.72,164.698168,P-GPS,,50.2
521000,2026-01-09 12:46:10,0.0,5,7.454,0.0,0.0,0.0,38.5,-4.0,-3.1,1024,1024,1024,1024,0,0,0,0,64,4.108,77.72,164.698168,P-GPS,,50.2
521100,2026-01-09 12:46:10,0.0,5,7.454,0.0,0.0,0.223694,38.5,-2.4,-2.4,1024,1024,1024,1024,0,0,0,0,64,4.108,77.72,164.698168,P-GPS,,50.2
521200,2026-01-09 12:46:10,0.0,5,7.454,0.0,0.0,0.223694,38.4,-2.3,-3.2,1024,1024,1024,1024,0,0,0,0,64,4.108,77.72,164.698168,P-GPS,,50.2
521300,2026-01-09 12:46:10,0.0,5,7.454,0.0,0.0,0.0,38.4,-2.5,-4.2,1024,1024,1024,1024,0,0,0,0,64,4.108,77.72,164.698168,P-GPS,,50.2
521400,2026-01-09 12:46:10,0.223694,5,7.454,0.0,0.223694,0.0,38.2,-0.4,-4.6,1024,1024,1024,1024,0,0,0,0,64,4.108,77.72,164.698168,P-GPS,,50.2
521500,2026-01-09 12:46:11,0.223694,5,7.454,0.0,0.223694,0.0,38.0,1.9,-5.3,1024,1024,1024,1024,0,0,0,0,64,4.108,77.72,164.698168,P-GPS,,50.2
521600,2026-01-09 12:46:11,0.223694,5,7.454,0.0,0.223694,0.0,37.9,1.5,-5.6,1024,1024,1024,1024,0,0,0,0,64,4.108,77.72,164.698168,P-GPS,,50.2
521700,2026-01-09 12:46:11,0.0,5,7.399,0.0,0.0,0.0,37.7,1.2,-5.8,1024,1024,1024,1024,0,0,0,0,64,4.724,77.72,165.026252,P-GPS,,50.3
521800,2026-01-09 12:46:11,0.0,5,7.399,0.0,0.0,0.0,37.8,1.1,-5.8,1024,1024,1024,1024,0,0,0,0,64,4.724,77.72,165.026252,P-GPS,,50.3
521900,2026-01-09 12:46:11,0.0,5,7.399,0.0,0.0,0.0,37.9,0.8,-5.6,1024,1024,1024,1024,0,0,0,0,64,4.724,77.72,165.026252,P-GPS,,50.3
522000,2026-01-09 12:46:11,0.0,5,7.399,0.0,0.0,0.0,38.0,2.0,-4.7,1024,1024,1024,1024,0,0,0,0,64,4.724,77.72,165.026252,P-GPS,,50.3
522100,2026-01-09 12:46:11,0.0,5,7.399,0.0,0.0,0.0,38.0,1.0,-5.0,1024,1024,1024,1024,0,0,0,0,64,4.724,77.72,165.026252,P-GPS,,50.3
522200,2026-01-09 12:46:11,0.0,5,7.399,0.0,0.0,0.0,37.8,1.7,-5.3,1024,1024,1024,1024,0,0,0,0,64,4.724,77.72,165.026252,P-GPS,,50.3
522300,2026-01-09 12:46:11,0.0,5,7.399,0.0,0.0,0.0,37.8,2.7,-4.8,1024,1024,1024,1024,0,0,0,0,64,4.724,77.72,165.026252,P-GPS,,50.3
522400,2026-01-09 12:46:11,0.0,5,7.399,0.0,0.0,0.0,38.0,3.1,-4.3,1024,1024,1024,1024,0,0,0,0,64,4.724,77.72,165.026252,P-GPS,,50.3
522500,2026-01-09 12:46:12,0.0,5,7.399,0.0,0.0,0.0,38.1,2.2,-4.4,1024,1024,1024,1024,0,0,0,0,64,4.724,77.72,165.026252,P-GPS,,50.3
522600,2026-01-09 12:46:12,0.0,5,7.399,0.0,0.0,0.0,38.3,0.7,-4.4,1024,1024,1024,1024,0,0,0,0,64,4.724,77.72,165.026252,P-GPS,,50.3
522700,2026-01-09 12:46:12,0.0,5,7.399,0.0,0.0,0.0,38.3,-0.4,-4.9,1024,1024,1024,1024,0,0,0,0,64,4.724,77.72,165.026252,P-GPS,,50.3
522800,2026-01-09 12:46:12,0.0,5,7.393,0.0,0.0,0.0,38.4,-0.8,-5.1,1024,1024,1024,1024,0,0,0,0,64,5.094,77.72,165.026252,P-GPS,,50.3
522900,2026-01-09 12:46:12,0.0,5,7.393,0.0,0.0,0.0,38.5,-1.3,-5.3,1024,1024,1024,1024,0,0,0,0,64,5.094,77.72,165.026252,P-GPS,,50.3
523000,2026-01-09 12:46:12,0.0,5,7.393,0.0,0.0,0.0,38.5,-1.0,-5.4,1024,1024,1024,1024,0,0,0,0,64,5.094,77.72,165.026252,P-GPS,,50.3
523100,2026-01-09 12:46:12,0.0,5,7.393,0.0,0.0,0.0,38.4,-0.6,-5.6,1024,1024,1024,1024,0,0,0,0,64,5.094,77.72,165.026252,P-GPS,,50.3
523200,2026-01-09 12:46:12,0.0,5,7.393,0.0,0.0,0.0,38.4,-0.2,-5.7,1024,1024,1024,1024,0,0,0,0,64,5.094,77.72,165.026252,P-GPS,,50.3
523300,2026-01-09 12:46:12,0.0,5,7.393,0.0,0.0,0.0,38.2,0.5,-5.5,1024,1024,1024,1024,0,0,0,0,64,5.094,77.72,164.698168,P-GPS,,50.2
523400,2026-01-09 12:46:12,0.0,5,7.393,0.0,0.0,0.0,38.2,2.6,-4.2,1024,1024,1024,1024,0,0,0,0,64,5.094,77.72,164.698168,P-GPS,,50.2
523500,2026-01-09 12:46:13,0.0,5,7.393,0.0,0.0,0.0,38.3,-0.4,-4.8,1024,1024,1024,1024,0,0,0,0,64,5.094,77.72,164.698168,P-GPS,,50.2
523600,2026-01-09 12:46:13,0.0,5,7.393,0.0,0.0,0.0,38.1,1.4,-5.2,1024,1024,1024,1024,0,0,0,0,64,5.094,77.72,164.698168,P-GPS,,50.2
523700,2026-01-09 12:46:13,0.0,5,7.393,0.0,0.0,0.0,37.9,2.2,-4.9,1024,1024,1024,1024,0,0,0,0,64,5.094,77.72,164.698168,P-GPS,,50.2
523800,2026-01-09 12:46:13,0.0,5,7.393,0.0,0.0,0.0,38.2,0.6,-5.0,1024,1024,1024,1024,0,0,0,0,64,5.094,77.72,164.698168,P-GPS,,50.2
523900,2026-01-09 12:46:13,0.0,5,7.403,0.0,0.0,0.0,38.4,1.1,-4.9,1024,1024,1024,1024,0,0,0,0,64,5.058,77.72,164.370084,P-GPS,,50.1
524000,2026-01-09 12:46:13,0.0,5,7.403,0.0,0.0,0.0,38.5,1.5,-4.6,1024,1024,1024,1024,0,0,0,0,64,5.058,77.72,164.370084,P-GPS,,50.1
524100,2026-01-09 12:46:13,0.0,5,7.403,0.0,0.0,0.0,38.3,2.1,-4.6,1024,1024,1024,1024,0,0,0,0,64,5.058,77.72,164.370084,P-GPS,,50.1
524200,2026-01-09 12:46:13,0.0,5,7.403,0.0,0.0,0.0,38.3,1.8,-5.2,1024,1024,1024,1024,0,0,0,0,64,5.058,77.72,164.370084,P-GPS,,50.1
524300,2026-01-09 12:46:13,0.0,5,7.403,0.0,0.0,0.0,38.3,1.6,-5.1,1024,1024,1024,1024,0,0,0,0,64,5.058,77.72,164.370084,P-GPS,,50.1
524400,2026-01-09 12:46:13,0.0,5,7.403,0.0,0.0,0.0,38.2,1.5,-5.4,1024,1024,1024,1024,0,0,0,0,64,5.058,77.72,164.370084,P-GPS,,50.1
524500,2026-01-09 12:46:14,0.0,5,7.403,0.0,0.0,0.0,38.2,2.4,-5.4,1024,1024,1024,1024,0,0,0,0,64,5.058,77.72,164.370084,P-GPS,,50.1
524600,2026-01-09 12:46:14,0.0,5,7.403,0.0,0.0,0.0,38.3,1.6,-5.1,1024,1024,1024,1024,0,0,0,0,64,5.058,77.72,164.370084,P-GPS,,50.1
524700,2026-01-09 12:46:14,0.0,5,7.403,0.0,0.0,0.0,38.3,1.2,-5.2,1024,1024,1024,1024,0,0,0,0,64,5.058,77.72,164.370084,P-GPS,,50.1
524800,2026-01-09 12:46:14,0.0,5,7.403,0.0,0.0,0.0,38.2,1.9,-4.7,1024,1024,1024,1024,0,0,0,0,64,5.058,77.72,164.370084,P-GPS,,50.1
524900,2026-01-09 12:46:14,0.0,5,7.403,0.0,0.0,0.0,38.3,1.0,-4.6,1024,1024,1024,1024,0,0,0,0,64,5.058,77.72,164.370084,P-GPS,,50.1
525000,2026-01-09 12:46:14,0.0,5,7.428,0.0,0.0,0.0,38.5,0.6,-4.7,1024,1024,1024,1024,0,0,0,0,64,4.544,77.72,164.370084,P-GPS,,50.1
525100,2026-01-09 12:46:14,0.0,5,7.428,0.0,0.0,0.0,38.5,-0.1,-4.4,1024,1024,1024,1024,0,0,0,0,64,4.544,77.72,164.370084,P-GPS,,50.1
525200,2026-01-09 12:46:14,0.0,5,7.428,0.0,0.0,0.0,38.5,0.1,-4.6,1024,1024,1024,1024,0,0,0,0,64,4.544,77.72,164.370084,P-GPS,,50.1
525300,2026-01-09 12:46:14,0.0,5,7.428,0.0,0.0,0.0,38.3,1.3,-5.2,1024,1024,1024,1024,0,0,0,0,64,4.544,77.72,164.370084,P-GPS,,50.1
525400,2026-01-09 12:46:14,0.0,5,7.428,0.0,0.0,0.0,38.3,0.9,-5.4,1024,1024,1024,1024,0,0,0,0,64,4.544,77.72,164.370084,P-GPS,,50.1
525500,2026-01-09 12:46:15,0.0,5,7.428,0.0,0.0,0.0,38.2,1.4,-5.7,1024,1024,1024,1024,0,0,0,0,64,4.544,77.72,164.370084,P-GPS,,50.1
525600,2026-01-09 12:46:15,0.0,5,7.428,0.0,0.0,0.0,38.3,1.6,-5.6,1024,1024,1024,1024,0,0,0,0,64,4.544,77.72,164.370084,P-GPS,,50.1
525700,2026-01-09 12:46:15,0.0,5,7.428,0.0,0.0,0.0,38.3,1.1,-5.5,1024,1024,1024,1024,0,0,0,0,64,4.544,77.72,164.370084,P-GPS,,50.1
525800,2026-01-09 12:46:15,0.0,5,7.428,0.0,0.0,0.0,38.3,0.2,-5.5,1024,1024,1024,1024,0,0,0,0,64,4.544,77.72,164.370084,P-GPS,,50.1
525900,2026-01-09 12:46:15,0.0,5,7.428,0.0,0.0,0.0,38.1,1.2,-5.0,1024,1024,1024,1024,0,0,0,0,64,4.544,77.72,164.370084,P-GPS,,50.1
526000,2026-01-09 12:46:15,0.0,5,7.428,0.0,0.0,0.0,38.1,-0.4,-4.2,1024,1024,1024,1024,0,0,0,0,64,4.544,77.72,164.370084,P-GPS,,50.1
526100,2026-01-09 12:46:15,0.0,5,7.428,0.0,0.0,0.0,38.2,0.0,-5.5,1024,1024,1024,1024,0,0,0,0,64,4.544,77.72,164.370084,P-GPS,,50.1
526200,2026-01-09 12:46:15,0.0,5,7.428,0.0,0.0,0.0,38.3,-0.6,-5.1,1024,1024,1024,1024,0,0,0,0,64,4.544,77.72,164.370084,P-GPS,,50.1
526300,2026-01-09 12:46:15,0.0,5,7.428,0.0,0.0,0.0,38.4,-1.0,-5.0,1024,1024,1024,1024,0,0,0,0,64,4.544,77.72,164.370084,P-GPS,,50.1
526400,2026-01-09 12:46:15,0.0,5,7.428,0.0,0.0,0.0,38.5,-1.2,-4.6,1024,1024,1024,1024,0,0,0,0,64,4.544,77.72,164.370084,P-GPS,,50.1
526500,2026-01-09 12:46:16,0.0,5,7.428,0.0,0.0,0.0,38.6,-1.8,-4.5,1024,1024,1024,1024,0,0,0,0,64,4.544,77.72,164.370084,P-GPS,,50.1
526600,2026-01-09 12:46:16,0.0,5,7.428,0.0,0.0,0.0,38.3,-0.6,-5.0,1024,1024,1024,1024,0,0,0,0,64,4.544,77.72,164.370084,P-GPS,,50.1
526700,2026-01-09 12:46:16,0.0,5,7.428,0.0,0.0,0.0,38.2,-0.2,-5.3,1024,1024,1024,1024,0,0,0,0,64,4.544,77.72,164.370084,P-GPS,,50.1
526800,2026-01-09 12:46:16,0.0,5,7.428,0.0,0.0,0.0,38.2,0.0,-5.2,1024,1024,1024,1024,0,0,0,0,64,4.544,77.72,164.370084,P-GPS,,50.1
526900,2026-01-09 12:46:16,0.0,5,7.428,0.0,0.0,0.0,38.4,-0.2,-5.1,1024,1024,1024,1024,0,0,0,0,64,4.544,77.72,164.370084,P-GPS,,50.1
527000,2026-01-09 12:46:16,0.0,5,7.428,0.0,0.0,0.0,38.4,-0.2,-5.2,1024,1024,1024,1024,0,0,0,0,64,4.544,77.72,164.370084,P-GPS,,50.1
527100,2026-01-09 12:46:16,0.0,5,7.428,0.0,0.0,0.0,38.4,0.6,-4.9,1024,1024,1024,1024,0,0,0,0,64,4.544,77.72,164.370084,P-GPS,,50.1
527200,2026-01-09 12:46:16,0.0,5,7.403,0.0,0.0,0.0,38.4,-0.6,-5.0,1024,1024,1024,1024,0,0,0,0,64,4.934,77.9,164.370084,P-GPS,,50.1
527300,2026-01-09 12:46:16,0.0,5,7.403,0.0,0.0,0.0,38.5,-0.3,-4.8,1024,1024,1024,1024,0,0,0,0,64,4.934,77.9,164.370084,P-GPS,,50.1
527400,2026-01-09 12:46:16,0.0,5,7.403,0.0,0.0,0.0,38.4,0.4,-4.8,1024,1024,1024,1024,0,0,0,0,64,4.934,77.9,164.698168,P-GPS,,50.2
527500,2026-01-09 12:46:17,0.0,5,7.403,0.0,0.0,0.0,38.5,0.3,-4.6,1024,1024,1024,1024,0,0,0,0,64,4.934,77.9,164.698168,P-GPS,,50.2
527600,2026-01-09 12:46:17,0.0,5,7.403,0.0,0.0,0.0,38.2,0.7,-5.0,1024,1024,1024,1024,0,0,0,0,64,4.934,77.9,164.698168,P-GPS,,50.2
527700,2026-01-09 12:46:17,0.0,5,7.403,0.0,0.0,0.0,38.2,1.2,-4.9,1024,1024,1024,1024,0,0,0,0,64,4.934,77.9,164.698168,P-GPS,,50.2
527800,2026-01-09 12:46:17,0.0,5,7.403,0.0,0.0,0.0,38.1,1.4,-4.7,1024,1024,1024,1024,0,0,0,0,64,4.934,77.9,164.698168,P-GPS,,50.2
527900,2026-01-09 12:46:17,0.0,5,7.403,0.0,0.0,0.0,38.2,1.0,-4.8,1024,1024,1024,1024,0,0,0,0,64,4.934,77.9,164.698168,P-GPS,,50.2
528000,2026-01-09 12:46:17,0.0,5,7.403,0.0,0.0,0.0,38.2,1.6,-5.1,1024,1024,1024,1024,0,0,0,0,64,4.934,77.9,164.698168,P-GPS,,50.2
528100,2026-01-09 12:46:17,0.0,5,7.403,0.0,0.0,0.0,38.3,1.5,-5.1,1024,1024,1024,1024,0,0,0,0,64,4.934,77.9,164.698168,P-GPS,,50.2
528200,2026-01-09 12:46:17,0.0,5,7.403,0.0,0.0,0.0,38.3,1.7,-5.0,1024,1024,1024,1024,0,0,0,0,64,4.934,77.9,164.698168,P-GPS,,50.2
528300,2026-01-09 12:46:17,0.0,5,7.414,0.0,0.0,0.0,38.5,1.1,-5.2,1024,1024,1024,1024,0,0,0,0,64,4.853,77.9,164.698168,P-GPS,,50.2
528400,2026-01-09 12:46:18,0.0,5,7.414,0.0,0.0,0.0,38.3,1.7,-5.6,1024,1024,1024,1024,0,0,0,0,64,4.853,77.9,164.370084,P-GPS,,50.1
528500,2026-01-09 12:46:18,0.0,5,7.414,0.0,0.0,0.0,38.3,2.0,-5.7,1024,1024,1024,1024,0,0,0,0,64,4.853,77.9,164.370084,P-GPS,,50.1
528600,2026-01-09 12:46:18,0.0,5,7.414,0.0,0.0,0.0,38.4,2.8,-5.4,1024,1024,1024,1024,0,0,0,0,64,4.853,77.9,164.370084,P-GPS,,50.1
528700,2026-01-09 12:46:18,0.0,5,7.414,0.0,0.0,0.0,38.5,1.4,-5.6,1024,1024,1024,1024,0,0,0,0,64,4.853,77.9,164.370084,P-GPS,,50.1
528800,2026-01-09 12:46:18,0.0,5,7.414,0.0,0.0,0.0,38.5,0.8,-5.9,1024,1024,1024,1024,0,0,0,0,64,4.853,77.9,164.370084,P-GPS,,50.1
528900,2026-01-09 12:46:18,0.0,5,7.414,0.0,0.0,0.0,38.4,0.8,-5.7,1024,1024,1024,1024,0,0,0,0,64,4.853,77.9,164.370084,P-GPS,,50.1
529000,2026-01-09 12:46:18,0.0,5,7.414,0.0,0.0,0.0,38.4,0.7,-5.9,1024,1024,1024,1024,0,0,0,0,64,4.853,77.9,164.370084,P-GPS,,50.1
529100,2026-01-09 12:46:18,0.0,5,7.414,0.0,0.0,0.0,38.4,0.6,-5.8,1024,1024,1024,1024,0,0,0,0,64,4.853,77.9,164.042,P-GPS,,50.0
529200,2026-01-09 12:46:18,0.0,5,7.414,0.0,0.0,0.0,38.5,0.2,-5.2,1024,1024,409,1024,0,0,-93,0,64,4.853,77.9,164.042,P-GPS,,50.0
529300,2026-01-09 12:46:18,0.0,5,7.414,0.0,0.0,0.0,38.6,-0.2,-5.3,1024,1024,364,1024,0,0,-100,0,64,4.853,77.9,164.042,P-GPS,,50.0
529400,2026-01-09 12:46:18,0.0,5,7.398,0.0,0.0,0.0,38.6,-0.3,-5.3,1024,1024,364,1024,0,0,-100,0,64,5.046,77.9,164.042,P-GPS,,50.0
529500,2026-01-09 12:46:19,0.0,5,7.398,0.0,0.0,0.0,38.5,-0.6,-6.1,1024,1024,364,1024,0,0,-100,0,64,5.046,77.9,164.042,P-GPS,,50.0
529600,2026-01-09 12:46:19,0.0,5,7.398,0.0,0.0,0.447388,38.4,0.3,-6.4,1024,1024,364,1024,0,0,-100,0,64,5.046,77.9,164.042,P-GPS,,50.0
529700,2026-01-09 12:46:19,0.0,5,7.398,0.0,0.0,1.342164,38.4,-0.3,-6.3,1024,1024,364,1024,0,0,-100,0,64,5.046,77.9,163.713916,P-GPS,,49.9
529800,2026-01-09 12:46:19,0.0,5,7.398,0.0,0.0,2.013246,38.3,0.6,-5.7,1024,1024,364,1024,0,0,-100,0,64,5.046,77.9,163.385832,P-GPS,,49.8
529900,2026-01-09 12:46:19,0.0,5,7.398,0.0,0.0,2.684328,38.5,1.1,-4.7,1024,1024,364,1024,0,0,-100,0,64,5.046,77.9,162.729664,P-GPS,,49.6
530000,2026-01-09 12:46:19,0.0,5,7.398,0.0,0.0,3.35541,38.6,0.0,-4.5,1024,1024,364,1024,0,0,-100,0,64,5.046,77.9,162.073496,P-GPS,,49.4
530100,2026-01-09 12:46:19,0.0,5,7.398,0.0,0.0,3.579104,38.7,-0.8,-4.7,1024,1024,364,1024,0,0,-100,0,64,5.046,77.9,161.417328,P-GPS,,49.2
530200,2026-01-09 12:46:19,0.0,5,7.398,0.0,0.0,3.802798,38.4,0.4,-5.1,1024,1024,364,1024,0,0,-100,0,64,5.046,77.9,160.76116,P-GPS,,49.0
530300,2026-01-09 12:46:19,0.0,5,7.398,0.0,0.0,4.026492,38.2,1.0,-4.5,1024,1024,364,1024,0,0,-100,0,64,5.046,77.9,160.104992,P-GPS,,48.8
530400,2026-01-09 12:46:19,0.223694,5,7.398,0.0,-0.223694,3.802798,38.4,-0.5,-3.7,1024,1024,364,1024,0,0,-100,0,64,5.046,77.9,159.12074,P-GPS,,48.5
530500,2026-01-09 12:46:20,0.223694,5,7.461,0.0,-0.223694,4.026492,38.4,-2.4,-3.8,1024,1024,364,1024,0,0,-100,0,63,3.563,77.9,158.464572,P-GPS,,48.3
530600,2026-01-09 12:46:20,0.0,5,7.461,0.0,0.0,3.802798,38.5,-3.3,-3.2,1024,1024,364,1024,0,0,-100,0,63,3.563,77.9,157.808404,P-GPS,,48.1
