time(millisecond),timestamp,speed(mph),gpslevel,voltage(v),xSpeed(mph),ySpeed(mph),zSpeed(mph),compass_heading(degrees),pitch(degrees),roll(degrees),rc_elevator,rc_aileron,rc_throttle,rc_rudder,rc_elevator(percent),rc_aileron(percent),rc_throttle(percent),rc_rudder(percent),battery_percent,current(A),battery_temperature(f),ascent(feet),flycState,message,height_above_takeoff(meters)
467100,2026-01-09 12:45:16,0.3131716,5,7.359,-0.223694,0.0,-4.250186,38.9,-3.2,-9.0,1024,1024,1684,1024,0,0,100,0,68,7.315,76.64,92.191604,P-GPS,,28.1
467200,2026-01-09 12:45:16,0.223694,5,7.359,-0.223694,0.0,-4.250186,39.1,-4.0,-8.2,1024,1024,1684,1024,0,0,100,0,68,7.315,76.64,92.847772,P-GPS,,28.3
467300,2026-01-09 12:45:16,0.223694,5,7.359,-0.223694,0.0,-4.47388,39.2,-3.5,-8.9,1024,1024,1684,1024,0,0,100,0,68,7.315,76.64,93.50394,P-GPS,,28.5
467400,2026-01-09 12:45:16,0.223694,5,7.359,-0.223694,0.0,-4.47388,39.2,-2.7,-9.0,1024,1024,1684,1024,0,0,100,0,68,7.315,76.64,94.488192,P-GPS,,28.8
467500,2026-01-09 12:45:17,0.223694,5,7.359,-0.223694,0.0,-4.47388,39.1,-2.9,-9.3,1024,1024,1684,1024,0,0,100,0,68,7.315,76.64,95.14436,P-GPS,,29.0
467600,2026-01-09 12:45:17,0.223694,5,7.359,-0.223694,0.0,-4.47388,39.1,-3.7,-9.5,1024,1024,1024,1024,0,0,0,0,68,7.315,76.64,95.800528,P-GPS,,29.2
467700,2026-01-09 12:45:17,0.223694,5,7.359,-0.223694,0.0,-4.47388,39.0,-3.1,-9.4,1024,1024,1024,1024,0,0,0,0,68,7.315,76.64,96.456696,P-GPS,,29.4
467800,2026-01-09 12:45:17,0.223694,5,7.343,-0.223694,0.0,-4.026492,39.0,-4.3,-10.1,1024,1024,1024,1024,0,0,0,0,68,7.22,76.64,97.112864,P-GPS,,29.6
467900,2026-01-09 12:45:17,0.223694,5,7.343,-0.223694,0.0,-3.35541,38.8,-4.3,-10.9,1024,1024,1024,1024,0,0,0,0,68,7.22,76.64,97.440948,P-GPS,,29.7
468000,2026-01-09 12:45:17,0.223694,5,7.343,-0.223694,0.0,-2.684328,38.7,-4.2,-11.3,1024,1024,1024,1024,0,0,0,0,68,7.22,76.64,98.097116,P-GPS,,29.9
468100,2026-01-09 12:45:17,0.223694,5,7.343,-0.223694,0.0,-1.789552,38.8,-4.0,-11.2,1024,1024,1024,1024,0,0,0,0,68,7.22,76.64,98.4252,P-GPS,,30.0
468200,2026-01-09 12:45:17,0.223694,5,7.343,-0.223694,0.0,-1.11847,38.8,-3.9,-11.0,1024,1024,1024,1024,0,0,0,0,68,7.22,76.64,98.4252,P-GPS,,30.0
468300,2026-01-09 12:45:17,0.223694,5,7.343,-0.223694,0.0,-0.671082,38.9,-3.4,-10.5,1024,1024,1024,1024,0,0,0,0,68,7.22,76.64,98.4252,P-GPS,,30.0
468400,2026-01-09 12:45:18,0.223694,5,7.343,-0.223694,0.0,-0.447388,39.0,-3.7,-10.9,1024,1024,1024,1024,0,0,0,0,68,7.22,76.64,98.4252,P-GPS,,30.0
468500,2026-01-09 12:45:18,0.223694,5,7.343,-0.223694,0.0,-0.223694,39.1,-3.8,-10.6,1024,1024,1024,1024,0,0,0,0,68,7.22,76.64,98.4252,P-GPS,,30.0
468600,2026-01-09 12:45:18,0.223694,5,7.343,-0.223694,0.0,0.0,39.1,-4.0,-10.8,1024,1024,1024,1024,0,0,0,0,68,7.22,76.64,98.4252,P-GPS,,30.0
468700,2026-01-09 12:45:18,0.223694,5,7.343,0.0,0.0,0.0,39.2,-4.2,-10.0,1024,1024,1024,1024,0,0,0,0,68,7.22,76.64,98.097116,P-GPS,,29.9
468800,2026-01-09 12:45:18,0.0,5,7.343,0.0,0.0,0.0,39.0,-4.4,-10.1,1024,1024,1024,1024,0,0,0,0,68,7.22,76.64,98.097116,P-GPS,,29.9
468900,2026-01-09 12:45:18,0.0,5,7.433,0.0,0.0,0.0,39.0,-4.7,-9.8,1024,1024,1024,1024,0,0,0,0,68,4.877,76.64,97.769032,P-GPS,,29.8
469000,2026-01-09 12:45:18,0.223694,5,7.433,0.0,-0.223694,0.0,38.8,-4.3,-9.7,1024,1024,1024,1024,0,0,0,0,68,4.877,76.64,97.769032,P-GPS,,29.8
469100,2026-01-09 12:45:18,0.223694,5,7.433,0.0,-0.223694,0.0,38.8,-4.4,-9.1,1024,1024,1024,1024,0,0,0,0,68,4.877,76.64,97.440948,P-GPS,,29.7
469200,2026-01-09 12:45:18,0.223694,5,7.433,0.0,-0.223694,0.0,38.6,-4.3,-8.7,1024,1024,1024,1024,0,0,0,0,68,4.877,76.64,97.440948,P-GPS,,29.7
469300,2026-01-09 12:45:18,0.223694,5,7.433,0.0,-0.223694,0.0,38.6,-4.1,-8.1,1024,1024,1024,1024,0,0,0,0,68,4.877,76.64,97.112864,P-GPS,,29.6
469400,2026-01-09 12:45:18,0.223694,5,7.433,0.0,-0.223694,0.0,38.7,-4.5,-7.6,1024,1024,1024,1024,0,0,0,0,68,4.877,76.64,96.78478,P-GPS,,29.5
469500,2026-01-09 12:45:19,0.223694,5,7.433,0.0,-0.223694,0.0,38.9,-4.4,-7.4,1024,1024,1024,1024,0,0,0,0,68,4.877,76.64,96.78478,P-GPS,,29.5
469600,2026-01-09 12:45:19,0.0,5,7.433,0.0,0.0,0.0,39.0,-4.1,-7.7,1024,1024,1024,1024,0,0,0,0,68,4.877,76.64,96.78478,P-GPS,,29.5
469700,2026-01-09 12:45:19,0.0,5,7.433,0.0,0.0,0.0,39.0,-4.4,-8.0,1024,1024,1024,1024,0,0,0,0,68,4.877,76.64,96.456696,P-GPS,,29.4
469800,2026-01-09 12:45:19,0.0,5,7.433,0.0,0.0,-0.223694,38.9,-4.0,-8.3,1024,1024,1024,1024,0,0,0,0,68,4.877,76.64,96.456696,P-GPS,,29.4
469900,2026-01-09 12:45:19,0.0,5,7.433,0.0,0.0,-0.223694,39.1,-4.8,-8.4,1024,1024,1024,1024,0,0,0,0,68,4.877,76.64,96.456696,P-GPS,,29.4
470000,2026-01-09 12:45:19,0.0,5,7.426,0.0,0.0,-0.223694,39.1,-5.2,-8.6,1024,1024,1024,1024,0,0,0,0,68,5.295,76.64,96.456696,P-GPS,,29.4
470100,2026-01-09 12:45:19,0.0,5,7.426,0.0,0.0,0.0,38.9,-5.0,-7.9,1024,1024,1024,1024,0,0,0,0,68,5.295,76.64,96.456696,P-GPS,,29.4
470200,2026-01-09 12:45:19,0.0,5,7.426,0.0,0.0,0.0,38.9,-5.1,-7.2,1024,1024,1024,1024,0,0,0,0,68,5.295,76.64,96.128612,P-GPS,,29.3
470300,2026-01-09 12:45:19,0.0,5,7.426,0.0,0.0,0.0,39.0,-5.2,-7.2,1024,1024,1024,1024,0,0,0,0,68,5.295,76.64,96.128612,P-GPS,,29.3
470400,2026-01-09 12:45:20,0.0,5,7.426,0.0,0.0,0.0,38.9,-4.7,-7.1,1024,1024,1024,1024,0,0,0,0,68,5.295,76.64,96.128612,P-GPS,,29.3
470500,2026-01-09 12:45:20,0.0,5,7.426,0.0,0.0,0.0,38.7,-4.0,-7.3,1024,1024,1024,1024,0,0,0,0,68,5.295,76.64,95.800528,P-GPS,,29.2
470600,2026-01-09 12:45:20,0.0,5,7.426,0.0,0.0,0.0,38.6,-3.8,-7.2,1024,1024,1024,1024,0,0,0,0,68,5.295,76.64,95.800528,P-GPS,,29.2
470700,2026-01-09 12:45:20,0.0,5,7.426,0.0,0.0,0.0,38.7,-3.2,-7.1,1024,1024,1024,1024,0,0,0,0,68,5.295,76.64,95.800528,P-GPS,,29.2
470800,2026-01-09 12:45:20,0.223694,5,7.426,0.223694,0.0,0.0,38.9,-3.7,-7.9,1024,1024,1024,1024,0,0,0,0,68,5.295,76.64,95.800528,P-GPS,,29.2
470900,2026-01-09 12:45:20,0.0,5,7.426,0.0,0.0,0.0,38.9,-3.3,-8.4,1024,1024,1024,1024,0,0,0,0,68,5.295,76.64,95.472444,P-GPS,,29.1
471000,2026-01-09 12:45:20,0.223694,5,7.426,0.223694,0.0,0.0,38.7,-2.2,-8.5,1024,1024,1024,1024,0,0,0,0,68,5.295,76.64,95.472444,P-GPS,,29.1
471100,2026-01-09 12:45:20,0.223694,5,7.437,0.223694,0.0,0.0,38.6,-1.4,-7.9,1024,1024,1024,1024,0,0,0,0,68,5.089,76.64,95.472444,P-GPS,,29.1
471200,2026-01-09 12:45:20,0.0,5,7.437,0.0,0.0,0.0,38.7,-2.1,-8.2,1024,1024,1024,1024,0,0,0,0,68,5.089,76.64,95.472444,P-GPS,,29.1
471300,2026-01-09 12:45:20,0.0,5,7.437,0.0,0.0,0.0,38.6,-2.5,-8.4,1024,1024,1024,1024,0,0,0,0,68,5.089,76.64,95.472444,P-GPS,,29.1
471400,2026-01-09 12:45:20,0.0,5,7.437,0.0,0.0,0.0,38.6,-2.2,-8.1,1024,1024,1024,1024,0,0,0,0,68,5.089,76.64,95.14436,P-GPS,,29.0
471500,2026-01-09 12:45:21,0.0,5,7.437,0.0,0.0,0.0,38.5,-2.2,-8.0,1024,1024,1024,1024,0,0,0,0,68,5.089,76.64,95.14436,P-GPS,,29.0
471600,2026-01-09 12:45:21,0.0,5,7.437,0.0,0.0,0.0,38.6,-2.5,-8.0,1024,1024,1024,1024,0,0,0,0,68,5.089,76.64,95.14436,P-GPS,,29.0
471700,2026-01-09 12:45:21,0.0,5,7.437,0.0,0.0,0.0,38.6,-2.8,-7.9,1024,1024,1024,1024,0,0,0,0,68,5.089,76.64,95.14436,P-GPS,,29.0
471800,2026-01-09 12:45:21,0.0,5,7.437,0.0,0.0,0.0,38.6,-2.8,-7.6,1024,1024,1024,1024,0,0,0,0,68,5.089,76.64,95.14436,P-GPS,,29.0
471900,2026-01-09 12:45:21,0.0,5,7.437,0.0,0.0,0.0,38.6,-2.6,-7.1,1024,1024,1024,1024,0,0,0,0,68,5.089,76.64,94.816276,P-GPS,,28.9
472000,2026-01-09 12:45:21,0.0,5,7.437,0.0,0.0,0.0,38.6,-2.8,-6.7,1024,1024,1024,1024,0,0,0,0,68,5.089,76.64,94.816276,P-GPS,,28.9
472100,2026-01-09 12:45:21,0.0,5,7.437,0.0,0.0,0.0,38.6,-2.3,-6.9,1024,1024,1024,1024,0,0,0,0,68,5.089,76.64,94.816276,P-GPS,,28.9
472200,2026-01-09 12:45:21,0.0,5,7.452,0.0,0.0,0.0,38.5,-2.5,-7.1,1024,1024,1024,1024,0,0,0,0,68,4.753,76.82,94.816276,P-GPS,,28.9
472300,2026-01-09 12:45:21,0.0,5,7.452,0.0,0.0,0.0,38.4,-2.7,-6.9,1024,1024,1024,1024,0,0,0,0,68,4.753,76.82,94.816276,P-GPS,,28.9
472400,2026-01-09 12:45:21,0.0,5,7.452,0.0,0.0,0.0,38.5,-2.6,-7.0,1024,1024,1024,1024,0,0,0,0,68,4.753,76.82,94.816276,P-GPS,,28.9
472500,2026-01-09 12:45:22,0.0,5,7.452,0.0,0.0,0.0,38.6,-2.9,-6.9,1024,1024,1024,1024,0,0,0,0,68,4.753,76.82,94.488192,P-GPS,,28.8
472600,2026-01-09 12:45:22,0.0,5,7.452,0.0,0.0,0.0,38.6,-2.8,-6.8,1024,1024,1024,1024,0,0,0,0,68,4.753,76.82,94.488192,P-GPS,,28.8
472700,2026-01-09 12:45:22,0.0,5,7.452,0.0,0.0,0.0,38.5,-2.5,-7.0,1024,1024,1024,1024,0,0,0,0,68,4.753,76.82,94.488192,P-GPS,,28.8
472800,2026-01-09 12:45:22,0.0,5,7.452,0.0,0.0,0.0,38.4,-2.5,-7.2,1024,1024,1024,1024,0,0,0,0,68,4.753,76.82,94.488192,P-GPS,,28.8
472900,2026-01-09 12:45:22,0.0,5,7.452,0.0,0.0,0.0,38.5,-3.0,-6.9,1024,1024,1024,1024,0,0,0,0,68,4.753,76.82,94.488192,P-GPS,,28.8
473000,2026-01-09 12:45:22,0.0,5,7.452,0.0,0.0,0.0,38.4,-3.1,-6.6,1024,1024,1024,1024,0,0,0,0,68,4.753,76.82,94.488192,P-GPS,,28.8
473100,2026-01-09 12:45:22,0.0,5,7.452,0.0,0.0,0.0,38.2,-2.4,-6.7,1024,1024,1024,1024,0,0,0,0,68,4.753,76.82,94.488192,P-GPS,,28.8
473200,2026-01-09 12:45:22,0.0,5,7.452,0.0,0.0,0.0,38.3,-2.8,-6.5,1024,1024,1024,1024,0,0,0,0,68,4.753,76.82,94.160108,P-GPS,,28.7
473300,2026-01-09 12:45:22,0.0,5,7.452,0.0,0.0,0.0,38.3,-2.9,-6.6,1024,1024,1024,1024,0,0,0,0,68,4.753,76.82,94.160108,P-GPS,,28.7
473400,2026-01-09 12:45:23,0.0,5,7.452,0.0,0.0,0.0,38.3,-2.9,-6.1,1024,1024,1024,1024,0,0,0,0,68,4.753,76.82,94.160108,P-GPS,,28.7
473500,2026-01-09 12:45:23,0.0,5,7.452,0.0,0.0,0.0,38.3,-3.3,-6.2,1024,1024,1024,1024,0,0,0,0,68,4.753,76.82,94.160108,P-GPS,,28.7
473600,2026-01-09 12:45:23,0.0,5,7.452,0.0,0.0,0.0,38.3,-2.8,-5.9,1024,1024,1024,1024,0,0,0,0,68,4.753,76.82,94.160108,P-GPS,,28.7
473700,2026-01-09 12:45:23,0.0,5,7.452,0.0,0.0,0.0,38.4,-2.8,-5.8,1024,1024,1024,1024,0,0,0,0,68,4.753,76.82,94.160108,P-GPS,,28.7
473800,2026-01-09 12:45:23,0.0,5,7.452,0.0,0.0,0.0,38.7,-3.6,-5.3,1024,1024,1024,1024,0,0,0,0,68,4.753,76.82,94.160108,P-GPS,,28.7
473900,2026-01-09 12:45:23,0.0,5,7.452,0.0,0.0,0.0,38.6,-3.6,-5.5,1024,1024,1024,1024,0,0,0,0,68,4.753,76.82,94.160108,P-GPS,,28.7
474000,2026-01-09 12:45:23,0.0,5,7.452,0.0,0.0,0.0,38.6,-3.2,-6.1,1024,1024,1024,1024,0,0,0,0,68,4.753,76.82,94.160108,P-GPS,,28.7
474100,2026-01-09 12:45:23,0.0,5,7.452,0.0,0.0,0.0,38.5,-3.2,-6.3,1024,1024,1024,1024,0,0,0,0,68,4.753,76.82,94.488192,P-GPS,,28.8
474200,2026-01-09 12:45:23,0.0,5,7.452,0.0,0.0,0.0,38.5,-3.0,-6.5,1024,1024,1024,1024,0,0,0,0,68,4.753,76.82,94.488192,P-GPS,,28.8
474300,2026-01-09 12:45:23,0.0,5,7.452,0.0,0.0,0.0,38.4,-2.9,-6.3,1024,1024,1024,1024,0,0,0,0,68,4.753,76.82,94.488192,P-GPS,,28.8
474400,2026-01-09 12:45:23,0.0,5,7.455,0.0,0.0,0.0,38.3,-2.6,-6.3,1024,1024,1024,1024,0,0,0,0,68,4.773,76.82,94.488192,P-GPS,,28.8
474500,2026-01-09 12:45:24,0.0,5,7.455,0.0,0.0,0.0,38.3,-2.1,-6.9,1024,1024,1024,1024,0,0,0,0,68,4.773,76.82,94.488192,P-GPS,,28.8
474600,2026-01-09 12:45:24,0.0,5,7.455,0.0,0.0,0.0,38.6,-2.8,-6.3,1024,1024,1024,1024,0,0,0,0,68,4.773,76.82,94.488192,P-GPS,,28.8
474700,2026-01-09 12:45:24,0.0,5,7.455,0.0,0.0,0.0,38.7,-3.8,-5.3,1024,1024,1024,1024,0,0,0,0,68,4.773,76.82,94.488192,P-GPS,,28.8
474800,2026-01-09 12:45:24,0.0,5,7.455,0.0,0.0,0.0,38.8,-3.5,-5.9,1024,1024,1024,1024,0,0,0,0,68,4.773,76.82,94.816276,P-GPS,,28.9
474900,2026-01-09 12:45:24,0.0,5,7.455,0.0,0.0,0.0,38.8,-3.1,-6.6,1024,1024,1024,1024,0,0,0,0,68,4.773,76.82,94.816276,P-GPS,,28.9
475000,2026-01-09 12:45:24,0.0,5,7.455,0.0,0.0,0.0,38.6,-2.5,-7.1,1024,1024,1024,1024,0,0,0,0,68,4.773,76.82,94.816276,P-GPS,,28.9
475100,2026-01-09 12:45:24,0.0,5,7.455,0.0,0.0,0.0,38.5,-2.3,-7.4,1024,1024,1024,1024,0,0,0,0,68,4.773,76.82,94.816276,P-GPS,,28.9
475200,2026-01-09 12:45:24,0.0,5,7.455,0.0,0.0,0.0,38.5,-2.5,-7.4,1024,1024,1024,1024,0,0,0,0,68,4.773,76.82,95.14436,P-GPS,,29.0
475300,2026-01-09 12:45:24,0.0,5,7.455,0.0,0.0,0.0,38.6,-2.6,-7.3,1024,1024,1024,1024,0,0,0,0,68,4.773,76.82,95.14436,P-GPS,,29.0
475400,2026-01-09 12:45:25,0.0,5,7.455,0.0,0.0,0.0,38.5,-2.2,-6.8,1024,1024,1024,1024,0,0,0,0,68,4.773,76.82,95.14436,P-GPS,,29.0
475500,2026-01-09 12:45:25,0.0,5,7.461,0.0,0.0,0.0,38.4,-2.4,-6.7,1024,1024,1024,1024,0,0,0,0,68,4.705,76.82,95.14436,P-GPS,,29.0
475600,2026-01-09 12:45:25,0.0,5,7.461,0.0,0.0,0.0,38.5,-2.6,-6.4,1024,1024,1024,1024,0,0,0,0,68,4.705,76.82,95.14436,P-GPS,,29.0
475700,2026-01-09 12:45:25,0.0,5,7.461,0.0,0.0,0.0,38.6,-3.0,-6.5,1024,1024,1024,1024,0,0,0,0,68,4.705,76.82,95.14436,P-GPS,,29.0
475800,2026-01-09 12:45:25,0.0,5,7.461,0.0,0.0,0.0,38.4,-2.6,-6.2,1024,1024,1024,1024,0,0,0,0,68,4.705,76.82,95.14436,P-GPS,,29.0
475900,2026-01-09 12:45:25,0.0,5,7.461,0.0,0.0,0.0,38.4,-2.6,-6.4,1024,1024,1024,1024,0,0,0,0,68,4.705,76.82,95.14436,P-GPS,,29.0
476000,2026-01-09 12:45:25,0.0,5,7.461,0.0,0.0,0.0,38.4,-2.8,-6.2,1024,1024,1024,1024,0,0,0,0,68,4.705,76.82,95.14436,P-GPS,,29.0
476100,2026-01-09 12:45:25,0.0,5,7.461,0.0,0.0,0.0,38.7,-2.7,-6.0,1024,1024,1024,1024,0,0,0,0,68,4.705,76.82,95.14436,P-GPS,,29.0
476200,2026-01-09 12:45:25,0.0,5,7.461,0.0,0.0,0.0,38.3,-2.8,-4.7,1024,1024,1024,1024,0,0,0,0,68,4.705,76.82,95.14436,P-GPS,,29.0
476300,2026-01-09 12:45:25,0.0,5,7.461,0.0,0.0,0.0,38.3,-3.1,-5.4,1024,1024,1024,1024,0,0,0,0,68,4.705,76.82,95.14436,P-GPS,,29.0
476400,2026-01-09 12:45:25,0.0,5,7.461,0.0,0.0,0.0,38.4,-2.3,-5.0,1024,1024,1024,1024,0,0,0,0,68,4.705,76.82,95.14436,P-GPS,,29.0
476500,2026-01-09 12:45:26,0.0,5,7.461,0.0,0.0,0.0,38.4,-1.7,-5.4,1024,1024,1024,1024,0,0,0,0,68,4.705,76.82,95.14436,P-GPS,,29.0
476600,2026-01-09 12:45:26,0.0,5,7.464,0.0,0.0,0.0,38.4,-1.2,-6.3,1024,1024,1024,1024,0,0,0,0,68,4.573,76.82,95.14436,P-GPS,,29.0
476700,2026-01-09 12:45:26,0.0,5,7.464,0.0,0.0,0.0,38.4,-1.3,-6.7,1024,1024,1024,1024,0,0,0,0,68,4.573,76.82,95.472444,P-GPS,,29.1
476800,2026-01-09 12:45:26,0.0,5,7.464,0.0,0.0,0.0,38.4,-1.6,-7.0,1024,1024,1024,1024,0,0,0,0,68,4.573,76.82,95.472444,P-GPS,,29.1
476900,2026-01-09 12:45:26,0.0,5,7.464,0.0,0.0,0.0,38.7,-2.9,-6.0,1024,1024,1024,1024,0,0,0,0,68,4.573,76.82,95.472444,P-GPS,,29.1
477000,2026-01-09 12:45:26,0.0,5,7.464,0.0,0.0,0.0,38.8,-3.5,-5.6,1024,1024,1024,1024,0,0,0,0,68,4.573,76.82,95.472444,P-GPS,,29.1
477100,2026-01-09 12:45:26,0.0,5,7.464,0.0,0.0,0.0,38.7,-3.5,-6.4,1024,1024,1024,1024,0,0,0,0,68,4.573,76.82,95.472444,P-GPS,,29.1
477200,2026-01-09 12:45:26,0.0,5,7.464,0.0,0.0,0.0,38.7,-3.6,-6.2,1024,1024,1024,1024,0,0,0,0,68,4.573,76.82,95.472444,P-GPS,,29.1
477300,2026-01-09 12:45:26,0.0,5,7.464,0.0,0.0,0.0,38.9,-4.6,-5.8,1024,1024,1024,1024,0,0,0,0,68,4.573,76.82,95.472444,P-GPS,,29.1
477400,2026-01-09 12:45:26,0.0,5,7.464,0.0,0.0,0.0,38.9,-4.7,-5.5,1024,1024,1024,1024,0,0,0,0,68,4.573,76.82,95.472444,P-GPS,,29.1
477500,2026-01-09 12:45:27,0.0,5,7.464,0.0,0.0,0.0,38.9,-4.6,-5.4,1024,1024,1024,1024,0,0,0,0,68,4.573,76.82,95.472444,P-GPS,,29.1
477600,2026-01-09 12:45:27,0.0,5,7.464,0.0,0.0,0.0,39.0,-4.6,-5.7,1024,1024,1024,1024,0,0,0,0,68,4.573,76.82,95.472444,P-GPS,,29.1
477700,2026-01-09 12:45:27,0.0,5,7.454,0.0,0.0,0.0,39.1,-4.7,-5.7,1024,1024,1024,1024,0,0,0,0,68,4.687,76.82,95.472444,P-GPS,,29.1
477800,2026-01-09 12:45:27,0.0,5,7.454,0.0,0.0,0.0,38.9,-3.9,-5.9,1024,1024,1024,1024,0,0,0,0,68,4.687,76.82,95.800528,P-GPS,,29.2
477900,2026-01-09 12:45:27,0.0,5,7.454,0.0,0.0,0.0,38.7,-3.5,-6.4,1024,1024,1024,1024,0,0,0,0,68,4.687,76.82,95.800528,P-GPS,,29.2
478000,2026-01-09 12:45:27,0.0,5,7.454,0.0,0.0,0.0,38.9,-3.4,-6.0,1024,1024,1024,1024,0,0,0,0,68,4.687,76.82,95.800528,P-GPS,,29.2
478100,2026-01-09 12:45:27,0.0,5,7.454,0.0,0.0,0.0,38.7,-2.6,-6.2,1024,1024,1024,1024,0,0,0,0,68,4.687,76.82,95.800528,P-GPS,,29.2
478200,2026-01-09 12:45:27,0.0,5,7.454,0.0,0.0,0.0,38.4,-3.0,-6.5,1024,1024,1024,1024,0,0,0,0,68,4.687,76.82,95.800528,P-GPS,,29.2
478300,2026-01-09 12:45:27,0.0,5,7.454,0.0,0.0,0.0,38.2,-2.4,-6.0,1024,1024,1024,1024,0,0,0,0,68,4.687,76.82,95.472444,P-GPS,,29.1
478400,2026-01-09 12:45:28,0.0,5,7.454,0.0,0.0,0.223694,38.2,-2.4,-5.2,1024,1024,1024,1024,0,0,0,0,68,4.687,76.82,95.472444,P-GPS,,29.1
478500,2026-01-09 12:45:28,0.0,5,7.454,0.0,0.0,0.223694,38.3,-3.0,-4.3,1024,1024,1024,1024,0,0,0,0,68,4.687,76.82,95.472444,P-GPS,,29.1
478600,2026-01-09 12:45:28,0.0,5,7.454,0.0,0.0,0.223694,38.4,-2.9,-3.8,1024,1024,1024,1024,0,0,0,0,68,4.687,76.82,95.472444,P-GPS,,29.1
478700,2026-01-09 12:45:28,0.0,5,7.454,0.0,0.0,0.0,38.4,-3.2,-4.3,1024,1024,1024,1024,0,0,0,0,68,4.687,76.82,95.14436,P-GPS,,29.0
478800,2026-01-09 12:45:28,0.0,5,7.449,0.0,0.0,0.0,38.3,-3.2,-4.7,1024,1024,1024,1024,0,0,0,0,68,4.41,77.0,95.14436,P-GPS,,29.0
478900,2026-01-09 12:45:28,0.0,5,7.449,0.0,0.0,0.0,38.4,-3.4,-4.7,1024,1024,1024,1024,0,0,0,0,68,4.41,77.0,95.14436,P-GPS,,29.0
479000,2026-01-09 12:45:28,0.0,5,7.449,0.0,0.0,0.0,38.4,-3.6,-4.4,1024,1024,1024,1024,0,0,0,0,68,4.41,77.0,95.14436,P-GPS,,29.0
479100,2026-01-09 12:45:28,0.0,5,7.449,0.0,0.0,0.0,38.6,-4.6,-3.6,1024,1024,1024,1024,0,0,0,0,68,4.41,77.0,95.14436,P-GPS,,29.0
479200,2026-01-09 12:45:28,0.0,5,7.449,0.0,0.0,0.0,38.6,-4.0,-3.6,1024,1024,1024,1024,0,0,0,0,68,4.41,77.0,95.472444,P-GPS,,29.1
479300,2026-01-09 12:45:28,0.0,5,7.449,0.0,0.0,0.0,38.7,-4.3,-3.7,1024,1024,1024,1024,0,0,0,0,68,4.41,77.0,95.472444,P-GPS,,29.1
479400,2026-01-09 12:45:28,0.0,5,7.449,0.0,0.0,0.0,38.7,-4.3,-4.2,1024,1024,1024,1024,0,0,0,0,68,4.41,77.0,95.472444,P-GPS,,29.1
479500,2026-01-09 12:45:29,0.0,5,7.449,0.0,0.0,0.0,38.8,-5.3,-4.0,1024,1024,1024,1024,0,0,0,0,68,4.41,77.0,95.472444,P-GPS,,29.1
479600,2026-01-09 12:45:29,0.0,5,7.449,0.0,0.0,0.0,38.6,-5.2,-4.0,1024,1024,1024,1024,0,0,0,0,68,4.41,77.0,95.800528,P-GPS,,29.2
479700,2026-01-09 12:45:29,0.0,5,7.449,0.0,0.0,0.0,38.4,-4.8,-4.0,1024,1024,1024,1024,0,0,0,0,68,4.41,77.0,95.800528,P-GPS,,29.2
479800,2026-01-09 12:45:29,0.0,5,7.449,0.0,0.0,0.0,38.4,-4.9,-3.8,1024,1024,1024,1024,0,0,0,0,68,4.41,77.0,95.800528,P-GPS,,29.2
479900,2026-01-09 12:45:29,0.0,5,7.447,0.0,0.0,0.0,38.6,-6.0,-3.4,1024,1024,1024,1024,0,0,0,0,67,4.74,77.0,95.800528,P-GPS,,29.2
480000,2026-01-09 12:45:29,0.0,5,7.447,0.0,0.0,0.0,38.8,-5.6,-3.4,1024,1024,1024,1024,0,0,0,0,67,4.74,77.0,96.128612,P-GPS,,29.3
480100,2026-01-09 12:45:29,0.0,5,7.447,0.0,0.0,0.0,39.0,-5.1,-4.3,1024,1024,1024,1024,0,0,0,0,67,4.74,77.0,96.128612,P-GPS,,29.3
480200,2026-01-09 12:45:29,0.0,5,7.447,0.0,0.0,0.0,39.2,-4.6,-5.1,1024,1024,1024,1024,0,0,0,0,67,4.74,77.0,96.456696,P-GPS,,29.4
480300,2026-01-09 12:45:29,0.223694,5,7.447,0.0,0.223694,0.0,39.3,-3.8,-6.2,1024,1024,1024,1024,0,0,0,0,67,4.74,77.0,96.456696,P-GPS,,29.4
480400,2026-01-09 12:45:29,0.0,5,7.447,0.0,0.0,0.0,39.0,-4.0,-6.8,1024,1024,1024,1024,0,0,0,0,67,4.74,77.0,96.456696,P-GPS,,29.4
480500,2026-01-09 12:45:30,0.0,5,7.447,0.0,0.0,0.0,39.1,-4.8,-6.5,1024,1024,1024,1024,0,0,0,0,67,4.74,77.0,96.78478,P-GPS,,29.5
480600,2026-01-09 12:45:30,0.0,5,7.447,0.0,0.0,0.0,39.1,-5.3,-6.2,1024,1024,1024,1024,0,0,0,0,67,4.74,77.0,96.78478,P-GPS,,29.5
480700,2026-01-09 12:45:30,0.0,5,7.447,0.0,0.0,0.0,39.1,-5.1,-6.0,1024,1024,1024,1024,0,0,0,0,67,4.74,77.0,96.78478,P-GPS,,29.5
480800,2026-01-09 12:45:30,0.0,5,7.447,0.0,0.0,0.0,38.9,-3.6,-6.1,1024,1024,1024,1024,0,0,0,0,67,4.74,77.0,96.78478,P-GPS,,29.5
480900,2026-01-09 12:45:30,0.0,5,7.447,0.0,0.0,0.223694,38.9,-2.8,-6.5,1024,1024,1024,1024,0,0,0,0,67,4.74,77.0,96.78478,P-GPS,,29.5
481000,2026-01-09 12:45:30,0.0,5,7.47,0.0,0.0,0.223694,38.8,-2.9,-6.5,1024,1024,1024,1024,0,0,0,0,67,4.369,77.0,96.456696,P-GPS,,29.4
481100,2026-01-09 12:45:30,0.0,5,7.47,0.0,0.0,0.223694,38.7,-3.2,-6.7,1024,1024,1024,1024,0,0,0,0,67,4.369,77.0,96.456696,P-GPS,,29.4
481200,2026-01-09 12:45:30,0.0,5,7.47,0.0,0.0,0.223694,38.7,-3.6,-6.5,1024,1024,1024,1024,0,0,0,0,67,4.369,77.0,96.456696,P-GPS,,29.4
481300,2026-01-09 12:45:30,0.0,5,7.47,0.0,0.0,0.223694,38.6,-4.1,-6.0,1024,1024,1024,1024,0,0,0,0,67,4.369,77.0,96.456696,P-GPS,,29.4
481400,2026-01-09 12:45:30,0.0,5,7.47,0.0,0.0,0.0,38.6,-4.6,-5.8,1024,1024,1024,1024,0,0,0,0,67,4.369,77.0,96.456696,P-GPS,,29.4
481500,2026-01-09 12:45:31,0.0,5,7.47,0.0,0.0,0.0,38.6,-5.6,-5.0,1024,1024,1024,1024,0,0,0,0,67,4.369,77.0,96.456696,P-GPS,,29.4
481600,2026-01-09 12:45:31,0.223694,5,7.47,0.0,-0.223694,0.0,38.5,-5.9,-4.2,1024,1024,1024,1024,0,0,0,0,67,4.369,77.0,96.456696,P-GPS,,29.4
481700,2026-01-09 12:45:31,0.0,5,7.47,0.0,0.0,0.0,38.6,-6.1,-3.8,1024,1024,1024,1024,0,0,0,0,67,4.369,77.0,96.456696,P-GPS,,29.4
481800,2026-01-09 12:45:31,0.0,5,7.47,0.0,0.0,0.0,38.7,-6.1,-3.7,1024,1024,1024,1024,0,0,0,0,67,4.369,77.0,96.456696,P-GPS,,29.4
481900,2026-01-09 12:45:31,0.0,5,7.47,0.0,0.0,0.0,38.6,-5.4,-4.1,1024,1024,1024,1024,0,0,0,0,67,4.369,77.0,96.456696,P-GPS,,29.4
482000,2026-01-09 12:45:31,0.0,5,7.47,0.0,0.0,0.0,38.6,-5.4,-4.4,1024,1024,1024,1024,0,0,0,0,67,4.369,77.0,96.128612,P-GPS,,29.3
482100,2026-01-09 12:45:31,0.0,5,7.439,0.0,0.0,0.0,38.6,-5.2,-4.9,1024,1024,1024,1024,0,0,0,0,67,4.919,77.0,96.128612,P-GPS,,29.3
482200,2026-01-09 12:45:31,0.0,5,7.439,0.0,0.0,0.0,38.7,-5.1,-5.2,1024,1024,1024,1024,0,0,0,0,67,4.919,77.0,96.128612,P-GPS,,29.3
482300,2026-01-09 12:45:31,0.0,5,7.439,0.0,0.0,0.0,38.7,-5.5,-5.4,1024,1024,1024,1024,0,0,0,0,67,4.919,77.0,96.128612,P-GPS,,29.3
482400,2026-01-09 12:45:32,0.0,5,7.439,0.0,0.0,0.0,38.7,-5.4,-5.7,1024,1024,1024,1024,0,0,0,0,67,4.919,77.0,96.128612,P-GPS,,29.3
482500,2026-01-09 12:45:32,0.0,5,7.439,0.0,0.0,0.0,38.6,-4.9,-5.9,1024,1024,1024,1024,0,0,0,0,67,4.919,77.0,96.128612,P-GPS,,29.3
482600,2026-01-09 12:45:32,0.0,5,7.439,0.0,0.0,0.0,38.4,-4.5,-6.1,1024,1024,1024,1024,0,0,0,0,67,4.919,77.0,96.128612,P-GPS,,29.3
482700,2026-01-09 12:45:32,0.0,5,7.439,0.0,0.0,0.0,38.3,-4.0,-6.1,1024,1024,1024,1024,0,0,0,0,67,4.919,77.0,96.128612,P-GPS,,29.3
482800,2026-01-09 12:45:32,0.0,5,7.439,0.0,0.0,0.0,38.3,-3.7,-6.3,1024,1024,1024,1024,0,0,0,0,67,4.919,77.0,96.128612,P-GPS,,29.3
482900,2026-01-09 12:45:32,0.0,5,7.439,0.0,0.0,0.0,38.3,-3.7,-6.3,1024,1024,1024,1024,0,0,0,0,67,4.919,77.0,95.800528,P-GPS,,29.2
483000,2026-01-09 12:45:32,0.0,5,7.439,0.0,0.0,0.0,38.4,-4.1,-6.0,1024,1024,1024,1024,0,0,0,0,67,4.919,77.0,95.800528,P-GPS,,29.2
483100,2026-01-09 12:45:32,0.0,5,7.439,0.0,0.0,0.0,38.3,-4.1,-5.5,1024,1024,1024,1024,0,0,0,0,67,4.919,77.0,95.800528,P-GPS,,29.2
483200,2026-01-09 12:45:32,0.0,5,7.439,0.0,0.0,0.0,38.3,-4.0,-5.3,1024,1024,1024,1024,0,0,0,0,67,4.919,77.0,95.800528,P-GPS,,29.2
483300,2026-01-09 12:45:32,0.0,5,7.439,0.0,0.0,0.0,38.3,-4.1,-5.2,1024,1024,1024,1024,0,0,0,0,67,4.919,77.0,95.800528,P-GPS,,29.2
483400,2026-01-09 12:45:32,0.0,5,7.439,0.0,0.0,0.0,38.2,-3.6,-5.2,1024,1024,1024,1024,0,0,0,0,67,4.919,77.0,95.472444,P-GPS,,29.1
483500,2026-01-09 12:45:33,0.0,5,7.439,0.0,0.0,0.0,38.4,-4.3,-4.6,1024,1024,1024,1024,0,0,0,0,67,4.919,77.0,95.800528,P-GPS,,29.2
483600,2026-01-09 12:45:33,0.0,5,7.439,0.0,0.0,0.0,38.5,-5.1,-4.3,1024,1024,1024,1024,0,0,0,0,67,4.919,77.0,95.800528,P-GPS,,29.2
483700,2026-01-09 12:45:33,0.0,5,7.439,0.0,0.0,0.0,38.6,-5.2,-4.0,1024,1024,1024,1024,0,0,0,0,67,4.919,77.0,95.800528,P-GPS,,29.2
483800,2026-01-09 12:45:33,0.0,5,7.439,0.0,0.0,0.0,38.6,-4.8,-4.3,1024,1024,1024,1024,0,0,0,0,67,4.919,77.0,95.800528,P-GPS,,29.2
483900,2026-01-09 12:45:33,0.0,5,7.439,0.0,0.0,0.0,38.5,-4.7,-5.3,1024,1024,1024,1024,0,0,0,0,67,4.919,77.0,95.800528,P-GPS,,29.2
484000,2026-01-09 12:45:33,0.0,5,7.439,0.0,0.0,0.0,38.6,-5.0,-6.0,1024,1024,1024,1024,0,0,0,0,67,4.919,77.0,96.128612,P-GPS,,29.3
484100,2026-01-09 12:45:33,0.0,5,7.439,0.0,0.0,0.0,38.6,-4.4,-6.7,1024,1024,1024,1024,0,0,0,0,67,4.919,77.0,96.128612,P-GPS,,29.3
484200,2026-01-09 12:45:33,0.0,5,7.447,0.0,0.0,0.0,38.6,-4.6,-7.4,1024,1024,1024,1024,0,0,0,0,67,4.966,77.0,96.128612,P-GPS,,29.3
484300,2026-01-09 12:45:33,0.0,5,7.447,0.0,0.0,0.0,38.8,-5.2,-7.2,1024,1024,1024,1024,0,0,0,0,67,4.966,77.0,96.128612,P-GPS,,29.3
484400,2026-01-09 12:45:33,0.0,5,7.447,0.0,0.0,0.0,38.9,-5.5,-6.8,1024,1024,1024,1024,0,0,0,0,67,4.966,77.0,96.128612,P-GPS,,29.3
484500,2026-01-09 12:45:34,0.0,5,7.447,0.0,0.0,0.0,38.7,-5.7,-7.0,1024,1024,1024,1024,0,0,0,0,67,4.966,77.0,96.128612,P-GPS,,29.3
484600,2026-01-09 12:45:34,0.0,5,7.447,0.0,0.0,0.0,38.7,-5.4,-6.4,1024,1024,1024,1024,0,0,0,0,67,4.966,77.0,96.456696,P-GPS,,29.4
484700,2026-01-09 12:45:34,0.0,5,7.447,0.0,0.0,0.0,38.7,-5.5,-6.4,1024,1024,1024,1024,0,0,0,0,67,4.966,77.0,96.456696,P-GPS,,29.4
484800,2026-01-09 12:45:34,0.0,5,7.447,0.0,0.0,0.0,38.6,-5.5,-6.2,1024,1024,1024,1024,0,0,0,0,67,4.966,77.0,96.456696,P-GPS,,29.4
484900,2026-01-09 12:45:34,0.0,5,7.447,0.0,0.0,0.0,38.6,-5.4,-5.8,1024,1024,1024,1024,0,0,0,0,67,4.966,77.0,96.78478,P-GPS,,29.5
485000,2026-01-09 12:45:34,0.0,5,7.447,0.0,0.0,0.0,38.6,-5.4,-5.8,1024,1024,1024,1024,0,0,0,0,67,4.966,77.0,96.78478,P-GPS,,29.5
485100,2026-01-09 12:45:34,0.0,5,7.447,0.0,0.0,0.0,38.6,-5.9,-5.3,1024,1024,1024,1024,0,0,0,0,67,4.966,77.0,96.78478,P-GPS,,29.5
485200,2026-01-09 12:45:34,0.0,5,7.447,0.0,0.0,0.0,38.6,-5.3,-5.5,1024,1024,1024,1024,0,0,0,0,67,4.966,77.0,96.78478,P-GPS,,29.5
485300,2026-01-09 12:45:34,0.0,5,7.447,0.0,0.0,0.0,38.8,-5.3,-4.8,1024,1024,1024,1024,0,0,0,0,67,4.966,77.0,96.78478,P-GPS,,29.5
485400,2026-01-09 12:45:34,0.0,5,7.428,0.0,0.0,0.0,38.7,-5.2,-5.2,1024,1024,1024,1024,0,0,0,0,67,5.432,77.18,96.78478,P-GPS,,29.5
485500,2026-01-09 12:45:35,0.0,5,7.428,0.0,0.0,0.0,38.8,-5.1,-6.0,1024,1024,1024,1024,0,0,0,0,67,5.432,77.18,96.78478,P-GPS,,29.5
485600,2026-01-09 12:45:35,0.0,5,7.428,0.0,0.0,0.0,38.7,-4.9,-6.5,1024,1024,1024,1024,0,0,0,0,67,5.432,77.18,96.456696,P-GPS,,29.4
485700,2026-01-09 12:45:35,0.0,5,7.428,0.0,0.0,0.0,38.7,-5.3,-6.4,1024,1024,1024,1024,0,0,0,0,67,5.432,77.18,96.456696,P-GPS,,29.4
485800,2026-01-09 12:45:35,0.0,5,7.428,0.0,0.0,0.223694,38.8,-5.4,-5.6,1024,1024,1024,1024,0,0,0,0,67,5.432,77.18,96.456696,P-GPS,,29.4
485900,2026-01-09 12:45:35,0.0,5,7.428,0.0,0.0,0.0,38.7,-4.6,-6.0,1024,1024,1024,1024,0,0,0,0,67,5.432,77.18,96.456696,P-GPS,,29.4
486000,2026-01-09 12:45:35,0.0,5,7.428,0.0,0.0,0.0,38.4,-3.8,-6.5,1024,1024,1024,1024,0,0,0,0,67,5.432,77.18,96.128612,P-GPS,,29.3
486100,2026-01-09 12:45:35,0.0,5,7.428,0.0,0.0,0.0,38.3,-3.3,-6.9,1024,1024,1024,1024,0,0,0,0,67,5.432,77.18,96.128612,P-GPS,,29.3
486200,2026-01-09 12:45:35,0.0,5,7.428,0.0,0.0,0.0,38.4,-3.3,-7.0,1024,1024,1024,1024,0,0,0,0,67,5.432,77.18,96.128612,P-GPS,,29.3
486300,2026-01-09 12:45:35,0.0,5,7.428,0.0,0.0,0.0,38.5,-3.5,-6.5,1024,1024,1024,1024,0,0,0,0,67,5.432,77.18,96.128612,P-GPS,,29.3
486400,2026-01-09 12:45:35,0.0,5,7.428,0.0,0.0,0.0,38.5,-3.8,-6.3,1024,1024,1024,1024,0,0,0,0,67,5.432,77.18,96.128612,P-GPS,,29.3
486500,2026-01-09 12:45:36,0.0,5,7.418,0.0,0.0,0.0,38.5,-3.6,-5.9,1024,1024,1024,1024,0,0,0,0,67,5.254,77.18,96.128612,P-GPS,,29.3
486600,2026-01-09 12:45:36,0.0,5,7.418,0.0,0.0,0.0,38.6,-4.0,-5.7,1024,1024,1024,1024,0,0,0,0,67,5.254,77.18,96.128612,P-GPS,,29.3
486700,2026-01-09 12:45:36,0.0,5,7.418,0.0,0.0,0.0,38.5,-4.1,-5.6,1024,1024,1024,1024,0,0,0,0,67,5.254,77.18,96.128612,P-GPS,,29.3
486800,2026-01-09 12:45:36,0.0,5,7.418,0.0,0.0,0.0,38.6,-4.2,-5.4,1024,1024,1024,1024,0,0,0,0,67,5.254,77.18,96.128612,P-GPS,,29.3
486900,2026-01-09 12:45:36,0.0,5,7.418,0.0,0.0,0.0,38.5,-4.4,-5.5,1024,1024,1024,1024,0,0,0,0,67,5.254,77.18,96.128612,P-GPS,,29.3
487000,2026-01-09 12:45:36,0.0,5,7.418,0.0,0.0,0.0,38.5,-4.7,-5.5,1024,1024,1024,1024,0,0,0,0,67,5.254,77.18,96.128612,P-GPS,,29.3
487100,2026-01-09 12:45:36,0.0,5,7.418,0.0,0.0,0.0,38.5,-4.5,-5.5,1024,1024,1024,1024,0,0,0,0,67,5.254,77.18,95.800528,P-GPS,,29.2
487200,2026-01-09 12:45:36,0.0,5,7.418,0.0,0.0,0.0,38.4,-4.2,-5.4,1024,1024,1024,1024,0,0,0,0,67,5.254,77.18,95.800528,P-GPS,,29.2
487300,2026-01-09 12:45:36,0.0,5,7.418,0.0,0.0,0.0,38.4,-3.8,-5.3,1024,1024,1024,1024,0,0,0,0,67,5.254,77.18,95.800528,P-GPS,,29.2
487400,2026-01-09 12:45:36,0.0,5,7.418,0.0,0.0,0.0,38.4,-3.7,-5.3,1024,1024,1024,1024,0,0,0,0,67,5.254,77.18,96.128612,P-GPS,,29.3
487500,2026-01-09 12:45:37,0.0,5,7.418,0.0,0.0,0.0,38.5,-3.9,-4.9,1024,1024,1024,1024,0,0,0,0,67,5.254,77.18,96.128612,P-GPS,,29.3
487600,2026-01-09 12:45:37,0.0,5,7.419,0.0,0.0,0.0,38.5,-4.0,-5.1,1024,1024,1024,1024,0,0,0,0,67,5.326,77.18,96.128612,P-GPS,,29.3
487700,2026-01-09 12:45:37,0.0,5,7.419,0.0,0.0,0.0,38.4,-4.2,-5.4,1024,1024,1024,1024,0,0,0,0,67,5.326,77.18,96.128612,P-GPS,,29.3
487800,2026-01-09 12:45:37,0.0,5,7.419,0.0,0.0,0.0,38.4,-4.0,-5.2,1024,1024,1024,1024,0,0,0,0,67,5.326,77.18,96.128612,P-GPS,,29.3
487900,2026-01-09 12:45:37,0.0,5,7.419,0.0,0.0,0.0,38.5,-5.3,-4.6,1024,1024,1024,1024,0,0,0,0,67,5.326,77.18,96.128612,P-GPS,,29.3
488000,2026-01-09 12:45:37,0.0,5,7.419,0.0,0.0,0.0,38.6,-5.7,-4.2,1024,1024,1024,1024,0,0,0,0,67,5.326,77.18,96.128612,P-GPS,,29.3
488100,2026-01-09 12:45:37,0.0,5,7.419,0.0,0.0,0.0,38.7,-5.9,-3.9,1024,1024,1024,1024,0,0,0,0,67,5.326,77.18,96.456696,P-GPS,,29.4
488200,2026-01-09 12:45:37,0.0,5,7.419,0.0,0.0,0.0,38.6,-5.7,-4.0,1024,1024,1024,1024,0,0,0,0,67,5.326,77.18,96.456696,P-GPS,,29.4
488300,2026-01-09 12:45:37,0.0,5,7.419,0.0,0.0,0.0,38.6,-5.7,-4.3,1024,1024,1024,1024,0,0,0,0,67,5.326,77.18,96.456696,P-GPS,,29.4
488400,2026-01-09 12:45:38,0.0,5,7.419,0.0,0.0,0.0,38.5,-4.8,-4.7,1024,1024,1024,1024,0,0,0,0,67,5.326,77.18,96.456696,P-GPS,,29.4
488500,2026-01-09 12:45:38,0.0,5,7.419,0.0,0.0,0.0,38.5,-4.9,-4.9,1024,1024,1024,1024,0,0,0,0,67,5.326,77.18,96.456696,P-GPS,,29.4
488600,2026-01-09 12:45:38,0.0,5,7.419,0.0,0.0,0.0,38.4,-5.1,-4.9,1024,1024,1024,1024,0,0,0,0,67,5.326,77.18,96.78478,P-GPS,,29.5
488700,2026-01-09 12:45:38,0.0,5,7.417,0.0,0.0,0.0,38.5,-5.0,-4.7,1024,1024,1024,1024,0,0,0,0,67,5.18,77.18,96.78478,P-GPS,,29.5
488800,2026-01-09 12:45:38,0.0,5,7.417,0.0,0.0,0.0,38.6,-5.3,-4.9,1024,1024,1024,1024,0,0,0,0,67,5.18,77.18,96.78478,P-GPS,,29.5
488900,2026-01-09 12:45:38,0.0,5,7.417,0.0,0.0,0.0,38.5,-5.1,-4.8,1024,1024,1024,1024,0,0,0,0,67,5.18,77.18,96.78478,P-GPS,,29.5
489000,2026-01-09 12:45:38,0.0,5,7.417,0.0,0.0,0.0,38.5,-4.9,-4.9,1024,1024,1024,1024,0,0,0,0,67,5.18,77.18,96.78478,P-GPS,,29.5
489100,2026-01-09 12:45:38,0.0,5,7.417,0.0,0.0,0.0,38.5,-4.5,-5.2,1024,1024,1024,1024,0,0,0,0,67,5.18,77.18,97.112864,P-GPS,,29.6
489200,2026-01-09 12:45:38,0.0,5,7.417,0.0,0.0,0.0,38.5,-4.7,-5.0,1024,1024,1024,1024,0,0,0,0,67,5.18,77.18,97.112864,P-GPS,,29.6
489300,2026-01-09 12:45:38,0.0,5,7.417,0.0,0.0,0.0,38.6,-5.0,-4.9,1024,1024,1024,1024,0,0,0,0,67,5.18,77.18,97.112864,P-GPS,,29.6
489400,2026-01-09 12:45:38,0.0,5,7.417,0.0,0.0,0.0,38.7,-5.2,-5.2,1024,1024,1024,1024,0,0,0,0,67,5.18,77.18,97.112864,P-GPS,,29.6
489500,2026-01-09 12:45:39,0.0,5,7.417,0.0,0.0,0.0,38.5,-4.5,-5.8,1024,1024,1024,1024,0,0,0,0,67,5.18,77.18,97.112864,P-GPS,,29.6
489600,2026-01-09 12:45:39,0.0,5,7.417,0.0,0.0,0.0,38.5,-4.2,-5.6,1024,1024,1024,1024,0,0,0,0,67,5.18,77.18,97.112864,P-GPS,,29.6
489700,2026-01-09 12:45:39,0.0,5,7.417,0.0,0.0,0.0,38.5,-4.2,-5.3,1024,1024,1024,1024,0,0,0,0,67,5.18,77.18,97.112864,P-GPS,,29.6
489800,2026-01-09 12:45:39,0.0,5,7.404,0.0,0.0,0.0,38.6,-4.8,-5.2,1024,1024,1024,1024,0,0,0,0,67,5.554,77.18,97.112864,P-GPS,,29.6
489900,2026-01-09 12:45:39,0.0,5,7.404,0.0,0.0,0.223694,38.6,-5.3,-5.2,1024,1024,1024,1024,0,0,0,0,67,5.554,77.18,97.112864,P-GPS,,29.6
490000,2026-01-09 12:45:39,0.0,5,7.404,0.0,0.0,0.223694,38.5,-4.6,-5.2,1024,1024,1024,1024,0,0,0,0,67,5.554,77.18,97.112864,P-GPS,,29.6
490100,2026-01-09 12:45:39,0.0,5,7.404,0.0,0.0,0.0,38.5,-3.9,-5.7,1024,1024,1024,1024,0,0,0,0,67,5.554,77.18,97.112864,P-GPS,,29.6
490200,2026-01-09 12:45:39,0.0,5,7.404,0.0,0.0,0.0,38.5,-3.3,-5.9,1024,1024,1024,1024,0,0,0,0,67,5.554,77.18,97.112864,P-GPS,,29.6
490300,2026-01-09 12:45:39,0.0,5,7.404,0.0,0.0,0.223694,38.4,-2.5,-5.4,1024,1024,1024,1024,0,0,0,0,67,5.554,77.18,96.78478,P-GPS,,29.5
490400,2026-01-09 12:45:39,0.223694,5,7.404,0.223694,0.0,0.223694,38.3,-1.9,-5.3,1024,1024,1024,1024,0,0,0,0,67,5.554,77.18,96.78478,P-GPS,,29.5
490500,2026-01-09 12:45:40,0.0,5,7.404,0.0,0.0,0.0,38.2,-0.9,-4.5,1024,1024,1024,1024,0,0,0,0,67,5.554,77.18,96.78478,P-GPS,,29.5
490600,2026-01-09 12:45:40,0.0,5,7.404,0.0,0.0,0.0,38.1,-1.0,-4.5,1024,1024,1024,1024,0,0,0,0,67,5.554,77.18,96.78478,P-GPS,,29.5
490700,2026-01-09 12:45:40,0.0,5,7.404,0.0,0.0,0.0,37.8,0.0,-4.8,1024,1024,1024,1024,0,0,0,0,67,5.554,77.18,96.78478,P-GPS,,29.5
490800,2026-01-09 12:45:40,0.0,5,7.404,0.0,0.0,0.0,37.9,-0.7,-4.3,1024,1024,1024,1024,0,0,0,0,67,5.554,77.18,96.78478,P-GPS,,29.5
490900,2026-01-09 12:45:40,0.0,5,7.424,0.0,0.0,0.0,38.1,-1.0,-4.1,1024,1024,1024,1024,0,0,0,0,67,5.49,77.18,96.78478,P-GPS,,29.5
491000,2026-01-09 12:45:40,0.223694,5,7.424,0.0,-0.223694,0.0,38.4,-2.4,-3.3,1024,1024,1024,1024,0,0,0,0,67,5.49,77.18,96.78478,P-GPS,,29.5
491100,2026-01-09 12:45:40,0.223694,5,7.424,0.0,-0.223694,0.0,38.3,-2.6,-2.9,1024,1024,1024,1024,0,0,0,0,67,5.49,77.18,96.78478,P-GPS,,29.5
491200,2026-01-09 12:45:40,0.223694,5,7.424,0.0,-0.223694,0.0,38.1,-2.6,-2.5,1024,1024,1024,1024,0,0,0,0,67,5.49,77.18,96.78478,P-GPS,,29.5
491300,2026-01-09 12:45:40,0.223694,5,7.424,0.0,-0.223694,0.0,37.7,-0.6,-2.9,1024,1024,1024,1024,0,0,0,0,67,5.49,77.18,96.78478,P-GPS,,29.5
491400,2026-01-09 12:45:40,0.223694,5,7.424,0.0,-0.223694,0.0,38.0,-3.2,-1.8,1024,1024,1024,1024,0,0,0,0,67,5.49,77.18,96.78478,P-GPS,,29.5
491500,2026-01-09 12:45:41,0.223694,5,7.424,0.0,-0.223694,0.0,38.2,-5.4,-2.0,1024,1024,1024,1024,0,0,0,0,67,5.49,77.18,96.456696,P-GPS,,29.4
491600,2026-01-09 12:45:41,0.0,5,7.424,0.0,0.0,0.0,38.4,-5.6,-1.3,1024,1024,1024,1024,0,0,0,0,67,5.49,77.18,96.456696,P-GPS,,29.4
491700,2026-01-09 12:45:41,0.0,5,7.424,0.0,0.0,0.223694,38.4,-4.8,-1.8,1024,1024,1024,1024,0,0,0,0,67,5.49,77.18,96.456696,P-GPS,,29.4
491800,2026-01-09 12:45:41,0.0,5,7.424,0.0,0.0,0.223694,38.6,-3.0,-2.2,1024,1024,1024,1024,0,0,0,0,67,5.49,77.18,96.456696,P-GPS,,29.4
491900,2026-01-09 12:45:41,0.0,5,7.424,0.0,0.0,0.223694,38.5,-1.7,-3.3,1024,1024,1024,1024,0,0,0,0,67,5.49,77.18,96.456696,P-GPS,,29.4
492000,2026-01-09 12:45:41,0.223694,5,7.448,0.0,0.223694,0.0,38.6,-2.5,-3.6,1024,1024,1024,1024,0,0,0,0,67,4.48,77.18,96.456696,P-GPS,,29.4
492100,2026-01-09 12:45:41,0.223694,5,7.448,0.0,0.223694,0.0,38.5,-1.1,-4.9,1024,1024,1024,1024,0,0,0,0,67,4.48,77.18,96.456696,P-GPS,,29.4
492200,2026-01-09 12:45:41,0.0,5,7.448,0.0,0.0,0.0,38.3,-0.5,-5.8,1024,1024,1024,1024,0,0,0,0,67,4.48,77.18,96.456696,P-GPS,,29.4
492300,2026-01-09 12:45:41,0.0,5,7.448,0.0,0.0,0.0,38.3,-1.6,-5.4,1024,1024,1024,1024,0,0,0,0,67,4.48,77.18,96.456696,P-GPS,,29.4
492400,2026-01-09 12:45:41,0.0,5,7.448,0.0,0.0,0.0,38.3,-1.9,-4.9,1024,1024,1024,1024,0,0,0,0,67,4.48,77.18,96.456696,P-GPS,,29.4
492500,2026-01-09 12:45:42,0.0,5,7.448,0.0,0.0,0.0,38.3,-2.8,-4.6,1024,1024,1684,1024,0,0,100,0,67,4.48,77.18,96.128612,P-GPS,,29.3
492600,2026-01-09 12:45:42,0.0,5,7.448,0.0,0.0,0.0,38.4,-2.9,-4.2,1024,1024,1684,1024,0,0,100,0,67,4.48,77.18,96.128612,P-GPS,,29.3
492700,2026-01-09 12:45:42,0.0,5,7.448,0.0,0.0,0.0,38.3,-0.6,-3.7,1024,1024,1684,1024,0,0,100,0,67,4.48,77.18,96.128612,P-GPS,,29.3
492800,2026-01-09 12:45:42,0.0,5,7.448,0.0,0.0,-0.223694,38.6,-2.7,-3.0,1024,1024,1684,1024,0,0,100,0,67,4.48,77.18,96.128612,P-GPS,,29.3
492900,2026-01-09 12:45:42,0.0,5,7.448,0.0,0.0,-0.894776,38.8,-4.1,-2.6,1024,1024,1684,1024,0,0,100,0,67,4.48,77.18,96.128612,P-GPS,,29.3
493000,2026-01-09 12:45:42,0.0,5,7.448,0.0,0.0,-1.342164,38.6,-4.6,-2.6,1024,1024,1684,1024,0,0,100,0,67,4.48,77.18,96.456696,P-GPS,,29.4
493100,2026-01-09 12:45:42,0.0,5,7.394,0.0,0.0,-2.013246,38.2,-2.8,-4.3,1024,1024,1684,1024,0,0,100,0,67,5.007,77.18,97.112864,P-GPS,,29.6
493200,2026-01-09 12:45:42,0.0,5,7.394,0.0,0.0,-3.131716,38.2,-1.9,-4.3,1024,1024,1684,1024,0,0,100,0,67,5.007,77.18,97.440948,P-GPS,,29.7
493300,2026-01-09 12:45:42,0.0,5,7.394,0.0,0.0,-3.802798,38.2,-3.4,-3.9,1024,1024,1684,1024,0,0,100,0,67,5.007,77.18,98.097116,P-GPS,,29.9
493400,2026-01-09 12:45:43,0.0,5,7.394,0.0,0.0,-4.250186,38.2,-4.1,-4.2,1024,1024,1684,1024,0,0,100,0,67,5.007,77.18,98.4252,P-GPS,,30.0
493500,2026-01-09 12:45:43,0.0,5,7.394,0.0,0.0,-4.250186,38.3,-4.2,-3.9,1024,1024,1684,1024,0,0,100,0,67,5.007,77.18,99.081368,P-GPS,,30.2
493600,2026-01-09 12:45:43,0.223694,5,7.394,0.0,-0.223694,-4.47388,38.4,-4.0,-2.4,1024,1024,1684,1024,0,0,100,0,67,5.007,77.18,99.409452,P-GPS,,30.3
493700,2026-01-09 12:45:43,0.223694,5,7.394,0.0,-0.223694,-4.250186,38.4,-4.2,-1.0,1024,1024,1684,1024,0,0,100,0,67,5.007,77.18,100.06562,P-GPS,,30.5
493800,2026-01-09 12:45:43,0.223694,5,7.394,0.0,-0.223694,-4.250186,38.3,-4.2,-0.4,1024,1024,1684,1024,0,0,100,0,67,5.007,77.18,100.393704,P-GPS,,30.6
493900,2026-01-09 12:45:43,0.223694,5,7.394,0.0,-0.223694,-4.250186,38.4,-4.4,0.5,1024,1024,1684,1024,0,0,100,0,67,5.007,77.18,101.049872,P-GPS,,30.8
494000,2026-01-09 12:45:43,0.223694,5,7.394,0.0,-0.223694,-4.250186,38.3,-4.7,0.6,1024,1024,1684,1024,0,0,100,0,67,5.007,77.18,101.377956,P-GPS,,30.9
494100,2026-01-09 12:45:43,0.0,5,7.394,0.0,0.0,-4.250186,38.3,-4.0,-0.3,1024,1024,1684,1024,0,0,100,0,67,5.007,77.18,102.034124,P-GPS,,31.1
494200,2026-01-09 12:45:43,0.0,5,7.394,0.0,0.0,-4.250186,38.3,-3.6,-0.7,1024,1024,1684,1024,0,0,100,0,67,5.007,77.18,102.362208,P-GPS,,31.2
494300,2026-01-09 12:45:43,0.0,5,7.394,0.0,0.0,-4.250186,38.3,-3.9,-1.0,1024,1024,1684,1024,0,0,100,0,66,5.007,77.18,103.018376,P-GPS,,31.4
494400,2026-01-09 12:45:43,0.0,5,7.394,0.0,0.0,-4.250186,38.6,-4.1,-1.2,1024,1024,1684,1024,0,0,100,0,66,5.007,77.18,103.674544,P-GPS,,31.6
494500,2026-01-09 12:45:44,0.0,5,7.394,0.0,0.0,-4.250186,38.5,-4.1,-2.2,1024,1024,1684,1024,0,0,100,0,66,5.007,77.18,104.330712,P-GPS,,31.8
539900,2026-01-09 12:46:29,0.0,5,7.411,0.0,0.0,4.026492,38.7,-0.7,-6.0,1024,1024,364,1024,0,0,-100,0,63,4.828,77.9,104.330712,P-GPS,,31.8
540000,2026-01-09 12:46:29,0.0,5,7.411,0.0,0.0,4.026492,38.6,-1.3,-5.4,1024,1024,364,1024,0,0,-100,0,63,4.828,77.9,104.002628,P-GPS,,31.7
540100,2026-01-09 12:46:29,0.0,5,7.411,0.0,0.0,4.026492,38.5,-2.1,-3.6,1024,1024,364,1024,0,0,-100,0,63,4.828,77.9,103.34646,P-GPS,,31.5
540200,2026-01-09 12:46:29,0.0,5,7.411,0.0,0.0,3.579104,38.6,-0.2,-5.2,1024,1024,364,1024,0,0,-100,0,63,4.828,77.9,102.690292,P-GPS,,31.3
540300,2026-01-09 12:46:29,0.0,5,7.411,0.0,0.0,3.802798,38.7,-0.9,-5.3,1024,1024,364,1024,0,0,-100,0,63,4.828,77.9,102.034124,P-GPS,,31.1
540400,2026-01-09 12:46:30,0.0,5,7.411,0.0,0.0,3.802798,38.6,-0.1,-5.8,1024,1024,364,1024,0,0,-100,0,63,4.828,77.9,101.377956,P-GPS,,30.9
540500,2026-01-09 12:46:30,0.0,5,7.411,0.0,0.0,3.802798,38.6,-0.4,-5.7,1024,1024,364,1024,0,0,-100,0,63,4.828,77.9,101.049872,P-GPS,,30.8
540600,2026-01-09 12:46:30,0.0,5,7.411,0.0,0.0,3.802798,38.7,-0.3,-5.3,1024,1024,364,1024,0,0,-100,0,63,4.828,77.9,100.393704,P-GPS,,30.6
540700,2026-01-09 12:46:30,0.0,5,7.411,0.0,0.0,3.802798,38.6,-1.9,-6.5,1024,1024,364,1024,0,0,-100,0,63,4.828,77.9,99.409452,P-GPS,,30.3
540800,2026-01-09 12:46:30,0.0,5,7.411,0.0,0.0,3.802798,38.4,-0.9,-7.0,1024,1024,364,1024,0,0,-100,0,63,4.828,77.9,98.753284,P-GPS,,30.1
540900,2026-01-09 12:46:30,0.0,5,7.411,0.0,0.0,3.802798,38.3,1.5,-7.0,1024,1024,364,1024,0,0,-100,0,63,4.828,77.9,98.097116,P-GPS,,29.9
541000,2026-01-09 12:46:30,0.0,5,7.411,0.0,0.0,4.026492,38.5,0.8,-5.6,1024,1024,364,1024,0,0,-100,0,63,4.828,77.9,97.440948,P-GPS,,29.7
541100,2026-01-09 12:46:30,0.0,5,7.411,0.0,0.0,4.026492,38.6,0.2,-5.7,1024,1024,364,1024,0,0,-100,0,63,4.828,77.9,96.78478,P-GPS,,29.5
541200,2026-01-09 12:46:30,0.0,5,7.411,0.0,0.0,4.026492,38.6,0.0,-5.8,1024,1024,364,1024,0,0,-100,0,63,4.539,77.9,96.128612,P-GPS,,29.3
541300,2026-01-09 12:46:30,0.0,5,7.411,0.0,0.0,4.026492,38.6,-0.8,-6.7,1024,1024,364,1024,0,0,-100,0,63,4.539,77.9,95.472444,P-GPS,,29.1
541400,2026-01-09 12:46:30,0.0,5,7.411,0.0,0.0,4.026492,38.8,-1.2,-5.5,1024,1024,364,1024,0,0,-100,0,63,4.539,77.9,94.816276,P-GPS,,28.9
541500,2026-01-09 12:46:31,0.0,5,7.411,0.0,0.0,4.026492,38.6,0.4,-5.8,1024,1024,364,1024,0,0,-100,0,63,4.539,77.9,94.160108,P-GPS,,28.7
541600,2026-01-09 12:46:31,0.0,5,7.411,0.0,0.0,4.026492,38.5,-1.6,-5.1,1024,1024,364,1024,0,0,-100,0,63,4.539,77.9,93.50394,P-GPS,,28.5
541700,2026-01-09 12:46:31,0.223694,5,7.411,0.223694,0.0,4.026492,38.3,-1.5,-3.9,1024,1024,364,1024,0,0,-100,0,63,4.539,77.9,92.847772,P-GPS,,28.3
