time(millisecond),timestamp,speed(mph),gpslevel,voltage(v),xSpeed(mph),ySpeed(mph),zSpeed(mph),compass_heading(degrees),pitch(degrees),roll(degrees),rc_elevator,rc_aileron,rc_throttle,rc_rudder,rc_elevator(percent),rc_aileron(percent),rc_throttle(percent),rc_rudder(percent),battery_percent,current(A),battery_temperature(f),ascent(feet),flycState,message,height_above_takeoff(meters)
186300,2026-01-09 12:39:59,0.0,5,7.781,0.0,0.0,0.0,25.2,-0.1,-4.7,1024,1024,1024,1024,0,0,0,0,87,4.377,69.26,98.097116,P-GPS,,29.9
186400,2026-01-09 12:39:59,0.0,5,7.781,0.0,0.0,0.0,25.2,-0.2,-4.4,1024,1024,1024,1024,0,0,0,0,87,4.377,69.26,98.097116,P-GPS,,29.9
186500,2026-01-09 12:39:59,0.0,5,7.781,0.0,0.0,0.0,25.3,-1.1,-4.1,1024,1024,1024,1024,0,0,0,0,87,4.377,69.26,98.4252,P-GPS,,30.0
186600,2026-01-09 12:39:59,0.0,5,7.781,0.0,0.0,0.0,25.2,-1.2,-4.1,1024,1024,1024,1024,0,0,0,0,87,4.377,69.26,98.4252,P-GPS,,30.0
186700,2026-01-09 12:39:59,0.0,5,7.781,0.0,0.0,0.0,25.2,-1.4,-3.9,1024,1024,1024,1024,0,0,0,0,87,4.377,69.26,98.753284,P-GPS,,30.1
186800,2026-01-09 12:39:59,0.0,5,7.781,0.0,0.0,0.0,25.2,-1.2,-4.0,1024,1024,1024,1024,0,0,0,0,87,4.377,69.26,98.753284,P-GPS,,30.1
186900,2026-01-09 12:39:59,0.0,5,7.781,0.0,0.0,0.0,25.2,-0.3,-4.5,1024,1024,1024,1024,0,0,0,0,87,4.377,69.26,99.081368,P-GPS,,30.2
187000,2026-01-09 12:39:59,0.0,5,7.781,0.0,0.0,0.0,25.0,-0.2,-4.9,1024,1024,1024,1024,0,0,0,0,87,4.377,69.26,99.081368,P-GPS,,30.2
187100,2026-01-09 12:39:59,0.0,5,7.781,0.0,0.0,0.0,25.3,-1.8,-4.1,1024,1024,1024,1024,0,0,0,0,87,4.377,69.26,99.081368,P-GPS,,30.2
187200,2026-01-09 12:40:00,0.0,5,7.713,0.0,0.0,0.0,25.4,-2.2,-3.5,1024,1024,1024,1024,0,0,0,0,87,4.567,69.26,99.081368,P-GPS,,30.2
187300,2026-01-09 12:40:00,0.0,5,7.713,0.0,0.0,0.0,25.5,-1.8,-2.8,1024,1024,1024,1024,0,0,0,0,87,4.567,69.26,99.081368,P-GPS,,30.2
187400,2026-01-09 12:40:00,0.0,5,7.713,0.0,0.0,0.0,25.4,-1.8,-2.8,1024,1024,1024,1024,0,0,0,0,87,4.567,69.26,99.081368,P-GPS,,30.2
187500,2026-01-09 12:40:00,0.0,5,7.713,0.0,0.0,0.0,25.5,-2.0,-2.8,1024,1024,1024,1024,0,0,0,0,87,4.567,69.26,99.081368,P-GPS,,30.2
187600,2026-01-09 12:40:00,0.0,5,7.713,0.0,0.0,0.0,25.5,-1.9,-2.9,1024,1024,1024,1024,0,0,0,0,87,4.567,69.26,99.081368,P-GPS,,30.2
187700,2026-01-09 12:40:00,0.0,5,7.713,0.0,0.0,0.0,25.3,-0.7,-3.7,1024,1024,1024,1024,0,0,0,0,87,4.567,69.26,99.081368,P-GPS,,30.2
188200,2026-01-09 12:40:01,0.0,5,7.713,0.0,0.0,0.0,25.3,-1.3,-2.1,1024,1024,1024,1024,0,0,0,0,87,4.567,69.26,99.081368,P-GPS,,30.2
188300,2026-01-09 12:40:01,0.0,5,7.722,0.0,0.0,0.0,25.3,-1.4,-3.5,1024,1024,1024,1024,0,0,0,0,87,4.273,69.26,98.753284,P-GPS,,30.1
188400,2026-01-09 12:40:01,0.0,5,7.722,0.0,0.0,0.0,25.5,-0.5,-3.8,1024,1024,1024,1024,0,0,0,0,87,4.273,69.26,98.753284,P-GPS,,30.1
188500,2026-01-09 12:40:01,0.0,5,7.722,0.0,0.0,0.0,25.8,-0.7,-3.0,1024,1024,1024,1024,0,0,0,0,87,4.273,69.26,98.753284,P-GPS,,30.1
188600,2026-01-09 12:40:01,0.0,5,7.722,0.0,0.0,0.0,25.7,0.3,-3.1,1024,1024,1024,1024,0,0,0,0,87,4.273,69.26,98.753284,P-GPS,,30.1
188900,2026-01-09 12:40:01,0.0,5,7.722,0.0,0.0,0.0,25.5,-1.8,-1.9,1024,1024,1024,1024,0,0,0,0,87,4.273,69.26,98.4252,P-GPS,,30.0
189000,2026-01-09 12:40:01,0.0,5,7.722,0.0,0.0,0.0,25.5,-3.3,-1.1,1024,1024,1024,1024,0,0,0,0,87,4.273,69.26,98.4252,P-GPS,,30.0
189100,2026-01-09 12:40:01,0.0,5,7.722,0.0,0.0,0.0,25.4,-2.9,-1.4,1024,1024,1024,1024,0,0,0,0,87,4.273,69.26,98.097116,P-GPS,,29.9
189200,2026-01-09 12:40:02,0.0,5,7.722,0.0,0.0,0.0,25.3,-3.0,-2.5,1024,1024,1024,1024,0,0,0,0,87,4.273,69.26,98.097116,P-GPS,,29.9
189300,2026-01-09 12:40:02,0.0,5,7.722,0.0,0.0,0.0,25.4,-2.3,-2.9,1024,1024,1024,1024,0,0,0,0,87,4.273,69.26,97.769032,P-GPS,,29.8
189400,2026-01-09 12:40:02,0.0,5,7.753,0.0,0.0,0.0,25.5,-1.9,-2.6,1024,1024,1024,1024,0,0,0,0,87,4.153,69.26,97.769032,P-GPS,,29.8
189500,2026-01-09 12:40:02,0.0,5,7.753,0.0,0.0,0.0,25.5,-1.5,-2.1,1024,1024,1024,1024,0,0,0,0,87,4.153,69.26,97.769032,P-GPS,,29.8
189600,2026-01-09 12:40:02,0.0,5,7.753,0.0,0.0,0.0,25.4,-1.1,-2.3,1024,1024,1024,1024,0,0,0,0,87,4.153,69.26,97.769032,P-GPS,,29.8
189700,2026-01-09 12:40:02,0.0,5,7.753,0.0,0.0,0.0,25.3,-1.0,-1.8,1024,1024,1024,1024,0,0,0,0,87,4.153,69.26,97.769032,P-GPS,,29.8
189800,2026-01-09 12:40:02,0.0,5,7.753,0.0,0.0,0.0,25.1,0.5,-2.3,1024,1024,1024,1024,0,0,0,0,87,4.153,69.26,97.769032,P-GPS,,29.8
189900,2026-01-09 12:40:02,0.0,5,7.753,0.0,0.0,0.0,24.9,0.2,-3.3,1024,1024,1024,1024,0,0,0,0,87,4.153,69.26,97.769032,P-GPS,,29.8
190000,2026-01-09 12:40:02,0.0,5,7.753,0.0,0.0,0.0,24.9,-0.7,-3.2,1024,1024,1024,1024,0,0,0,0,87,4.153,69.26,97.769032,P-GPS,,29.8
190100,2026-01-09 12:40:02,0.0,5,7.753,0.0,0.0,0.0,25.0,-0.4,-2.3,1024,1024,1024,1024,0,0,0,0,87,4.153,69.26,97.769032,P-GPS,,29.8
190200,2026-01-09 12:40:03,0.0,5,7.753,0.0,0.0,0.0,25.3,-1.4,-1.5,1024,1024,1024,1024,0,0,0,0,87,4.153,69.26,97.440948,P-GPS,,29.7
190300,2026-01-09 12:40:03,0.0,5,7.753,0.0,0.0,0.0,25.5,-2.1,-0.6,1024,1024,1024,1024,0,0,0,0,87,4.153,69.26,97.440948,P-GPS,,29.7
190400,2026-01-09 12:40:03,0.0,5,7.753,0.0,0.0,0.0,25.5,-2.2,-0.7,1024,1024,1024,1024,0,0,0,0,87,4.153,69.26,97.440948,P-GPS,,29.7
190500,2026-01-09 12:40:03,0.0,5,7.734,0.0,0.0,0.0,25.7,-1.2,-1.0,1024,1024,1024,1024,0,0,0,0,87,4.52,69.44,97.440948,P-GPS,,29.7
190600,2026-01-09 12:40:03,0.0,5,7.734,0.0,0.0,0.0,25.5,-0.4,-1.3,1024,1024,1024,1024,0,0,0,0,87,4.52,69.44,97.440948,P-GPS,,29.7
190700,2026-01-09 12:40:03,0.0,5,7.734,0.0,0.0,0.0,25.3,-0.3,-1.7,1024,1024,1024,1024,0,0,0,0,87,4.52,69.44,97.440948,P-GPS,,29.7
190800,2026-01-09 12:40:03,0.0,5,7.734,0.0,0.0,0.0,25.2,-0.3,-2.4,1024,1024,1024,1024,0,0,0,0,87,4.52,69.44,97.440948,P-GPS,,29.7
190900,2026-01-09 12:40:03,0.0,5,7.734,0.0,0.0,0.0,25.2,-1.2,-2.7,1024,1024,1024,1024,0,0,0,0,87,4.52,69.44,97.440948,P-GPS,,29.7
191000,2026-01-09 12:40:03,0.0,5,7.734,0.0,0.0,0.0,25.1,-1.6,-1.3,1024,1024,1024,1024,0,0,0,0,87,4.52,69.44,97.440948,P-GPS,,29.7
191100,2026-01-09 12:40:03,0.0,5,7.734,0.0,0.0,0.0,25.1,-1.7,-2.3,1024,1024,1024,1024,0,0,0,0,87,4.52,69.44,97.440948,P-GPS,,29.7
191200,2026-01-09 12:40:04,0.0,5,7.734,0.0,0.0,0.0,25.0,-2.8,-1.7,1024,1024,1024,1024,0,0,0,0,87,4.52,69.44,97.440948,P-GPS,,29.7
191300,2026-01-09 12:40:04,0.0,5,7.734,0.0,0.0,0.0,24.9,-2.0,-1.6,1024,1024,1024,1024,0,0,0,0,87,4.52,69.44,97.440948,P-GPS,,29.7
191400,2026-01-09 12:40:04,0.0,5,7.734,0.0,0.0,0.0,24.9,-2.0,-1.2,1024,1024,1024,1024,0,0,0,0,87,4.52,69.44,97.440948,P-GPS,,29.7
191500,2026-01-09 12:40:04,0.0,5,7.734,0.0,0.0,0.0,24.7,-0.4,-1.7,1024,1024,1024,1024,0,0,0,0,87,4.52,69.44,97.440948,P-GPS,,29.7
191600,2026-01-09 12:40:04,0.0,5,7.708,0.0,0.0,0.0,24.9,-1.5,-1.4,1024,1024,1024,1024,0,0,0,0,86,4.809,69.44,97.440948,P-GPS,,29.7
191700,2026-01-09 12:40:04,0.0,5,7.708,0.0,0.0,0.0,25.2,-3.5,-1.2,1024,1024,1024,1024,0,0,0,0,86,4.809,69.44,97.440948,P-GPS,,29.7
191800,2026-01-09 12:40:04,0.0,5,7.708,0.0,0.0,0.0,25.4,-4.1,-1.5,1024,1024,1024,1024,0,0,0,0,86,4.809,69.44,97.440948,P-GPS,,29.7
191900,2026-01-09 12:40:04,0.0,5,7.708,0.0,0.0,0.0,25.3,-3.2,-2.4,1024,1024,1024,1024,0,0,0,0,86,4.809,69.44,97.440948,P-GPS,,29.7
192000,2026-01-09 12:40:04,0.0,5,7.708,0.0,0.0,0.0,25.0,-2.7,-3.5,1024,1024,1024,1024,0,0,0,0,86,4.809,69.44,97.440948,P-GPS,,29.7
192100,2026-01-09 12:40:04,0.0,5,7.708,0.0,0.0,0.0,25.3,-4.4,-3.0,1024,1024,1024,1024,0,0,0,0,86,4.809,69.44,97.440948,P-GPS,,29.7
192200,2026-01-09 12:40:05,0.0,5,7.708,0.0,0.0,0.0,25.9,-5.7,-2.8,1024,1024,1024,1024,0,0,0,0,86,4.809,69.44,97.769032,P-GPS,,29.8
192300,2026-01-09 12:40:05,0.0,5,7.708,0.0,0.0,0.0,26.1,-5.2,-2.6,1024,1024,1024,1024,0,0,0,0,86,4.809,69.44,97.769032,P-GPS,,29.8
192400,2026-01-09 12:40:05,0.0,5,7.708,0.0,0.0,0.0,26.0,-3.7,-3.1,1024,1024,1024,1024,0,0,0,0,86,4.809,69.44,98.097116,P-GPS,,29.9
192500,2026-01-09 12:40:05,0.0,5,7.708,0.0,0.0,0.0,25.9,-3.1,-3.4,1024,1024,1024,1024,0,0,0,0,86,4.809,69.44,98.097116,P-GPS,,29.9
192600,2026-01-09 12:40:05,0.0,5,7.708,0.0,0.0,0.0,25.8,-2.4,-3.5,1024,1024,1024,1024,0,0,0,0,86,4.809,69.44,98.097116,P-GPS,,29.9
192700,2026-01-09 12:40:05,0.0,5,7.708,0.0,0.0,0.0,25.8,-2.2,-3.4,1024,1024,1024,1024,0,0,0,0,86,4.809,69.44,98.097116,P-GPS,,29.9
192800,2026-01-09 12:40:05,0.0,5,7.715,0.0,0.0,0.0,25.7,-1.8,-3.6,1024,1024,1024,1024,0,0,0,0,86,4.608,69.44,98.4252,P-GPS,,30.0
192900,2026-01-09 12:40:05,0.0,5,7.715,0.0,0.0,0.0,25.9,-2.1,-3.1,1024,1024,1024,1024,0,0,0,0,86,4.608,69.44,98.4252,P-GPS,,30.0
193000,2026-01-09 12:40:05,0.0,5,7.715,0.0,0.0,0.0,25.9,-2.1,-3.1,1024,1024,1024,1024,0,0,0,0,86,4.608,69.44,98.4252,P-GPS,,30.0
193100,2026-01-09 12:40:05,0.0,5,7.715,0.0,0.0,0.0,25.8,-2.0,-2.8,1024,1024,1024,1024,0,0,0,0,86,4.608,69.44,98.4252,P-GPS,,30.0
193200,2026-01-09 12:40:06,0.0,5,7.715,0.0,0.0,0.0,25.8,-2.5,-2.4,1024,1024,1024,1024,0,0,0,0,86,4.608,69.44,98.753284,P-GPS,,30.1
193300,2026-01-09 12:40:06,0.0,5,7.715,0.0,0.0,0.0,25.8,-2.7,-2.5,1024,1024,1024,1024,0,0,0,0,86,4.608,69.44,98.753284,P-GPS,,30.1
193400,2026-01-09 12:40:06,0.0,5,7.715,0.0,0.0,0.0,25.8,-2.2,-2.5,1024,1024,1024,1024,0,0,0,0,86,4.608,69.44,98.753284,P-GPS,,30.1
193500,2026-01-09 12:40:06,0.0,5,7.715,0.0,0.0,0.0,25.6,-0.4,-3.3,1024,1024,1024,1024,0,0,0,0,86,4.608,69.44,98.753284,P-GPS,,30.1
193600,2026-01-09 12:40:06,0.0,5,7.715,0.0,0.0,0.0,25.4,-0.8,-3.9,1024,1024,1024,1024,0,0,0,0,86,4.608,69.44,98.753284,P-GPS,,30.1
193700,2026-01-09 12:40:06,0.0,5,7.715,0.0,0.0,0.0,25.5,-3.3,-3.3,1024,1024,1024,1024,0,0,0,0,86,4.608,69.44,98.753284,P-GPS,,30.1
193800,2026-01-09 12:40:06,0.0,5,7.715,0.0,0.0,0.0,25.4,-3.1,-3.3,1024,1024,1024,1024,0,0,0,0,86,4.608,69.44,98.753284,P-GPS,,30.1
193900,2026-01-09 12:40:06,0.0,5,7.715,0.0,0.0,0.0,25.6,-4.6,-2.6,1024,1024,1024,1024,0,0,0,0,86,4.608,69.44,98.4252,P-GPS,,30.0
194000,2026-01-09 12:40:06,0.0,5,7.715,0.0,0.0,0.0,25.7,-4.6,-2.3,1024,1024,1024,1024,0,0,0,0,86,4.608,69.44,98.4252,P-GPS,,30.0
194200,2026-01-09 12:40:07,0.0,5,7.715,0.0,0.0,0.0,25.8,-4.1,-2.0,1024,1024,1024,1024,0,0,0,0,86,4.608,69.44,98.4252,P-GPS,,30.0
194300,2026-01-09 12:40:07,0.0,5,7.715,0.0,0.0,0.0,25.7,-3.9,-2.4,1024,1024,1024,1024,0,0,0,0,86,4.608,69.44,98.4252,P-GPS,,30.0
194400,2026-01-09 12:40:07,0.0,5,7.715,0.0,0.0,0.0,25.7,-3.8,-2.5,1024,1024,1024,1024,0,0,0,0,86,4.608,69.44,98.4252,P-GPS,,30.0
194500,2026-01-09 12:40:07,0.0,5,7.715,0.0,0.0,0.0,25.7,-3.5,-2.5,1024,1024,1024,1024,0,0,0,0,86,4.608,69.44,98.4252,P-GPS,,30.0
194600,2026-01-09 12:40:07,0.0,5,7.715,0.0,0.0,0.0,25.6,-3.3,-2.6,1024,1024,1024,1024,0,0,0,0,86,4.608,69.44,98.4252,P-GPS,,30.0
194700,2026-01-09 12:40:07,0.0,5,7.715,0.0,0.0,0.0,25.6,-3.1,-2.7,1024,1024,1024,1024,0,0,0,0,86,4.608,69.44,98.4252,P-GPS,,30.0
194800,2026-01-09 12:40:07,0.0,5,7.715,0.0,0.0,0.0,25.6,-3.2,-2.4,1024,1024,1024,1024,0,0,0,0,86,4.608,69.44,98.4252,P-GPS,,30.0
194900,2026-01-09 12:40:07,0.0,5,7.715,0.0,0.0,0.0,25.6,-2.9,-2.7,1024,1024,1024,1024,0,0,0,0,86,4.608,69.44,98.4252,P-GPS,,30.0
195000,2026-01-09 12:40:07,0.0,5,7.734,0.0,0.0,0.0,25.5,-2.2,-3.1,1024,1024,1024,1024,0,0,0,0,86,4.427,69.44,98.4252,P-GPS,,30.0
195100,2026-01-09 12:40:08,0.0,5,7.734,0.0,0.0,0.0,25.6,-1.9,-3.3,1024,1024,1024,1024,0,0,0,0,86,4.427,69.44,98.4252,P-GPS,,30.0
195200,2026-01-09 12:40:08,0.0,5,7.734,0.0,0.0,0.0,25.7,-2.5,-3.1,1024,1024,1024,1024,0,0,0,0,86,4.427,69.44,98.4252,P-GPS,,30.0
195300,2026-01-09 12:40:08,0.0,5,7.734,0.0,0.0,0.0,25.9,-2.5,-3.6,1024,1024,1024,1024,0,0,0,0,86,4.427,69.44,98.4252,P-GPS,,30.0
195400,2026-01-09 12:40:08,0.0,5,7.734,0.0,0.0,0.0,25.8,-1.3,-3.7,1024,1024,1024,1024,0,0,0,0,86,4.427,69.44,98.4252,P-GPS,,30.0
195500,2026-01-09 12:40:08,0.0,5,7.734,0.0,0.0,0.0,25.6,-0.4,-4.5,1024,1024,1024,1024,0,0,0,0,86,4.427,69.44,98.4252,P-GPS,,30.0
195600,2026-01-09 12:40:08,0.0,5,7.734,0.0,0.0,0.0,25.7,-0.8,-4.2,1024,1024,1024,1024,0,0,0,0,86,4.427,69.44,98.4252,P-GPS,,30.0
195700,2026-01-09 12:40:08,0.0,5,7.734,0.0,0.0,0.0,25.9,-1.6,-4.3,1024,1024,1024,1024,0,0,0,0,86,4.427,69.44,98.4252,P-GPS,,30.0
195800,2026-01-09 12:40:08,0.0,5,7.734,0.0,0.0,0.0,25.9,-1.4,-4.9,1024,1024,1024,1024,0,0,0,0,86,4.427,69.44,98.4252,P-GPS,,30.0
195900,2026-01-09 12:40:08,0.0,5,7.734,0.0,0.0,0.0,26.1,-1.8,-5.9,1024,1024,1024,1024,0,0,0,0,86,4.427,69.44,98.4252,P-GPS,,30.0
196000,2026-01-09 12:40:08,0.0,5,7.734,0.0,0.0,0.0,26.1,-2.5,-6.0,1024,1024,1024,1024,0,0,0,0,86,4.427,69.44,98.4252,P-GPS,,30.0
196100,2026-01-09 12:40:08,0.0,5,7.718,0.0,0.0,0.0,26.2,-2.7,-6.3,1024,1024,1024,1024,0,0,0,0,86,4.803,69.62,98.4252,P-GPS,,30.0
196200,2026-01-09 12:40:09,0.223694,5,7.718,0.0,0.223694,0.0,26.1,-2.3,-7.2,1024,1024,1024,1024,0,0,0,0,86,4.803,69.62,98.753284,P-GPS,,30.1
196300,2026-01-09 12:40:09,0.223694,5,7.718,0.0,0.223694,0.0,26.1,-2.5,-7.4,1024,1024,1024,1024,0,0,0,0,86,4.803,69.62,98.753284,P-GPS,,30.1
196400,2026-01-09 12:40:09,0.0,5,7.718,0.0,0.0,0.0,26.1,-2.7,-7.4,1024,1024,1024,1024,0,0,0,0,86,4.803,69.62,98.753284,P-GPS,,30.1
196500,2026-01-09 12:40:09,0.0,5,7.718,0.0,0.0,0.0,26.1,-2.3,-7.7,1024,1024,1024,1024,0,0,0,0,86,4.803,69.62,98.753284,P-GPS,,30.1
196600,2026-01-09 12:40:09,0.0,5,7.718,0.0,0.0,0.0,26.1,-2.5,-7.7,1024,1024,1024,1024,0,0,0,0,86,4.803,69.62,98.753284,P-GPS,,30.1
196700,2026-01-09 12:40:09,0.0,5,7.718,0.0,0.0,0.0,26.1,-2.6,-7.8,1024,1024,1024,1024,0,0,0,0,86,4.803,69.62,98.753284,P-GPS,,30.1
196800,2026-01-09 12:40:09,0.0,5,7.718,0.0,0.0,0.0,26.1,-2.7,-7.9,1024,1024,1024,1024,0,0,0,0,86,4.803,69.62,98.753284,P-GPS,,30.1
196900,2026-01-09 12:40:09,0.0,5,7.718,0.0,0.0,0.0,26.2,-2.8,-8.1,1024,1024,1024,1024,0,0,0,0,86,4.803,69.62,98.753284,P-GPS,,30.1
197000,2026-01-09 12:40:09,0.0,5,7.718,0.0,0.0,0.0,26.2,-3.2,-7.7,1024,1024,1024,1024,0,0,0,0,86,4.803,69.62,98.753284,P-GPS,,30.1
197100,2026-01-09 12:40:10,0.0,5,7.718,0.0,0.0,0.0,26.2,-3.0,-7.7,1024,1024,1024,1024,0,0,0,0,86,4.803,69.62,98.753284,P-GPS,,30.1
197200,2026-01-09 12:40:10,0.0,5,7.729,0.0,0.0,0.0,26.2,-3.2,-7.7,1024,1024,1024,1024,0,0,0,0,86,4.537,69.62,98.753284,P-GPS,,30.1
197300,2026-01-09 12:40:10,0.0,5,7.729,0.0,0.0,0.0,26.2,-3.5,-7.6,1024,1024,1024,1024,0,0,0,0,86,4.537,69.62,98.753284,P-GPS,,30.1
197400,2026-01-09 12:40:10,0.0,5,7.729,0.0,0.0,0.0,26.2,-4.0,-7.4,1024,1024,1024,1024,0,0,0,0,86,4.537,69.62,98.4252,P-GPS,,30.0
197500,2026-01-09 12:40:10,0.0,5,7.729,0.0,0.0,0.0,26.0,-3.5,-7.4,1024,1024,1024,1024,0,0,0,0,86,4.537,69.62,98.4252,P-GPS,,30.0
197600,2026-01-09 12:40:10,0.0,5,7.729,0.0,0.0,0.0,26.0,-3.4,-7.5,1024,1024,1024,1024,0,0,0,0,86,4.537,69.62,98.4252,P-GPS,,30.0
197700,2026-01-09 12:40:10,0.0,5,7.729,0.0,0.0,0.0,26.2,-4.2,-7.1,1024,1024,1024,1024,0,0,0,0,86,4.537,69.62,98.4252,P-GPS,,30.0
197800,2026-01-09 12:40:10,0.0,5,7.729,0.0,0.0,0.0,26.2,-4.1,-6.7,1024,1024,1024,1024,0,0,0,0,86,4.537,69.62,98.4252,P-GPS,,30.0
197900,2026-01-09 12:40:10,0.0,5,7.729,0.0,0.0,0.0,26.1,-4.5,-7.1,1024,1024,1024,1024,0,0,0,0,86,4.537,69.62,98.4252,P-GPS,,30.0
198000,2026-01-09 12:40:10,0.0,5,7.729,0.0,0.0,0.0,26.1,-4.4,-7.1,1024,1024,1024,1024,0,0,0,0,86,4.537,69.62,98.4252,P-GPS,,30.0
198100,2026-01-09 12:40:10,0.0,5,7.729,0.0,0.0,0.0,25.9,-3.8,-7.4,1024,1024,1024,1024,0,0,0,0,86,4.537,69.62,98.4252,P-GPS,,30.0
198200,2026-01-09 12:40:11,0.0,5,7.729,0.0,0.0,0.0,26.1,-4.2,-7.9,1024,1024,1024,1024,0,0,0,0,86,4.537,69.62,98.097116,P-GPS,,29.9
198300,2026-01-09 12:40:11,0.0,5,7.713,0.0,0.0,0.0,26.2,-4.5,-8.1,1024,1024,1024,1024,0,0,0,0,86,4.832,69.62,98.097116,P-GPS,,29.9
198400,2026-01-09 12:40:11,0.0,5,7.713,0.0,0.0,0.0,26.0,-4.1,-8.5,1024,1024,1024,1024,0,0,0,0,86,4.832,69.62,98.097116,P-GPS,,29.9
198500,2026-01-09 12:40:11,0.0,5,7.713,0.0,0.0,0.0,26.2,-4.8,-7.9,1024,1024,1024,1024,0,0,0,0,86,4.832,69.62,98.097116,P-GPS,,29.9
198600,2026-01-09 12:40:11,0.0,5,7.713,0.0,0.0,0.0,25.8,-3.2,-9.0,1024,1024,1024,1024,0,0,0,0,86,4.832,69.62,98.097116,P-GPS,,29.9
198700,2026-01-09 12:40:11,0.0,5,7.713,0.0,0.0,0.0,25.6,-3.0,-9.0,1024,1024,1024,1024,0,0,0,0,86,4.832,69.62,98.097116,P-GPS,,29.9
198800,2026-01-09 12:40:11,0.0,5,7.713,0.0,0.0,0.0,25.5,-3.2,-8.4,1024,1024,1024,1024,0,0,0,0,86,4.832,69.62,97.769032,P-GPS,,29.8
198900,2026-01-09 12:40:11,0.0,5,7.713,0.0,0.0,0.0,25.8,-4.1,-8.2,1024,1024,1024,1024,0,0,0,0,86,4.832,69.62,97.769032,P-GPS,,29.8
199000,2026-01-09 12:40:11,0.0,5,7.713,0.0,0.0,0.0,25.9,-3.5,-8.0,1024,1024,1024,1024,0,0,0,0,86,4.832,69.62,97.769032,P-GPS,,29.8
199100,2026-01-09 12:40:11,0.0,5,7.713,0.0,0.0,0.0,26.0,-3.4,-8.2,1024,1024,1024,1024,0,0,0,0,86,4.832,69.62,97.769032,P-GPS,,29.8
199200,2026-01-09 12:40:12,0.0,5,7.713,0.0,0.0,0.0,26.0,-2.8,-8.4,1024,1024,1024,1024,0,0,0,0,86,4.832,69.62,97.769032,P-GPS,,29.8
199300,2026-01-09 12:40:12,0.0,5,7.713,0.0,0.0,0.0,25.8,-2.2,-8.6,1024,1024,1024,1024,0,0,0,0,86,4.832,69.62,97.440948,P-GPS,,29.7
199400,2026-01-09 12:40:12,0.0,5,7.709,0.0,0.0,0.0,25.7,-1.9,-8.6,1024,1024,1024,1024,0,0,0,0,86,4.858,69.8,97.440948,P-GPS,,29.7
199500,2026-01-09 12:40:12,0.0,5,7.709,0.0,0.0,0.0,25.6,-1.5,-9.0,1024,1024,1024,1024,0,0,0,0,86,4.858,69.8,97.440948,P-GPS,,29.7
199600,2026-01-09 12:40:12,0.0,5,7.709,0.0,0.0,0.0,25.9,-2.1,-8.7,1024,1024,1024,1024,0,0,0,0,86,4.858,69.8,97.440948,P-GPS,,29.7
199700,2026-01-09 12:40:12,0.0,5,7.709,0.0,0.0,0.0,25.8,-1.8,-8.3,1024,1024,1024,1024,0,0,0,0,86,4.858,69.8,97.440948,P-GPS,,29.7
199800,2026-01-09 12:40:12,0.0,5,7.709,0.0,0.0,0.0,26.0,-3.0,-8.5,1024,1024,1024,1024,0,0,0,0,86,4.858,69.8,97.440948,P-GPS,,29.7
199900,2026-01-09 12:40:12,0.0,5,7.709,0.0,0.0,0.0,26.2,-3.9,-8.3,1024,1024,1024,1024,0,0,0,0,86,4.858,69.8,97.440948,P-GPS,,29.7
200000,2026-01-09 12:40:12,0.0,5,7.709,0.0,0.0,0.0,26.0,-3.8,-9.1,1024,1024,1024,1024,0,0,0,0,86,4.858,69.8,97.440948,P-GPS,,29.7
200100,2026-01-09 12:40:12,0.0,5,7.709,0.0,0.0,0.0,26.2,-4.9,-9.5,1024,1024,1024,1024,0,0,0,0,86,4.858,69.8,97.440948,P-GPS,,29.7
200200,2026-01-09 12:40:13,0.0,5,7.709,0.0,0.0,0.0,26.0,-4.1,-9.6,1024,1024,1024,1024,0,0,0,0,86,4.858,69.8,97.440948,P-GPS,,29.7
200300,2026-01-09 12:40:13,0.0,5,7.709,0.0,0.0,0.0,25.7,-3.7,-10.0,1024,1024,1024,1024,0,0,0,0,86,4.858,69.8,97.440948,P-GPS,,29.7
200400,2026-01-09 12:40:13,0.0,5,7.709,0.0,0.0,0.0,26.1,-4.9,-8.9,1024,1024,1024,1024,0,0,0,0,86,4.858,69.8,97.440948,P-GPS,,29.7
200500,2026-01-09 12:40:13,0.0,5,7.678,0.0,0.0,0.0,25.9,-5.0,-9.1,1024,1024,1024,1024,0,0,0,0,86,4.977,69.8,97.440948,P-GPS,,29.7
200600,2026-01-09 12:40:13,0.0,5,7.678,0.0,0.0,0.0,25.7,-4.7,-8.9,1024,1024,1024,1024,0,0,0,0,86,4.977,69.8,97.440948,P-GPS,,29.7
200700,2026-01-09 12:40:13,0.0,5,7.678,0.0,0.0,0.0,25.8,-4.4,-8.9,1024,1024,1024,1024,0,0,0,0,86,4.977,69.8,97.440948,P-GPS,,29.7
200800,2026-01-09 12:40:13,0.0,5,7.678,0.0,0.0,0.0,25.7,-4.1,-8.6,1024,1024,1024,1024,0,0,0,0,86,4.977,69.8,97.112864,P-GPS,,29.6
200900,2026-01-09 12:40:13,0.0,5,7.678,0.0,0.0,0.0,25.9,-4.1,-8.4,1024,1024,1024,1024,0,0,0,0,86,4.977,69.8,97.112864,P-GPS,,29.6
201000,2026-01-09 12:40:13,0.0,5,7.678,0.0,0.0,0.0,26.0,-4.6,-7.5,1024,1024,1024,1024,0,0,0,0,86,4.977,69.8,97.112864,P-GPS,,29.6
201100,2026-01-09 12:40:13,0.0,5,7.678,0.0,0.0,0.0,25.7,-3.8,-8.1,1024,1024,1024,1024,0,0,0,0,86,4.977,69.8,97.112864,P-GPS,,29.6
201200,2026-01-09 12:40:14,0.0,5,7.678,0.0,0.0,0.0,25.5,-2.9,-7.8,1024,1024,1024,1024,0,0,0,0,86,4.977,69.8,97.112864,P-GPS,,29.6
201400,2026-01-09 12:40:14,0.0,5,7.678,0.0,0.0,0.0,25.8,-2.7,-7.4,1024,1024,1024,1024,0,0,0,0,86,4.977,69.8,97.112864,P-GPS,,29.6
201500,2026-01-09 12:40:14,0.223694,5,7.678,0.223694,0.0,0.0,25.6,-2.0,-7.6,1024,1024,1024,1024,0,0,0,0,86,4.977,69.8,97.112864,P-GPS,,29.6
201600,2026-01-09 12:40:14,0.0,5,7.722,0.0,0.0,0.0,25.6,-1.6,-7.4,1024,1024,1024,1024,0,0,0,0,86,4.577,69.8,96.78478,P-GPS,,29.5
201700,2026-01-09 12:40:14,0.0,5,7.722,0.0,0.0,0.0,25.6,-1.6,-7.8,1024,1024,1024,1024,0,0,0,0,86,4.577,69.8,96.78478,P-GPS,,29.5
201800,2026-01-09 12:40:14,0.0,5,7.722,0.0,0.0,0.0,25.6,-1.9,-7.7,1024,1024,1024,1024,0,0,0,0,86,4.577,69.8,96.78478,P-GPS,,29.5
201900,2026-01-09 12:40:14,0.0,5,7.722,0.0,0.0,0.0,25.6,-2.7,-7.5,1024,1024,1024,1024,0,0,0,0,86,4.577,69.8,96.78478,P-GPS,,29.5
202000,2026-01-09 12:40:14,0.0,5,7.722,0.0,0.0,0.0,25.4,-2.7,-7.1,1024,1024,1024,1024,0,0,0,0,86,4.577,69.8,96.456696,P-GPS,,29.4
202100,2026-01-09 12:40:14,0.0,5,7.722,0.0,0.0,0.0,25.5,-2.8,-6.9,1024,1024,1024,1024,0,0,0,0,86,4.577,69.8,96.456696,P-GPS,,29.4
202200,2026-01-09 12:40:15,0.0,5,7.722,0.0,0.0,0.0,25.6,-3.1,-6.6,1024,1024,1024,1024,0,0,0,0,86,4.577,69.8,96.456696,P-GPS,,29.4
202300,2026-01-09 12:40:15,0.223694,5,7.722,0.0,-0.223694,0.0,25.7,-3.4,-6.4,1024,1024,1024,1024,0,0,0,0,86,4.577,69.8,96.456696,P-GPS,,29.4
202400,2026-01-09 12:40:15,0.223694,5,7.722,0.0,-0.223694,0.0,25.7,-3.7,-6.1,1024,1024,1024,1024,0,0,0,0,86,4.577,69.8,96.456696,P-GPS,,29.4
202800,2026-01-09 12:40:15,0.0,5,7.718,0.0,0.0,0.0,25.8,-3.8,-7.2,1024,1024,1024,1024,0,0,0,0,86,4.705,69.8,96.78478,P-GPS,,29.5
203100,2026-01-09 12:40:15,0.0,5,7.718,0.0,0.0,0.0,26.0,-4.1,-7.2,1024,1024,1024,1024,0,0,0,0,86,4.705,69.8,97.112864,P-GPS,,29.6
203200,2026-01-09 12:40:16,0.0,5,7.718,0.0,0.0,0.0,25.7,-3.5,-7.7,1024,1024,1024,1024,0,0,0,0,86,4.705,69.8,97.112864,P-GPS,,29.6
203300,2026-01-09 12:40:16,0.0,5,7.718,0.0,0.0,0.0,26.0,-4.0,-7.8,1024,1024,1024,1024,0,0,0,0,86,4.705,69.8,97.112864,P-GPS,,29.6
203400,2026-01-09 12:40:16,0.0,5,7.718,0.0,0.0,0.0,26.3,-4.1,-7.6,1024,1024,1024,1024,0,0,0,0,86,4.705,69.8,97.112864,P-GPS,,29.6
203500,2026-01-09 12:40:16,0.0,5,7.718,0.0,0.0,0.0,26.2,-4.2,-7.5,1024,1024,1024,1024,0,0,0,0,86,4.705,69.8,97.440948,P-GPS,,29.7
203600,2026-01-09 12:40:16,0.0,5,7.718,0.0,0.0,0.0,25.9,-4.1,-8.0,1024,1024,1024,1024,0,0,0,0,86,4.705,69.8,97.440948,P-GPS,,29.7
203700,2026-01-09 12:40:16,0.0,5,7.718,0.0,0.0,0.0,25.9,-4.3,-8.2,1024,1024,1024,1024,0,0,0,0,86,4.705,69.8,97.440948,P-GPS,,29.7
203800,2026-01-09 12:40:16,0.0,5,7.718,0.0,0.0,0.0,25.7,-3.9,-8.2,1024,1024,1024,1024,0,0,0,0,86,4.705,69.8,97.440948,P-GPS,,29.7
203900,2026-01-09 12:40:16,0.0,5,7.718,0.0,0.0,0.0,25.6,-3.6,-8.6,1024,1024,1024,1024,0,0,0,0,86,4.705,69.8,97.440948,P-GPS,,29.7
204000,2026-01-09 12:40:16,0.0,5,7.718,0.0,0.0,0.0,25.4,-2.6,-8.5,1024,1024,1024,1024,0,0,0,0,86,4.705,69.8,97.440948,P-GPS,,29.7
204100,2026-01-09 12:40:16,0.0,5,7.718,0.0,0.0,0.0,25.6,-2.9,-8.1,1024,1024,1024,1024,0,0,0,0,86,4.705,69.8,97.440948,P-GPS,,29.7
204200,2026-01-09 12:40:17,0.223694,5,7.718,0.0,-0.223694,0.0,26.0,-5.0,-6.6,1024,1024,1024,1024,0,0,0,0,86,4.705,69.8,97.440948,P-GPS,,29.7
204300,2026-01-09 12:40:17,0.223694,5,7.718,0.0,0.0,0.0,26.1,-4.8,-5.9,1024,1024,1024,1024,0,0,0,0,86,4.705,69.8,97.440948,P-GPS,,29.7
204400,2026-01-09 12:40:17,0.0,5,7.718,0.0,0.0,0.0,26.3,-4.9,-6.2,1024,1024,1024,1024,0,0,0,0,86,4.705,69.8,97.440948,P-GPS,,29.7
204500,2026-01-09 12:40:17,0.0,5,7.718,0.0,0.0,0.0,26.3,-4.0,-6.7,1024,1024,1024,1024,0,0,0,0,86,4.705,69.8,97.440948,P-GPS,,29.7
204600,2026-01-09 12:40:17,0.0,5,7.718,0.0,0.0,0.0,26.2,-4.3,-6.6,1024,1024,1024,1024,0,0,0,0,86,4.705,69.8,97.769032,P-GPS,,29.8
204700,2026-01-09 12:40:17,0.0,5,7.718,0.0,0.0,0.0,26.2,-5.4,-6.2,1024,1024,1024,1024,0,0,0,0,86,4.705,69.8,97.769032,P-GPS,,29.8
204800,2026-01-09 12:40:17,0.0,5,7.718,0.0,0.0,0.0,26.3,-5.7,-6.4,1024,1024,1024,1024,0,0,0,0,86,4.705,69.8,98.097116,P-GPS,,29.9
204900,2026-01-09 12:40:17,0.0,5,7.718,0.0,0.0,0.0,26.2,-5.5,-6.7,1024,1024,1024,1024,0,0,0,0,86,4.705,69.8,98.097116,P-GPS,,29.9
205000,2026-01-09 12:40:17,0.0,5,7.716,0.0,0.0,0.0,26.2,-4.3,-7.2,1024,1024,1024,1024,0,0,0,0,86,4.463,69.98,98.097116,P-GPS,,29.9
205100,2026-01-09 12:40:17,0.0,5,7.716,0.0,0.0,0.0,26.1,-5.1,-7.4,1024,1024,1024,1024,0,0,0,0,86,4.463,69.98,98.097116,P-GPS,,29.9
205200,2026-01-09 12:40:18,0.0,5,7.716,0.0,0.0,0.0,26.2,-5.5,-6.3,1024,1024,1024,1024,0,0,0,0,86,4.463,69.98,98.097116,P-GPS,,29.9
205300,2026-01-09 12:40:18,0.0,5,7.716,0.0,0.0,0.0,26.2,-5.6,-6.6,1024,1024,1024,1024,0,0,0,0,86,4.463,69.98,98.4252,P-GPS,,30.0
205400,2026-01-09 12:40:18,0.0,5,7.716,0.0,0.0,0.0,26.3,-5.1,-7.2,1024,1024,1024,1024,0,0,0,0,86,4.463,69.98,98.4252,P-GPS,,30.0
205800,2026-01-09 12:40:18,0.0,5,7.716,0.0,0.0,0.0,25.9,-5.4,-6.4,1024,1024,1024,1024,0,0,0,0,86,4.463,69.98,98.4252,P-GPS,,30.0
205900,2026-01-09 12:40:18,0.0,5,7.716,0.0,0.0,0.0,25.8,-5.1,-6.2,1024,1024,1024,1024,0,0,0,0,86,4.463,69.98,98.097116,P-GPS,,29.9
206000,2026-01-09 12:40:18,0.0,5,7.716,0.0,0.0,0.0,25.7,-4.8,-6.4,1024,1024,1024,1024,0,0,0,0,86,4.463,69.98,98.097116,P-GPS,,29.9
206100,2026-01-09 12:40:18,0.0,5,7.712,0.0,0.0,0.0,25.7,-4.7,-6.1,1024,1024,1024,1024,0,0,0,0,86,4.433,69.98,98.097116,P-GPS,,29.9
206500,2026-01-09 12:40:19,0.0,5,7.712,0.0,0.0,0.0,25.6,-5.2,-5.9,1024,1024,1024,1024,0,0,0,0,86,4.433,69.98,97.769032,P-GPS,,29.8
206600,2026-01-09 12:40:19,0.0,5,7.712,0.0,0.0,0.0,25.6,-5.9,-5.5,1024,1024,1024,1024,0,0,0,0,86,4.433,69.98,97.769032,P-GPS,,29.8
206700,2026-01-09 12:40:19,0.0,5,7.712,0.0,0.0,0.0,25.5,-6.1,-5.4,1024,1024,1024,1024,0,0,0,0,86,4.433,69.98,97.769032,P-GPS,,29.8
206800,2026-01-09 12:40:19,0.0,5,7.712,0.0,0.0,0.0,25.5,-6.2,-5.2,1024,1024,1024,1024,0,0,0,0,86,4.433,69.98,97.769032,P-GPS,,29.8
206900,2026-01-09 12:40:19,0.0,5,7.712,0.0,0.0,0.0,25.6,-6.2,-4.9,1024,1024,1024,1024,0,0,0,0,86,4.433,69.98,97.769032,P-GPS,,29.8
207000,2026-01-09 12:40:19,0.0,5,7.712,0.0,0.0,0.0,25.5,-5.8,-4.9,1024,1024,1024,1024,0,0,0,0,86,4.433,69.98,97.769032,P-GPS,,29.8
207100,2026-01-09 12:40:19,0.0,5,7.712,0.0,0.0,0.0,25.5,-5.6,-5.0,1024,1024,1024,1024,0,0,0,0,86,4.433,69.98,97.769032,P-GPS,,29.8
207200,2026-01-09 12:40:20,0.0,5,7.703,0.0,0.0,0.0,25.5,-5.6,-5.3,1024,1024,1024,1024,0,0,0,0,86,4.705,69.98,97.769032,P-GPS,,29.8
207300,2026-01-09 12:40:20,0.0,5,7.703,0.0,0.0,0.0,25.5,-5.5,-5.3,1024,1024,1024,1024,0,0,0,0,86,4.705,69.98,97.769032,P-GPS,,29.8
207400,2026-01-09 12:40:20,0.0,5,7.703,0.0,0.0,0.0,25.5,-5.3,-5.5,1024,1024,1024,1024,0,0,0,0,86,4.705,69.98,97.769032,P-GPS,,29.8
207500,2026-01-09 12:40:20,0.0,5,7.703,0.0,0.0,0.0,25.6,-5.5,-5.4,1024,1024,1024,1024,0,0,0,0,86,4.705,69.98,97.769032,P-GPS,,29.8
207600,2026-01-09 12:40:20,0.0,5,7.703,0.0,0.0,0.0,25.5,-5.3,-5.6,1024,1024,1024,1024,0,0,0,0,86,4.705,69.98,97.769032,P-GPS,,29.8
207700,2026-01-09 12:40:20,0.0,5,7.703,0.0,0.0,0.0,25.5,-5.8,-5.8,1024,1024,1024,1024,0,0,0,0,86,4.705,69.98,97.769032,P-GPS,,29.8
207800,2026-01-09 12:40:20,0.0,5,7.703,0.0,0.0,0.0,25.5,-6.2,-5.2,1024,1024,1024,1024,0,0,0,0,86,4.705,69.98,97.769032,P-GPS,,29.8
207900,2026-01-09 12:40:20,0.0,5,7.703,0.0,0.0,0.0,25.5,-6.1,-5.1,1024,1024,1024,1024,0,0,0,0,86,4.705,69.98,97.769032,P-GPS,,29.8
208000,2026-01-09 12:40:20,0.0,5,7.703,0.0,0.0,0.0,25.6,-6.1,-5.1,1024,1024,1024,1024,0,0,0,0,86,4.705,69.98,97.769032,P-GPS,,29.8
208100,2026-01-09 12:40:21,0.0,5,7.703,0.0,0.0,0.0,25.6,-6.2,-4.9,1024,1024,1024,1024,0,0,0,0,86,4.705,69.98,97.769032,P-GPS,,29.8
208200,2026-01-09 12:40:21,0.0,5,7.703,0.0,0.0,0.0,25.6,-6.1,-4.9,1024,1024,1024,1024,0,0,0,0,86,4.705,69.98,98.097116,P-GPS,,29.9
208300,2026-01-09 12:40:21,0.0,5,7.709,0.0,0.0,0.0,25.6,-6.1,-4.8,1024,1024,1024,1024,0,0,0,0,86,4.771,69.98,98.097116,P-GPS,,29.9
208400,2026-01-09 12:40:21,0.0,5,7.709,0.0,0.0,0.0,25.5,-5.7,-4.6,1024,1024,1024,1024,0,0,0,0,86,4.771,69.98,98.097116,P-GPS,,29.9
208500,2026-01-09 12:40:21,0.0,5,7.709,0.0,0.0,0.0,25.6,-6.0,-4.5,1024,1024,1024,1024,0,0,0,0,86,4.771,69.98,98.097116,P-GPS,,29.9
208600,2026-01-09 12:40:21,0.0,5,7.709,0.0,0.0,0.0,25.6,-6.3,-4.5,1024,1024,1024,1024,0,0,0,0,86,4.771,69.98,98.097116,P-GPS,,29.9
208700,2026-01-09 12:40:21,0.0,5,7.709,0.0,0.0,0.0,25.6,-5.9,-4.4,1024,1024,1024,1024,0,0,0,0,86,4.771,69.98,98.097116,P-GPS,,29.9
208800,2026-01-09 12:40:21,0.0,5,7.709,0.0,0.0,0.0,25.5,-5.5,-4.8,1024,1024,1024,1024,0,0,0,0,86,4.771,69.98,98.097116,P-GPS,,29.9
208900,2026-01-09 12:40:21,0.0,5,7.709,0.0,0.0,0.0,25.4,-5.4,-4.9,1024,1024,1024,1024,0,0,0,0,86,4.771,69.98,98.097116,P-GPS,,29.9
209000,2026-01-09 12:40:21,0.0,5,7.709,0.0,0.0,0.0,25.4,-5.4,-5.0,1024,1024,1024,1024,0,0,0,0,86,4.771,69.98,98.097116,P-GPS,,29.9
209100,2026-01-09 12:40:21,0.0,5,7.709,0.0,0.0,0.0,25.4,-5.3,-5.0,1024,1024,1024,1024,0,0,0,0,86,4.771,69.98,98.097116,P-GPS,,29.9
209200,2026-01-09 12:40:22,0.0,5,7.709,0.0,0.0,0.0,25.4,-5.8,-5.0,1024,1024,1024,1024,0,0,0,0,86,4.771,69.98,98.097116,P-GPS,,29.9
209300,2026-01-09 12:40:22,0.0,5,7.709,0.0,0.0,0.0,25.4,-5.9,-4.6,1024,1024,1024,1024,0,0,0,0,86,4.771,69.98,98.097116,P-GPS,,29.9
209400,2026-01-09 12:40:22,0.0,5,7.712,0.0,0.0,0.0,25.4,-5.7,-4.4,1024,1024,1024,1024,0,0,0,0,86,4.785,70.16,98.4252,P-GPS,,30.0
209500,2026-01-09 12:40:22,0.0,5,7.712,0.0,0.0,0.0,25.5,-5.7,-4.1,1024,1024,1024,1024,0,0,0,0,86,4.785,70.16,98.4252,P-GPS,,30.0
209600,2026-01-09 12:40:22,0.0,5,7.712,0.0,0.0,0.0,25.5,-5.5,-4.1,1024,1024,1024,1024,0,0,0,0,86,4.785,70.16,98.097116,P-GPS,,29.9
209700,2026-01-09 12:40:22,0.0,5,7.712,0.0,0.0,0.0,25.5,-4.7,-4.6,1024,1024,1024,1024,0,0,0,0,86,4.785,70.16,98.097116,P-GPS,,29.9
209800,2026-01-09 12:40:22,0.0,5,7.712,0.0,0.0,0.0,25.5,-5.4,-4.5,1024,1024,1024,1024,0,0,0,0,86,4.785,70.16,98.097116,P-GPS,,29.9
209900,2026-01-09 12:40:22,0.0,5,7.712,0.0,0.0,0.0,25.4,-5.5,-4.3,1024,1024,1024,1024,0,0,0,0,86,4.785,70.16,98.097116,P-GPS,,29.9
210000,2026-01-09 12:40:22,0.0,5,7.712,0.0,0.0,0.0,25.4,-6.2,-3.9,1024,1024,1024,1024,0,0,0,0,86,4.785,70.16,98.097116,P-GPS,,29.9
210100,2026-01-09 12:40:22,0.0,5,7.712,0.0,0.0,0.0,25.5,-6.3,-3.3,1024,1024,1024,1024,0,0,0,0,86,4.785,70.16,98.097116,P-GPS,,29.9
210200,2026-01-09 12:40:23,0.0,5,7.712,0.0,0.0,0.0,25.5,-5.9,-3.3,1024,1024,1024,1024,0,0,0,0,86,4.785,70.16,98.097116,P-GPS,,29.9
210300,2026-01-09 12:40:23,0.0,5,7.712,0.0,0.0,0.0,25.6,-5.6,-3.6,1024,1024,1024,1024,0,0,0,0,86,4.785,70.16,98.097116,P-GPS,,29.9
210400,2026-01-09 12:40:23,0.0,5,7.712,0.0,0.0,0.0,25.7,-5.3,-3.9,1024,1024,1024,1024,0,0,0,0,86,4.785,70.16,98.4252,P-GPS,,30.0
210500,2026-01-09 12:40:23,0.0,5,7.713,0.0,0.0,0.0,25.7,-4.8,-4.3,1024,1024,1024,1024,0,0,0,0,85,4.554,70.16,98.4252,P-GPS,,30.0
210600,2026-01-09 12:40:23,0.0,5,7.713,0.0,0.0,0.0,25.8,-5.0,-4.2,1024,1024,1024,1024,0,0,0,0,85,4.554,70.16,98.4252,P-GPS,,30.0
210700,2026-01-09 12:40:23,0.0,5,7.713,0.0,0.0,0.0,25.9,-5.0,-4.6,1024,1024,1024,1024,0,0,0,0,85,4.554,70.16,98.4252,P-GPS,,30.0
210800,2026-01-09 12:40:23,0.0,5,7.713,0.0,0.0,0.0,25.8,-4.9,-4.6,1024,1024,1024,1024,0,0,0,0,85,4.554,70.16,98.4252,P-GPS,,30.0
210900,2026-01-09 12:40:23,0.0,5,7.713,0.0,0.0,0.0,25.8,-4.4,-4.8,1024,1024,1024,1024,0,0,0,0,85,4.554,70.16,98.4252,P-GPS,,30.0
211000,2026-01-09 12:40:23,0.0,5,7.713,0.0,0.0,0.0,25.8,-4.8,-4.7,1024,1024,1024,1024,0,0,0,0,85,4.554,70.16,98.4252,P-GPS,,30.0
211100,2026-01-09 12:40:23,0.0,5,7.713,0.0,0.0,0.0,25.9,-4.8,-4.5,1024,1024,1024,1024,0,0,0,0,85,4.554,70.16,98.4252,P-GPS,,30.0
211200,2026-01-09 12:40:24,0.0,5,7.713,0.0,0.0,0.0,25.8,-4.7,-4.7,1024,1024,1024,1024,0,0,0,0,85,4.554,70.16,98.4252,P-GPS,,30.0
211300,2026-01-09 12:40:24,0.0,5,7.713,0.0,0.0,0.0,25.7,-4.6,-5.1,1024,1024,1024,1024,0,0,0,0,85,4.554,70.16,98.4252,P-GPS,,30.0
211400,2026-01-09 12:40:24,0.0,5,7.713,0.0,0.0,0.0,25.7,-4.8,-5.1,1024,1024,1024,1024,0,0,0,0,85,4.554,70.16,98.4252,P-GPS,,30.0
211500,2026-01-09 12:40:24,0.0,5,7.713,0.0,0.0,0.0,25.9,-5.1,-4.9,1024,1024,1024,1024,0,0,0,0,85,4.554,70.16,98.4252,P-GPS,,30.0
211600,2026-01-09 12:40:24,0.0,5,7.728,0.0,0.0,0.0,26.0,-5.1,-4.6,1024,1024,1024,1024,0,0,0,0,85,4.413,70.16,98.4252,P-GPS,,30.0
211700,2026-01-09 12:40:24,0.0,5,7.728,0.0,0.0,0.0,25.9,-5.1,-5.1,1024,1024,1024,1024,0,0,0,0,85,4.413,70.16,98.4252,P-GPS,,30.0
211800,2026-01-09 12:40:24,0.0,5,7.728,0.0,0.0,0.0,25.8,-4.7,-5.3,1024,1024,1024,1024,0,0,0,0,85,4.413,70.16,98.4252,P-GPS,,30.0
211900,2026-01-09 12:40:24,0.0,5,7.728,0.0,0.0,0.0,25.8,-4.2,-5.6,1024,1024,1024,1024,0,0,0,0,85,4.413,70.16,98.4252,P-GPS,,30.0
212000,2026-01-09 12:40:24,0.0,5,7.728,0.0,0.0,0.0,25.9,-4.6,-5.6,1024,1024,1024,1024,0,0,0,0,85,4.413,70.16,98.4252,P-GPS,,30.0
212100,2026-01-09 12:40:24,0.0,5,7.728,0.0,0.0,0.0,25.9,-4.5,-5.4,1024,1024,1024,1024,0,0,0,0,85,4.413,70.16,98.4252,P-GPS,,30.0
212200,2026-01-09 12:40:25,0.0,5,7.728,0.0,0.0,0.0,25.8,-4.0,-5.4,1024,1024,1024,1024,0,0,0,0,85,4.413,70.16,98.4252,P-GPS,,30.0
212300,2026-01-09 12:40:25,0.0,5,7.728,0.0,0.0,0.0,25.8,-3.6,-5.6,1024,1024,1024,1024,0,0,0,0,85,4.413,70.16,98.4252,P-GPS,,30.0
212400,2026-01-09 12:40:25,0.0,5,7.728,0.0,0.0,0.0,25.8,-4.1,-5.4,1024,1024,1024,1024,0,0,0,0,85,4.413,70.16,98.4252,P-GPS,,30.0
212500,2026-01-09 12:40:25,0.0,5,7.728,0.0,0.0,0.0,25.9,-4.5,-4.9,1024,1024,1024,1024,0,0,0,0,85,4.413,70.16,98.4252,P-GPS,,30.0
212600,2026-01-09 12:40:25,0.0,5,7.728,0.0,0.0,0.0,25.8,-4.3,-5.1,1024,1024,1024,1024,0,0,0,0,85,4.413,70.16,98.4252,P-GPS,,30.0
212700,2026-01-09 12:40:25,0.0,5,7.731,0.0,0.0,0.0,25.8,-4.1,-5.1,1024,1024,1328,1024,0,0,46,0,85,4.359,70.16,98.4252,P-GPS,,30.0
212800,2026-01-09 12:40:25,0.0,5,7.731,0.0,0.0,0.0,25.8,-4.1,-5.0,1024,1024,1684,1024,0,0,100,0,85,4.359,70.16,98.4252,P-GPS,,30.0
212900,2026-01-09 12:40:25,0.0,5,7.731,0.0,0.0,0.0,25.9,-3.3,-4.5,1024,1024,1684,1024,0,0,100,0,85,4.359,70.16,98.4252,P-GPS,,30.0
