time(millisecond),timestamp,speed(mph),gpslevel,voltage(v),xSpeed(mph),ySpeed(mph),zSpeed(mph),compass_heading(degrees),pitch(degrees),roll(degrees),rc_elevator,rc_aileron,rc_throttle,rc_rudder,rc_elevator(percent),rc_aileron(percent),rc_throttle(percent),rc_rudder(percent),battery_percent,current(A),battery_temperature(f),ascent(feet),flycState,message,height_above_takeoff(meters)
6500,2026-01-09 20:06:37,0.223694,5,7.743,0.223694,0.0,-4.47388,5.9,3.7,0.5,1024,1024,1684,1024,0,0,100,0,97,6.117,62.06,26.574804,P-GPS,,8.1
6600,2026-01-09 20:06:37,0.4921268,5,7.743,0.447388,-0.223694,-4.47388,6.0,4.5,1.6,1024,1024,1684,1024,0,0,100,0,97,6.117,62.06,27.230972,P-GPS,,8.3
6700,2026-01-09 20:06:37,0.3131716,5,7.743,0.223694,-0.223694,-4.47388,6.1,4.5,2.2,1024,1024,1684,1024,0,0,100,0,97,6.117,62.06,27.88714,P-GPS,,8.5
6800,2026-01-09 20:06:37,0.223694,5,7.743,-0.223694,0.0,-4.47388,6.1,4.9,2.5,1024,1024,1684,1024,0,0,100,0,97,6.117,62.06,28.543308,P-GPS,,8.7
6900,2026-01-09 20:06:37,0.223694,5,7.739,-0.223694,0.0,-4.47388,6.0,3.4,1.3,1024,1024,1684,1024,0,0,100,0,97,6.033,62.06,29.199476,P-GPS,,8.9
7000,2026-01-09 20:06:38,0.0,5,7.739,0.0,0.0,-4.47388,6.0,3.9,1.4,1024,1024,1684,1024,0,0,100,0,97,6.033,62.06,29.855644,P-GPS,,9.1
7100,2026-01-09 20:06:38,0.0,5,7.739,0.0,0.0,-4.47388,5.8,3.5,1.2,1024,1024,1684,1024,0,0,100,0,97,6.033,62.06,30.839896,P-GPS,,9.4
7200,2026-01-09 20:06:38,0.0,5,7.739,0.0,0.0,-4.47388,5.7,3.2,2.3,1024,1024,1684,1024,0,0,100,0,97,6.033,62.06,31.496064,P-GPS,,9.6
7300,2026-01-09 20:06:38,0.0,5,7.739,0.0,0.0,-4.47388,5.6,2.9,2.3,1024,1024,1684,1024,0,0,100,0,97,6.033,62.06,32.152232,P-GPS,,9.8
7400,2026-01-09 20:06:38,0.223694,5,7.739,-0.223694,0.0,-4.47388,5.6,2.1,1.4,1024,1024,1684,1024,0,0,100,0,97,6.033,62.06,32.8084,P-GPS,,10.0
7500,2026-01-09 20:06:38,0.223694,5,7.739,-0.223694,0.0,-4.47388,5.5,1.5,1.3,1024,1024,1684,1024,0,0,100,0,97,6.033,62.06,33.464568,P-GPS,,10.2
7600,2026-01-09 20:06:38,0.223694,5,7.739,-0.447388,0.223694,-4.47388,5.5,0.3,0.1,1024,1024,1024,1024,0,0,0,0,97,6.033,62.06,34.120736,P-GPS,,10.4
7700,2026-01-09 20:06:38,0.4921268,5,7.739,-0.447388,0.223694,-4.47388,5.5,-1.4,-0.9,1024,1024,1024,1024,0,0,0,0,97,6.033,62.06,34.776904,P-GPS,,10.6
7800,2026-01-09 20:06:38,0.4921268,5,7.739,-0.447388,0.223694,-4.026492,5.6,-1.5,-0.9,1024,1024,1024,1024,0,0,0,0,97,6.033,62.06,35.433072,P-GPS,,10.8
7900,2026-01-09 20:06:38,0.3131716,5,7.739,-0.223694,0.223694,-3.579104,5.6,-1.1,-1.1,1024,1024,1024,1024,0,0,0,0,97,6.033,62.06,36.08924,P-GPS,,11.0
8000,2026-01-09 20:06:38,0.3131716,5,7.761,-0.223694,0.223694,-2.684328,5.6,-0.9,-1.2,1024,1024,1024,1024,0,0,0,0,97,5.624,62.06,36.417324,P-GPS,,11.1
8100,2026-01-09 20:06:39,0.223694,5,7.761,0.0,0.223694,-2.013246,5.7,-1.0,-1.3,1024,1024,1024,1024,0,0,0,0,97,5.624,62.06,36.745408,P-GPS,,11.2
8200,2026-01-09 20:06:39,0.223694,5,7.761,0.0,0.223694,-1.11847,5.7,-0.6,-1.5,1024,1024,1024,1024,0,0,0,0,97,5.624,62.06,37.073492,P-GPS,,11.3
8300,2026-01-09 20:06:39,0.0,5,7.761,0.0,0.0,-0.671082,5.7,-0.3,-1.6,1024,1024,1024,1024,0,0,0,0,97,5.624,62.06,37.073492,P-GPS,,11.3
8400,2026-01-09 20:06:39,0.223694,5,7.761,0.0,0.223694,-0.223694,5.7,0.1,-1.9,1024,1024,1024,1024,0,0,0,0,97,5.624,62.06,37.073492,P-GPS,,11.3
8500,2026-01-09 20:06:39,0.0,5,7.761,0.0,0.0,-0.223694,5.7,0.1,-2.0,1024,1024,1024,1024,0,0,0,0,97,5.624,62.06,37.401576,P-GPS,,11.4
8600,2026-01-09 20:06:39,0.0,5,7.761,0.0,0.0,0.0,5.7,0.6,-1.8,1024,1024,1024,1024,0,0,0,0,97,5.624,62.06,37.401576,P-GPS,,11.4
8700,2026-01-09 20:06:39,0.0,5,7.761,0.0,0.0,0.0,5.8,0.5,-1.2,1024,1024,1024,1024,0,0,0,0,97,5.624,62.06,37.401576,P-GPS,,11.4
8800,2026-01-09 20:06:39,0.0,5,7.761,0.0,0.0,0.0,5.8,1.0,-1.5,1024,1024,1024,1024,0,0,0,0,97,5.624,62.06,37.401576,P-GPS,,11.4
8900,2026-01-09 20:06:39,0.0,5,7.761,0.0,0.0,0.0,5.8,1.0,-2.1,1024,1024,1024,1024,0,0,0,0,97,5.624,62.06,37.401576,P-GPS,,11.4
9000,2026-01-09 20:06:39,0.0,5,7.761,0.0,0.0,0.0,5.7,1.5,-2.2,1024,1024,1024,1024,0,0,0,0,97,5.624,62.06,37.401576,P-GPS,,11.4
9100,2026-01-09 20:06:40,0.223694,5,7.803,0.223694,0.0,0.0,5.8,1.3,-2.0,1024,1024,1024,1024,0,0,0,0,97,4.505,62.06,37.401576,P-GPS,,11.4
9200,2026-01-09 20:06:40,0.223694,5,7.803,0.0,0.0,0.0,5.8,1.5,-1.9,1024,1024,1024,1024,0,0,0,0,97,4.505,62.06,37.401576,P-GPS,,11.4
9300,2026-01-09 20:06:40,0.223694,5,7.803,0.223694,0.0,0.0,5.8,1.3,-2.0,1024,1024,1024,1024,0,0,0,0,97,4.505,62.06,37.401576,P-GPS,,11.4
9400,2026-01-09 20:06:40,0.0,5,7.803,0.0,0.0,0.0,5.8,1.5,-2.1,1024,1024,1024,1024,0,0,0,0,97,4.505,62.06,37.073492,P-GPS,,11.3
9500,2026-01-09 20:06:40,0.0,5,7.803,0.0,0.0,0.0,5.8,1.0,-1.8,1024,1024,1024,1024,0,0,0,0,97,4.505,62.06,37.073492,P-GPS,,11.3
9600,2026-01-09 20:06:40,0.0,5,7.803,0.0,0.0,0.0,5.8,1.3,-1.6,1024,1024,1024,1024,0,0,0,0,97,4.505,62.06,37.073492,P-GPS,,11.3
9700,2026-01-09 20:06:40,0.223694,5,7.803,0.223694,0.0,0.0,5.9,0.8,-1.2,1024,1024,1024,1024,0,0,0,0,97,4.505,62.06,37.073492,P-GPS,,11.3
9800,2026-01-09 20:06:40,0.223694,5,7.803,0.223694,0.0,0.0,5.9,1.1,-1.8,1024,1024,1024,1024,0,0,0,0,97,4.505,62.06,37.073492,P-GPS,,11.3
9900,2026-01-09 20:06:40,0.223694,5,7.803,0.223694,0.0,0.0,5.9,1.0,-1.6,1024,1024,1024,1024,0,0,0,0,97,4.505,62.06,37.073492,P-GPS,,11.3
10000,2026-01-09 20:06:40,0.223694,5,7.803,0.223694,0.0,0.0,5.9,1.3,-1.6,1024,1024,1024,1024,0,0,0,0,97,4.505,62.06,37.073492,P-GPS,,11.3
10100,2026-01-09 20:06:41,0.223694,5,7.803,0.223694,0.0,0.0,6.0,1.4,-1.2,1024,1024,1024,1024,0,0,0,0,97,4.505,62.06,37.073492,P-GPS,,11.3
10200,2026-01-09 20:06:41,0.223694,5,7.783,0.223694,0.0,0.0,5.9,1.6,-1.8,1024,1024,1024,1024,0,0,0,0,97,5.16,62.24,37.073492,P-GPS,,11.3
10300,2026-01-09 20:06:41,0.223694,5,7.783,0.223694,0.0,0.0,5.9,1.4,-1.3,1024,1024,1024,1024,0,0,0,0,97,5.16,62.24,37.073492,P-GPS,,11.3
10400,2026-01-09 20:06:41,0.223694,5,7.783,0.223694,0.0,0.0,5.9,1.8,-0.9,1024,1024,1024,1024,0,0,0,0,97,5.16,62.24,37.073492,P-GPS,,11.3
10500,2026-01-09 20:06:41,0.223694,5,7.783,0.223694,0.0,0.0,5.9,1.4,-0.8,1024,1024,1024,1024,0,0,0,0,97,5.16,62.24,36.745408,P-GPS,,11.2
10600,2026-01-09 20:06:41,0.223694,5,7.783,0.223694,0.0,0.0,5.9,2.0,-0.4,1024,1024,1024,1024,0,0,0,0,97,5.16,62.24,36.745408,P-GPS,,11.2
10700,2026-01-09 20:06:41,0.223694,5,7.783,0.223694,0.0,0.0,5.9,1.8,-0.4,1024,1024,1024,1024,0,0,0,0,97,5.16,62.24,36.745408,P-GPS,,11.2
10800,2026-01-09 20:06:41,0.3131716,5,7.783,0.223694,-0.223694,0.0,5.9,1.9,-0.3,1024,1024,1024,1024,0,0,0,0,97,5.16,62.24,36.745408,P-GPS,,11.2
10900,2026-01-09 20:06:41,0.223694,5,7.783,0.223694,0.0,0.0,5.9,1.6,-0.2,1024,1024,1024,1024,0,0,0,0,97,5.16,62.24,36.745408,P-GPS,,11.2
11000,2026-01-09 20:06:41,0.223694,5,7.783,0.0,0.0,0.0,5.9,1.6,-0.2,1024,1024,1024,1024,0,0,0,0,97,5.16,62.24,36.745408,P-GPS,,11.2
11100,2026-01-09 20:06:42,0.0,5,7.783,0.0,0.0,0.0,5.9,1.3,0.1,1024,1024,1024,1024,0,0,0,0,97,5.16,62.24,36.745408,P-GPS,,11.2
11200,2026-01-09 20:06:42,0.0,5,7.783,0.0,0.0,0.0,5.9,1.4,0.1,1024,1024,1024,1024,0,0,0,0,97,5.16,62.24,36.745408,P-GPS,,11.2
11300,2026-01-09 20:06:42,0.0,5,7.783,0.0,0.0,0.0,5.9,1.4,0.1,1024,1024,1024,1024,0,0,0,0,97,5.16,62.24,36.745408,P-GPS,SD card speed low. Normal use may be affected. Replace SD card (Code: 10028). Gimbal stuck. Make sure gimbal cover is removed and manually check whether gimbal can rotate freely (Code: 40002),11.2
11400,2026-01-09 20:06:42,0.0,5,7.783,0.0,0.0,0.0,5.9,1.5,0.1,1024,1024,1024,1024,0,0,0,0,97,5.16,62.24,36.745408,P-GPS,,11.2
11500,2026-01-09 20:06:42,0.0,5,7.783,0.0,0.0,0.0,5.9,1.1,0.0,1024,1024,1024,1024,0,0,0,0,97,5.16,62.24,36.417324,P-GPS,,11.1
11600,2026-01-09 20:06:42,0.0,5,7.783,0.0,0.0,0.0,6.0,1.5,0.0,1024,1024,1024,1024,0,0,0,0,97,5.16,62.24,36.417324,P-GPS,,11.1
11700,2026-01-09 20:06:42,0.0,5,7.783,0.0,0.0,0.0,5.9,1.1,-0.2,1024,1024,1024,1024,0,0,0,0,97,5.16,62.24,36.417324,P-GPS,,11.1
11800,2026-01-09 20:06:42,0.0,5,7.783,0.0,0.0,0.0,6.0,1.5,-0.2,1024,1024,1024,1024,0,0,0,0,97,5.16,62.24,36.417324,P-GPS,,11.1
11900,2026-01-09 20:06:42,0.0,5,7.783,0.0,0.0,0.0,5.9,1.3,-0.4,1024,1024,1024,1024,0,0,0,0,97,5.16,62.24,36.417324,P-GPS,,11.1
12000,2026-01-09 20:06:42,0.0,5,7.783,0.0,0.0,0.0,5.9,1.5,-0.5,1024,1024,1024,1024,0,0,0,0,97,5.16,62.24,36.417324,P-GPS,,11.1
12100,2026-01-09 20:06:43,0.0,5,7.783,0.0,0.0,0.0,5.9,1.3,-0.5,1024,1024,1024,1024,0,0,0,0,97,5.16,62.24,36.417324,P-GPS,,11.1
12200,2026-01-09 20:06:43,0.0,5,7.783,0.0,0.0,0.0,5.9,1.5,-0.4,1024,1024,1024,1024,0,0,0,0,97,5.16,62.24,36.417324,P-GPS,,11.1
12300,2026-01-09 20:06:43,0.0,5,7.783,0.0,0.0,0.0,5.9,1.3,-0.4,1024,1024,1024,1024,0,0,0,0,97,5.16,62.24,36.417324,P-GPS,,11.1
12400,2026-01-09 20:06:43,0.0,5,7.808,0.0,0.0,0.0,6.0,1.4,-0.4,1024,1024,1024,1024,0,0,0,0,97,4.911,62.24,36.417324,P-GPS,,11.1
12500,2026-01-09 20:06:43,0.0,5,7.808,0.0,0.0,0.0,6.0,1.3,-0.3,1024,1024,1024,1024,0,0,0,0,97,4.911,62.24,36.417324,P-GPS,,11.1
12600,2026-01-09 20:06:43,0.0,5,7.808,0.0,0.0,0.0,6.0,1.5,-0.4,1024,1024,1024,1024,0,0,0,0,97,4.911,62.24,36.417324,P-GPS,,11.1
12700,2026-01-09 20:06:43,0.0,5,7.808,0.0,0.0,0.0,6.0,1.4,-0.3,1024,1024,1024,1024,0,0,0,0,97,4.911,62.24,36.417324,P-GPS,,11.1
12800,2026-01-09 20:06:43,0.0,5,7.808,0.0,0.0,0.0,6.0,1.5,-0.4,1024,1024,1024,1024,0,0,0,0,97,4.911,62.24,36.417324,P-GPS,,11.1
12900,2026-01-09 20:06:43,0.0,5,7.808,0.0,0.0,0.0,5.9,1.4,-0.4,1024,1024,1024,1024,0,0,0,0,97,4.911,62.24,36.417324,P-GPS,,11.1
13000,2026-01-09 20:06:44,0.0,5,7.808,0.0,0.0,0.0,5.9,1.6,-0.4,1024,1024,1024,1024,0,0,0,0,97,4.911,62.24,36.417324,P-GPS,,11.1
13100,2026-01-09 20:06:44,0.0,5,7.808,0.0,0.0,0.0,5.9,1.4,-0.4,1024,1024,1024,1024,0,0,0,0,97,4.911,62.24,36.417324,P-GPS,,11.1
13200,2026-01-09 20:06:44,0.0,5,7.808,0.0,0.0,0.0,5.9,1.4,-0.5,1024,1024,1024,1024,0,0,0,0,97,4.911,62.24,36.417324,P-GPS,,11.1
13300,2026-01-09 20:06:44,0.0,5,7.808,0.0,0.0,0.0,5.9,1.3,-0.4,1024,1024,1024,1024,0,0,0,0,97,4.911,62.24,36.417324,P-GPS,,11.1
13400,2026-01-09 20:06:44,0.0,5,7.808,0.0,0.0,0.0,5.9,1.5,-0.5,1024,1024,1024,1024,0,0,0,0,97,4.911,62.24,36.417324,P-GPS,,11.1
13500,2026-01-09 20:06:44,0.0,5,7.801,0.0,0.0,0.0,5.9,1.4,-0.4,1024,1024,1024,1024,0,0,0,0,97,4.806,62.42,36.417324,P-GPS,,11.1
13600,2026-01-09 20:06:44,0.0,5,7.801,0.0,0.0,0.0,5.9,1.6,-0.5,1024,1024,1024,1024,0,0,0,0,97,4.806,62.42,36.417324,P-GPS,,11.1
13700,2026-01-09 20:06:44,0.0,5,7.801,0.0,0.0,0.0,5.9,1.5,-0.4,1024,1024,1024,1024,0,0,0,0,97,4.806,62.42,36.417324,P-GPS,,11.1
13800,2026-01-09 20:06:44,0.0,5,7.801,0.0,0.0,0.0,5.9,1.7,-0.4,1024,1024,1024,1024,0,0,0,0,97,4.806,62.42,36.417324,P-GPS,,11.1
13900,2026-01-09 20:06:44,0.0,5,7.801,0.0,0.0,0.0,5.9,1.6,-0.3,1024,1024,1024,1024,0,0,0,0,97,4.806,62.42,36.417324,P-GPS,,11.1
14000,2026-01-09 20:06:44,0.0,5,7.801,0.0,0.0,0.0,5.9,1.8,-0.4,1024,1024,1024,1024,0,0,0,0,97,4.806,62.42,36.417324,P-GPS,,11.1
14100,2026-01-09 20:06:45,0.0,5,7.801,0.0,0.0,0.0,5.9,1.7,-0.4,1024,1024,1024,1024,0,0,0,0,97,4.806,62.42,36.417324,P-GPS,,11.1
14200,2026-01-09 20:06:45,0.0,5,7.801,0.0,0.0,0.0,5.9,1.8,-0.4,1024,1024,1024,1024,0,0,0,0,97,4.806,62.42,36.417324,P-GPS,,11.1
14300,2026-01-09 20:06:45,0.0,5,7.801,0.0,0.0,0.0,5.9,1.7,-0.3,1024,1024,1024,1024,0,0,0,0,97,4.806,62.42,36.417324,P-GPS,,11.1
14400,2026-01-09 20:06:45,0.0,5,7.801,0.0,0.0,0.0,5.9,1.7,-0.4,1024,1024,1024,1024,0,0,0,0,97,4.806,62.42,36.417324,P-GPS,,11.1
14500,2026-01-09 20:06:45,0.0,5,7.801,0.0,0.0,0.0,5.9,1.7,-0.3,1024,1024,1024,1024,0,0,0,0,97,4.806,62.42,36.417324,P-GPS,,11.1
14600,2026-01-09 20:06:45,0.0,5,7.801,0.0,0.0,0.0,5.9,1.8,-0.3,1024,1024,1024,1024,0,0,0,0,97,4.806,62.42,36.417324,P-GPS,,11.1
14700,2026-01-09 20:06:45,0.0,5,7.797,0.0,0.0,0.0,5.9,1.7,-0.3,1024,1024,1024,1024,0,0,0,0,97,4.812,62.42,36.417324,P-GPS,,11.1
14800,2026-01-09 20:06:45,0.0,5,7.797,0.0,0.0,0.0,5.9,1.6,-0.2,1024,1024,1024,1024,0,0,0,0,97,4.812,62.42,36.417324,P-GPS,,11.1
14900,2026-01-09 20:06:45,0.0,5,7.797,0.0,0.0,0.0,5.9,1.3,-0.2,1024,1024,1024,1024,0,0,0,0,97,4.812,62.42,36.417324,P-GPS,,11.1
15000,2026-01-09 20:06:46,0.0,5,7.797,0.0,0.0,0.0,5.9,1.4,-0.2,1024,1024,1024,1024,0,0,0,0,97,4.812,62.42,36.417324,P-GPS,,11.1
15100,2026-01-09 20:06:46,0.0,5,7.797,0.0,0.0,0.0,5.9,1.3,-0.2,1024,1024,1024,1024,0,0,0,0,97,4.812,62.42,36.417324,P-GPS,,11.1
15200,2026-01-09 20:06:46,0.0,5,7.797,0.0,0.0,0.0,5.9,1.5,-0.2,1024,1024,1024,1024,0,0,0,0,97,4.812,62.42,36.417324,P-GPS,,11.1
15300,2026-01-09 20:06:46,0.0,5,7.797,0.0,0.0,0.0,5.9,1.8,0.0,1024,1024,1024,1024,0,0,0,0,97,4.812,62.42,36.417324,P-GPS,,11.1
15400,2026-01-09 20:06:46,0.0,5,7.797,0.0,0.0,0.0,5.9,1.7,-0.1,1024,1024,1024,1024,0,0,0,0,97,4.812,62.42,36.417324,P-GPS,,11.1
15500,2026-01-09 20:06:46,0.0,5,7.797,0.0,0.0,0.0,6.0,1.5,-0.1,1024,1024,1024,1024,0,0,0,0,97,4.812,62.42,36.417324,P-GPS,,11.1
15600,2026-01-09 20:06:46,0.0,5,7.797,0.0,0.0,0.0,6.0,1.6,-0.1,1024,1024,1024,1024,0,0,0,0,97,4.812,62.42,36.417324,P-GPS,,11.1
15700,2026-01-09 20:06:46,0.0,5,7.797,0.0,0.0,0.0,6.0,1.5,0.0,1024,1024,1024,1024,0,0,0,0,97,4.812,62.42,36.745408,P-GPS,,11.2
15800,2026-01-09 20:06:46,0.0,5,7.795,0.0,0.0,0.0,6.0,1.6,-0.2,1024,1024,1024,1024,0,0,0,0,97,4.829,62.6,36.745408,P-GPS,,11.2
15900,2026-01-09 20:06:46,0.0,5,7.795,0.0,0.0,0.0,6.0,1.6,-0.2,1024,1024,1024,1024,0,0,0,0,97,4.829,62.6,36.745408,P-GPS,,11.2
16000,2026-01-09 20:06:47,0.0,5,7.795,0.0,0.0,0.0,6.0,1.7,-0.3,1024,1024,1024,1024,0,0,0,0,97,4.829,62.6,36.745408,P-GPS,,11.2
16100,2026-01-09 20:06:47,0.0,5,7.795,0.0,0.0,0.0,6.0,1.5,-0.3,1024,1024,1024,1024,0,0,0,0,97,4.829,62.6,36.745408,P-GPS,,11.2
16200,2026-01-09 20:06:47,0.0,5,7.795,0.0,0.0,0.0,6.0,1.6,-0.3,1024,1024,1024,1024,0,0,0,0,97,4.829,62.6,36.745408,P-GPS,,11.2
16300,2026-01-09 20:06:47,0.0,5,7.795,0.0,0.0,0.0,6.0,1.5,-0.3,1024,1024,1024,1024,0,0,0,0,97,4.829,62.6,36.745408,P-GPS,,11.2
16400,2026-01-09 20:06:47,0.0,5,7.795,0.0,0.0,0.0,6.0,1.6,-0.4,1024,1024,1024,1024,0,0,0,0,97,4.829,62.6,36.745408,P-GPS,,11.2
16500,2026-01-09 20:06:47,0.0,5,7.795,0.0,0.0,0.0,6.0,1.5,-0.3,1024,1024,1024,1024,0,0,0,0,97,4.829,62.6,36.745408,P-GPS,,11.2
16600,2026-01-09 20:06:47,0.0,5,7.795,0.0,0.0,0.0,6.0,1.7,-0.3,1024,1024,1024,1024,0,0,0,0,97,4.829,62.6,36.745408,P-GPS,,11.2
16700,2026-01-09 20:06:47,0.0,5,7.795,0.0,0.0,0.0,6.0,1.5,-0.3,1024,1024,1024,1024,0,0,0,0,97,4.829,62.6,36.745408,P-GPS,,11.2
16800,2026-01-09 20:06:47,0.0,5,7.795,0.0,0.0,0.0,6.0,1.5,-0.3,1024,1024,1024,1024,0,0,0,0,97,4.829,62.6,36.745408,P-GPS,,11.2
16900,2026-01-09 20:06:47,0.0,5,7.796,0.0,0.0,0.0,6.0,1.4,-0.2,1024,1024,1024,1024,0,0,0,0,97,4.784,62.6,36.745408,P-GPS,,11.2
17000,2026-01-09 20:06:47,0.0,5,7.796,0.0,0.0,0.0,6.0,1.6,-0.2,1024,1024,1024,1024,0,0,0,0,97,4.784,62.6,36.745408,P-GPS,,11.2
17100,2026-01-09 20:06:48,0.0,5,7.796,0.0,0.0,0.0,6.0,1.5,-0.2,1024,1024,1024,1024,0,0,0,0,97,4.784,62.6,36.745408,P-GPS,,11.2
17200,2026-01-09 20:06:48,0.0,5,7.796,0.0,0.0,0.0,6.0,1.7,-0.3,1024,1024,1024,1024,0,0,0,0,97,4.784,62.6,36.745408,P-GPS,,11.2
17300,2026-01-09 20:06:48,0.0,5,7.796,0.0,0.0,0.0,5.9,1.3,-0.5,1024,1024,1024,1024,0,0,0,0,97,4.784,62.6,36.745408,P-GPS,,11.2
17400,2026-01-09 20:06:48,0.0,5,7.796,0.0,0.0,0.0,6.0,1.8,-0.4,1024,1024,1024,1024,0,0,0,0,97,4.784,62.6,36.745408,P-GPS,,11.2
17500,2026-01-09 20:06:48,0.0,5,7.796,0.0,0.0,0.0,6.0,1.8,-0.6,1024,1024,1024,1024,0,0,0,0,97,4.784,62.6,36.745408,P-GPS,,11.2
17600,2026-01-09 20:06:48,0.0,5,7.796,0.0,0.0,0.0,6.0,1.9,-0.6,1024,1024,1024,1024,0,0,0,0,97,4.784,62.6,36.745408,P-GPS,,11.2
17700,2026-01-09 20:06:48,0.0,5,7.796,0.0,0.0,0.0,6.0,1.9,-0.6,1024,1024,1024,1024,0,0,0,0,97,4.784,62.6,36.745408,P-GPS,,11.2
17800,2026-01-09 20:06:48,0.0,5,7.796,0.0,0.0,0.0,6.0,1.9,-0.7,1024,1024,1024,1024,0,0,0,0,97,4.784,62.6,36.745408,P-GPS,,11.2
17900,2026-01-09 20:06:48,0.0,5,7.796,0.0,0.0,0.0,6.0,1.8,-0.8,1024,1024,1024,1024,0,0,0,0,97,4.784,62.6,36.745408,P-GPS,,11.2
18000,2026-01-09 20:06:49,0.0,5,7.795,0.0,0.0,0.0,6.0,2.1,-0.7,1024,1024,1024,1024,0,0,0,0,97,4.802,62.6,36.745408,P-GPS,,11.2
18100,2026-01-09 20:06:49,0.0,5,7.795,0.0,0.0,0.0,6.0,2.1,-0.5,1024,1024,1024,1024,0,0,0,0,97,4.802,62.6,36.745408,P-GPS,,11.2
18200,2026-01-09 20:06:49,0.0,5,7.795,0.0,0.0,0.0,6.0,2.3,-0.4,1024,1024,1024,1024,0,0,0,0,97,4.802,62.6,36.745408,P-GPS,,11.2
18300,2026-01-09 20:06:49,0.0,5,7.795,0.0,0.0,0.0,6.0,2.4,-0.1,1024,1024,1024,1024,0,0,0,0,97,4.802,62.6,36.745408,P-GPS,,11.2
18400,2026-01-09 20:06:49,0.0,5,7.795,0.0,0.0,0.0,6.0,2.5,-0.1,1024,1024,1024,1024,0,0,0,0,97,4.802,62.6,36.745408,P-GPS,,11.2
18500,2026-01-09 20:06:49,0.0,5,7.795,0.0,0.0,0.0,6.0,2.3,0.0,1024,1024,1024,1024,0,0,0,0,97,4.802,62.6,36.745408,P-GPS,,11.2
18600,2026-01-09 20:06:49,0.0,5,7.795,0.0,0.0,0.0,6.0,2.3,0.0,1024,1024,1024,1024,0,0,0,0,97,4.802,62.6,36.745408,P-GPS,,11.2
18700,2026-01-09 20:06:49,0.0,5,7.795,0.0,0.0,0.0,6.0,2.4,-0.3,1024,1024,1024,1024,0,0,0,0,97,4.802,62.6,36.745408,P-GPS,,11.2
18800,2026-01-09 20:06:49,0.0,5,7.795,0.0,0.0,0.0,6.0,2.5,-0.7,1024,1024,1024,1024,0,0,0,0,97,4.802,62.6,37.073492,P-GPS,,11.3
18900,2026-01-09 20:06:49,0.0,5,7.795,0.0,0.0,0.0,6.0,2.0,-0.5,1024,1024,1024,1024,0,0,0,0,97,4.802,62.6,37.073492,P-GPS,,11.3
19000,2026-01-09 20:06:49,0.0,5,7.795,0.0,0.0,0.0,6.0,1.7,-0.5,1024,1024,1024,1024,0,0,0,0,97,4.802,62.6,37.073492,P-GPS,,11.3
19100,2026-01-09 20:06:50,0.0,5,7.794,0.0,0.0,0.0,5.9,1.7,0.0,1024,1024,1024,1024,0,0,0,0,96,4.828,62.78,37.073492,P-GPS,,11.3
19200,2026-01-09 20:06:50,0.0,5,7.794,0.0,0.0,0.0,5.9,1.8,0.1,1024,1024,1024,1024,0,0,0,0,96,4.828,62.78,37.073492,P-GPS,,11.3
19300,2026-01-09 20:06:50,0.0,5,7.794,0.0,0.0,0.0,5.9,2.0,0.2,1024,1024,1024,1024,0,0,0,0,96,4.828,62.78,37.073492,P-GPS,,11.3
19400,2026-01-09 20:06:50,0.0,5,7.794,0.0,0.0,0.0,5.9,2.2,0.2,1024,1024,1024,1024,0,0,0,0,96,4.828,62.78,37.073492,P-GPS,,11.3
19500,2026-01-09 20:06:50,0.0,5,7.794,0.0,0.0,0.0,5.9,2.1,0.3,1024,1024,1024,1024,0,0,0,0,96,4.828,62.78,37.073492,P-GPS,,11.3
19600,2026-01-09 20:06:50,0.0,5,7.794,0.0,0.0,0.0,5.9,2.2,0.3,1024,1024,1024,1024,0,0,0,0,96,4.828,62.78,37.073492,P-GPS,,11.3
19700,2026-01-09 20:06:50,0.0,5,7.794,0.0,0.0,0.0,5.9,2.2,0.2,1024,1024,1024,1024,0,0,0,0,96,4.828,62.78,37.073492,P-GPS,,11.3
19800,2026-01-09 20:06:50,0.0,5,7.794,0.0,0.0,0.0,5.9,2.4,0.1,1024,1024,1024,1024,0,0,0,0,96,4.828,62.78,37.401576,P-GPS,,11.4
19900,2026-01-09 20:06:50,0.0,5,7.794,0.0,0.0,0.0,5.8,2.6,0.0,1024,1024,1024,1024,0,0,0,0,96,4.828,62.78,37.401576,P-GPS,,11.4
20000,2026-01-09 20:06:50,0.0,5,7.794,0.0,0.0,0.0,5.9,2.4,0.1,1024,1024,1024,1024,0,0,0,0,96,4.828,62.78,37.401576,P-GPS,,11.4
20100,2026-01-09 20:06:51,0.0,5,7.794,0.0,0.0,0.0,5.9,2.1,0.2,1024,1024,1024,1024,0,0,0,0,96,4.828,62.78,37.401576,P-GPS,,11.4
20200,2026-01-09 20:06:51,0.0,5,7.794,0.0,0.0,0.0,5.9,2.2,0.2,1024,1024,1024,1024,0,0,0,0,96,4.828,62.78,37.401576,P-GPS,,11.4
20300,2026-01-09 20:06:51,0.0,5,7.793,0.0,0.0,0.0,5.9,2.1,0.1,1024,1024,1024,1024,0,0,0,0,96,4.714,62.78,37.401576,P-GPS,,11.4
20400,2026-01-09 20:06:51,0.0,5,7.793,0.0,0.0,0.0,5.9,1.9,0.2,1024,1024,1024,1024,0,0,0,0,96,4.714,62.78,37.401576,P-GPS,,11.4
20500,2026-01-09 20:06:51,0.0,5,7.793,0.0,0.0,0.0,6.0,1.7,0.2,1024,1024,1024,1024,0,0,0,0,96,4.714,62.78,37.401576,P-GPS,,11.4
20600,2026-01-09 20:06:51,0.0,5,7.793,0.0,0.0,0.0,6.0,1.8,0.0,1024,1024,1024,1024,0,0,0,0,96,4.714,62.78,37.72966,P-GPS,,11.5
20700,2026-01-09 20:06:51,0.0,5,7.793,0.0,0.0,0.0,5.9,1.8,0.0,1024,1024,1024,1024,0,0,0,0,96,4.714,62.78,37.72966,P-GPS,,11.5
20800,2026-01-09 20:06:51,0.0,5,7.793,0.0,0.0,0.0,5.9,2.0,-0.2,1024,1024,1024,1024,0,0,0,0,96,4.714,62.78,37.72966,P-GPS,,11.5
20900,2026-01-09 20:06:51,0.0,5,7.793,0.0,0.0,0.0,6.0,1.8,-0.1,1024,1024,1024,1024,0,0,0,0,96,4.714,62.78,37.72966,P-GPS,,11.5
21000,2026-01-09 20:06:52,0.0,5,7.793,0.0,0.0,0.0,6.0,1.9,-0.1,1024,1024,1024,1024,0,0,0,0,96,4.714,62.78,37.72966,P-GPS,,11.5
21100,2026-01-09 20:06:52,0.0,5,7.793,0.0,0.0,0.0,6.0,1.9,-0.1,1024,1024,1024,1024,0,0,0,0,96,4.714,62.78,37.72966,P-GPS,,11.5
21200,2026-01-09 20:06:52,0.0,5,7.793,0.0,0.0,0.0,6.0,1.9,-0.1,1024,1024,1024,1024,0,0,0,0,96,4.714,62.78,37.72966,P-GPS,,11.5
21300,2026-01-09 20:06:52,0.0,5,7.793,0.0,0.0,0.0,6.0,1.9,0.0,1024,1024,1024,1024,0,0,0,0,96,4.714,62.78,37.72966,P-GPS,,11.5
21400,2026-01-09 20:06:52,0.0,5,7.793,0.0,0.0,0.0,5.9,2.1,-0.2,1024,1024,1024,1024,0,0,0,0,96,4.714,62.78,37.72966,P-GPS,,11.5
21500,2026-01-09 20:06:52,0.0,5,7.793,0.0,0.0,0.0,5.9,2.2,-0.2,1024,1024,1024,1024,0,0,0,0,96,4.714,62.78,37.72966,P-GPS,,11.5
21600,2026-01-09 20:06:52,0.0,5,7.793,0.0,0.0,0.0,6.0,2.0,-0.1,1024,1024,1024,1024,0,0,0,0,96,4.714,62.78,37.72966,P-GPS,,11.5
21700,2026-01-09 20:06:52,0.0,5,7.793,0.0,0.0,0.0,6.0,1.9,0.0,1024,1024,1024,1024,0,0,0,0,96,4.714,62.78,37.72966,P-GPS,,11.5
21800,2026-01-09 20:06:52,0.0,5,7.793,0.0,0.0,0.0,5.9,1.7,-0.2,1024,1024,1024,1024,0,0,0,0,96,4.714,62.78,37.72966,P-GPS,,11.5
21900,2026-01-09 20:06:52,0.0,5,7.793,0.0,0.0,0.0,5.9,1.8,-0.4,1024,1024,1024,1024,0,0,0,0,96,4.714,62.78,37.72966,P-GPS,,11.5
22000,2026-01-09 20:06:52,0.0,5,7.793,0.0,0.0,0.0,5.9,1.9,-0.5,1024,1024,1024,1024,0,0,0,0,96,4.714,62.78,38.057744,P-GPS,,11.6
22100,2026-01-09 20:06:53,0.0,5,7.793,0.0,0.0,0.0,5.9,1.8,-0.4,1024,1024,1024,1024,0,0,0,0,96,4.714,62.78,38.057744,P-GPS,,11.6
22200,2026-01-09 20:06:53,0.0,5,7.793,0.0,0.0,0.0,5.9,1.8,-0.2,1024,1024,1024,1024,0,0,0,0,96,4.714,62.78,38.057744,P-GPS,,11.6
22300,2026-01-09 20:06:53,0.0,5,7.793,0.0,0.0,0.0,5.9,1.7,-0.1,1024,1024,1024,1024,0,0,0,0,96,4.714,62.78,38.057744,P-GPS,,11.6
22400,2026-01-09 20:06:53,0.0,5,7.793,0.0,0.0,0.0,5.9,1.9,0.0,1024,1024,1024,1024,0,0,0,0,96,4.714,62.78,38.057744,P-GPS,,11.6
22500,2026-01-09 20:06:53,0.0,5,7.79,0.0,0.0,0.0,5.9,2.1,0.0,1024,1024,1024,1024,0,0,0,0,96,4.75,62.96,38.057744,P-GPS,,11.6
22600,2026-01-09 20:06:53,0.0,5,7.79,0.0,0.0,0.0,5.9,2.2,0.0,1024,1024,1024,1024,0,0,0,0,96,4.75,62.96,38.057744,P-GPS,,11.6
22700,2026-01-09 20:06:53,0.0,5,7.79,0.0,0.0,0.0,5.9,2.0,0.1,1024,1024,1024,1024,0,0,0,0,96,4.75,62.96,38.057744,P-GPS,,11.6
22800,2026-01-09 20:06:53,0.0,5,7.79,0.0,0.0,0.0,5.9,2.1,0.2,1024,1024,1024,1024,0,0,0,0,96,4.75,62.96,38.057744,P-GPS,,11.6
22900,2026-01-09 20:06:53,0.0,5,7.79,0.0,0.0,0.0,5.9,2.2,0.3,1024,1024,1024,1024,0,0,0,0,96,4.75,62.96,38.057744,P-GPS,,11.6
23000,2026-01-09 20:06:53,0.0,5,7.79,0.0,0.0,0.0,5.9,2.2,0.3,1024,1024,1024,1024,0,0,0,0,96,4.75,62.96,38.057744,P-GPS,,11.6
23100,2026-01-09 20:06:54,0.0,5,7.79,0.0,0.0,0.0,5.9,2.0,0.2,1024,1024,1024,1024,0,0,0,0,96,4.75,62.96,38.057744,P-GPS,,11.6
23200,2026-01-09 20:06:54,0.0,5,7.79,0.0,0.0,0.0,5.9,1.9,0.1,1024,1024,1024,1024,0,0,0,0,96,4.75,62.96,38.057744,P-GPS,,11.6
23300,2026-01-09 20:06:54,0.0,5,7.79,0.0,0.0,0.0,6.0,1.6,0.1,1024,1024,1024,1024,0,0,0,0,96,4.75,62.96,38.057744,P-GPS,,11.6
23400,2026-01-09 20:06:54,0.0,5,7.79,0.0,0.0,0.0,5.9,1.9,0.1,1024,1024,1024,1024,0,0,0,0,96,4.75,62.96,38.057744,P-GPS,,11.6
23500,2026-01-09 20:06:54,0.0,5,7.79,0.0,0.0,0.0,5.9,1.9,0.1,1024,1024,1024,1024,0,0,0,0,96,4.75,62.96,38.057744,P-GPS,,11.6
23600,2026-01-09 20:06:54,0.0,5,7.79,0.0,0.0,0.0,5.9,2.0,0.0,1024,1024,1024,1024,0,0,0,0,96,4.719,62.96,38.057744,P-GPS,,11.6
23700,2026-01-09 20:06:54,0.0,5,7.79,0.0,0.0,0.0,5.8,2.0,-0.2,1024,1024,1024,1024,0,0,0,0,96,4.719,62.96,38.057744,P-GPS,,11.6
23800,2026-01-09 20:06:54,0.0,5,7.79,0.0,0.0,0.0,5.8,2.0,-0.3,1024,1024,1024,1024,0,0,0,0,96,4.719,62.96,38.057744,P-GPS,,11.6
23900,2026-01-09 20:06:54,0.0,5,7.79,0.0,0.0,0.0,5.8,1.8,-0.4,1024,1024,1024,1024,0,0,0,0,96,4.719,62.96,38.057744,P-GPS,,11.6
24000,2026-01-09 20:06:55,0.0,5,7.79,0.0,0.0,0.0,5.9,1.7,-0.4,1024,1024,1024,1024,0,0,0,0,96,4.719,62.96,38.057744,P-GPS,,11.6
24100,2026-01-09 20:06:55,0.0,5,7.79,0.0,0.0,0.0,5.9,1.5,-0.4,1024,1024,1024,1024,0,0,0,0,96,4.719,62.96,38.057744,P-GPS,,11.6
24200,2026-01-09 20:06:55,0.0,5,7.79,0.0,0.0,0.0,5.9,1.6,-0.2,1024,1024,1024,1024,0,0,0,0,96,4.719,62.96,38.057744,P-GPS,,11.6
24300,2026-01-09 20:06:55,0.0,5,7.79,0.0,0.0,0.0,5.9,1.6,-0.2,1024,1024,1024,1024,0,0,0,0,96,4.719,62.96,38.057744,P-GPS,,11.6
24400,2026-01-09 20:06:55,0.0,5,7.79,0.0,0.0,0.0,5.8,1.6,-0.3,1024,1024,1024,1024,0,0,0,0,96,4.719,62.96,38.057744,P-GPS,,11.6
24500,2026-01-09 20:06:55,0.0,5,7.79,0.0,0.0,0.0,5.9,1.6,-0.4,1024,1024,1024,1024,0,0,0,0,96,4.719,62.96,38.057744,P-GPS,,11.6
24600,2026-01-09 20:06:55,0.0,5,7.79,0.0,0.0,0.0,5.9,1.5,-0.5,1024,1024,1024,1024,0,0,0,0,96,4.719,62.96,38.057744,P-GPS,,11.6
24700,2026-01-09 20:06:55,0.0,5,7.796,0.0,0.0,0.0,5.8,1.4,-0.5,1024,1024,1024,1024,0,0,0,0,96,4.62,62.96,37.72966,P-GPS,,11.5
24800,2026-01-09 20:06:55,0.0,5,7.796,0.0,0.0,0.0,5.9,1.2,-0.2,1024,1024,1024,1024,0,0,0,0,96,4.62,62.96,37.72966,P-GPS,,11.5
24900,2026-01-09 20:06:55,0.0,5,7.796,0.0,0.0,0.0,5.8,1.6,-0.5,1024,1024,1024,1024,0,0,0,0,96,4.62,62.96,37.72966,P-GPS,,11.5
25000,2026-01-09 20:06:55,0.0,5,7.796,0.0,0.0,0.0,5.9,1.5,-0.4,1024,1024,1024,1024,0,0,0,0,96,4.62,62.96,37.72966,P-GPS,,11.5
25100,2026-01-09 20:06:56,0.0,5,7.796,0.0,0.0,0.0,5.9,1.5,-0.4,1024,1024,1024,1024,0,0,0,0,96,4.62,62.96,37.72966,P-GPS,,11.5
25200,2026-01-09 20:06:56,0.0,5,7.796,0.0,0.0,0.0,5.9,1.6,-0.5,1024,1024,1024,1024,0,0,0,0,96,4.62,62.96,37.72966,P-GPS,,11.5
25300,2026-01-09 20:06:56,0.0,5,7.796,0.0,0.0,0.0,5.9,1.8,-0.6,1024,1024,1024,1024,0,0,0,0,96,4.62,62.96,37.72966,P-GPS,,11.5
25400,2026-01-09 20:06:56,0.0,5,7.796,0.0,0.0,0.0,5.9,1.9,-0.9,1024,1024,1024,1024,0,0,0,0,96,4.62,62.96,37.72966,P-GPS,,11.5
25500,2026-01-09 20:06:56,0.0,5,7.796,0.0,0.0,0.0,5.9,1.5,-0.8,1024,1024,1024,1024,0,0,0,0,96,4.62,62.96,37.72966,P-GPS,,11.5
25600,2026-01-09 20:06:56,0.0,5,7.796,0.0,0.0,0.0,5.9,1.7,-0.6,1024,1024,1024,1024,0,0,0,0,96,4.62,62.96,37.72966,P-GPS,,11.5
25700,2026-01-09 20:06:56,0.0,5,7.796,0.0,0.0,0.0,5.9,1.7,-0.5,1024,1024,1024,1024,0,0,0,0,96,4.62,62.96,37.72966,P-GPS,,11.5
25800,2026-01-09 20:06:56,0.0,5,7.79,0.0,0.0,0.0,5.9,1.8,-0.4,1024,1024,1024,1024,0,0,0,0,96,4.668,63.14,37.72966,P-GPS,,11.5
25900,2026-01-09 20:06:56,0.0,5,7.79,0.0,0.0,0.0,5.9,2.0,-0.3,1024,1024,1024,1024,0,0,0,0,96,4.668,63.14,37.72966,P-GPS,,11.5
26000,2026-01-09 20:06:57,0.0,5,7.79,0.0,0.0,0.0,5.9,2.4,-0.5,1024,1024,1024,1024,0,0,0,0,96,4.668,63.14,37.72966,P-GPS,,11.5
26100,2026-01-09 20:06:57,0.0,5,7.79,0.0,0.0,0.0,5.9,2.0,-0.3,1024,1024,1024,1024,0,0,0,0,96,4.668,63.14,37.72966,P-GPS,,11.5
26200,2026-01-09 20:06:57,0.0,5,7.79,0.0,0.0,0.0,6.0,2.0,-0.3,1024,1024,1024,1024,0,0,0,0,96,4.668,63.14,37.72966,P-GPS,,11.5
26300,2026-01-09 20:06:57,0.0,5,7.79,0.0,0.0,0.0,6.0,2.0,-0.3,1024,1024,1024,1024,0,0,0,0,96,4.668,63.14,37.72966,P-GPS,,11.5
26400,2026-01-09 20:06:57,0.0,5,7.79,0.0,0.0,0.0,6.0,2.5,-0.6,1024,1024,1024,1024,0,0,0,0,96,4.668,63.14,37.72966,P-GPS,,11.5
26500,2026-01-09 20:06:57,0.0,5,7.79,0.0,0.0,0.0,6.0,2.1,-0.5,1024,1024,1024,1024,0,0,0,0,96,4.668,63.14,37.72966,P-GPS,,11.5
26600,2026-01-09 20:06:57,0.0,5,7.79,0.0,0.0,0.0,6.0,2.0,-0.4,1024,1024,1024,1024,0,0,0,0,96,4.668,63.14,37.72966,P-GPS,,11.5
26700,2026-01-09 20:06:57,0.0,5,7.79,0.0,0.0,0.0,6.0,1.9,-0.5,1024,1024,1024,1024,0,0,0,0,96,4.668,63.14,37.72966,P-GPS,,11.5
26800,2026-01-09 20:06:57,0.0,5,7.79,0.0,0.0,0.0,5.9,2.0,-0.4,1024,1024,1024,1024,0,0,0,0,96,4.668,63.14,37.72966,P-GPS,,11.5
26900,2026-01-09 20:06:57,0.0,5,7.787,0.0,0.0,0.0,5.9,1.9,-0.4,1024,1024,1024,1024,0,0,0,0,96,4.716,63.14,37.72966,P-GPS,,11.5
27000,2026-01-09 20:06:57,0.0,5,7.787,0.0,0.0,0.0,5.8,2.4,-0.5,1024,1024,1024,1024,0,0,0,0,96,4.716,63.14,37.72966,P-GPS,,11.5
27100,2026-01-09 20:06:58,0.0,5,7.787,0.0,0.0,0.0,5.9,2.0,-0.4,1024,1024,1024,1024,0,0,0,0,96,4.716,63.14,37.72966,P-GPS,,11.5
27200,2026-01-09 20:06:58,0.0,5,7.787,0.0,0.0,0.0,5.9,2.2,-0.4,1024,1024,1024,1024,0,0,0,0,96,4.716,63.14,37.72966,P-GPS,,11.5
27300,2026-01-09 20:06:58,0.0,5,7.787,0.0,0.0,0.0,5.9,2.1,-0.4,1024,1024,1024,1024,0,0,0,0,96,4.716,63.14,37.72966,P-GPS,,11.5
27400,2026-01-09 20:06:58,0.0,5,7.787,0.0,0.0,0.0,6.0,1.9,0.0,1024,1024,1024,1024,0,0,0,0,96,4.716,63.14,37.72966,P-GPS,,11.5
27500,2026-01-09 20:06:58,0.0,5,7.787,0.0,0.0,0.0,6.0,1.8,0.1,1024,1024,1024,1024,0,0,0,0,96,4.716,63.14,37.72966,P-GPS,,11.5
27600,2026-01-09 20:06:58,0.0,5,7.787,0.0,0.0,0.0,5.9,2.0,0.0,1024,1024,1024,1024,0,0,0,0,96,4.716,63.14,37.72966,P-GPS,,11.5
27700,2026-01-09 20:06:58,0.0,5,7.787,0.0,0.0,0.0,5.9,1.9,-0.2,1024,1024,1024,1024,0,0,0,0,96,4.716,63.14,37.72966,P-GPS,,11.5
27800,2026-01-09 20:06:58,0.0,5,7.787,0.0,0.0,0.0,5.9,2.0,-0.2,1024,1024,1024,1024,0,0,0,0,96,4.716,63.14,37.72966,P-GPS,,11.5
27900,2026-01-09 20:06:58,0.0,5,7.787,0.0,0.0,0.0,5.9,1.9,-0.2,1024,1024,1024,1024,0,0,0,0,96,4.716,63.14,37.72966,P-GPS,,11.5
28000,2026-01-09 20:06:59,0.0,5,7.787,0.0,0.0,0.0,5.9,2.1,-0.1,1024,1024,1024,1024,0,0,0,0,96,4.716,63.14,37.72966,P-GPS,,11.5
28100,2026-01-09 20:06:59,0.0,5,7.793,0.0,0.0,0.0,6.0,2.0,-0.1,1024,1024,1024,1024,0,0,0,0,96,4.652,63.14,37.401576,P-GPS,,11.4
28200,2026-01-09 20:06:59,0.0,5,7.793,0.0,0.0,0.0,6.0,2.0,-0.2,1024,1024,1024,1024,0,0,0,0,96,4.652,63.14,37.401576,P-GPS,,11.4
28300,2026-01-09 20:06:59,0.0,5,7.793,0.0,0.0,0.0,6.0,1.7,-0.3,1024,1024,1024,1024,0,0,0,0,96,4.652,63.14,37.401576,P-GPS,,11.4
28400,2026-01-09 20:06:59,0.0,5,7.793,0.0,0.0,0.0,5.9,1.8,-0.4,1024,1024,1024,1024,0,0,0,0,96,4.652,63.14,37.401576,P-GPS,,11.4
28500,2026-01-09 20:06:59,0.0,5,7.793,0.0,0.0,0.0,6.0,1.3,-0.1,1024,1024,1024,1024,0,0,0,0,96,4.652,63.14,37.401576,P-GPS,,11.4
28600,2026-01-09 20:06:59,0.0,5,7.793,0.0,0.0,0.0,6.0,1.6,0.0,1024,1024,1024,1024,0,0,0,0,96,4.652,63.14,37.401576,P-GPS,,11.4
28700,2026-01-09 20:06:59,0.0,5,7.793,0.0,0.0,0.0,6.0,1.6,0.1,1024,1024,1024,1024,0,0,0,0,96,4.652,63.14,37.401576,P-GPS,,11.4
28800,2026-01-09 20:06:59,0.0,5,7.793,0.0,0.0,0.0,6.0,1.8,0.0,1024,1024,1024,1024,0,0,0,0,96,4.652,63.14,37.401576,P-GPS,,11.4
28900,2026-01-09 20:06:59,0.0,5,7.793,0.0,0.0,0.0,6.0,1.5,0.1,1024,1024,1024,1024,0,0,0,0,96,4.652,63.14,37.401576,P-GPS,,11.4
29000,2026-01-09 20:06:59,0.0,5,7.793,0.0,0.0,0.0,6.0,1.8,-0.2,1024,1024,1024,1024,0,0,0,0,96,4.652,63.14,37.401576,P-GPS,,11.4
29100,2026-01-09 20:07:00,0.0,5,7.793,0.0,0.0,0.0,6.0,1.5,-0.2,1024,1024,1024,1024,0,0,0,0,96,4.652,63.14,37.401576,P-GPS,,11.4
29200,2026-01-09 20:07:00,0.0,5,7.792,0.0,0.0,0.0,6.0,1.8,-0.4,1024,1024,1024,1024,0,0,0,0,96,4.673,63.14,37.401576,P-GPS,,11.4
29300,2026-01-09 20:07:00,0.0,5,7.792,0.0,0.0,0.0,5.9,1.8,-0.5,1024,1024,1024,1024,0,0,0,0,96,4.673,63.14,37.401576,P-GPS,,11.4
29400,2026-01-09 20:07:00,0.0,5,7.792,0.0,0.0,0.0,5.9,2.0,-0.6,1024,1024,1024,1024,0,0,0,0,96,4.673,63.14,37.401576,P-GPS,,11.4
29500,2026-01-09 20:07:00,0.0,5,7.792,0.0,0.0,0.0,5.9,1.9,-0.7,1024,1024,1024,1024,0,0,0,0,96,4.673,63.14,37.401576,P-GPS,,11.4
29600,2026-01-09 20:07:00,0.0,5,7.792,0.0,0.0,0.0,5.9,1.9,-0.8,1024,1024,1024,1024,0,0,0,0,96,4.673,63.14,37.401576,P-GPS,,11.4
29700,2026-01-09 20:07:00,0.0,5,7.792,0.0,0.0,0.0,6.0,1.5,-0.4,1024,1024,1024,1024,0,0,0,0,96,4.673,63.14,37.401576,P-GPS,,11.4
29800,2026-01-09 20:07:00,0.0,5,7.792,0.0,0.0,0.0,6.0,1.7,-0.4,1024,1024,1024,1024,0,0,0,0,96,4.673,63.14,37.401576,P-GPS,,11.4
29900,2026-01-09 20:07:00,0.0,5,7.792,0.0,0.0,0.0,5.9,2.1,-0.7,1024,1024,1024,1024,0,0,0,0,96,4.673,63.14,37.401576,P-GPS,,11.4
30000,2026-01-09 20:07:00,0.0,5,7.792,0.0,0.0,0.0,6.0,2.0,-0.5,1024,1024,1024,1024,0,0,0,0,96,4.673,63.14,37.401576,P-GPS,,11.4
30100,2026-01-09 20:07:01,0.0,5,7.792,0.0,0.0,0.0,6.0,2.0,-0.5,1024,1024,1024,1024,0,0,0,0,96,4.673,63.14,37.401576,P-GPS,,11.4
30200,2026-01-09 20:07:01,0.0,5,7.792,0.0,0.0,0.0,5.9,2.4,-0.7,1024,1024,1024,1024,0,0,0,0,96,4.673,63.14,37.401576,P-GPS,,11.4
30300,2026-01-09 20:07:01,0.0,5,7.785,0.0,0.0,0.0,6.0,2.1,-0.4,1024,1024,1024,1024,0,0,0,0,96,4.713,63.32,37.401576,P-GPS,,11.4
30400,2026-01-09 20:07:01,0.0,5,7.785,0.0,0.0,0.0,6.0,2.1,-0.2,1024,1024,1024,1024,0,0,0,0,96,4.713,63.32,37.401576,P-GPS,,11.4
30500,2026-01-09 20:07:01,0.0,5,7.785,0.0,0.0,0.0,5.9,2.1,-0.1,1024,1024,1024,1024,0,0,0,0,96,4.713,63.32,37.401576,P-GPS,,11.4
30600,2026-01-09 20:07:01,0.0,5,7.785,0.0,0.0,0.0,6.0,2.4,0.0,1024,1024,1024,1024,0,0,0,0,96,4.713,63.32,37.401576,P-GPS,,11.4
30700,2026-01-09 20:07:01,0.0,5,7.785,0.0,0.0,0.0,5.9,2.3,-0.1,1024,1024,1024,1024,0,0,0,0,96,4.713,63.32,37.401576,P-GPS,,11.4
30800,2026-01-09 20:07:01,0.0,5,7.785,0.0,0.0,0.0,5.9,2.6,-0.2,1024,1024,1024,1024,0,0,0,0,96,4.713,63.32,37.073492,P-GPS,,11.3
30900,2026-01-09 20:07:01,0.0,5,7.785,0.0,0.0,0.0,5.9,2.2,-0.1,1024,1024,1024,1024,0,0,0,0,96,4.713,63.32,37.073492,P-GPS,,11.3
31000,2026-01-09 20:07:01,0.0,5,7.785,0.0,0.0,0.0,5.9,2.4,0.0,1024,1024,1024,1024,0,0,0,0,96,4.713,63.32,37.073492,P-GPS,,11.3
31100,2026-01-09 20:07:02,0.0,5,7.785,0.0,0.0,0.0,5.9,2.3,-0.1,1024,1024,1024,1024,0,0,0,0,96,4.713,63.32,37.073492,P-GPS,,11.3
31200,2026-01-09 20:07:02,0.0,5,7.785,0.0,0.0,0.0,5.9,2.5,-0.4,1024,1024,1024,1024,0,0,0,0,96,4.713,63.32,37.073492,P-GPS,,11.3
31300,2026-01-09 20:07:02,0.0,5,7.785,0.0,0.0,0.0,6.0,2.0,-0.3,1024,1024,1024,1024,0,0,0,0,96,4.713,63.32,37.073492,P-GPS,,11.3
31400,2026-01-09 20:07:02,0.0,5,7.785,0.0,0.0,0.0,5.9,2.2,-0.2,1024,1024,1024,1024,0,0,0,0,96,4.713,63.32,37.073492,P-GPS,,11.3
31500,2026-01-09 20:07:02,0.0,5,7.785,0.0,0.0,0.0,5.9,2.1,-0.1,1024,1024,1024,1024,0,0,0,0,96,4.713,63.32,37.073492,P-GPS,,11.3
31600,2026-01-09 20:07:02,0.0,5,7.785,0.0,0.0,0.0,5.9,2.2,0.0,1024,1024,1024,1024,0,0,0,0,96,4.713,63.32,37.073492,P-GPS,,11.3
31700,2026-01-09 20:07:02,0.0,5,7.785,0.0,0.0,0.0,5.9,2.0,0.1,1024,1024,1024,1024,0,0,0,0,96,4.713,63.32,37.073492,P-GPS,,11.3
31800,2026-01-09 20:07:02,0.0,5,7.785,0.0,0.0,0.0,5.9,2.3,0.0,1024,1024,1024,1024,0,0,0,0,96,4.713,63.32,37.073492,P-GPS,,11.3
31900,2026-01-09 20:07:02,0.0,5,7.785,0.0,0.0,0.0,5.9,2.1,0.0,1024,1024,1024,1024,0,0,0,0,96,4.713,63.32,37.073492,P-GPS,,11.3
32000,2026-01-09 20:07:03,0.0,5,7.785,0.0,0.0,0.0,5.9,2.4,-0.1,1024,1024,1024,1024,0,0,0,0,96,4.713,63.32,37.073492,P-GPS,,11.3
32100,2026-01-09 20:07:03,0.0,5,7.785,0.0,0.0,0.0,5.9,2.0,0.0,1024,1024,1024,1024,0,0,0,0,96,4.713,63.32,37.073492,P-GPS,,11.3
32200,2026-01-09 20:07:03,0.0,5,7.785,0.0,0.0,0.0,5.9,2.3,0.0,1024,1024,1024,1024,0,0,0,0,96,4.713,63.32,37.073492,P-GPS,,11.3
32300,2026-01-09 20:07:03,0.0,5,7.785,0.0,0.0,0.0,5.9,2.2,0.0,1024,1024,1024,1024,0,0,0,0,96,4.713,63.32,37.073492,P-GPS,,11.3
32400,2026-01-09 20:07:03,0.0,5,7.785,0.0,0.0,0.0,5.9,2.2,0.0,1024,1024,1024,1024,0,0,0,0,96,4.713,63.32,37.073492,P-GPS,,11.3
32500,2026-01-09 20:07:03,0.0,5,7.787,0.0,0.0,0.0,6.0,1.7,0.2,1024,1024,1024,1024,0,0,0,0,96,4.705,63.32,37.073492,P-GPS,,11.3
32600,2026-01-09 20:07:03,0.0,5,7.787,0.0,0.0,0.0,6.0,1.7,0.3,1024,1024,1024,1024,0,0,0,0,96,4.705,63.32,37.073492,P-GPS,,11.3
32700,2026-01-09 20:07:03,0.0,5,7.787,0.0,0.0,0.0,6.0,1.7,0.3,1024,1024,1024,1024,0,0,0,0,96,4.705,63.32,37.073492,P-GPS,,11.3
32800,2026-01-09 20:07:03,0.0,5,7.787,0.0,0.0,0.0,6.0,1.9,0.4,1024,1024,1024,1024,0,0,0,0,96,4.705,63.32,37.073492,P-GPS,,11.3
32900,2026-01-09 20:07:03,0.0,5,7.787,0.0,0.0,0.0,6.0,1.8,0.3,1024,1024,1024,1024,0,0,0,0,96,4.705,63.32,37.073492,P-GPS,,11.3
33000,2026-01-09 20:07:03,0.0,5,7.787,0.0,0.0,0.0,6.0,1.8,0.4,1024,1024,1024,1024,0,0,0,0,96,4.705,63.32,37.073492,P-GPS,,11.3
33100,2026-01-09 20:07:04,0.0,5,7.787,0.0,0.0,0.0,5.9,1.8,0.3,1024,1024,1024,1024,0,0,0,0,96,4.705,63.32,37.073492,P-GPS,,11.3
33200,2026-01-09 20:07:04,0.0,5,7.787,0.0,0.0,0.0,5.9,1.9,0.2,1024,1024,1024,1024,0,0,0,0,96,4.705,63.32,37.073492,P-GPS,,11.3
33300,2026-01-09 20:07:04,0.0,5,7.787,0.0,0.0,0.0,5.9,1.8,0.0,1024,1024,1024,1024,0,0,0,0,96,4.705,63.32,37.073492,P-GPS,,11.3
33400,2026-01-09 20:07:04,0.0,5,7.787,0.0,0.0,0.0,5.9,1.9,0.0,1024,1024,1024,1024,0,0,0,0,96,4.705,63.32,37.073492,P-GPS,,11.3
33500,2026-01-09 20:07:04,0.0,5,7.787,0.0,0.0,0.0,5.9,1.7,-0.1,1024,1024,1024,1024,0,0,0,0,96,4.705,63.32,37.073492,P-GPS,,11.3
33600,2026-01-09 20:07:04,0.0,5,7.786,0.0,0.0,0.0,5.9,1.6,-0.1,1024,1024,1024,1024,0,0,0,0,95,4.701,63.5,37.073492,P-GPS,,11.3
33700,2026-01-09 20:07:04,0.0,5,7.786,0.0,0.0,0.0,5.9,1.5,-0.1,1024,1024,1024,1024,0,0,0,0,95,4.701,63.5,37.073492,P-GPS,,11.3
33800,2026-01-09 20:07:04,0.0,5,7.786,0.0,0.0,0.0,5.9,1.7,0.0,1024,1024,1024,1024,0,0,0,0,95,4.701,63.5,37.073492,P-GPS,,11.3
33900,2026-01-09 20:07:04,0.0,5,7.786,0.0,0.0,0.0,5.9,1.7,0.0,1024,1024,1024,1024,0,0,0,0,95,4.701,63.5,37.073492,P-GPS,,11.3
34000,2026-01-09 20:07:05,0.0,5,7.786,0.0,0.0,0.0,5.9,1.8,0.2,1024,1024,1024,1024,0,0,0,0,95,4.701,63.5,37.073492,P-GPS,,11.3
34100,2026-01-09 20:07:05,0.0,5,7.786,0.0,0.0,0.0,6.0,1.6,0.1,1024,1024,1024,1024,0,0,0,0,95,4.701,63.5,37.073492,P-GPS,,11.3
34200,2026-01-09 20:07:05,0.0,5,7.786,0.0,0.0,0.0,6.0,1.7,0.1,1024,1024,1024,1024,0,0,0,0,95,4.701,63.5,37.073492,P-GPS,,11.3
34300,2026-01-09 20:07:05,0.0,5,7.786,0.0,0.0,0.0,6.0,1.6,0.0,1024,1024,1024,1024,0,0,0,0,95,4.701,63.5,37.073492,P-GPS,,11.3
34400,2026-01-09 20:07:05,0.0,5,7.786,0.0,0.0,0.0,6.0,1.8,0.0,1024,1024,1024,1024,0,0,0,0,95,4.701,63.5,37.073492,P-GPS,,11.3
34500,2026-01-09 20:07:05,0.0,5,7.786,0.0,0.0,0.0,6.0,1.7,-0.2,1024,1024,1024,1024,0,0,0,0,95,4.701,63.5,37.073492,P-GPS,,11.3
34600,2026-01-09 20:07:05,0.0,5,7.786,0.0,0.0,0.0,6.0,1.7,-0.2,1024,1024,1024,1024,0,0,0,0,95,4.701,63.5,37.073492,P-GPS,,11.3
34700,2026-01-09 20:07:05,0.0,5,7.777,0.0,0.0,0.0,6.0,1.6,-0.3,1024,1024,1024,1024,0,0,0,0,95,4.767,63.5,37.073492,P-GPS,,11.3
34800,2026-01-09 20:07:05,0.0,5,7.777,0.0,0.0,0.0,6.0,1.7,-0.2,1024,1024,1024,1024,0,0,0,0,95,4.767,63.5,37.073492,P-GPS,,11.3
34900,2026-01-09 20:07:05,0.0,5,7.777,0.0,0.0,0.0,6.0,1.6,-0.1,1024,1024,1024,1024,0,0,0,0,95,4.767,63.5,37.073492,P-GPS,,11.3
35000,2026-01-09 20:07:06,0.0,5,7.777,0.0,0.0,0.0,6.0,1.7,0.1,1024,1024,1024,1024,0,0,0,0,95,4.767,63.5,37.073492,P-GPS,,11.3
35100,2026-01-09 20:07:06,0.0,5,7.777,0.0,0.0,0.0,6.0,1.6,0.2,1024,1024,1024,1024,0,0,0,0,95,4.767,63.5,37.073492,P-GPS,,11.3
35200,2026-01-09 20:07:06,0.0,5,7.777,0.0,0.0,0.0,6.0,1.7,0.3,1024,1024,1024,1024,0,0,0,0,95,4.767,63.5,37.073492,P-GPS,,11.3
35300,2026-01-09 20:07:06,0.0,5,7.777,0.0,0.0,0.0,5.9,1.8,0.4,1024,1024,1024,1024,0,0,0,0,95,4.767,63.5,37.073492,P-GPS,,11.3
35400,2026-01-09 20:07:06,0.0,5,7.777,0.0,0.0,0.0,5.9,2.0,0.3,1024,1024,1024,1024,0,0,0,0,95,4.767,63.5,37.073492,P-GPS,,11.3
35500,2026-01-09 20:07:06,0.0,5,7.777,0.0,0.0,0.0,5.9,1.9,0.2,1024,1024,1684,1024,0,0,100,0,95,4.767,63.5,37.073492,P-GPS,,11.3
35600,2026-01-09 20:07:06,0.0,5,7.777,0.0,0.0,0.0,5.9,2.0,0.1,1024,1024,1684,1024,0,0,100,0,95,4.767,63.5,37.073492,P-GPS,,11.3
35700,2026-01-09 20:07:06,0.0,5,7.777,0.0,0.0,0.0,5.8,2.1,-0.1,1024,1024,1684,1024,0,0,100,0,95,4.767,63.5,37.073492,P-GPS,,11.3
35800,2026-01-09 20:07:06,0.0,5,7.776,0.0,0.0,-0.671082,5.8,2.3,-0.2,1024,1024,1684,1024,0,0,100,0,95,5.078,63.5,37.073492,P-GPS,,11.3
35900,2026-01-09 20:07:06,0.0,5,7.776,0.0,0.0,-1.342164,5.8,2.3,-0.2,1024,1024,1684,1024,0,0,100,0,95,5.078,63.5,37.401576,P-GPS,,11.4
36000,2026-01-09 20:07:06,0.0,5,7.776,0.0,0.0,-2.23694,5.8,2.2,-0.1,1024,1024,1684,1024,0,0,100,0,95,5.078,63.5,37.72966,P-GPS,,11.5
36100,2026-01-09 20:07:07,0.0,5,7.776,0.0,0.0,-2.908022,5.8,1.8,0.1,1024,1024,1684,1024,0,0,100,0,95,5.078,63.5,38.057744,P-GPS,,11.6
36200,2026-01-09 20:07:07,0.0,5,7.776,0.0,0.0,-3.579104,5.8,1.6,0.3,1024,1024,1684,1024,0,0,100,0,95,5.078,63.5,38.713912,P-GPS,,11.8
36300,2026-01-09 20:07:07,0.0,5,7.776,0.0,0.0,-4.026492,5.7,1.5,0.6,1024,1024,1684,1024,0,0,100,0,95,5.078,63.5,39.041996,P-GPS,,11.9
126400,2026-01-09 20:08:37,0.223694,5,7.749,-0.223694,0.0,4.026492,5.5,2.5,-1.0,1024,1024,364,1024,0,0,-100,0,90,4.753,67.28,38.713912,P-GPS,,11.8
126500,2026-01-09 20:08:37,0.223694,5,7.749,-0.223694,-0.223694,4.026492,5.3,1.7,-1.4,1024,1024,364,1024,0,0,-100,0,90,4.753,67.28,38.385828,P-GPS,,11.7
126600,2026-01-09 20:08:37,0.223694,5,7.749,0.0,-0.223694,4.026492,5.5,0.2,-0.5,1024,1024,364,1024,0,0,-100,0,90,4.753,67.28,37.72966,P-GPS,,11.5
126700,2026-01-09 20:08:37,0.223694,5,7.749,0.0,-0.223694,3.802798,6.0,0.1,2.7,1024,1024,364,1024,0,0,-100,0,90,4.753,67.28,37.401576,P-GPS,,11.4
126800,2026-01-09 20:08:37,0.223694,5,7.749,0.223694,0.0,3.802798,5.9,0.6,1.4,1024,1024,364,1024,0,0,-100,0,90,4.753,67.28,36.745408,P-GPS,,11.2
126900,2026-01-09 20:08:37,0.223694,5,7.749,0.223694,0.0,3.802798,5.9,1.4,1.4,1024,1024,364,1024,0,0,-100,0,90,4.753,67.28,36.417324,P-GPS,,11.1
127000,2026-01-09 20:08:37,0.447388,5,7.749,0.447388,0.0,3.802798,6.0,3.1,1.4,1024,1024,364,1024,0,0,-100,0,90,4.753,67.28,35.761156,P-GPS,,10.9
127100,2026-01-09 20:08:38,0.447388,5,7.749,0.447388,0.0,3.802798,5.5,5.7,1.9,1024,1024,364,1024,0,0,-100,0,90,4.753,67.28,34.776904,P-GPS,,10.6
127200,2026-01-09 20:08:38,0.223694,5,7.749,0.223694,0.0,3.802798,4.8,5.2,1.6,1024,1024,364,1024,0,0,-100,0,90,4.753,67.28,34.120736,P-GPS,,10.4
127300,2026-01-09 20:08:38,0.0,5,7.754,0.0,0.0,4.026492,4.8,6.7,1.2,1024,1024,364,1024,0,0,-100,0,90,4.734,67.28,33.792652,P-GPS,,10.3
127400,2026-01-09 20:08:38,0.223694,5,7.754,0.0,0.223694,4.026492,4.3,4.0,0.0,1024,1024,364,1024,0,0,-100,0,90,4.734,67.28,33.136484,P-GPS,,10.1
127500,2026-01-09 20:08:38,0.223694,5,7.754,0.0,0.223694,4.250186,4.0,3.0,-1.4,1024,1024,364,1024,0,0,-100,0,90,4.734,67.28,32.480316,P-GPS,,9.9
127600,2026-01-09 20:08:38,0.223694,5,7.754,0.0,0.223694,4.250186,3.6,3.4,-1.7,1024,1024,364,1024,0,0,-100,0,90,4.734,67.28,32.152232,P-GPS,,9.8
127700,2026-01-09 20:08:38,0.223694,5,7.754,-0.223694,0.0,4.026492,3.5,1.5,-2.3,1024,1024,364,1024,0,0,-100,0,90,4.734,67.28,31.496064,P-GPS,,9.6
127800,2026-01-09 20:08:38,0.223694,5,7.754,-0.223694,0.0,4.026492,4.5,0.4,-1.0,1024,1024,364,1024,0,0,-100,0,90,4.734,67.28,30.839896,P-GPS,,9.4
127900,2026-01-09 20:08:38,0.0,5,7.754,0.0,0.0,3.802798,5.0,-0.6,0.4,1024,1024,364,1024,0,0,-100,0,90,4.734,67.28,30.511812,P-GPS,,9.3
128000,2026-01-09 20:08:39,0.0,5,7.754,0.0,0.0,3.579104,4.8,0.9,-2.7,1024,1024,364,1024,0,0,-100,0,90,4.734,67.28,30.183728,P-GPS,,9.2
128100,2026-01-09 20:08:39,0.0,5,7.754,0.0,0.0,3.802798,4.7,1.8,-1.2,1024,1024,364,1024,0,0,-100,0,90,4.734,67.28,29.52756,P-GPS,,9.0
128200,2026-01-09 20:08:39,0.0,5,7.754,0.0,0.0,3.802798,5.0,2.0,-1.3,1024,1024,364,1024,0,0,-100,0,90,4.734,67.28,29.199476,P-GPS,,8.9
128300,2026-01-09 20:08:39,0.223694,5,7.754,0.223694,0.0,3.802798,5.1,1.8,0.9,1024,1024,364,1024,0,0,-100,0,90,4.734,67.28,28.543308,P-GPS,,8.7
128400,2026-01-09 20:08:39,0.223694,5,7.753,0.223694,0.0,3.579104,4.8,4.7,0.6,1024,1024,364,1024,0,0,-100,0,90,5.147,67.28,27.88714,P-GPS,,8.5
128500,2026-01-09 20:08:39,0.0,5,7.753,0.0,0.0,3.802798,4.8,5.8,1.2,1024,1024,364,1024,0,0,-100,0,90,5.147,67.28,27.230972,P-GPS,,8.3
128600,2026-01-09 20:08:39,0.0,5,7.753,0.0,0.0,3.802798,4.8,4.4,1.1,1024,1024,364,1024,0,0,-100,0,90,5.147,67.28,26.902888,P-GPS,,8.2
