time(millisecond),timestamp,speed(mph),gpslevel,voltage(v),xSpeed(mph),ySpeed(mph),zSpeed(mph),compass_heading(degrees),pitch(degrees),roll(degrees),rc_elevator,rc_aileron,rc_throttle,rc_rudder,rc_elevator(percent),rc_aileron(percent),rc_throttle(percent),rc_rudder(percent),battery_percent,current(A),battery_temperature(f),ascent(feet),flycState,message,height_above_takeoff(meters)
80200,2026-01-09 20:07:51,0.0,5,7.702,0.0,0.0,0.0,5.9,6.5,0.7,1024,1024,1024,1024,0,0,0,0,92,5.649,65.66,166.010504,P-GPS,,50.6
80300,2026-01-09 20:07:51,0.0,5,7.702,0.0,0.0,0.0,5.9,6.4,0.6,1024,1024,1024,1024,0,0,0,0,92,5.649,65.66,166.010504,P-GPS,,50.6
80400,2026-01-09 20:07:51,0.0,5,7.702,0.0,0.0,0.0,5.8,6.6,0.5,1024,1024,1024,1024,0,0,0,0,92,5.649,65.66,166.010504,P-GPS,,50.6
80500,2026-01-09 20:07:51,0.0,5,7.702,0.0,0.0,0.0,5.8,6.2,0.7,1024,1024,1024,1024,0,0,0,0,92,5.649,65.66,166.010504,P-GPS,,50.6
80600,2026-01-09 20:07:51,0.0,5,7.702,0.0,0.0,0.0,5.8,6.4,0.8,1024,1024,1024,1024,0,0,0,0,92,5.649,65.66,166.010504,P-GPS,,50.6
80700,2026-01-09 20:07:51,0.0,5,7.702,0.0,0.0,0.0,5.8,6.6,0.7,1024,1024,1024,1024,0,0,0,0,92,5.649,65.66,166.010504,P-GPS,,50.6
80800,2026-01-09 20:07:51,0.0,5,7.702,0.0,0.0,0.0,5.9,6.9,0.3,1024,1024,1024,1024,0,0,0,0,92,5.649,65.66,166.010504,P-GPS,,50.6
80900,2026-01-09 20:07:51,0.0,5,7.702,0.0,0.0,0.0,5.9,6.4,0.0,1024,1024,1024,1024,0,0,0,0,92,5.649,65.66,166.338588,P-GPS,,50.7
81000,2026-01-09 20:07:52,0.0,5,7.702,0.0,0.0,0.0,5.9,6.2,-0.1,1024,1024,1024,1024,0,0,0,0,92,5.649,65.66,166.338588,P-GPS,,50.7
81100,2026-01-09 20:07:52,0.0,5,7.702,0.0,0.0,0.0,6.0,5.9,-0.1,1024,1024,1024,1024,0,0,0,0,92,5.649,65.66,166.338588,P-GPS,,50.7
81200,2026-01-09 20:07:52,0.0,5,7.702,0.0,0.0,0.0,5.9,5.7,-0.4,1024,1024,1024,1024,0,0,0,0,92,5.649,65.66,166.338588,P-GPS,,50.7
81300,2026-01-09 20:07:52,0.0,5,7.702,0.0,0.0,0.0,5.9,5.5,-0.6,1024,1024,1024,1024,0,0,0,0,92,5.649,65.66,166.338588,P-GPS,,50.7
81400,2026-01-09 20:07:52,0.0,5,7.702,0.0,0.0,0.0,5.8,5.8,-0.2,1024,1024,1024,1024,0,0,0,0,92,5.649,65.66,166.338588,P-GPS,,50.7
81500,2026-01-09 20:07:52,0.0,5,7.79,0.0,0.0,0.0,5.9,5.4,0.0,1024,1024,1024,1024,0,0,0,0,92,3.901,65.84,166.338588,P-GPS,,50.7
81600,2026-01-09 20:07:52,0.0,5,7.79,0.0,0.0,0.0,6.0,5.3,0.5,1024,1024,1024,1024,0,0,0,0,92,3.901,65.84,166.338588,P-GPS,,50.7
81700,2026-01-09 20:07:52,0.0,5,7.79,0.0,0.0,0.0,5.9,5.1,0.3,1024,1024,1024,1024,0,0,0,0,92,3.901,65.84,166.338588,P-GPS,,50.7
81800,2026-01-09 20:07:52,0.0,5,7.79,0.0,0.0,0.0,6.0,5.7,0.0,1024,1024,1024,1024,0,0,0,0,92,3.901,65.84,166.338588,P-GPS,,50.7
81900,2026-01-09 20:07:52,0.0,5,7.79,0.0,0.0,0.0,5.8,5.6,0.0,1024,1024,1024,1024,0,0,0,0,92,3.901,65.84,166.010504,P-GPS,,50.6
82000,2026-01-09 20:07:52,0.0,5,7.79,0.0,0.0,0.0,5.9,6.0,0.2,1024,1024,1024,1024,0,0,0,0,92,3.901,65.84,166.010504,P-GPS,,50.6
82100,2026-01-09 20:07:53,0.0,5,7.79,0.0,0.0,0.0,5.9,5.8,0.6,1024,1024,1024,1024,0,0,0,0,92,3.901,65.84,166.010504,P-GPS,,50.6
82200,2026-01-09 20:07:53,0.0,5,7.79,0.0,0.0,0.0,5.9,5.8,0.8,1024,1024,1024,1024,0,0,0,0,92,3.901,65.84,166.010504,P-GPS,,50.6
82300,2026-01-09 20:07:53,0.0,5,7.79,0.0,0.0,0.0,5.9,5.8,0.7,1024,1024,1024,1024,0,0,0,0,92,3.901,65.84,166.010504,P-GPS,,50.6
82400,2026-01-09 20:07:53,0.0,5,7.79,0.0,0.0,0.0,6.0,5.9,0.8,1024,1024,1024,1024,0,0,0,0,92,3.901,65.84,166.010504,P-GPS,,50.6
82500,2026-01-09 20:07:53,0.0,5,7.79,0.0,0.0,0.0,5.9,5.7,0.5,1024,1024,1024,1024,0,0,0,0,92,3.901,65.84,166.010504,P-GPS,,50.6
82600,2026-01-09 20:07:53,0.0,5,7.767,0.0,0.0,0.0,6.0,6.0,0.5,1024,1024,1024,1024,0,0,0,0,92,4.572,65.84,166.010504,P-GPS,,50.6
82700,2026-01-09 20:07:53,0.0,5,7.767,0.0,0.0,0.0,6.0,5.8,0.8,1024,1024,1024,1024,0,0,0,0,92,4.572,65.84,166.010504,P-GPS,,50.6
82800,2026-01-09 20:07:53,0.0,5,7.767,0.0,0.0,0.0,6.0,5.9,0.7,1024,1024,1024,1024,0,0,0,0,92,4.572,65.84,166.010504,P-GPS,,50.6
82900,2026-01-09 20:07:53,0.0,5,7.767,0.0,0.0,0.0,6.0,5.7,0.5,1024,1024,1024,1024,0,0,0,0,92,4.572,65.84,166.010504,P-GPS,,50.6
83000,2026-01-09 20:07:54,0.0,5,7.767,0.0,0.0,0.0,6.1,5.7,0.6,1024,1024,1024,1024,0,0,0,0,92,4.572,65.84,166.010504,P-GPS,,50.6
83100,2026-01-09 20:07:54,0.0,5,7.767,0.0,0.0,0.0,6.1,5.6,0.4,1024,1024,1024,1024,0,0,0,0,92,4.572,65.84,165.68242,P-GPS,,50.5
83200,2026-01-09 20:07:54,0.0,5,7.767,0.0,0.0,0.0,6.1,5.6,0.3,1024,1024,1024,1024,0,0,0,0,92,4.572,65.84,165.68242,P-GPS,,50.5
83300,2026-01-09 20:07:54,0.0,5,7.767,0.0,0.0,0.0,6.0,5.7,0.3,1024,1024,1024,1024,0,0,0,0,92,4.572,65.84,165.68242,P-GPS,,50.5
83400,2026-01-09 20:07:54,0.0,5,7.767,0.0,0.0,0.0,6.0,5.8,0.0,1024,1024,1024,1024,0,0,0,0,92,4.572,65.84,165.68242,P-GPS,,50.5
83500,2026-01-09 20:07:54,0.0,5,7.767,0.0,0.0,0.0,5.9,5.6,0.0,1024,1024,1024,1024,0,0,0,0,92,4.572,65.84,165.68242,P-GPS,,50.5
83600,2026-01-09 20:07:54,0.0,5,7.767,0.0,0.0,0.0,5.9,5.8,-0.1,1024,1024,1024,1024,0,0,0,0,92,4.572,65.84,165.68242,P-GPS,,50.5
83700,2026-01-09 20:07:54,0.0,5,7.772,0.0,0.0,0.0,5.9,5.7,-0.1,1024,1024,1024,1024,0,0,0,0,92,4.49,66.02,165.68242,P-GPS,,50.5
83800,2026-01-09 20:07:54,0.0,5,7.772,0.0,0.0,0.0,5.9,5.9,0.0,1024,1024,1024,1024,0,0,0,0,92,4.49,66.02,165.68242,P-GPS,,50.5
83900,2026-01-09 20:07:54,0.0,5,7.772,0.0,0.0,0.0,5.9,5.4,0.3,1024,1024,1024,1024,0,0,0,0,92,4.49,66.02,165.68242,P-GPS,,50.5
84000,2026-01-09 20:07:54,0.0,5,7.772,0.0,0.0,0.0,5.9,5.6,0.3,1024,1024,1024,1024,0,0,0,0,92,4.49,66.02,165.68242,P-GPS,,50.5
84100,2026-01-09 20:07:55,0.0,5,7.772,0.0,0.0,0.0,6.0,5.7,0.5,1024,1024,1024,1024,0,0,0,0,92,4.49,66.02,165.68242,P-GPS,,50.5
84200,2026-01-09 20:07:55,0.0,5,7.772,0.0,0.0,0.0,5.9,5.8,0.6,1024,1024,1024,1024,0,0,0,0,92,4.49,66.02,165.68242,P-GPS,,50.5
84300,2026-01-09 20:07:55,0.0,5,7.772,0.0,0.0,0.0,5.9,5.8,0.7,1024,1024,1024,1024,0,0,0,0,92,4.49,66.02,165.68242,P-GPS,,50.5
84400,2026-01-09 20:07:55,0.0,5,7.772,0.0,0.0,0.0,6.0,5.9,0.7,1024,1024,1024,1024,0,0,0,0,92,4.49,66.02,165.68242,P-GPS,,50.5
84500,2026-01-09 20:07:55,0.0,5,7.772,0.0,0.0,0.0,6.0,5.9,0.9,1024,1024,1024,1024,0,0,0,0,92,4.49,66.02,165.68242,P-GPS,,50.5
84600,2026-01-09 20:07:55,0.0,5,7.772,0.0,0.0,0.0,5.9,6.0,0.9,1024,1024,1024,1024,0,0,0,0,92,4.49,66.02,165.354336,P-GPS,,50.4
84700,2026-01-09 20:07:55,0.0,5,7.772,0.0,0.0,0.0,5.9,5.9,1.0,1024,1024,1024,1024,0,0,0,0,92,4.49,66.02,165.354336,P-GPS,,50.4
84800,2026-01-09 20:07:55,0.0,5,7.769,0.0,0.0,0.0,6.0,5.9,1.2,1024,1024,1024,1024,0,0,0,0,92,4.505,66.02,165.354336,P-GPS,,50.4
84900,2026-01-09 20:07:55,0.0,5,7.769,0.0,0.0,0.0,6.0,5.7,1.1,1024,1024,1024,1024,0,0,0,0,92,4.505,66.02,165.354336,P-GPS,,50.4
85000,2026-01-09 20:07:56,0.0,5,7.769,0.0,0.0,0.0,6.0,5.9,0.9,1024,1024,1024,1024,0,0,0,0,92,4.505,66.02,165.354336,P-GPS,,50.4
85100,2026-01-09 20:07:56,0.0,5,7.769,0.0,0.0,0.0,6.0,5.9,0.7,1024,1024,1024,1024,0,0,0,0,92,4.505,66.02,165.354336,P-GPS,,50.4
85200,2026-01-09 20:07:56,0.0,5,7.769,0.0,0.0,0.0,6.0,5.9,0.7,1024,1024,1024,1024,0,0,0,0,92,4.505,66.02,165.354336,P-GPS,,50.4
85300,2026-01-09 20:07:56,0.0,5,7.769,0.0,0.0,0.0,6.0,5.8,0.7,1024,1024,1024,1024,0,0,0,0,92,4.505,66.02,165.354336,P-GPS,,50.4
85400,2026-01-09 20:07:56,0.0,5,7.769,0.0,0.0,0.0,5.9,6.0,0.7,1024,1024,1024,1024,0,0,0,0,92,4.505,66.02,165.354336,P-GPS,,50.4
85500,2026-01-09 20:07:56,0.0,5,7.769,0.0,0.0,0.0,5.9,5.8,0.6,1024,1024,1024,1024,0,0,0,0,92,4.505,66.02,165.354336,P-GPS,,50.4
85600,2026-01-09 20:07:56,0.0,5,7.769,0.0,0.0,0.0,5.9,5.7,0.8,1024,1024,1024,1024,0,0,0,0,92,4.505,66.02,165.354336,P-GPS,,50.4
85700,2026-01-09 20:07:56,0.0,5,7.769,0.0,0.0,0.0,6.0,5.7,0.9,1024,1024,1024,1024,0,0,0,0,92,4.505,66.02,165.026252,P-GPS,,50.3
85800,2026-01-09 20:07:56,0.0,5,7.769,0.0,0.0,0.0,6.0,5.8,0.8,1024,1024,1024,1024,0,0,0,0,92,4.505,66.02,165.026252,P-GPS,,50.3
85900,2026-01-09 20:07:56,0.0,5,7.762,0.0,0.0,0.0,5.9,5.9,0.8,1024,1024,1024,1024,0,0,0,0,92,4.577,66.02,165.026252,P-GPS,,50.3
86000,2026-01-09 20:07:56,0.0,5,7.762,0.0,0.0,0.0,6.0,5.9,0.8,1024,1024,1024,1024,0,0,0,0,92,4.577,66.02,165.026252,P-GPS,,50.3
86100,2026-01-09 20:07:57,0.0,5,7.762,0.0,0.0,0.0,6.0,5.8,0.7,1024,1024,1024,1024,0,0,0,0,92,4.577,66.02,165.026252,P-GPS,,50.3
86200,2026-01-09 20:07:57,0.0,5,7.762,0.0,0.0,0.0,5.9,6.0,0.6,1024,1024,1024,1024,0,0,0,0,92,4.577,66.02,165.026252,P-GPS,,50.3
86300,2026-01-09 20:07:57,0.0,5,7.762,0.0,0.0,0.0,5.9,5.8,0.6,1024,1024,1024,1024,0,0,0,0,92,4.577,66.02,165.026252,P-GPS,,50.3
86400,2026-01-09 20:07:57,0.0,5,7.762,0.0,0.0,0.0,5.9,5.6,0.6,1024,1024,1024,1024,0,0,0,0,92,4.577,66.02,165.026252,P-GPS,,50.3
86500,2026-01-09 20:07:57,0.0,5,7.762,0.0,0.0,0.0,6.0,5.3,0.6,1024,1024,1024,1024,0,0,0,0,92,4.577,66.02,165.026252,P-GPS,,50.3
86600,2026-01-09 20:07:57,0.0,5,7.762,0.0,0.0,0.0,6.0,5.3,0.8,1024,1024,1024,1024,0,0,0,0,92,4.577,66.02,165.026252,P-GPS,,50.3
86700,2026-01-09 20:07:57,0.0,5,7.762,0.0,0.0,0.0,5.9,5.3,0.7,1024,1024,1024,1024,0,0,0,0,92,4.577,66.02,164.698168,P-GPS,,50.2
86800,2026-01-09 20:07:57,0.0,5,7.762,0.0,0.0,0.0,5.9,5.5,0.8,1024,1024,1024,1024,0,0,0,0,92,4.577,66.02,164.698168,P-GPS,,50.2
86900,2026-01-09 20:07:57,0.0,5,7.762,0.0,0.0,0.0,5.9,5.5,1.0,1024,1024,1024,1024,0,0,0,0,92,4.577,66.02,164.698168,P-GPS,,50.2
87000,2026-01-09 20:07:58,0.0,5,7.758,0.0,0.0,0.0,6.0,5.8,1.0,1024,1024,1024,1024,0,0,0,0,92,4.643,66.02,164.698168,P-GPS,,50.2
87100,2026-01-09 20:07:58,0.0,5,7.758,0.0,0.0,0.0,6.0,6.0,0.9,1024,1024,1024,1024,0,0,0,0,92,4.643,66.02,164.698168,P-GPS,,50.2
87200,2026-01-09 20:07:58,0.0,5,7.758,0.0,0.0,0.0,6.0,5.9,0.9,1024,1024,1024,1024,0,0,0,0,92,4.643,66.02,164.698168,P-GPS,,50.2
87300,2026-01-09 20:07:58,0.0,5,7.758,0.0,0.0,0.0,5.9,5.9,0.9,1024,1024,1024,1024,0,0,0,0,92,4.643,66.02,164.698168,P-GPS,,50.2
87400,2026-01-09 20:07:58,0.0,5,7.758,0.0,0.0,0.0,5.9,6.2,0.9,1024,1024,1024,1024,0,0,0,0,92,4.643,66.02,164.698168,P-GPS,,50.2
87500,2026-01-09 20:07:58,0.0,5,7.758,0.0,0.0,0.0,5.9,6.4,1.0,1024,1024,1024,1024,0,0,0,0,92,4.643,66.02,164.698168,P-GPS,,50.2
87600,2026-01-09 20:07:58,0.0,5,7.758,0.0,0.0,0.0,5.9,6.4,0.9,1024,1024,1024,1024,0,0,0,0,92,4.643,66.02,164.698168,P-GPS,,50.2
87700,2026-01-09 20:07:58,0.0,5,7.758,0.0,0.0,0.0,5.9,6.3,1.0,1024,1024,1024,1024,0,0,0,0,92,4.643,66.02,164.698168,P-GPS,,50.2
87800,2026-01-09 20:07:58,0.0,5,7.758,0.0,0.0,0.0,5.9,6.3,1.0,1024,1024,1024,1024,0,0,0,0,92,4.643,66.02,164.698168,P-GPS,,50.2
87900,2026-01-09 20:07:58,0.0,5,7.758,0.0,0.0,0.0,5.9,6.1,1.1,1024,1024,1024,1024,0,0,0,0,92,4.643,66.02,164.698168,P-GPS,,50.2
88000,2026-01-09 20:07:58,0.0,5,7.758,0.0,0.0,0.0,5.9,6.3,1.1,1024,1024,1024,1024,0,0,0,0,92,4.643,66.02,164.698168,P-GPS,,50.2
88100,2026-01-09 20:07:59,0.0,5,7.766,0.0,0.0,0.0,6.0,6.3,1.1,1024,1024,1024,1024,0,0,0,0,92,4.612,66.02,164.698168,P-GPS,,50.2
88200,2026-01-09 20:07:59,0.0,5,7.766,0.0,0.0,0.0,6.0,6.4,1.2,1024,1024,1024,1024,0,0,0,0,92,4.612,66.02,164.698168,P-GPS,,50.2
88300,2026-01-09 20:07:59,0.0,5,7.766,0.0,0.0,0.0,6.0,6.3,1.3,1024,1024,1024,1024,0,0,0,0,92,4.612,66.02,164.698168,P-GPS,,50.2
88400,2026-01-09 20:07:59,0.0,5,7.766,0.0,0.0,0.0,6.0,6.6,1.5,1024,1024,1024,1024,0,0,0,0,92,4.612,66.02,164.698168,P-GPS,,50.2
88500,2026-01-09 20:07:59,0.0,5,7.766,0.0,0.0,0.0,6.0,6.4,1.4,1024,1024,1024,1024,0,0,0,0,92,4.612,66.02,164.698168,P-GPS,,50.2
88600,2026-01-09 20:07:59,0.0,5,7.766,0.0,0.0,0.0,6.0,6.5,1.3,1024,1024,1024,1024,0,0,0,0,92,4.612,66.02,164.698168,P-GPS,,50.2
88700,2026-01-09 20:07:59,0.0,5,7.766,0.0,0.0,0.0,6.0,6.1,1.5,1024,1024,1024,1024,0,0,0,0,92,4.612,66.02,164.698168,P-GPS,,50.2
88800,2026-01-09 20:07:59,0.0,5,7.766,0.0,0.0,0.0,6.0,6.0,1.7,1024,1024,1024,1024,0,0,0,0,92,4.612,66.02,164.698168,P-GPS,,50.2
88900,2026-01-09 20:07:59,0.0,5,7.766,0.0,0.0,0.0,6.1,6.3,1.4,1024,1024,1024,1024,0,0,0,0,92,4.612,66.02,164.370084,P-GPS,,50.1
89000,2026-01-09 20:08:00,0.0,5,7.766,0.0,0.0,0.0,5.9,6.3,1.1,1024,1024,1024,1024,0,0,0,0,92,4.612,66.02,164.370084,P-GPS,,50.1
89100,2026-01-09 20:08:00,0.0,5,7.766,0.0,0.0,0.0,5.9,6.1,1.1,1024,1024,1024,1024,0,0,0,0,92,4.612,66.02,164.370084,P-GPS,,50.1
89200,2026-01-09 20:08:00,0.0,5,7.773,0.0,0.0,0.0,6.0,6.0,1.2,1024,1024,1024,1024,0,0,0,0,92,4.546,66.2,164.370084,P-GPS,,50.1
89300,2026-01-09 20:08:00,0.0,5,7.773,0.0,0.0,0.0,6.0,5.8,1.4,1024,1024,1024,1024,0,0,0,0,92,4.546,66.2,164.370084,P-GPS,,50.1
89400,2026-01-09 20:08:00,0.0,5,7.773,0.0,0.0,0.0,6.0,5.9,1.5,1024,1024,1024,1024,0,0,0,0,92,4.546,66.2,164.370084,P-GPS,,50.1
89500,2026-01-09 20:08:00,0.0,5,7.773,0.0,0.0,0.0,6.0,5.9,1.7,1024,1024,1024,1024,0,0,0,0,92,4.546,66.2,164.370084,P-GPS,,50.1
89600,2026-01-09 20:08:00,0.0,5,7.773,0.0,0.0,0.0,6.0,5.9,1.6,1024,1024,1024,1024,0,0,0,0,92,4.546,66.2,164.370084,P-GPS,,50.1
89700,2026-01-09 20:08:00,0.0,5,7.773,0.0,0.0,0.0,6.1,5.5,1.6,1024,1024,1024,1024,0,0,0,0,92,4.546,66.2,164.370084,P-GPS,,50.1
89800,2026-01-09 20:08:00,0.0,5,7.773,0.0,0.0,0.0,6.1,5.8,1.3,1024,1024,1024,1024,0,0,0,0,92,4.546,66.2,164.370084,P-GPS,,50.1
89900,2026-01-09 20:08:00,0.0,5,7.773,0.0,0.0,0.0,6.1,5.9,1.3,1024,1024,1024,1024,0,0,0,0,92,4.546,66.2,164.370084,P-GPS,,50.1
90000,2026-01-09 20:08:00,0.0,5,7.773,0.0,0.0,0.0,6.0,5.8,0.8,1024,1024,1024,1024,0,0,0,0,92,4.546,66.2,164.370084,P-GPS,,50.1
90100,2026-01-09 20:08:01,0.0,5,7.773,0.0,0.0,0.0,6.0,6.0,0.7,1024,1024,1024,1024,0,0,0,0,92,4.546,66.2,164.370084,P-GPS,,50.1
90200,2026-01-09 20:08:01,0.0,5,7.773,0.0,0.0,0.0,6.0,6.2,0.6,1024,1024,1024,1024,0,0,0,0,92,4.546,66.2,164.370084,P-GPS,,50.1
90300,2026-01-09 20:08:01,0.0,5,7.773,0.0,0.0,0.0,6.0,6.0,0.9,1024,1024,1024,1024,0,0,0,0,92,4.546,66.2,164.370084,P-GPS,,50.1
90400,2026-01-09 20:08:01,0.0,5,7.773,0.0,0.0,0.0,6.0,6.1,1.0,1024,1024,1024,1024,0,0,0,0,92,4.51,66.2,164.370084,P-GPS,,50.1
90500,2026-01-09 20:08:01,0.0,5,7.773,0.0,0.0,0.0,6.0,5.8,0.9,1024,1024,1024,1024,0,0,0,0,92,4.51,66.2,164.370084,P-GPS,,50.1
90600,2026-01-09 20:08:01,0.0,5,7.773,0.0,0.0,0.0,6.0,5.9,1.0,1024,1024,1024,1024,0,0,0,0,92,4.51,66.2,164.370084,P-GPS,,50.1
90700,2026-01-09 20:08:01,0.0,5,7.773,0.0,0.0,0.0,6.1,5.8,1.0,1024,1024,1024,1024,0,0,0,0,92,4.51,66.2,164.370084,P-GPS,,50.1
90800,2026-01-09 20:08:01,0.0,5,7.773,0.0,0.0,0.0,6.1,6.1,0.9,1024,1024,1024,1024,0,0,0,0,92,4.51,66.2,164.370084,P-GPS,,50.1
90900,2026-01-09 20:08:01,0.0,5,7.773,0.0,0.0,0.0,6.0,6.0,0.9,1024,1024,1024,1024,0,0,0,0,92,4.51,66.2,164.370084,P-GPS,,50.1
91000,2026-01-09 20:08:01,0.0,5,7.773,0.0,0.0,0.0,6.0,6.4,0.9,1024,1024,1024,1024,0,0,0,0,92,4.51,66.2,164.370084,P-GPS,,50.1
91100,2026-01-09 20:08:02,0.0,5,7.773,0.0,0.0,0.0,6.0,6.3,0.5,1024,1024,1024,1024,0,0,0,0,92,4.51,66.2,164.370084,P-GPS,,50.1
91200,2026-01-09 20:08:02,0.0,5,7.773,0.0,0.0,0.0,6.0,6.3,0.6,1024,1024,1024,1024,0,0,0,0,92,4.51,66.2,164.698168,P-GPS,,50.2
91300,2026-01-09 20:08:02,0.0,5,7.773,0.0,0.0,0.0,6.0,6.2,0.4,1024,1024,1024,1024,0,0,0,0,92,4.51,66.2,164.698168,P-GPS,,50.2
91400,2026-01-09 20:08:02,0.0,5,7.773,0.0,0.0,0.0,6.0,6.2,0.2,1024,1024,1024,1024,0,0,0,0,92,4.51,66.2,164.698168,P-GPS,,50.2
91500,2026-01-09 20:08:02,0.0,5,7.773,0.0,0.0,0.0,6.0,6.0,0.3,1024,1024,1024,1024,0,0,0,0,92,4.51,66.2,164.698168,P-GPS,,50.2
91600,2026-01-09 20:08:02,0.0,5,7.773,0.0,0.0,0.0,6.0,6.1,0.3,1024,1024,1024,1024,0,0,0,0,92,4.51,66.2,164.698168,P-GPS,,50.2
91700,2026-01-09 20:08:02,0.0,5,7.773,0.0,0.0,0.0,6.0,6.0,0.4,1024,1024,1024,1024,0,0,0,0,92,4.51,66.2,164.698168,P-GPS,,50.2
91800,2026-01-09 20:08:02,0.0,5,7.773,0.0,0.0,0.0,6.0,6.0,0.4,1024,1024,1024,1024,0,0,0,0,92,4.51,66.2,164.698168,P-GPS,,50.2
91900,2026-01-09 20:08:02,0.0,5,7.773,0.0,0.0,0.0,6.0,6.0,0.3,1024,1024,1024,1024,0,0,0,0,92,4.51,66.2,164.698168,P-GPS,,50.2
92000,2026-01-09 20:08:03,0.0,5,7.773,0.0,0.0,0.0,6.0,6.3,0.5,1024,1024,1024,1024,0,0,0,0,92,4.51,66.2,164.698168,P-GPS,,50.2
92100,2026-01-09 20:08:03,0.0,5,7.773,0.0,0.0,0.0,6.0,6.0,0.6,1024,1024,1024,1024,0,0,0,0,92,4.51,66.2,164.698168,P-GPS,,50.2
92200,2026-01-09 20:08:03,0.0,5,7.773,0.0,0.0,0.0,6.0,6.6,0.6,1024,1024,1024,1024,0,0,0,0,92,4.51,66.2,164.698168,P-GPS,,50.2
92300,2026-01-09 20:08:03,0.0,5,7.773,0.0,0.0,0.0,6.0,6.4,0.5,1024,1024,1024,1024,0,0,0,0,92,4.51,66.2,165.026252,P-GPS,,50.3
92400,2026-01-09 20:08:03,0.0,5,7.773,0.0,0.0,0.0,6.0,6.4,0.2,1024,1024,1024,1024,0,0,0,0,92,4.51,66.2,165.026252,P-GPS,,50.3
92500,2026-01-09 20:08:03,0.0,5,7.773,0.0,0.0,0.0,6.0,6.1,0.1,1024,1024,1024,1024,0,0,0,0,92,4.51,66.2,165.026252,P-GPS,,50.3
92600,2026-01-09 20:08:03,0.0,5,7.768,0.0,0.0,0.0,6.0,6.3,0.4,1024,1024,1024,1024,0,0,0,0,92,4.554,66.2,165.026252,P-GPS,,50.3
92700,2026-01-09 20:08:03,0.0,5,7.768,0.0,0.0,0.0,6.0,6.6,0.4,1024,1024,1024,1024,0,0,0,0,92,4.554,66.2,165.026252,P-GPS,,50.3
92800,2026-01-09 20:08:03,0.0,5,7.768,0.0,0.0,0.0,6.0,6.4,0.2,1024,1024,1024,1024,0,0,0,0,92,4.554,66.2,165.026252,P-GPS,,50.3
92900,2026-01-09 20:08:03,0.0,5,7.768,0.0,0.0,0.0,6.0,6.0,0.3,1024,1024,1024,1024,0,0,0,0,92,4.554,66.2,165.026252,P-GPS,,50.3
93000,2026-01-09 20:08:04,0.0,5,7.768,0.0,0.0,0.0,6.0,6.2,0.3,1024,1024,1024,1024,0,0,0,0,92,4.554,66.2,165.026252,P-GPS,,50.3
93100,2026-01-09 20:08:04,0.0,5,7.768,0.0,0.0,0.0,6.0,6.1,0.5,1024,1024,1024,1024,0,0,0,0,92,4.554,66.2,165.026252,P-GPS,,50.3
93200,2026-01-09 20:08:04,0.0,5,7.768,0.0,0.0,0.0,6.1,6.4,0.2,1024,1024,1024,1024,0,0,0,0,92,4.554,66.2,165.026252,P-GPS,,50.3
93300,2026-01-09 20:08:04,0.0,5,7.768,0.0,0.0,0.0,6.1,6.2,0.1,1024,1024,1024,1024,0,0,0,0,92,4.554,66.2,165.026252,P-GPS,,50.3
93400,2026-01-09 20:08:04,0.0,5,7.768,0.0,0.0,0.0,6.0,6.3,0.0,1024,1024,1024,1024,0,0,0,0,92,4.554,66.2,165.026252,P-GPS,,50.3
93500,2026-01-09 20:08:04,0.0,5,7.768,0.0,0.0,0.0,6.0,6.0,0.2,1024,1024,1024,1024,0,0,0,0,92,4.554,66.2,165.026252,P-GPS,,50.3
93600,2026-01-09 20:08:04,0.0,5,7.768,0.0,0.0,0.0,6.0,6.1,0.0,1024,1024,1024,1024,0,0,0,0,92,4.554,66.2,165.026252,P-GPS,,50.3
93700,2026-01-09 20:08:04,0.0,5,7.767,0.0,0.0,0.0,6.0,5.9,-0.2,1024,1024,1024,1024,0,0,0,0,92,4.557,66.38,165.026252,P-GPS,,50.3
93800,2026-01-09 20:08:04,0.0,5,7.767,0.0,0.0,0.0,6.0,6.0,-0.2,1024,1024,1024,1024,0,0,0,0,92,4.557,66.38,165.026252,P-GPS,,50.3
93900,2026-01-09 20:08:04,0.0,5,7.767,0.0,0.0,0.0,6.0,5.6,0.0,1024,1024,1024,1024,0,0,0,0,92,4.557,66.38,165.026252,P-GPS,,50.3
94000,2026-01-09 20:08:05,0.0,5,7.767,0.0,0.0,0.0,6.0,5.7,-0.2,1024,1024,1024,1024,0,0,0,0,92,4.557,66.38,165.354336,P-GPS,,50.4
94100,2026-01-09 20:08:05,0.0,5,7.767,0.0,0.0,0.0,6.0,5.6,-0.3,1024,1024,1024,1024,0,0,0,0,92,4.557,66.38,165.354336,P-GPS,,50.4
94200,2026-01-09 20:08:05,0.0,5,7.767,0.0,0.0,0.0,6.0,5.8,-0.5,1024,1024,1024,1024,0,0,0,0,92,4.557,66.38,165.354336,P-GPS,,50.4
94300,2026-01-09 20:08:05,0.0,5,7.767,0.0,0.0,0.0,6.0,5.7,-0.5,1024,1024,1024,1024,0,0,0,0,92,4.557,66.38,165.354336,P-GPS,,50.4
94400,2026-01-09 20:08:05,0.0,5,7.767,0.0,0.0,0.0,5.9,6.0,-0.5,1024,1024,1024,1024,0,0,0,0,92,4.557,66.38,165.354336,P-GPS,,50.4
94500,2026-01-09 20:08:05,0.0,5,7.767,0.0,0.0,0.0,6.0,5.8,-0.6,1024,1024,1024,1024,0,0,0,0,92,4.557,66.38,165.354336,P-GPS,,50.4
94600,2026-01-09 20:08:05,0.0,5,7.767,0.0,0.0,0.0,6.0,5.8,-0.5,1024,1024,1024,1024,0,0,0,0,92,4.557,66.38,165.354336,P-GPS,,50.4
94700,2026-01-09 20:08:05,0.0,5,7.767,0.0,0.0,0.0,6.0,5.7,-0.4,1024,1024,1024,1024,0,0,0,0,92,4.557,66.38,165.354336,P-GPS,,50.4
94800,2026-01-09 20:08:05,0.0,5,7.758,0.0,0.0,0.0,6.0,5.6,-0.4,1024,1024,1024,1024,0,0,0,0,92,4.665,66.38,165.354336,P-GPS,,50.4
94900,2026-01-09 20:08:05,0.0,5,7.758,0.0,0.0,0.0,6.0,5.4,-0.4,1024,1024,1024,1024,0,0,0,0,92,4.665,66.38,165.354336,P-GPS,,50.4
95000,2026-01-09 20:08:06,0.0,5,7.758,0.0,0.0,0.0,6.0,5.5,-0.7,1024,1024,1024,1024,0,0,0,0,92,4.665,66.38,165.354336,P-GPS,,50.4
95100,2026-01-09 20:08:06,0.0,5,7.758,0.0,0.0,0.0,6.0,5.3,-0.6,1024,1024,1024,1024,0,0,0,0,92,4.665,66.38,165.354336,P-GPS,,50.4
95200,2026-01-09 20:08:06,0.0,5,7.758,0.0,0.0,0.0,6.0,5.3,-0.5,1024,1024,1024,1024,0,0,0,0,92,4.665,66.38,165.354336,P-GPS,,50.4
95300,2026-01-09 20:08:06,0.0,5,7.758,0.0,0.0,0.0,6.0,5.2,-0.6,1024,1024,1024,1024,0,0,0,0,92,4.665,66.38,165.354336,P-GPS,,50.4
95400,2026-01-09 20:08:06,0.0,5,7.758,0.0,0.0,0.0,6.0,5.4,-0.6,1024,1024,1024,1024,0,0,0,0,92,4.665,66.38,165.354336,P-GPS,,50.4
95500,2026-01-09 20:08:06,0.0,5,7.758,0.0,0.0,0.0,6.0,5.4,-0.5,1024,1024,1024,1024,0,0,0,0,92,4.665,66.38,165.68242,P-GPS,,50.5
95600,2026-01-09 20:08:06,0.0,5,7.758,0.0,0.0,0.0,6.0,5.7,-0.4,1024,1024,1024,1024,0,0,0,0,92,4.665,66.38,165.68242,P-GPS,,50.5
95700,2026-01-09 20:08:06,0.0,5,7.758,0.0,0.0,0.0,6.0,5.6,-0.5,1024,1024,1024,1024,0,0,0,0,92,4.665,66.38,165.68242,P-GPS,,50.5
95800,2026-01-09 20:08:06,0.0,5,7.758,0.0,0.0,0.0,6.0,5.6,-0.4,1024,1024,1024,1024,0,0,0,0,92,4.665,66.38,165.68242,P-GPS,,50.5
95900,2026-01-09 20:08:06,0.0,5,7.758,0.0,0.0,0.0,6.0,5.4,-0.2,1024,1024,1024,1024,0,0,0,0,92,4.665,66.38,165.68242,P-GPS,,50.5
96000,2026-01-09 20:08:07,0.0,5,7.756,0.0,0.0,0.0,5.9,5.4,-0.1,1024,1024,1024,1024,0,0,0,0,91,4.737,66.38,165.68242,P-GPS,,50.5
96100,2026-01-09 20:08:07,0.0,5,7.756,0.0,0.0,0.0,5.9,5.6,0.0,1024,1024,1024,1024,0,0,0,0,91,4.737,66.38,165.68242,P-GPS,,50.5
96200,2026-01-09 20:08:07,0.0,5,7.756,0.0,0.0,0.0,5.9,5.8,0.0,1024,1024,1024,1024,0,0,0,0,91,4.737,66.38,165.68242,P-GPS,,50.5
96300,2026-01-09 20:08:07,0.0,5,7.756,0.0,0.0,0.0,5.9,5.7,0.0,1024,1024,1024,1024,0,0,0,0,91,4.737,66.38,165.68242,P-GPS,,50.5
96400,2026-01-09 20:08:07,0.0,5,7.756,0.0,0.0,0.0,6.0,5.8,0.0,1024,1024,1024,1024,0,0,0,0,91,4.737,66.38,165.68242,P-GPS,,50.5
96500,2026-01-09 20:08:07,0.0,5,7.756,0.0,0.0,0.0,6.0,5.9,0.0,1024,1024,1024,1024,0,0,0,0,91,4.737,66.38,165.68242,P-GPS,,50.5
96600,2026-01-09 20:08:07,0.0,5,7.756,0.0,0.0,0.0,5.9,6.2,0.1,1024,1024,1024,1024,0,0,0,0,91,4.737,66.38,165.68242,P-GPS,,50.5
96700,2026-01-09 20:08:07,0.0,5,7.756,0.0,0.0,0.0,5.9,6.2,0.0,1024,1024,1024,1024,0,0,0,0,91,4.737,66.38,165.68242,P-GPS,,50.5
96800,2026-01-09 20:08:07,0.0,5,7.756,0.0,0.0,0.0,5.9,6.2,0.0,1024,1024,1024,1024,0,0,0,0,91,4.737,66.38,165.68242,P-GPS,,50.5
96900,2026-01-09 20:08:07,0.0,5,7.756,0.0,0.0,0.0,5.9,6.0,0.0,1024,1024,1024,1024,0,0,0,0,91,4.737,66.38,165.68242,P-GPS,,50.5
97000,2026-01-09 20:08:07,0.0,5,7.756,0.0,0.0,0.0,5.9,6.0,0.0,1024,1024,1024,1024,0,0,0,0,91,4.737,66.38,165.68242,P-GPS,,50.5
97100,2026-01-09 20:08:08,0.0,5,7.754,0.0,0.0,0.0,5.9,6.0,0.0,1024,1024,1024,1024,0,0,0,0,91,4.726,66.38,165.68242,P-GPS,,50.5
97200,2026-01-09 20:08:08,0.0,5,7.754,0.0,0.0,0.0,5.9,5.8,0.0,1024,1024,1024,1024,0,0,0,0,91,4.726,66.38,165.68242,P-GPS,,50.5
97300,2026-01-09 20:08:08,0.0,5,7.754,0.0,0.0,0.0,5.9,5.7,0.1,1024,1024,1024,1024,0,0,0,0,91,4.726,66.38,165.68242,P-GPS,,50.5
97400,2026-01-09 20:08:08,0.0,5,7.754,0.0,0.0,0.0,5.9,5.6,0.1,1024,1024,1024,1024,0,0,0,0,91,4.726,66.38,165.68242,P-GPS,,50.5
97500,2026-01-09 20:08:08,0.0,5,7.754,0.0,0.0,0.0,5.9,5.6,0.2,1024,1024,1024,1024,0,0,0,0,91,4.726,66.38,165.68242,P-GPS,,50.5
97600,2026-01-09 20:08:08,0.0,5,7.754,0.0,0.0,0.0,5.9,5.7,0.2,1024,1024,1024,1024,0,0,0,0,91,4.726,66.38,165.68242,P-GPS,,50.5
97700,2026-01-09 20:08:08,0.0,5,7.754,0.0,0.0,0.0,5.9,5.7,0.2,1024,1024,1024,1024,0,0,0,0,91,4.726,66.38,165.68242,P-GPS,,50.5
97800,2026-01-09 20:08:08,0.0,5,7.754,0.0,0.0,0.0,5.9,5.7,0.3,1024,1024,1024,1024,0,0,0,0,91,4.726,66.38,165.68242,P-GPS,,50.5
97900,2026-01-09 20:08:08,0.0,5,7.754,0.0,0.0,0.0,5.9,5.7,0.1,1024,1024,1024,1024,0,0,0,0,91,4.726,66.38,165.68242,P-GPS,,50.5
98000,2026-01-09 20:08:09,0.0,5,7.754,0.0,0.0,0.0,5.9,5.6,0.1,1024,1024,1024,1024,0,0,0,0,91,4.726,66.38,165.68242,P-GPS,,50.5
98100,2026-01-09 20:08:09,0.0,5,7.754,0.0,0.0,0.0,5.9,5.7,0.1,1024,1024,1024,1024,0,0,0,0,91,4.726,66.38,165.68242,P-GPS,,50.5
98200,2026-01-09 20:08:09,0.0,5,7.757,0.0,0.0,0.0,5.9,5.8,0.0,1024,1024,1024,1024,0,0,0,0,91,4.757,66.38,165.68242,P-GPS,,50.5
98300,2026-01-09 20:08:09,0.0,5,7.757,0.0,0.0,0.0,5.9,5.6,0.0,1024,1024,1024,1024,0,0,0,0,91,4.757,66.38,165.68242,P-GPS,,50.5
98400,2026-01-09 20:08:09,0.0,5,7.757,0.0,0.0,0.0,5.9,5.7,-0.1,1024,1024,1024,1024,0,0,0,0,91,4.757,66.38,165.68242,P-GPS,,50.5
98500,2026-01-09 20:08:09,0.0,5,7.757,0.0,0.0,0.0,6.0,5.7,-0.2,1024,1024,1024,1024,0,0,0,0,91,4.757,66.38,165.68242,P-GPS,,50.5
98600,2026-01-09 20:08:09,0.0,5,7.757,0.0,0.0,0.0,5.9,5.8,-0.1,1024,1024,1024,1024,0,0,0,0,91,4.757,66.38,165.68242,P-GPS,,50.5
98700,2026-01-09 20:08:09,0.0,5,7.757,0.0,0.0,0.0,5.9,5.7,0.0,1024,1024,1024,1024,0,0,0,0,91,4.757,66.38,165.68242,P-GPS,,50.5
98800,2026-01-09 20:08:09,0.0,5,7.757,0.0,0.0,0.0,5.9,5.8,0.0,1024,1024,1024,1024,0,0,0,0,91,4.757,66.38,165.68242,P-GPS,,50.5
98900,2026-01-09 20:08:09,0.0,5,7.757,0.0,0.0,0.0,6.0,5.7,0.0,1024,1024,1024,1024,0,0,0,0,91,4.757,66.38,165.68242,P-GPS,,50.5
99000,2026-01-09 20:08:09,0.0,5,7.757,0.0,0.0,0.0,5.9,5.7,-0.1,1024,1024,1024,1024,0,0,0,0,91,4.757,66.38,165.68242,P-GPS,,50.5
99100,2026-01-09 20:08:10,0.0,5,7.757,0.0,0.0,0.0,5.9,5.8,0.0,1024,1024,1024,1024,0,0,0,0,91,4.757,66.38,165.68242,P-GPS,,50.5
99200,2026-01-09 20:08:10,0.0,5,7.757,0.0,0.0,0.0,5.9,5.8,-0.1,1024,1024,1024,1024,0,0,0,0,91,4.757,66.38,165.68242,P-GPS,,50.5
99300,2026-01-09 20:08:10,0.0,5,7.757,0.0,0.0,0.0,5.9,5.7,-0.3,1024,1024,1024,1024,0,0,0,0,91,4.757,66.38,165.68242,P-GPS,,50.5
99400,2026-01-09 20:08:10,0.0,5,7.757,0.0,0.0,0.0,6.0,5.7,-0.5,1024,1024,1024,1024,0,0,0,0,91,4.757,66.38,165.68242,P-GPS,,50.5
99500,2026-01-09 20:08:10,0.0,5,7.757,0.0,0.0,0.0,5.9,6.1,-0.3,1024,1024,1024,1024,0,0,0,0,91,4.757,66.38,165.68242,P-GPS,,50.5
99600,2026-01-09 20:08:10,0.0,5,7.757,0.0,0.0,0.0,6.0,5.9,-0.4,1024,1024,1024,1024,0,0,0,0,91,4.757,66.38,166.010504,P-GPS,,50.6
99700,2026-01-09 20:08:10,0.0,5,7.757,0.0,0.0,0.0,5.9,6.1,-0.2,1024,1024,1024,1024,0,0,0,0,91,4.757,66.38,166.010504,P-GPS,,50.6
99800,2026-01-09 20:08:10,0.0,5,7.757,0.0,0.0,0.0,6.0,6.0,-0.1,1024,1024,1024,1024,0,0,0,0,91,4.757,66.38,166.010504,P-GPS,,50.6
99900,2026-01-09 20:08:10,0.0,5,7.757,0.0,0.0,0.0,5.9,6.1,-0.1,1024,1024,1024,1024,0,0,0,0,91,4.757,66.38,166.010504,P-GPS,,50.6
100000,2026-01-09 20:08:11,0.0,5,7.757,0.0,0.0,0.0,5.9,6.1,-0.1,1024,1024,1024,1024,0,0,0,0,91,4.757,66.38,166.010504,P-GPS,,50.6
100100,2026-01-09 20:08:11,0.0,5,7.757,0.0,0.0,0.0,5.9,6.1,-0.2,1024,1024,1024,1024,0,0,0,0,91,4.757,66.38,166.010504,P-GPS,,50.6
100200,2026-01-09 20:08:11,0.0,5,7.757,0.0,0.0,0.0,5.9,6.3,-0.2,1024,1024,1024,1024,0,0,0,0,91,4.757,66.38,166.010504,P-GPS,,50.6
100300,2026-01-09 20:08:11,0.0,5,7.757,0.0,0.0,0.0,5.9,6.6,0.1,1024,1024,1024,1024,0,0,0,0,91,4.757,66.38,166.010504,P-GPS,,50.6
100400,2026-01-09 20:08:11,0.0,5,7.751,0.0,0.0,0.0,5.9,6.5,0.2,1024,1024,1024,1024,0,0,0,0,91,4.832,66.38,166.010504,P-GPS,,50.6
100500,2026-01-09 20:08:11,0.0,5,7.751,0.0,0.0,0.0,5.9,6.6,0.3,1024,1024,1024,1024,0,0,0,0,91,4.832,66.38,166.010504,P-GPS,,50.6
100600,2026-01-09 20:08:11,0.0,5,7.751,0.0,0.0,0.0,5.9,6.5,0.5,1024,1024,1024,1024,0,0,0,0,91,4.832,66.38,166.010504,P-GPS,,50.6
100700,2026-01-09 20:08:11,0.0,5,7.751,0.0,0.0,0.0,5.9,6.6,0.5,1024,1024,1024,1024,0,0,0,0,91,4.832,66.38,166.010504,P-GPS,,50.6
100800,2026-01-09 20:08:11,0.0,5,7.751,0.0,0.0,0.0,5.9,6.4,0.5,1024,1024,1024,1024,0,0,0,0,91,4.832,66.38,166.010504,P-GPS,,50.6
100900,2026-01-09 20:08:11,0.0,5,7.751,0.0,0.0,0.0,5.9,6.3,0.3,1024,1024,1024,1024,0,0,0,0,91,4.832,66.38,166.010504,P-GPS,,50.6
101000,2026-01-09 20:08:11,0.0,5,7.751,0.0,0.0,0.0,5.9,6.3,0.4,1024,1024,1024,1024,0,0,0,0,91,4.832,66.38,166.010504,P-GPS,,50.6
101100,2026-01-09 20:08:12,0.0,5,7.751,0.0,0.0,0.0,5.9,6.1,0.2,1024,1024,1024,1024,0,0,0,0,91,4.832,66.38,166.010504,P-GPS,,50.6
101200,2026-01-09 20:08:12,0.0,5,7.751,0.0,0.0,0.0,5.9,6.1,0.4,1024,1024,1024,1024,0,0,0,0,91,4.832,66.38,166.010504,P-GPS,,50.6
101300,2026-01-09 20:08:12,0.0,5,7.751,0.0,0.0,0.0,5.9,6.0,0.4,1024,1024,1024,1024,0,0,0,0,91,4.832,66.38,166.010504,P-GPS,,50.6
101400,2026-01-09 20:08:12,0.0,5,7.751,0.0,0.0,0.0,6.0,5.8,0.3,1024,1024,1024,1024,0,0,0,0,91,4.832,66.38,166.010504,P-GPS,,50.6
101500,2026-01-09 20:08:12,0.0,5,7.75,0.0,0.0,0.0,6.0,5.7,0.0,1024,1024,1024,1024,0,0,0,0,91,4.79,66.56,166.010504,P-GPS,,50.6
101600,2026-01-09 20:08:12,0.0,5,7.75,0.0,0.0,0.0,6.0,5.8,0.2,1024,1024,1024,1024,0,0,0,0,91,4.79,66.56,166.010504,P-GPS,,50.6
101700,2026-01-09 20:08:12,0.0,5,7.75,0.0,0.0,0.0,5.9,5.9,0.4,1024,1024,1024,1024,0,0,0,0,91,4.79,66.56,166.010504,P-GPS,,50.6
101800,2026-01-09 20:08:12,0.0,5,7.75,0.0,0.0,0.0,5.9,5.7,0.4,1024,1024,1024,1024,0,0,0,0,91,4.79,66.56,166.010504,P-GPS,,50.6
101900,2026-01-09 20:08:12,0.0,5,7.75,0.0,0.0,0.0,5.9,5.5,0.1,1024,1024,1024,1024,0,0,0,0,91,4.79,66.56,166.010504,P-GPS,,50.6
102000,2026-01-09 20:08:13,0.0,5,7.75,0.0,0.0,0.0,6.0,5.5,0.4,1024,1024,1024,1024,0,0,0,0,91,4.79,66.56,166.338588,P-GPS,,50.7
102100,2026-01-09 20:08:13,0.0,5,7.75,0.0,0.0,0.0,6.0,5.6,0.4,1024,1024,1024,1024,0,0,0,0,91,4.79,66.56,166.338588,P-GPS,,50.7
102200,2026-01-09 20:08:13,0.0,5,7.75,0.0,0.0,0.0,5.9,5.5,0.3,1024,1024,1024,1024,0,0,0,0,91,4.79,66.56,166.338588,P-GPS,,50.7
102300,2026-01-09 20:08:13,0.0,5,7.75,0.0,0.0,0.0,5.9,5.7,0.6,1024,1024,1024,1024,0,0,0,0,91,4.79,66.56,166.338588,P-GPS,,50.7
102400,2026-01-09 20:08:13,0.0,5,7.75,0.0,0.0,0.0,6.0,5.4,0.8,1024,1024,1024,1024,0,0,0,0,91,4.79,66.56,166.338588,P-GPS,,50.7
102500,2026-01-09 20:08:13,0.0,5,7.75,0.0,0.0,0.0,5.9,5.3,0.8,1024,1024,1024,1024,0,0,0,0,91,4.79,66.56,166.338588,P-GPS,,50.7
102600,2026-01-09 20:08:13,0.0,5,7.75,0.0,0.0,0.0,5.9,5.5,0.8,1024,1024,1024,1024,0,0,0,0,91,4.79,66.56,166.338588,P-GPS,,50.7
102700,2026-01-09 20:08:13,0.0,5,7.76,0.0,0.0,0.0,6.0,5.6,0.7,1024,1024,1024,1024,0,0,0,0,91,4.595,66.56,166.338588,P-GPS,,50.7
102800,2026-01-09 20:08:13,0.0,5,7.76,0.0,0.0,0.0,6.0,5.8,0.7,1024,1024,1024,1024,0,0,0,0,91,4.595,66.56,166.338588,P-GPS,,50.7
102900,2026-01-09 20:08:13,0.0,5,7.76,0.0,0.0,0.0,6.0,6.2,0.5,1024,1024,1024,1024,0,0,0,0,91,4.595,66.56,166.338588,P-GPS,,50.7
103000,2026-01-09 20:08:14,0.0,5,7.76,0.0,0.0,0.0,5.9,6.1,0.2,1024,1024,1024,1024,0,0,0,0,91,4.595,66.56,166.338588,P-GPS,,50.7
103100,2026-01-09 20:08:14,0.0,5,7.76,0.0,0.0,0.0,5.9,6.0,0.1,1024,1024,1024,1024,0,0,0,0,91,4.595,66.56,166.338588,P-GPS,,50.7
103200,2026-01-09 20:08:14,0.0,5,7.76,0.0,0.0,0.0,5.9,5.8,0.2,1024,1024,1024,1024,0,0,0,0,91,4.595,66.56,166.338588,P-GPS,,50.7
103300,2026-01-09 20:08:14,0.0,5,7.76,0.0,0.0,0.0,5.9,5.8,0.2,1024,1024,1024,1024,0,0,0,0,91,4.595,66.56,166.338588,P-GPS,,50.7
103400,2026-01-09 20:08:14,0.0,5,7.76,0.0,0.0,0.0,5.9,5.7,0.3,1024,1024,1024,1024,0,0,0,0,91,4.595,66.56,166.338588,P-GPS,,50.7
103500,2026-01-09 20:08:14,0.0,5,7.76,0.0,0.0,0.0,6.0,5.5,-0.1,1024,1024,1024,1024,0,0,0,0,91,4.595,66.56,166.338588,P-GPS,,50.7
103600,2026-01-09 20:08:14,0.0,5,7.76,0.0,0.0,0.0,5.9,5.4,0.0,1024,1024,1024,1024,0,0,0,0,91,4.595,66.56,166.338588,P-GPS,,50.7
103700,2026-01-09 20:08:14,0.0,5,7.76,0.0,0.0,0.0,5.9,5.8,0.1,1024,1024,1024,1024,0,0,0,0,91,4.595,66.56,166.338588,P-GPS,,50.7
103800,2026-01-09 20:08:14,0.0,5,7.759,0.0,0.0,0.0,5.9,5.8,0.2,1024,1024,1024,1024,0,0,0,0,91,4.648,66.56,166.338588,P-GPS,,50.7
103900,2026-01-09 20:08:14,0.0,5,7.759,0.0,0.0,0.0,5.9,5.8,0.3,1024,1024,1024,1024,0,0,0,0,91,4.648,66.56,166.666672,P-GPS,,50.8
104000,2026-01-09 20:08:15,0.0,5,7.759,0.0,0.0,0.0,5.9,6.1,0.7,1024,1024,1024,1024,0,0,0,0,91,4.648,66.56,166.666672,P-GPS,,50.8
104100,2026-01-09 20:08:15,0.0,5,7.759,0.0,0.0,0.0,6.0,6.3,0.7,1024,1024,1024,1024,0,0,0,0,91,4.648,66.56,166.666672,P-GPS,,50.8
104200,2026-01-09 20:08:15,0.0,5,7.759,0.0,0.0,0.0,5.9,6.2,0.7,1024,1024,1024,1024,0,0,0,0,91,4.648,66.56,166.666672,P-GPS,,50.8
104300,2026-01-09 20:08:15,0.0,5,7.759,0.0,0.0,0.0,6.0,6.1,0.7,1024,1024,1024,1024,0,0,0,0,91,4.648,66.56,166.666672,P-GPS,,50.8
104400,2026-01-09 20:08:15,0.0,5,7.759,0.0,0.0,0.0,6.0,6.1,0.8,1024,1024,604,1024,0,0,-64,0,91,4.648,66.56,166.666672,P-GPS,,50.8
104500,2026-01-09 20:08:15,0.0,5,7.759,0.0,0.0,0.0,6.0,6.6,0.6,1024,1024,364,1024,0,0,-100,0,91,4.648,66.56,166.666672,P-GPS,,50.8
104600,2026-01-09 20:08:15,0.0,5,7.759,0.0,0.0,0.0,5.9,6.3,0.7,1024,1024,364,1024,0,0,-100,0,91,4.648,66.56,166.666672,P-GPS,,50.8
