index,time(millisecond),timestamp,speed(mph),gpslevel,voltage(v),xSpeed(mph),ySpeed(mph),zSpeed(mph),compass_heading(degrees),pitch(degrees),roll(degrees),rc_elevator,rc_aileron,rc_throttle,rc_rudder,rc_elevator(percent),rc_aileron(percent),rc_throttle(percent),rc_rudder(percent),battery_percent,current(A),battery_temperature(f),ascent(feet),flycState,message,height_above_takeoff(meters)
84,431200,2026-01-09 12:44:40,0.0,5,7.45,0.0,0.0,-4.47388,38.7,-1.5,-6.4,1024,1024,1024,1024,0,0,0,0,71,6.536,75.74,38.385828,P-GPS,,11.7
85,431300,2026-01-09 12:44:40,0.0,5,7.45,0.0,0.0,-4.250186,38.7,-2.6,-6.0,1024,1024,1024,1024,0,0,0,0,71,6.536,75.74,39.041996,P-GPS,,11.9
105,433300,2026-01-09 12:44:42,0.0,5,7.554,0.0,0.0,3.802798,38.4,-5.6,-3.3,1024,1024,1024,1024,0,0,0,0,71,3.856,75.74,35.433072,P-GPS,,10.8
106,433400,2026-01-09 12:44:43,0.0,5,7.554,0.0,0.0,3.579104,38.5,-5.3,-2.5,1024,1024,1024,1024,0,0,0,0,71,3.856,75.74,35.104988,P-GPS,,10.7
107,433500,2026-01-09 12:44:43,0.0,5,7.554,0.0,0.0,2.908022,38.4,-4.8,-1.9,1024,1024,1024,1024,0,0,0,0,71,3.856,75.74,34.44882,P-GPS,,10.5
108,433600,2026-01-09 12:44:43,0.0,5,7.501,0.0,0.0,2.23694,38.3,-4.8,-3.1,1024,1024,1024,1024,0,0,0,0,71,4.725,75.74,34.120736,P-GPS,,10.4
109,433700,2026-01-09 12:44:43,0.0,5,7.501,0.0,0.0,1.565858,38.5,-5.0,-3.4,1024,1024,1024,1024,0,0,0,0,71,4.725,75.74,34.120736,P-GPS,,10.4
110,433800,2026-01-09 12:44:43,0.0,5,7.501,0.0,0.0,0.894776,38.7,-5.6,-3.9,1024,1024,1024,1024,0,0,0,0,71,4.725,75.74,33.792652,P-GPS,,10.3
111,433900,2026-01-09 12:44:43,0.223694,5,7.501,0.223694,0.0,0.447388,38.6,-5.2,-3.6,1024,1024,1024,1024,0,0,0,0,71,4.725,75.74,33.792652,P-GPS,,10.3
112,434000,2026-01-09 12:44:43,0.223694,5,7.501,0.223694,0.0,0.223694,38.5,-5.0,-4.3,1024,1024,1024,1024,0,0,0,0,71,4.725,75.74,33.464568,P-GPS,,10.2
113,434100,2026-01-09 12:44:43,0.223694,5,7.501,0.223694,0.0,0.0,38.5,-4.0,-3.7,1024,1024,1024,1024,0,0,0,0,71,4.725,75.74,33.464568,P-GPS,,10.2
114,434200,2026-01-09 12:44:43,0.447388,5,7.501,0.447388,0.0,0.0,38.6,-3.5,-2.8,1024,1024,1024,1024,0,0,0,0,71,4.725,75.74,33.464568,P-GPS,,10.2
115,434300,2026-01-09 12:44:43,0.223694,5,7.501,0.223694,0.0,0.0,38.5,-3.0,-2.2,1024,1024,1024,1024,0,0,0,0,71,4.725,75.74,33.464568,P-GPS,,10.2
116,434400,2026-01-09 12:44:43,0.223694,5,7.501,0.223694,0.0,0.0,38.4,-2.4,-2.0,1024,1024,1024,1024,0,0,0,0,71,4.725,75.74,33.464568,P-GPS,,10.2
117,434500,2026-01-09 12:44:44,0.223694,5,7.501,0.223694,0.0,0.0,38.4,-2.9,-2.2,1024,1024,1024,1024,0,0,0,0,71,4.725,75.74,33.136484,P-GPS,,10.1
118,434600,2026-01-09 12:44:44,0.223694,5,7.501,0.223694,0.0,0.0,38.4,-2.9,-2.0,1024,1024,1024,1024,0,0,0,0,71,4.725,75.74,33.136484,P-GPS,,10.1
119,434700,2026-01-09 12:44:44,0.223694,5,7.482,0.223694,0.0,0.0,38.5,-2.9,-1.5,1024,1024,1024,1024,0,0,0,0,71,6.058,75.74,33.136484,P-GPS,,10.1
120,434800,2026-01-09 12:44:44,0.223694,5,7.482,0.223694,0.0,0.0,38.5,-2.8,-1.8,1024,1024,1024,1024,0,0,0,0,71,6.058,75.74,33.136484,P-GPS,,10.1
121,434900,2026-01-09 12:44:44,0.223694,5,7.482,0.223694,0.0,0.0,38.3,-2.2,-1.9,1024,1024,1024,1024,0,0,0,0,71,6.058,75.74,33.136484,P-GPS,,10.1
122,435000,2026-01-09 12:44:44,0.223694,5,7.482,0.0,0.0,0.0,38.3,-3.5,-1.6,1024,1024,1024,1024,0,0,0,0,71,6.058,75.74,33.136484,P-GPS,,10.1
123,435100,2026-01-09 12:44:44,0.0,5,7.482,0.0,0.0,0.0,38.3,-3.7,-1.6,1024,1024,1024,1024,0,0,0,0,71,6.058,75.74,32.8084,P-GPS,,10.0
124,435200,2026-01-09 12:44:44,0.223694,5,7.482,0.223694,0.0,0.0,38.3,-3.5,-1.0,1024,1024,1024,1024,0,0,0,0,71,6.058,75.74,32.8084,P-GPS,,10.0
125,435300,2026-01-09 12:44:44,0.0,5,7.482,0.0,0.0,0.0,38.4,-2.9,-0.5,1024,1024,1024,1024,0,0,0,0,71,6.058,75.74,32.8084,P-GPS,,10.0
126,435400,2026-01-09 12:44:44,0.0,5,7.482,0.0,0.0,0.0,38.4,-2.7,-0.3,1024,1024,1024,1024,0,0,0,0,71,6.058,75.74,32.8084,P-GPS,,10.0
127,435500,2026-01-09 12:44:45,0.0,5,7.482,0.0,0.0,0.0,38.4,-2.5,-0.2,1024,1024,1024,1024,0,0,0,0,71,6.058,75.74,32.8084,P-GPS,,10.0
128,435600,2026-01-09 12:44:45,0.0,5,7.482,0.0,0.0,0.0,38.4,-2.7,-0.4,1024,1024,1024,1024,0,0,0,0,71,6.058,75.74,32.8084,P-GPS,,10.0
129,435700,2026-01-09 12:44:45,0.0,5,7.482,0.0,0.0,0.0,38.4,-2.6,-0.6,1024,1024,1024,1024,0,0,0,0,71,6.058,75.74,32.8084,P-GPS,,10.0
130,435800,2026-01-09 12:44:45,0.0,5,7.499,0.0,0.0,0.0,38.4,-2.7,-0.9,1024,1024,1024,1024,0,0,0,0,71,5.295,75.92,32.8084,P-GPS,,10.0
131,435900,2026-01-09 12:44:45,0.0,5,7.499,0.0,0.0,0.0,38.3,-2.7,-1.0,1024,1024,1024,1024,0,0,0,0,71,5.295,75.92,32.8084,P-GPS,,10.0
132,436000,2026-01-09 12:44:45,0.0,5,7.499,0.0,0.0,0.0,38.3,-3.0,-1.2,1024,1024,1024,1024,0,0,0,0,71,5.295,75.92,32.8084,P-GPS,,10.0
133,436100,2026-01-09 12:44:45,0.0,5,7.499,0.0,0.0,0.0,38.5,-2.3,-0.5,1024,1024,1024,1024,0,0,0,0,71,5.295,75.92,32.8084,P-GPS,,10.0
134,436200,2026-01-09 12:44:45,0.0,5,7.499,0.0,0.0,0.0,38.5,-3.1,-0.5,1024,1024,1024,1024,0,0,0,0,71,5.295,75.92,32.8084,P-GPS,,10.0
135,436300,2026-01-09 12:44:45,0.0,5,7.499,0.0,0.0,0.0,38.4,-3.0,-0.9,1024,1024,1024,1024,0,0,0,0,71,5.295,75.92,32.480316,P-GPS,,9.9
136,436400,2026-01-09 12:44:45,0.0,5,7.499,0.0,0.0,0.0,38.3,-3.5,-0.9,1024,1024,1024,1024,0,0,0,0,71,5.295,75.92,32.480316,P-GPS,,9.9
137,436500,2026-01-09 12:44:46,0.0,5,7.499,0.0,0.0,0.0,38.3,-3.3,-1.4,1024,1024,1024,1024,0,0,0,0,71,5.295,75.92,32.480316,P-GPS,,9.9
138,436600,2026-01-09 12:44:46,0.0,5,7.499,0.0,0.0,0.0,38.3,-3.4,-1.8,1024,1024,1024,1024,0,0,0,0,71,5.295,75.92,32.480316,P-GPS,,9.9
139,436700,2026-01-09 12:44:46,0.0,5,7.499,0.0,0.0,0.0,38.3,-3.1,-2.0,1024,1024,1024,1024,0,0,0,0,71,5.295,75.92,32.480316,P-GPS,,9.9
140,436800,2026-01-09 12:44:46,0.0,5,7.499,0.0,0.0,0.0,38.3,-2.8,-2.0,1024,1024,1024,1024,0,0,0,0,71,5.295,75.92,32.480316,P-GPS,,9.9
141,436900,2026-01-09 12:44:46,0.0,5,7.509,0.0,0.0,0.0,38.3,-3.0,-1.9,1024,1024,1024,1024,0,0,0,0,71,4.886,75.92,32.480316,P-GPS,,9.9
142,437000,2026-01-09 12:44:46,0.0,5,7.509,0.0,0.0,0.0,38.2,-2.7,-1.8,1024,1024,1024,1024,0,0,0,0,71,4.886,75.92,32.152232,P-GPS,,9.8
143,437100,2026-01-09 12:44:46,0.0,5,7.509,0.0,0.0,0.0,38.2,-2.4,-2.1,1024,1024,1024,1024,0,0,0,0,71,4.886,75.92,32.152232,P-GPS,,9.8
144,437200,2026-01-09 12:44:46,0.0,5,7.509,0.0,0.0,0.0,38.4,-2.8,-1.9,1024,1024,1024,1024,0,0,0,0,71,4.886,75.92,32.152232,P-GPS,,9.8
145,437300,2026-01-09 12:44:46,0.0,5,7.509,0.0,0.0,0.0,38.5,-3.6,-1.6,1024,1024,1024,1024,0,0,0,0,71,4.886,75.92,32.152232,P-GPS,,9.8
146,437400,2026-01-09 12:44:46,0.0,5,7.509,0.0,0.0,0.0,38.4,-2.9,-1.3,1024,1024,1024,1024,0,0,0,0,71,4.886,75.92,32.152232,P-GPS,,9.8
147,437500,2026-01-09 12:44:47,0.0,5,7.509,0.0,0.0,0.0,38.3,-3.1,-1.6,1024,1024,1024,1024,0,0,0,0,71,4.886,75.92,32.152232,P-GPS,,9.8
148,437600,2026-01-09 12:44:47,0.0,5,7.509,0.0,0.0,0.0,38.3,-3.0,-1.9,1024,1024,1024,1024,0,0,0,0,71,4.886,75.92,32.152232,P-GPS,,9.8
149,437700,2026-01-09 12:44:47,0.223694,5,7.509,-0.223694,0.0,0.0,38.0,-2.7,-2.5,1024,1024,1024,1024,0,0,0,0,71,4.886,75.92,32.152232,P-GPS,,9.8
150,437800,2026-01-09 12:44:47,0.223694,5,7.509,-0.223694,0.0,0.0,38.0,-4.2,-3.3,1024,1024,1024,1024,0,0,0,0,71,4.886,75.92,32.152232,P-GPS,,9.8
151,437900,2026-01-09 12:44:47,0.0,5,7.509,0.0,0.0,0.0,38.2,-5.5,-2.4,1024,1024,1024,1024,0,0,0,0,71,4.886,75.92,31.824148,P-GPS,,9.7
152,438000,2026-01-09 12:44:47,0.0,5,7.508,0.0,0.0,0.0,38.4,-5.8,-1.7,1024,1024,1024,1024,0,0,0,0,70,4.743,75.92,31.824148,P-GPS,,9.7
153,438100,2026-01-09 12:44:47,0.0,5,7.508,0.0,0.0,0.0,38.5,-5.0,-1.4,1024,1024,1024,1024,0,0,0,0,70,4.743,75.92,31.824148,P-GPS,,9.7
154,438200,2026-01-09 12:44:47,0.0,5,7.508,0.0,0.0,0.0,38.4,-3.2,-1.6,1024,1024,1024,1024,0,0,0,0,70,4.743,75.92,31.824148,P-GPS,,9.7
155,438300,2026-01-09 12:44:47,0.0,5,7.508,0.0,0.0,0.0,38.0,-1.9,-3.7,1024,1024,1024,1024,0,0,0,0,70,4.743,75.92,31.496064,P-GPS,,9.6
156,438400,2026-01-09 12:44:47,0.0,5,7.508,0.0,0.0,0.0,38.4,-4.3,-2.3,1024,1024,1024,1024,0,0,0,0,70,4.743,75.92,31.496064,P-GPS,,9.6
157,438500,2026-01-09 12:44:48,0.0,5,7.508,0.0,0.0,0.0,38.6,-6.2,-1.7,1024,1024,1024,1024,0,0,0,0,70,4.743,75.92,31.496064,P-GPS,,9.6
158,438600,2026-01-09 12:44:48,0.0,5,7.508,0.0,0.0,0.0,38.6,-5.8,-0.8,1024,1024,1024,1024,0,0,0,0,70,4.743,75.92,31.16798,P-GPS,,9.5
159,438700,2026-01-09 12:44:48,0.0,5,7.508,0.0,0.0,0.0,38.4,-5.0,-1.1,1024,1024,1024,1024,0,0,0,0,70,4.743,75.92,31.16798,P-GPS,,9.5
160,438800,2026-01-09 12:44:48,0.0,5,7.508,0.0,0.0,0.0,38.4,-4.4,-0.8,1024,1024,1024,1024,0,0,0,0,70,4.743,75.92,31.16798,P-GPS,,9.5
161,438900,2026-01-09 12:44:48,0.0,5,7.508,0.0,0.0,0.0,38.4,-3.9,-0.7,1024,1024,1024,1024,0,0,0,0,70,4.743,75.92,31.16798,P-GPS,,9.5
162,439000,2026-01-09 12:44:48,0.0,5,7.508,0.0,0.0,0.0,38.0,-2.5,-1.5,1024,1024,1024,1024,0,0,0,0,70,4.743,75.92,31.16798,P-GPS,,9.5
163,439100,2026-01-09 12:44:48,0.0,5,7.508,0.0,0.0,0.0,38.0,-2.2,-1.4,1024,1024,1024,1024,0,0,0,0,70,4.743,75.92,31.16798,P-GPS,,9.5
164,439200,2026-01-09 12:44:48,0.0,5,7.508,0.0,0.0,0.0,38.1,-2.2,-1.1,1024,1024,1024,1024,0,0,0,0,70,4.743,75.92,31.16798,P-GPS,,9.5
165,439300,2026-01-09 12:44:48,0.0,5,7.508,0.0,0.0,0.0,38.2,-2.6,-0.7,1024,1024,1024,1024,0,0,0,0,70,4.743,75.92,31.16798,P-GPS,,9.5
166,439400,2026-01-09 12:44:48,0.0,5,7.508,0.0,0.0,0.0,38.3,-2.6,-1.0,1024,1024,1024,1024,0,0,0,0,70,4.743,75.92,31.16798,P-GPS,,9.5
167,439500,2026-01-09 12:44:49,0.0,5,7.508,0.0,0.0,0.0,38.4,-2.6,-0.8,1024,1024,1024,1024,0,0,0,0,70,4.743,75.92,30.839896,P-GPS,,9.4
168,439600,2026-01-09 12:44:49,0.0,5,7.508,0.0,0.0,0.0,38.5,-2.6,-0.5,1024,1024,1024,1024,0,0,0,0,70,4.743,75.92,30.839896,P-GPS,,9.4
169,439700,2026-01-09 12:44:49,0.0,5,7.508,0.0,0.0,0.0,38.6,-2.6,-0.2,1024,1024,1024,1024,0,0,0,0,70,4.743,75.92,30.839896,P-GPS,,9.4
170,439800,2026-01-09 12:44:49,0.0,5,7.508,0.0,0.0,0.0,38.6,-2.2,0.0,1024,1024,1024,1024,0,0,0,0,70,4.743,75.92,30.839896,P-GPS,,9.4
171,439900,2026-01-09 12:44:49,0.0,5,7.508,0.0,0.0,0.0,38.6,-1.6,0.0,1024,1024,1024,1024,0,0,0,0,70,4.743,75.92,30.839896,P-GPS,,9.4
172,440000,2026-01-09 12:44:49,0.0,5,7.508,0.0,0.0,0.0,38.5,-1.3,-0.4,1024,1024,1024,1024,0,0,0,0,70,4.743,75.92,30.839896,P-GPS,,9.4
173,440100,2026-01-09 12:44:49,0.0,5,7.508,0.0,0.0,0.0,38.4,-1.3,-0.4,1024,1024,1024,1024,0,0,0,0,70,4.743,75.92,30.839896,P-GPS,,9.4
174,440200,2026-01-09 12:44:49,0.0,5,7.515,0.0,0.0,0.0,38.3,-1.2,-1.0,1024,1024,1024,1024,0,0,0,0,70,4.768,75.92,30.839896,P-GPS,,9.4
175,440300,2026-01-09 12:44:49,0.0,5,7.515,0.0,0.0,0.0,38.4,-1.4,-1.0,1024,1024,1024,1024,0,0,0,0,70,4.768,75.92,30.839896,P-GPS,,9.4
176,440400,2026-01-09 12:44:50,0.0,5,7.515,0.0,0.0,0.0,38.4,-2.0,-1.2,1024,1024,1024,1024,0,0,0,0,70,4.768,75.92,30.839896,P-GPS,,9.4
177,440500,2026-01-09 12:44:50,0.0,5,7.515,0.0,0.0,0.0,38.4,-1.9,-1.6,1024,1024,1024,1024,0,0,0,0,70,4.768,75.92,31.16798,P-GPS,,9.5
178,440600,2026-01-09 12:44:50,0.0,5,7.515,0.0,0.0,0.0,38.4,-2.1,-1.9,1024,1024,1024,1024,0,0,0,0,70,4.768,75.92,31.16798,P-GPS,,9.5
179,440700,2026-01-09 12:44:50,0.0,5,7.515,0.0,0.0,0.0,38.5,-2.5,-1.8,1024,1024,1024,1024,0,0,0,0,70,4.768,75.92,31.16798,P-GPS,,9.5
180,440800,2026-01-09 12:44:50,0.0,5,7.515,0.0,0.0,0.0,38.5,-3.0,-1.9,1024,1024,1024,1024,0,0,0,0,70,4.768,75.92,31.16798,P-GPS,,9.5
181,440900,2026-01-09 12:44:50,0.0,5,7.515,0.0,0.0,0.0,38.5,-2.8,-2.0,1024,1024,1024,1024,0,0,0,0,70,4.768,75.92,31.16798,P-GPS,,9.5
182,441000,2026-01-09 12:44:50,0.0,5,7.515,0.0,0.0,0.0,38.5,-3.0,-2.2,1024,1024,1024,1024,0,0,0,0,70,4.768,75.92,31.16798,P-GPS,,9.5
183,441100,2026-01-09 12:44:50,0.0,5,7.515,0.0,0.0,0.0,38.5,-3.2,-2.4,1024,1024,1024,1024,0,0,0,0,70,4.768,75.92,31.16798,P-GPS,,9.5
184,441200,2026-01-09 12:44:50,0.0,5,7.515,0.0,0.0,0.0,38.6,-3.8,-2.2,1024,1024,1024,1024,0,0,0,0,70,4.768,75.92,31.16798,P-GPS,,9.5
185,441300,2026-01-09 12:44:50,0.0,5,7.504,0.0,0.0,0.0,38.6,-5.0,-2.5,1024,1024,1024,1024,0,0,0,0,70,4.806,75.92,31.16798,P-GPS,,9.5
186,441400,2026-01-09 12:44:50,0.0,5,7.504,0.0,0.0,0.0,38.8,-4.8,-3.3,1024,1024,1024,1024,0,0,0,0,70,4.806,75.92,31.496064,P-GPS,,9.6
187,441500,2026-01-09 12:44:51,0.223694,5,7.504,0.0,0.223694,0.0,38.8,-3.4,-4.3,1024,1024,1024,1024,0,0,0,0,70,4.806,75.92,31.496064,P-GPS,,9.6
188,441600,2026-01-09 12:44:51,0.223694,5,7.504,0.0,0.223694,0.0,38.5,-1.8,-4.9,1024,1024,1024,1024,0,0,0,0,70,4.806,75.92,31.496064,P-GPS,,9.6
189,441700,2026-01-09 12:44:51,0.223694,5,7.504,0.0,0.223694,0.0,38.6,-1.3,-5.1,1024,1024,1024,1024,0,0,0,0,70,4.806,75.92,31.496064,P-GPS,,9.6
190,441800,2026-01-09 12:44:51,0.223694,5,7.504,0.0,0.223694,0.0,38.4,-0.9,-5.6,1024,1024,1024,1024,0,0,0,0,70,4.806,75.92,31.824148,P-GPS,,9.7
191,441900,2026-01-09 12:44:51,0.0,5,7.504,0.0,0.0,0.0,38.4,-1.0,-5.1,1024,1024,1024,1024,0,0,0,0,70,4.806,75.92,31.824148,P-GPS,,9.7
192,442000,2026-01-09 12:44:51,0.0,5,7.504,0.0,0.0,0.0,38.5,-1.7,-4.6,1024,1024,1024,1024,0,0,0,0,70,4.806,75.92,31.824148,P-GPS,,9.7
193,442100,2026-01-09 12:44:51,0.0,5,7.504,0.0,0.0,0.0,38.5,-1.9,-4.6,1024,1024,1024,1024,0,0,0,0,70,4.806,75.92,32.152232,P-GPS,,9.8
194,442200,2026-01-09 12:44:51,0.0,5,7.504,0.0,0.0,0.0,38.4,-2.0,-4.6,1024,1024,1024,1024,0,0,0,0,70,4.806,75.92,32.152232,P-GPS,,9.8
195,442300,2026-01-09 12:44:51,0.0,5,7.504,0.0,0.0,0.0,38.7,-3.0,-3.9,1024,1024,1024,1024,0,0,0,0,70,4.806,75.92,32.152232,P-GPS,,9.8
196,442400,2026-01-09 12:44:51,0.0,5,7.49,0.0,0.0,0.0,38.7,-2.7,-3.7,1024,1024,1024,1024,0,0,0,0,70,5.248,75.92,32.480316,P-GPS,,9.9
197,442500,2026-01-09 12:44:52,0.0,5,7.49,0.0,0.0,0.0,38.7,-1.7,-3.7,1024,1024,1024,1024,0,0,0,0,70,5.248,75.92,32.480316,P-GPS,,9.9
198,442600,2026-01-09 12:44:52,0.0,5,7.49,0.0,0.0,0.0,38.5,-1.2,-4.0,1024,1024,1024,1024,0,0,0,0,70,5.248,75.92,32.480316,P-GPS,,9.9
199,442700,2026-01-09 12:44:52,0.0,5,7.49,0.0,0.0,0.0,38.5,-0.7,-4.0,1024,1024,1024,1024,0,0,0,0,70,5.248,75.92,32.480316,P-GPS,,9.9
200,442800,2026-01-09 12:44:52,0.0,5,7.49,0.0,0.0,0.0,38.4,-0.4,-4.3,1024,1024,1024,1024,0,0,0,0,70,5.248,75.92,32.480316,P-GPS,,9.9
201,442900,2026-01-09 12:44:52,0.0,5,7.49,0.0,0.0,0.0,38.5,-0.9,-3.9,1024,1024,1024,1024,0,0,0,0,70,5.248,75.92,32.480316,P-GPS,,9.9
202,443000,2026-01-09 12:44:52,0.0,5,7.49,0.0,0.0,0.0,38.5,-1.4,-3.4,1024,1024,1024,1024,0,0,0,0,70,5.248,75.92,32.480316,P-GPS,,9.9
203,443100,2026-01-09 12:44:52,0.0,5,7.49,0.0,0.0,0.0,38.6,-2.0,-3.0,1024,1024,1024,1024,0,0,0,0,70,5.248,75.92,32.480316,P-GPS,,9.9
204,443200,2026-01-09 12:44:52,0.0,5,7.49,0.0,0.0,0.0,38.6,-1.9,-3.1,1024,1024,1024,1024,0,0,0,0,70,5.248,75.92,32.480316,P-GPS,,9.9
205,443300,2026-01-09 12:44:52,0.0,5,7.49,0.0,0.0,0.0,38.5,-1.9,-3.1,1024,1024,1024,1024,0,0,0,0,70,5.248,75.92,32.480316,P-GPS,,9.9
206,443400,2026-01-09 12:44:52,0.0,5,7.49,0.0,0.0,0.0,38.5,-1.7,-3.0,1024,1024,1024,1024,0,0,0,0,70,5.248,75.92,32.480316,P-GPS,,9.9
207,443500,2026-01-09 12:44:53,0.0,5,7.476,0.0,0.0,0.0,38.4,-1.6,-2.9,1024,1024,1024,1024,0,0,0,0,70,5.219,75.92,32.152232,P-GPS,,9.8
208,443600,2026-01-09 12:44:53,0.0,5,7.476,0.0,0.0,0.0,38.4,-1.4,-2.7,1024,1024,1024,1024,0,0,0,0,70,5.219,75.92,32.152232,P-GPS,,9.8
209,443700,2026-01-09 12:44:53,0.0,5,7.476,0.0,0.0,0.0,38.5,-0.8,-2.1,1024,1024,1024,1024,0,0,0,0,70,5.219,75.92,32.152232,P-GPS,,9.8
210,443800,2026-01-09 12:44:53,0.0,5,7.476,0.0,0.0,0.0,38.4,-0.7,-3.0,1024,1024,1024,1024,0,0,0,0,70,5.219,75.92,32.152232,P-GPS,,9.8
211,443900,2026-01-09 12:44:53,0.0,5,7.476,0.0,0.0,0.0,38.4,-0.7,-3.3,1024,1024,1024,1024,0,0,0,0,70,5.219,75.92,32.152232,P-GPS,,9.8
212,444000,2026-01-09 12:44:53,0.0,5,7.476,0.0,0.0,0.0,38.4,-0.9,-3.8,1024,1024,1024,1024,0,0,0,0,70,5.219,75.92,32.152232,P-GPS,,9.8
213,444100,2026-01-09 12:44:53,0.0,5,7.476,0.0,0.0,0.0,38.3,-0.4,-3.9,1024,1024,1024,1024,0,0,0,0,70,5.219,75.92,32.152232,P-GPS,,9.8
214,444200,2026-01-09 12:44:53,0.0,5,7.476,0.0,0.0,0.0,38.4,-0.7,-4.2,1024,1024,1024,1024,0,0,0,0,70,5.219,75.92,32.152232,P-GPS,,9.8
215,444300,2026-01-09 12:44:53,0.0,5,7.476,0.0,0.0,0.0,38.5,-0.6,-4.6,1024,1024,1024,1024,0,0,0,0,70,5.219,75.92,32.152232,P-GPS,,9.8
216,444400,2026-01-09 12:44:53,0.0,5,7.476,0.0,0.0,0.0,38.4,-0.6,-5.0,1024,1024,1024,1024,0,0,0,0,70,5.219,75.92,32.152232,P-GPS,,9.8
217,444500,2026-01-09 12:44:54,0.0,5,7.476,0.0,0.0,0.0,38.4,-0.6,-5.0,1024,1024,1024,1024,0,0,0,0,70,5.219,75.92,32.152232,P-GPS,,9.8
218,444600,2026-01-09 12:44:54,0.0,5,7.468,0.0,0.0,0.0,38.5,-0.7,-5.0,1024,1024,1024,1024,0,0,0,0,70,5.409,75.92,32.152232,P-GPS,,9.8
219,444700,2026-01-09 12:44:54,0.0,5,7.468,0.0,0.0,0.0,38.4,-0.7,-4.9,1024,1024,1024,1024,0,0,0,0,70,5.409,75.92,32.152232,P-GPS,,9.8
220,444800,2026-01-09 12:44:54,0.0,5,7.468,0.0,0.0,0.0,38.5,-0.6,-4.1,1024,1024,1024,1024,0,0,0,0,70,5.409,75.92,32.152232,P-GPS,,9.8
221,444900,2026-01-09 12:44:54,0.0,5,7.468,0.0,0.0,0.0,38.4,-0.4,-4.4,1024,1024,1024,1024,0,0,0,0,70,5.409,75.92,32.152232,P-GPS,,9.8
222,445000,2026-01-09 12:44:54,0.0,5,7.468,0.0,0.0,0.0,38.4,-0.8,-4.8,1024,1024,1024,1024,0,0,0,0,70,5.409,75.92,32.152232,P-GPS,,9.8
223,445100,2026-01-09 12:44:54,0.0,5,7.468,0.0,0.0,0.0,38.5,-0.9,-4.9,1024,1024,1024,1024,0,0,0,0,70,5.409,75.92,32.480316,P-GPS,,9.9
224,445200,2026-01-09 12:44:54,0.0,5,7.468,0.0,0.0,0.0,38.6,-1.2,-4.7,1024,1024,1024,1024,0,0,0,0,70,5.409,75.92,32.480316,P-GPS,,9.9
225,445300,2026-01-09 12:44:54,0.0,5,7.468,0.0,0.0,0.0,38.5,-1.2,-4.9,1024,1024,1024,1024,0,0,0,0,70,5.409,75.92,32.480316,P-GPS,,9.9
226,445400,2026-01-09 12:44:54,0.0,5,7.468,0.0,0.0,0.0,38.6,-1.1,-5.0,1024,1024,1024,1024,0,0,0,0,70,5.409,75.92,32.480316,P-GPS,,9.9
227,445500,2026-01-09 12:44:55,0.0,5,7.468,0.0,0.0,0.0,38.7,-0.9,-4.9,1024,1024,1024,1024,0,0,0,0,70,5.409,75.92,32.480316,P-GPS,,9.9
228,445600,2026-01-09 12:44:55,0.0,5,7.468,0.0,0.0,0.0,38.6,-0.6,-5.3,1024,1024,1024,1024,0,0,0,0,70,5.409,75.92,32.8084,P-GPS,,10.0
229,445700,2026-01-09 12:44:55,0.0,5,7.466,0.0,0.0,0.0,38.6,-0.7,-5.6,1024,1024,1024,1024,0,0,0,0,70,5.464,75.92,32.8084,P-GPS,,10.0
230,445800,2026-01-09 12:44:55,0.0,5,7.466,0.0,0.0,0.0,38.4,-0.1,-5.8,1024,1024,1024,1024,0,0,0,0,70,5.464,75.92,32.8084,P-GPS,,10.0
231,445900,2026-01-09 12:44:55,0.0,5,7.466,0.0,0.0,0.0,38.5,0.0,-5.8,1024,1024,1024,1024,0,0,0,0,70,5.464,75.92,33.136484,P-GPS,,10.1
232,446000,2026-01-09 12:44:55,0.0,5,7.466,0.0,0.0,0.0,38.7,-0.5,-5.8,1024,1024,1024,1024,0,0,0,0,70,5.464,75.92,33.136484,P-GPS,,10.1
233,446100,2026-01-09 12:44:55,0.0,5,7.466,0.0,0.0,0.0,38.5,-0.3,-6.0,1024,1024,1024,1024,0,0,0,0,70,5.464,75.92,33.136484,P-GPS,,10.1
234,446200,2026-01-09 12:44:55,0.0,5,7.466,0.0,0.0,0.0,38.4,0.0,-5.7,1024,1024,1024,1024,0,0,0,0,70,5.464,75.92,33.136484,P-GPS,,10.1
235,446300,2026-01-09 12:44:55,0.0,5,7.466,0.0,0.0,0.0,38.3,0.4,-5.9,1024,1024,1024,1024,0,0,0,0,70,5.464,75.92,33.136484,P-GPS,,10.1
236,446400,2026-01-09 12:44:56,0.0,5,7.466,0.0,0.0,0.0,38.4,0.1,-5.9,1024,1024,1024,1024,0,0,0,0,70,5.464,75.92,33.136484,P-GPS,,10.1
237,446500,2026-01-09 12:44:56,0.0,5,7.466,0.0,0.0,0.0,38.4,0.2,-5.6,1024,1024,1024,1024,0,0,0,0,70,5.464,75.92,33.136484,P-GPS,,10.1
238,446600,2026-01-09 12:44:56,0.0,5,7.466,0.0,0.0,0.0,38.5,-0.4,-5.7,1024,1024,1024,1024,0,0,0,0,70,5.464,75.92,33.136484,P-GPS,,10.1
239,446700,2026-01-09 12:44:56,0.0,5,7.466,0.0,0.0,0.0,38.7,-1.0,-5.8,1024,1024,1024,1024,0,0,0,0,70,5.464,75.92,33.136484,P-GPS,,10.1
240,446800,2026-01-09 12:44:56,0.0,5,7.47,0.0,0.0,0.0,38.5,-1.2,-6.4,1024,1024,1024,1024,0,0,0,0,70,5.296,75.92,33.136484,P-GPS,,10.1
241,446900,2026-01-09 12:44:56,0.0,5,7.47,0.0,0.0,0.0,38.6,-1.4,-6.1,1024,1024,1024,1024,0,0,0,0,70,5.296,75.92,33.136484,P-GPS,,10.1
242,447000,2026-01-09 12:44:56,0.0,5,7.47,0.0,0.0,0.0,38.8,-1.2,-6.7,1024,1024,1024,1024,0,0,0,0,70,5.296,75.92,33.464568,P-GPS,,10.2
243,447100,2026-01-09 12:44:56,0.0,5,7.47,0.0,0.0,0.0,38.8,-1.2,-7.1,1024,1024,1024,1024,0,0,0,0,70,5.296,75.92,33.464568,P-GPS,,10.2
244,447200,2026-01-09 12:44:56,0.0,5,7.47,0.0,0.0,0.0,38.8,-1.7,-7.4,1024,1024,1024,1024,0,0,0,0,70,5.296,75.92,33.464568,P-GPS,,10.2
245,447300,2026-01-09 12:44:56,0.0,5,7.47,0.0,0.0,0.0,38.7,-1.4,-7.3,1024,1024,1024,1024,0,0,0,0,70,5.296,75.92,33.464568,P-GPS,,10.2
246,447400,2026-01-09 12:44:56,0.0,5,7.47,0.0,0.0,0.0,38.5,-1.3,-7.0,1024,1024,1024,1024,0,0,0,0,70,5.296,75.92,33.464568,P-GPS,,10.2
247,447500,2026-01-09 12:44:57,0.0,5,7.47,0.0,0.0,0.0,38.5,-1.2,-6.8,1024,1024,1024,1024,0,0,0,0,70,5.296,75.92,33.464568,P-GPS,,10.2
248,447600,2026-01-09 12:44:57,0.0,5,7.47,0.0,0.0,0.0,38.4,-1.4,-6.6,1024,1024,1024,1024,0,0,0,0,70,5.296,75.92,33.464568,P-GPS,,10.2
249,447700,2026-01-09 12:44:57,0.0,5,7.47,0.0,0.0,0.0,38.4,-1.7,-6.3,1024,1024,1024,1024,0,0,0,0,70,5.296,75.92,33.464568,P-GPS,,10.2
250,447800,2026-01-09 12:44:57,0.0,5,7.47,0.0,0.0,0.0,38.5,-2.0,-6.2,1024,1024,1024,1024,0,0,0,0,70,5.296,75.92,33.464568,P-GPS,,10.2
251,447900,2026-01-09 12:44:57,0.0,5,7.474,0.0,0.0,0.0,38.6,-2.1,-6.2,1024,1024,1024,1024,0,0,0,0,70,5.18,75.92,33.136484,P-GPS,,10.1
252,448000,2026-01-09 12:44:57,0.0,5,7.474,0.0,0.0,0.0,38.6,-2.2,-6.2,1024,1024,1024,1024,0,0,0,0,70,5.18,75.92,33.136484,P-GPS,,10.1
253,448100,2026-01-09 12:44:57,0.0,5,7.474,0.0,0.0,0.0,38.5,-1.5,-6.1,1024,1024,1024,1024,0,0,0,0,70,5.18,75.92,33.136484,P-GPS,,10.1
254,448200,2026-01-09 12:44:57,0.0,5,7.474,0.0,0.0,0.0,38.5,-1.2,-6.0,1024,1024,1024,1024,0,0,0,0,70,5.18,75.92,33.136484,P-GPS,,10.1
255,448300,2026-01-09 12:44:57,0.0,5,7.474,0.0,0.0,0.0,38.5,-1.3,-6.0,1024,1024,1024,1024,0,0,0,0,70,5.18,75.92,33.136484,P-GPS,,10.1
256,448400,2026-01-09 12:44:57,0.0,5,7.474,0.0,0.0,0.0,38.5,-0.6,-5.8,1024,1024,1024,1024,0,0,0,0,70,5.18,75.92,32.8084,P-GPS,,10.0
257,448500,2026-01-09 12:44:58,0.0,5,7.474,0.0,0.0,0.0,38.6,-0.2,-5.4,1024,1024,1024,1024,0,0,0,0,70,5.18,75.92,32.8084,P-GPS,,10.0
258,448600,2026-01-09 12:44:58,0.0,5,7.474,0.0,0.0,0.0,38.4,-0.2,-5.5,1024,1024,1024,1024,0,0,0,0,70,5.18,75.92,32.8084,P-GPS,,10.0
259,448700,2026-01-09 12:44:58,0.0,5,7.474,0.0,0.0,0.0,38.5,-0.2,-5.4,1024,1024,1024,1024,0,0,0,0,70,5.18,75.92,32.8084,P-GPS,,10.0
260,448800,2026-01-09 12:44:58,0.0,5,7.474,0.0,0.0,0.0,38.4,-0.1,-5.4,1024,1024,1024,1024,0,0,0,0,70,5.18,75.92,32.8084,P-GPS,,10.0
261,448900,2026-01-09 12:44:58,0.0,5,7.474,0.0,0.0,0.0,38.3,0.0,-5.2,1024,1024,1024,1024,0,0,0,0,70,5.18,75.92,32.8084,P-GPS,,10.0
262,449000,2026-01-09 12:44:58,0.0,5,7.477,0.0,0.0,0.0,38.3,-0.1,-5.3,1024,1024,1024,1024,0,0,0,0,70,5.178,76.1,32.8084,P-GPS,,10.0
263,449100,2026-01-09 12:44:58,0.0,5,7.477,0.0,0.0,0.0,38.2,-0.2,-5.1,1024,1024,1024,1024,0,0,0,0,70,5.178,76.1,32.8084,P-GPS,,10.0
264,449200,2026-01-09 12:44:58,0.0,5,7.477,0.0,0.0,0.0,38.4,-0.7,-5.1,1024,1024,1024,1024,0,0,0,0,70,5.178,76.1,32.8084,P-GPS,,10.0
265,449300,2026-01-09 12:44:58,0.0,5,7.477,0.0,0.0,0.0,38.1,-0.3,-5.5,1024,1024,1024,1024,0,0,0,0,70,5.178,76.1,32.8084,P-GPS,,10.0
266,449400,2026-01-09 12:44:59,0.0,5,7.477,0.0,0.0,0.0,37.9,0.4,-5.6,1024,1024,1024,1024,0,0,0,0,70,5.178,76.1,32.8084,P-GPS,,10.0
267,449500,2026-01-09 12:44:59,0.0,5,7.477,0.0,0.0,0.0,38.1,-0.2,-4.9,1024,1024,1024,1024,0,0,0,0,70,5.178,76.1,32.480316,P-GPS,,9.9
268,449600,2026-01-09 12:44:59,0.0,5,7.477,0.0,0.0,0.0,38.4,-2.1,-4.3,1024,1024,1024,1024,0,0,0,0,70,5.178,76.1,32.480316,P-GPS,,9.9
269,449700,2026-01-09 12:44:59,0.0,5,7.477,0.0,0.0,0.0,38.4,-2.0,-4.3,1024,1024,1024,1024,0,0,0,0,70,5.178,76.1,32.480316,P-GPS,,9.9
270,449800,2026-01-09 12:44:59,0.0,5,7.477,0.0,0.0,0.0,38.2,-0.8,-4.9,1024,1024,1024,1024,0,0,0,0,70,5.178,76.1,32.480316,P-GPS,,9.9
271,449900,2026-01-09 12:44:59,0.0,5,7.477,0.0,0.0,0.0,38.3,-0.8,-4.4,1024,1024,1024,1024,0,0,0,0,70,5.178,76.1,32.480316,P-GPS,,9.9
272,450000,2026-01-09 12:44:59,0.0,5,7.477,0.0,0.0,0.0,38.3,-1.0,-4.1,1024,1024,1024,1024,0,0,0,0,70,5.178,76.1,32.480316,P-GPS,,9.9
273,450100,2026-01-09 12:44:59,0.0,5,7.473,0.0,0.0,0.0,38.3,-0.3,-4.5,1024,1024,1024,1024,0,0,0,0,70,4.967,76.1,32.480316,P-GPS,,9.9
274,450200,2026-01-09 12:44:59,0.0,5,7.473,0.0,0.0,0.0,38.3,0.2,-4.5,1024,1024,1024,1024,0,0,0,0,70,4.967,76.1,32.480316,P-GPS,,9.9
275,450300,2026-01-09 12:44:59,0.0,5,7.473,0.0,0.0,0.0,38.3,-0.1,-4.6,1024,1024,1024,1024,0,0,0,0,70,4.967,76.1,32.480316,P-GPS,,9.9
276,450400,2026-01-09 12:44:59,0.0,5,7.473,0.0,0.0,0.0,38.3,0.0,-4.4,1024,1024,1024,1024,0,0,0,0,70,4.967,76.1,32.480316,P-GPS,,9.9
277,450500,2026-01-09 12:45:00,0.0,5,7.473,0.0,0.0,0.0,38.4,-0.2,-4.1,1024,1024,1024,1024,0,0,0,0,70,4.967,76.1,32.480316,P-GPS,,9.9
278,450600,2026-01-09 12:45:00,0.0,5,7.473,0.0,0.0,0.0,38.5,-0.9,-4.1,1024,1024,1024,1024,0,0,0,0,70,4.967,76.1,32.480316,P-GPS,,9.9
279,450700,2026-01-09 12:45:00,0.0,5,7.473,0.0,0.0,0.0,38.5,-0.8,-4.5,1024,1024,1024,1024,0,0,0,0,70,4.967,76.1,32.480316,P-GPS,,9.9
280,450800,2026-01-09 12:45:00,0.0,5,7.473,0.0,0.0,0.0,38.6,-0.9,-4.5,1024,1024,1024,1024,0,0,0,0,70,4.967,76.1,32.8084,P-GPS,,10.0
281,450900,2026-01-09 12:45:00,0.0,5,7.473,0.0,0.0,0.0,38.4,-0.5,-4.8,1024,1024,1024,1024,0,0,0,0,70,4.967,76.1,32.8084,P-GPS,,10.0
282,451000,2026-01-09 12:45:00,0.0,5,7.473,0.0,0.0,0.0,38.4,0.0,-5.3,1024,1024,1024,1024,0,0,0,0,70,4.967,76.1,32.8084,P-GPS,,10.0
283,451100,2026-01-09 12:45:00,0.0,5,7.473,0.0,0.0,0.0,38.3,0.0,-5.4,1024,1024,1024,1024,0,0,0,0,70,4.967,76.1,32.8084,P-GPS,,10.0
284,451200,2026-01-09 12:45:00,0.0,5,7.473,0.0,0.0,0.0,38.4,-0.1,-4.8,1024,1024,1024,1024,0,0,0,0,70,4.967,76.1,32.8084,P-GPS,,10.0
285,451300,2026-01-09 12:45:00,0.0,5,7.473,0.0,0.0,0.0,38.5,0.0,-4.4,1024,1024,1024,1024,0,0,0,0,70,4.967,76.1,32.8084,P-GPS,,10.0
286,451400,2026-01-09 12:45:00,0.0,5,7.473,0.0,0.0,0.0,38.4,0.0,-4.0,1024,1024,1024,1024,0,0,0,0,70,4.967,76.1,32.8084,P-GPS,,10.0
287,451500,2026-01-09 12:45:01,0.0,5,7.473,0.0,0.0,0.0,38.4,0.0,-3.5,1024,1024,1024,1024,0,0,0,0,70,4.967,76.1,32.8084,P-GPS,,10.0
288,451600,2026-01-09 12:45:01,0.0,5,7.473,0.0,0.0,0.0,38.6,-1.1,-3.4,1024,1024,1024,1024,0,0,0,0,70,4.967,76.1,32.8084,P-GPS,,10.0
289,451700,2026-01-09 12:45:01,0.0,5,7.473,0.0,0.0,0.0,38.5,-0.6,-3.1,1024,1024,1024,1024,0,0,0,0,70,4.967,76.1,32.8084,P-GPS,,10.0
290,451800,2026-01-09 12:45:01,0.0,5,7.473,0.0,0.0,0.0,38.5,0.1,-3.8,1024,1024,1024,1024,0,0,0,0,70,4.967,76.1,32.8084,P-GPS,,10.0
291,451900,2026-01-09 12:45:01,0.0,5,7.473,0.0,0.0,0.0,38.5,-0.1,-3.7,1024,1024,1024,1024,0,0,0,0,70,4.967,76.1,32.8084,P-GPS,,10.0
292,452000,2026-01-09 12:45:01,0.0,5,7.473,0.0,0.0,0.0,38.5,-0.2,-3.8,1024,1024,1024,1024,0,0,0,0,70,4.967,76.1,32.8084,P-GPS,,10.0
293,452100,2026-01-09 12:45:01,0.0,5,7.473,0.0,0.0,0.0,38.5,-0.2,-4.0,1024,1024,1024,1024,0,0,0,0,70,4.967,76.1,32.8084,P-GPS,,10.0
294,452200,2026-01-09 12:45:01,0.0,5,7.473,0.0,0.0,0.0,38.6,-0.4,-3.9,1024,1024,1024,1024,0,0,0,0,70,4.967,76.1,32.8084,P-GPS,,10.0
295,452300,2026-01-09 12:45:01,0.0,5,7.473,0.0,0.0,0.0,38.5,0.1,-4.2,1024,1024,1024,1024,0,0,0,0,70,4.967,76.1,32.8084,P-GPS,,10.0
296,452400,2026-01-09 12:45:01,0.0,5,7.471,0.0,0.0,0.0,38.5,0.3,-4.0,1024,1024,1024,1024,0,0,0,0,70,5.094,76.1,32.8084,P-GPS,,10.0
297,452500,2026-01-09 12:45:02,0.0,5,7.471,0.0,0.0,0.0,38.5,1.2,-4.3,1024,1024,1024,1024,0,0,0,0,70,5.094,76.1,32.8084,P-GPS,,10.0
298,452600,2026-01-09 12:45:02,0.0,5,7.471,0.0,0.0,0.0,38.4,1.3,-4.5,1024,1024,1024,1024,0,0,0,0,70,5.094,76.1,32.8084,P-GPS,,10.0
299,452700,2026-01-09 12:45:02,0.0,5,7.471,0.0,0.0,0.0,38.4,0.7,-4.3,1024,1024,1024,1024,0,0,0,0,70,5.094,76.1,32.8084,P-GPS,,10.0
300,452800,2026-01-09 12:45:02,0.0,5,7.471,0.0,0.0,0.0,38.3,0.2,-5.1,1024,1024,1024,1024,0,0,0,0,70,5.094,76.1,32.8084,P-GPS,,10.0
301,452900,2026-01-09 12:45:02,0.0,5,7.471,0.0,0.0,0.0,38.3,0.5,-5.7,1024,1024,1024,1024,0,0,0,0,70,5.094,76.1,32.8084,P-GPS,,10.0
302,453000,2026-01-09 12:45:02,0.0,5,7.471,0.0,0.0,0.0,38.4,0.1,-5.3,1024,1024,1024,1024,0,0,0,0,70,5.094,76.1,33.136484,P-GPS,,10.1
303,453100,2026-01-09 12:45:02,0.0,5,7.471,0.0,0.0,0.0,38.4,-0.1,-5.8,1024,1024,1024,1024,0,0,0,0,70,5.094,76.1,33.136484,P-GPS,,10.1
304,453200,2026-01-09 12:45:02,0.0,5,7.471,0.0,0.0,0.0,38.3,0.4,-5.9,1024,1024,1024,1024,0,0,0,0,70,5.094,76.1,33.136484,P-GPS,,10.1
305,453300,2026-01-09 12:45:02,0.0,5,7.471,0.0,0.0,0.0,38.4,0.9,-5.5,1024,1024,1024,1024,0,0,0,0,70,5.094,76.1,33.136484,P-GPS,,10.1
306,453400,2026-01-09 12:45:02,0.0,5,7.471,0.0,0.0,0.0,38.4,0.9,-5.2,1024,1024,1024,1024,0,0,0,0,70,5.094,76.1,33.136484,P-GPS,,10.1
307,453500,2026-01-09 12:45:03,0.0,5,7.483,0.0,0.0,0.0,38.3,0.9,-5.2,1024,1024,1024,1024,0,0,0,0,69,4.923,76.1,33.136484,P-GPS,,10.1
308,453600,2026-01-09 12:45:03,0.0,5,7.483,0.0,0.0,0.0,38.5,0.0,-4.4,1024,1024,1024,1024,0,0,0,0,69,4.923,76.1,33.136484,P-GPS,,10.1
309,453700,2026-01-09 12:45:03,0.0,5,7.483,0.0,0.0,0.0,38.3,0.0,-4.6,1024,1024,1024,1024,0,0,0,0,69,4.923,76.1,33.136484,P-GPS,,10.1
310,453800,2026-01-09 12:45:03,0.0,5,7.483,0.0,0.0,0.0,38.4,-0.3,-5.1,1024,1024,1024,1024,0,0,0,0,69,4.923,76.1,33.136484,P-GPS,,10.1
311,453900,2026-01-09 12:45:03,0.0,5,7.483,0.0,0.0,0.0,38.3,-0.7,-5.1,1024,1024,1024,1024,0,0,0,0,69,4.923,76.1,33.136484,P-GPS,,10.1
312,454000,2026-01-09 12:45:03,0.0,5,7.483,0.0,0.0,0.0,38.4,-1.5,-4.8,1024,1024,1024,1024,0,0,0,0,69,4.923,76.1,33.136484,P-GPS,,10.1
313,454100,2026-01-09 12:45:03,0.223694,5,7.483,0.0,-0.223694,0.0,38.5,-1.5,-3.9,1024,1024,1024,1024,0,0,0,0,69,4.923,76.1,33.136484,P-GPS,,10.1
314,454200,2026-01-09 12:45:03,0.0,5,7.483,0.0,0.0,0.0,38.6,-0.9,-2.8,1024,1024,1024,1024,0,0,0,0,69,4.923,76.1,33.136484,P-GPS,,10.1
315,454300,2026-01-09 12:45:03,0.0,5,7.483,0.0,0.0,0.0,38.4,-0.3,-2.8,1024,1024,1024,1024,0,0,0,0,69,4.923,76.1,33.136484,P-GPS,,10.1
316,454400,2026-01-09 12:45:04,0.0,5,7.483,0.0,0.0,0.0,38.2,-0.6,-2.8,1024,1024,1024,1024,0,0,0,0,69,4.923,76.1,33.136484,P-GPS,,10.1
317,454500,2026-01-09 12:45:04,0.0,5,7.483,0.0,0.0,0.0,38.2,0.7,-3.4,1024,1024,1024,1024,0,0,0,0,69,4.923,76.1,33.136484,P-GPS,,10.1
318,454600,2026-01-09 12:45:04,0.0,5,7.458,0.0,0.0,0.0,38.3,-1.5,-3.8,1024,1024,1024,1024,0,0,0,0,69,5.094,76.1,33.136484,P-GPS,,10.1
319,454700,2026-01-09 12:45:04,0.0,5,7.458,0.0,0.0,0.0,38.4,-1.4,-3.6,1024,1024,1024,1024,0,0,0,0,69,5.094,76.1,32.8084,P-GPS,,10.0
320,454800,2026-01-09 12:45:04,0.0,5,7.458,0.0,0.0,0.0,38.3,-1.1,-3.9,1024,1024,1024,1024,0,0,0,0,69,5.094,76.1,33.136484,P-GPS,,10.1
321,454900,2026-01-09 12:45:04,0.0,5,7.458,0.0,0.0,0.0,38.2,-0.6,-4.6,1024,1024,1024,1024,0,0,0,0,69,5.094,76.1,33.136484,P-GPS,,10.1
322,455000,2026-01-09 12:45:04,0.0,5,7.458,0.0,0.0,0.0,38.1,0.1,-4.5,1024,1024,1024,1024,0,0,0,0,69,5.094,76.1,33.136484,P-GPS,,10.1
323,455100,2026-01-09 12:45:04,0.0,5,7.458,0.0,0.0,0.0,38.2,-0.6,-4.6,1024,1024,1024,1024,0,0,0,0,69,5.094,76.1,32.8084,P-GPS,,10.0
324,455200,2026-01-09 12:45:04,0.0,5,7.458,0.0,0.0,0.0,38.3,-1.2,-4.2,1024,1024,1024,1024,0,0,0,0,69,5.094,76.1,32.8084,P-GPS,,10.0
325,455300,2026-01-09 12:45:04,0.0,5,7.458,0.0,0.0,0.0,38.4,-1.3,-4.2,1024,1024,1024,1024,0,0,0,0,69,5.094,76.1,32.8084,P-GPS,,10.0
326,455400,2026-01-09 12:45:04,0.0,5,7.458,0.0,0.0,0.0,38.5,-1.1,-4.1,1024,1024,1024,1024,0,0,0,0,69,5.094,76.1,32.8084,P-GPS,,10.0
327,455500,2026-01-09 12:45:05,0.0,5,7.458,0.0,0.0,0.0,38.6,-0.9,-4.1,1024,1024,1024,1024,0,0,0,0,69,5.094,76.1,32.8084,P-GPS,,10.0
328,455600,2026-01-09 12:45:05,0.0,5,7.458,0.0,0.0,0.0,38.6,-0.9,-4.0,1024,1024,1024,1024,0,0,0,0,69,5.094,76.1,32.8084,P-GPS,,10.0
329,455700,2026-01-09 12:45:05,0.0,5,7.478,0.0,0.0,0.0,38.5,-0.1,-4.1,1024,1024,1024,1024,0,0,0,0,69,4.93,76.1,32.480316,P-GPS,,9.9
330,455800,2026-01-09 12:45:05,0.0,5,7.478,0.0,0.0,0.0,38.4,1.2,-4.2,1024,1024,1024,1024,0,0,0,0,69,4.93,76.1,32.480316,P-GPS,,9.9
331,455900,2026-01-09 12:45:05,0.0,5,7.478,0.0,0.0,0.0,38.3,1.9,-4.2,1024,1024,1024,1024,0,0,0,0,69,4.93,76.1,32.480316,P-GPS,,9.9
332,456000,2026-01-09 12:45:05,0.0,5,7.478,0.0,0.0,0.0,38.4,1.6,-4.3,1024,1024,1024,1024,0,0,0,0,69,4.93,76.1,32.480316,P-GPS,,9.9
333,456100,2026-01-09 12:45:05,0.0,5,7.478,0.0,0.0,0.0,38.5,0.7,-3.9,1024,1024,1024,1024,0,0,0,0,69,4.93,76.1,32.480316,P-GPS,,9.9
334,456200,2026-01-09 12:45:05,0.0,5,7.478,0.0,0.0,0.0,38.4,0.7,-3.9,1024,1024,1024,1024,0,0,0,0,69,4.93,76.1,32.480316,P-GPS,,9.9
335,456300,2026-01-09 12:45:05,0.0,5,7.478,0.0,0.0,0.0,38.6,0.0,-3.8,1024,1024,1024,1024,0,0,0,0,69,4.93,76.1,32.480316,P-GPS,,9.9
336,456400,2026-01-09 12:45:05,0.0,5,7.478,0.0,0.0,0.0,38.5,0.0,-4.1,1024,1024,1024,1024,0,0,0,0,69,4.93,76.1,32.152232,P-GPS,,9.8
337,456500,2026-01-09 12:45:06,0.0,5,7.478,0.0,0.0,0.0,38.3,0.7,-4.2,1024,1024,1024,1024,0,0,0,0,69,4.93,76.1,32.152232,P-GPS,,9.8
338,456600,2026-01-09 12:45:06,0.0,5,7.478,0.0,0.0,0.0,38.3,0.5,-4.1,1024,1024,1024,1024,0,0,0,0,69,4.93,76.1,32.152232,P-GPS,,9.8
339,456700,2026-01-09 12:45:06,0.0,5,7.478,0.0,0.0,0.0,38.4,0.7,-3.9,1024,1024,1024,1024,0,0,0,0,69,4.93,76.1,32.152232,P-GPS,,9.8
340,456800,2026-01-09 12:45:06,0.0,5,7.47,0.0,0.0,0.0,38.3,1.5,-3.7,1024,1024,1024,1024,0,0,0,0,69,5.023,76.28,32.152232,P-GPS,,9.8
341,456900,2026-01-09 12:45:06,0.0,5,7.47,0.0,0.0,0.0,38.0,1.9,-3.7,1024,1024,1024,1024,0,0,0,0,69,5.023,76.28,32.152232,P-GPS,,9.8
342,457000,2026-01-09 12:45:06,0.0,5,7.47,0.0,0.0,0.0,38.0,0.4,-3.6,1024,1024,1024,1024,0,0,0,0,69,5.023,76.28,32.152232,P-GPS,,9.8
343,457100,2026-01-09 12:45:06,0.3131716,5,7.47,-0.223694,-0.223694,0.0,38.2,-0.8,-3.7,1024,1024,1024,1024,0,0,0,0,69,5.023,76.28,31.824148,P-GPS,,9.7
344,457200,2026-01-09 12:45:06,0.3131716,5,7.47,-0.223694,-0.223694,0.0,38.2,-1.8,-3.8,1024,1024,1024,1024,0,0,0,0,69,5.023,76.28,31.824148,P-GPS,,9.7
345,457300,2026-01-09 12:45:06,0.3131716,5,7.47,-0.223694,-0.223694,0.0,38.4,-3.0,-3.4,1024,1024,1024,1024,0,0,0,0,69,5.023,76.28,31.824148,P-GPS,,9.7
346,457400,2026-01-09 12:45:06,0.3131716,5,7.47,-0.223694,-0.223694,0.0,38.5,-4.1,-3.2,1024,1024,1024,1024,0,0,0,0,69,5.023,76.28,31.824148,P-GPS,,9.7
347,457500,2026-01-09 12:45:07,0.0,5,7.47,0.0,0.0,0.0,38.4,-3.5,-3.4,1024,1024,1024,1024,0,0,0,0,69,5.023,76.28,31.824148,P-GPS,,9.7
348,457600,2026-01-09 12:45:07,0.0,5,7.47,0.0,0.0,0.0,38.4,-2.5,-3.3,1024,1024,1024,1024,0,0,0,0,69,5.023,76.28,31.824148,P-GPS,,9.7
349,457700,2026-01-09 12:45:07,0.0,5,7.47,0.0,0.0,0.0,38.4,-1.8,-3.1,1024,1024,1024,1024,0,0,0,0,69,5.023,76.28,31.824148,P-GPS,,9.7
350,457800,2026-01-09 12:45:07,0.0,5,7.47,0.0,0.0,0.0,38.5,-2.1,-2.7,1024,1024,1024,1024,0,0,0,0,69,5.023,76.28,31.824148,P-GPS,,9.7
