index,time(millisecond),timestamp,speed(mph),gpslevel,voltage(v),xSpeed(mph),ySpeed(mph),zSpeed(mph),compass_heading(degrees),pitch(degrees),roll(degrees),rc_elevator,rc_aileron,rc_throttle,rc_rudder,rc_elevator(percent),rc_aileron(percent),rc_throttle(percent),rc_rudder(percent),battery_percent,current(A),battery_temperature(f),ascent(feet),flycState,message,height_above_takeoff(meters)
462,328900,2026-01-09 12:42:33,0.0,5,7.578,0.0,0.0,0.0,56.0,0.2,-10.9,1024,1024,1024,1024,0,0,0,0,78,5.633,73.58,101.70604,P-GPS,,31.0
463,329000,2026-01-09 12:42:33,0.0,5,7.578,0.0,0.0,0.0,56.1,0.0,-11.4,1024,1024,1024,1024,0,0,0,0,78,5.633,73.58,101.70604,P-GPS,,31.0
464,329100,2026-01-09 12:42:33,0.0,5,7.578,0.0,0.0,0.0,56.3,-1.0,-11.7,1024,1024,1024,1024,0,0,0,0,78,5.633,73.58,102.034124,P-GPS,,31.1
465,329200,2026-01-09 12:42:33,0.0,5,7.578,0.0,0.0,0.0,56.3,-1.1,-11.9,1024,1024,1024,1024,0,0,0,0,78,5.633,73.58,102.034124,P-GPS,,31.1
466,329300,2026-01-09 12:42:33,0.0,5,7.578,0.0,0.0,0.0,56.4,-1.8,-11.9,1024,1024,1024,1024,0,0,0,0,78,5.633,73.58,102.362208,P-GPS,,31.2
467,329400,2026-01-09 12:42:33,0.0,5,7.578,0.0,0.0,0.0,56.2,-1.6,-11.9,1024,1024,1024,1024,0,0,0,0,78,5.633,73.58,102.362208,P-GPS,,31.2
468,329500,2026-01-09 12:42:34,0.0,5,7.574,0.0,0.0,0.0,56.1,-1.9,-12.0,1024,1024,1024,1024,0,0,0,0,78,4.815,73.58,102.362208,P-GPS,,31.2
469,329600,2026-01-09 12:42:34,0.0,5,7.574,0.0,0.0,0.0,56.3,-2.3,-12.0,1024,1024,1024,1024,0,0,0,0,78,4.815,73.58,102.362208,P-GPS,,31.2
470,329700,2026-01-09 12:42:34,0.0,5,7.574,0.0,0.0,0.0,56.5,-2.8,-11.3,1024,1024,1024,1024,0,0,0,0,78,4.815,73.58,102.690292,P-GPS,,31.3
471,329800,2026-01-09 12:42:34,0.0,5,7.574,0.0,0.0,0.0,56.5,-3.2,-11.1,1024,1024,1024,1024,0,0,0,0,78,4.815,73.58,102.690292,P-GPS,,31.3
472,329900,2026-01-09 12:42:34,0.0,5,7.574,0.0,0.0,0.0,56.5,-3.2,-11.2,1024,1024,1024,1024,0,0,0,0,78,4.815,73.58,102.690292,P-GPS,,31.3
473,330000,2026-01-09 12:42:34,0.0,5,7.574,0.0,0.0,0.0,56.2,-2.3,-12.7,1024,1024,1024,1024,0,0,0,0,78,4.815,73.58,102.690292,P-GPS,,31.3
474,330100,2026-01-09 12:42:34,0.0,5,7.574,0.0,0.0,0.223694,55.9,-1.8,-12.7,1024,1024,1024,1024,0,0,0,0,78,4.815,73.58,102.690292,P-GPS,,31.3
475,330200,2026-01-09 12:42:34,0.0,5,7.574,0.0,0.0,0.223694,55.8,-1.7,-12.0,1024,1024,1024,1024,0,0,0,0,78,4.815,73.58,102.690292,P-GPS,,31.3
476,330300,2026-01-09 12:42:34,0.0,5,7.574,0.0,0.0,0.223694,55.9,-2.3,-11.5,1024,1024,1024,1024,0,0,0,0,78,4.815,73.58,102.690292,P-GPS,,31.3
477,330400,2026-01-09 12:42:34,0.0,5,7.574,0.0,0.0,0.223694,55.8,-2.5,-11.1,1024,1024,1024,1024,0,0,0,0,78,4.815,73.58,102.690292,P-GPS,,31.3
478,330500,2026-01-09 12:42:35,0.0,5,7.574,0.0,0.0,0.223694,56.0,-2.8,-10.4,1024,1024,1024,1024,0,0,0,0,78,4.815,73.58,102.690292,P-GPS,,31.3
479,330600,2026-01-09 12:42:35,0.0,5,7.523,0.0,0.0,0.0,55.9,-3.0,-10.3,1024,1024,1024,1024,0,0,0,0,78,5.6,73.76,102.690292,P-GPS,,31.3
480,330700,2026-01-09 12:42:35,0.0,5,7.523,0.0,0.0,0.0,56.1,-3.0,-9.8,1024,1024,1024,1024,0,0,0,0,78,5.6,73.76,102.690292,P-GPS,,31.3
481,330800,2026-01-09 12:42:35,0.0,5,7.523,0.0,0.0,0.0,56.1,-2.8,-9.0,1024,1024,1024,1024,0,0,0,0,78,5.6,73.76,102.362208,P-GPS,,31.2
482,330900,2026-01-09 12:42:35,0.0,5,7.523,0.0,0.0,0.0,56.2,-2.7,-9.2,1024,1024,1024,1024,0,0,0,0,78,5.6,73.76,102.362208,P-GPS,,31.2
483,331000,2026-01-09 12:42:35,0.0,5,7.523,0.0,0.0,0.0,56.3,-2.1,-9.4,1024,1024,1024,1024,0,0,0,0,78,5.6,73.76,102.362208,P-GPS,,31.2
484,331100,2026-01-09 12:42:35,0.0,5,7.523,0.0,0.0,0.0,56.2,-1.3,-10.2,1024,1024,1024,1024,0,0,0,0,78,5.6,73.76,102.362208,P-GPS,,31.2
485,331200,2026-01-09 12:42:35,0.0,5,7.523,0.0,0.0,0.0,56.1,-0.6,-10.6,1024,1024,1024,1024,0,0,0,0,78,5.6,73.76,102.362208,P-GPS,,31.2
486,331300,2026-01-09 12:42:35,0.0,5,7.523,0.0,0.0,0.0,56.0,-0.3,-10.6,1024,1024,1024,1024,0,0,0,0,78,5.6,73.76,102.362208,P-GPS,,31.2
487,331400,2026-01-09 12:42:36,0.0,5,7.523,0.0,0.0,0.0,56.0,-0.5,-10.3,1024,1024,1024,1024,0,0,0,0,78,5.6,73.76,102.362208,P-GPS,,31.2
488,331500,2026-01-09 12:42:36,0.0,5,7.523,0.0,0.0,0.0,56.0,-0.2,-9.4,1024,1024,1024,1024,0,0,0,0,78,5.6,73.76,102.362208,P-GPS,,31.2
489,331600,2026-01-09 12:42:36,0.0,5,7.523,0.0,0.0,0.0,56.1,-0.7,-9.2,1024,1024,1024,1024,0,0,0,0,78,5.6,73.76,102.362208,P-GPS,,31.2
490,331700,2026-01-09 12:42:36,0.0,5,7.564,0.0,0.0,0.0,56.1,-1.0,-9.3,1024,1024,1024,1024,0,0,0,0,78,5.242,73.76,102.362208,P-GPS,,31.2
491,331800,2026-01-09 12:42:36,0.0,5,7.564,0.0,0.0,0.0,55.9,-0.3,-9.8,1024,1024,1024,1024,0,0,0,0,78,5.242,73.76,102.362208,P-GPS,,31.2
492,331900,2026-01-09 12:42:36,0.0,5,7.564,0.0,0.0,0.0,55.9,0.0,-10.0,1024,1024,1024,1024,0,0,0,0,78,5.242,73.76,102.362208,P-GPS,,31.2
493,332000,2026-01-09 12:42:36,0.0,5,7.564,0.0,0.0,0.0,55.8,0.0,-10.3,1024,1024,1024,1024,0,0,0,0,78,5.242,73.76,102.362208,P-GPS,,31.2
494,332100,2026-01-09 12:42:36,0.0,5,7.564,0.0,0.0,0.0,55.7,-0.2,-10.3,1024,1024,1024,1024,0,0,0,0,78,5.242,73.76,102.362208,P-GPS,,31.2
495,332200,2026-01-09 12:42:36,0.0,5,7.564,0.0,0.0,0.0,55.6,-0.1,-10.0,1024,1024,1024,1024,0,0,0,0,78,5.242,73.76,102.034124,P-GPS,,31.1
496,332300,2026-01-09 12:42:36,0.0,5,7.564,0.0,0.0,0.0,55.7,-0.5,-9.6,1024,1024,1024,1024,0,0,0,0,78,5.242,73.76,102.034124,P-GPS,,31.1
497,332400,2026-01-09 12:42:36,0.0,5,7.564,0.0,0.0,0.0,55.7,-0.8,-9.7,1024,1024,1024,1024,0,0,0,0,78,5.242,73.76,102.034124,P-GPS,Strong wind warning Strong wind warning. Aircraft unable to return to home automatically. Lower altitude immediately and return to home manually (Code: 30149). SD card speed low. Normal use may be affected. Replace SD card (Code: 10028). Gimbal stuck. Make sure gimbal c,31.1
498,332500,2026-01-09 12:42:37,0.0,5,7.564,0.0,0.0,0.0,55.6,-0.5,-9.8,1024,1024,1024,1024,0,0,0,0,78,5.242,73.76,102.034124,P-GPS,,31.1
499,332600,2026-01-09 12:42:37,0.0,5,7.564,0.0,0.0,0.0,55.7,-0.6,-9.7,1024,1024,1024,1024,0,0,0,0,78,5.242,73.76,102.034124,P-GPS,,31.1
500,332700,2026-01-09 12:42:37,0.0,5,7.564,0.0,0.0,0.0,55.8,-0.2,-9.5,1024,1024,1024,1024,0,0,0,0,78,5.242,73.76,102.034124,P-GPS,,31.1
501,332800,2026-01-09 12:42:37,0.0,5,7.551,0.0,0.0,0.0,55.8,0.0,-9.8,1024,1024,1024,1024,0,0,0,0,78,5.355,73.76,102.034124,P-GPS,,31.1
502,332900,2026-01-09 12:42:37,0.0,5,7.551,0.0,0.0,0.0,55.8,0.2,-10.0,1024,1024,1024,1024,0,0,0,0,78,5.355,73.76,102.034124,P-GPS,,31.1
503,333000,2026-01-09 12:42:37,0.0,5,7.551,0.0,0.0,0.0,55.8,0.0,-10.2,1024,1024,1024,1024,0,0,0,0,78,5.355,73.76,102.034124,P-GPS,,31.1
504,333100,2026-01-09 12:42:37,0.0,5,7.551,0.0,0.0,0.0,55.7,0.3,-10.6,1024,1024,1024,1024,0,0,0,0,78,5.355,73.76,102.034124,P-GPS,,31.1
505,333200,2026-01-09 12:42:37,0.0,5,7.551,0.0,0.0,0.0,55.5,1.0,-10.4,1024,1024,1024,1024,0,0,0,0,78,5.355,73.76,102.034124,P-GPS,,31.1
506,333300,2026-01-09 12:42:37,0.0,5,7.551,0.0,0.0,0.0,55.6,0.6,-10.4,1024,1024,1024,1024,0,0,0,0,78,5.355,73.76,102.034124,P-GPS,,31.1
507,333400,2026-01-09 12:42:38,0.0,5,7.551,0.0,0.0,0.0,55.6,0.6,-10.3,1024,1024,1024,1024,0,0,0,0,78,5.355,73.76,102.034124,P-GPS,,31.1
508,333500,2026-01-09 12:42:38,0.0,5,7.551,0.0,0.0,0.0,55.8,0.1,-10.1,1024,1024,1024,1024,0,0,0,0,78,5.355,73.76,102.034124,P-GPS,,31.1
509,333600,2026-01-09 12:42:38,0.0,5,7.551,0.0,0.0,0.0,55.9,-0.1,-10.1,1024,1024,1024,1024,0,0,0,0,78,5.355,73.76,102.034124,P-GPS,,31.1
510,333700,2026-01-09 12:42:38,0.0,5,7.551,0.0,0.0,0.0,55.9,-0.2,-10.1,1024,1024,1024,1024,0,0,0,0,78,5.355,73.76,102.034124,P-GPS,,31.1
511,333800,2026-01-09 12:42:38,0.0,5,7.551,0.0,0.0,0.0,55.9,-0.5,-10.0,1024,1024,1024,1024,0,0,0,0,78,5.355,73.76,102.034124,P-GPS,,31.1
512,333900,2026-01-09 12:42:38,0.0,5,7.565,0.0,0.0,0.0,55.8,-0.5,-9.9,1024,1024,1024,1024,0,0,0,0,77,5.063,73.76,101.70604,P-GPS,,31.0
513,334000,2026-01-09 12:42:38,0.0,5,7.565,0.0,0.0,0.0,55.9,-0.6,-9.9,1024,1024,1024,1024,0,0,0,0,77,5.063,73.76,101.70604,P-GPS,,31.0
514,334100,2026-01-09 12:42:38,0.0,5,7.565,0.0,0.0,0.0,55.7,-0.2,-10.1,1024,1024,1024,1024,0,0,0,0,77,5.063,73.76,101.70604,P-GPS,,31.0
515,334200,2026-01-09 12:42:38,0.0,5,7.565,0.0,0.0,0.0,55.8,-0.4,-10.1,1024,1024,1024,1024,0,0,0,0,77,5.063,73.76,101.70604,P-GPS,,31.0
516,334300,2026-01-09 12:42:38,0.0,5,7.565,0.0,0.0,0.0,55.8,-0.9,-9.9,1024,1024,1024,1024,0,0,0,0,77,5.063,73.76,101.70604,P-GPS,,31.0
517,334400,2026-01-09 12:42:39,0.0,5,7.565,0.0,0.0,0.0,55.8,-1.1,-9.6,1024,1024,1024,1024,0,0,0,0,77,5.063,73.76,101.70604,P-GPS,SD card speed low SD card speed low. Normal use may be affected. Replace SD card (Code: 10028). Gimbal stuck. Make sure gimbal cover is removed and manually check whether gimbal can rotate freely (Code: 40002),31.0
518,334500,2026-01-09 12:42:39,0.0,5,7.565,0.0,0.0,0.0,55.6,-0.9,-9.5,1024,1024,1024,1024,0,0,0,0,77,5.063,73.76,101.70604,P-GPS,,31.0
519,334600,2026-01-09 12:42:39,0.0,5,7.565,0.0,0.0,0.0,55.8,-1.0,-9.0,1024,1024,1024,1024,0,0,0,0,77,5.063,73.76,101.70604,P-GPS,,31.0
520,334700,2026-01-09 12:42:39,0.0,5,7.565,0.0,0.0,0.0,55.9,-1.3,-8.8,1024,1024,1024,1024,0,0,0,0,77,5.063,73.76,101.70604,P-GPS,,31.0
521,334800,2026-01-09 12:42:39,0.0,5,7.565,0.0,0.0,0.0,55.9,-1.6,-9.0,1024,1024,1024,1024,0,0,0,0,77,5.063,73.76,101.70604,P-GPS,,31.0
522,334900,2026-01-09 12:42:39,0.0,5,7.565,0.0,0.0,0.0,55.8,-1.3,-9.5,1024,1024,1024,1024,0,0,0,0,77,5.063,73.76,101.70604,P-GPS,,31.0
523,335000,2026-01-09 12:42:39,0.0,5,7.567,0.0,0.0,0.0,55.7,-0.7,-9.3,1024,1024,1024,1024,0,0,0,0,77,5.275,73.94,101.70604,P-GPS,,31.0
524,335100,2026-01-09 12:42:39,0.0,5,7.567,0.0,0.0,0.0,55.6,-0.4,-9.2,1024,1024,1024,1024,0,0,0,0,77,5.275,73.94,101.377956,P-GPS,,30.9
525,335200,2026-01-09 12:42:39,0.0,5,7.567,0.0,0.0,0.0,55.6,-0.3,-9.3,1024,1024,1024,1024,0,0,0,0,77,5.275,73.94,101.377956,P-GPS,,30.9
526,335300,2026-01-09 12:42:39,0.0,5,7.567,0.0,0.0,0.0,55.6,-0.1,-8.9,1024,1024,1024,1024,0,0,0,0,77,5.275,73.94,101.377956,P-GPS,,30.9
527,335400,2026-01-09 12:42:39,0.0,5,7.567,0.0,0.0,0.0,55.7,-0.4,-9.0,1024,1024,1024,1024,0,0,0,0,77,5.275,73.94,101.377956,P-GPS,,30.9
528,335500,2026-01-09 12:42:40,0.0,5,7.567,0.0,0.0,0.0,55.7,0.0,-9.1,1024,1024,1024,1024,0,0,0,0,77,5.275,73.94,101.377956,P-GPS,,30.9
529,335600,2026-01-09 12:42:40,0.0,5,7.567,0.0,0.0,0.0,55.7,-0.1,-9.4,1024,1024,1024,1024,0,0,0,0,77,5.275,73.94,101.377956,P-GPS,,30.9
530,335700,2026-01-09 12:42:40,0.0,5,7.567,0.0,0.0,0.0,55.5,0.3,-9.7,1024,1024,1024,1024,0,0,0,0,77,5.275,73.94,101.377956,P-GPS,,30.9
531,335800,2026-01-09 12:42:40,0.0,5,7.567,0.0,0.0,0.0,55.5,0.3,-9.3,1024,1024,1024,1024,0,0,0,0,77,5.275,73.94,101.377956,P-GPS,,30.9
532,335900,2026-01-09 12:42:40,0.0,5,7.567,0.0,0.0,0.0,55.4,0.5,-9.2,1024,1024,1024,1024,0,0,0,0,77,5.275,73.94,101.377956,P-GPS,,30.9
533,336000,2026-01-09 12:42:40,0.0,5,7.567,0.0,0.0,0.0,55.4,0.7,-9.1,1024,1024,1024,1024,0,0,0,0,77,5.275,73.94,101.377956,P-GPS,,30.9
534,336100,2026-01-09 12:42:40,0.0,5,7.554,0.0,0.0,0.0,55.5,0.4,-8.7,1024,1024,1024,1024,0,0,0,0,77,5.244,73.94,101.377956,P-GPS,,30.9
535,336200,2026-01-09 12:42:40,0.0,5,7.554,0.0,0.0,0.0,55.5,0.1,-8.2,1024,1024,1024,1024,0,0,0,0,77,5.244,73.94,101.377956,P-GPS,,30.9
536,336300,2026-01-09 12:42:40,0.0,5,7.554,0.0,0.0,0.0,55.6,0.0,-8.2,1024,1024,1024,1024,0,0,0,0,77,5.244,73.94,101.377956,P-GPS,,30.9
537,336400,2026-01-09 12:42:41,0.0,5,7.554,0.0,0.0,0.0,55.7,-0.2,-8.0,1024,1024,1024,1024,0,0,0,0,77,5.244,73.94,101.377956,P-GPS,,30.9
538,336500,2026-01-09 12:42:41,0.0,5,7.554,0.0,0.0,0.0,55.6,-0.3,-8.4,1024,1024,1024,1024,0,0,0,0,77,5.244,73.94,101.377956,P-GPS,,30.9
539,336600,2026-01-09 12:42:41,0.0,5,7.554,0.0,0.0,0.0,55.5,0.1,-8.3,1024,1024,1024,1024,0,0,0,0,77,5.244,73.94,101.377956,P-GPS,,30.9
540,336700,2026-01-09 12:42:41,0.0,5,7.554,0.0,0.0,0.0,55.5,0.2,-8.6,1024,1024,1024,1024,0,0,0,0,77,5.244,73.94,101.377956,P-GPS,,30.9
541,336800,2026-01-09 12:42:41,0.0,5,7.554,0.0,0.0,0.0,55.5,0.3,-8.1,1024,1024,1024,1024,0,0,0,0,77,5.244,73.94,101.049872,P-GPS,,30.8
542,336900,2026-01-09 12:42:41,0.0,5,7.554,0.0,0.0,0.0,55.7,-0.2,-7.6,1024,1024,1024,1024,0,0,0,0,77,5.244,73.94,101.049872,P-GPS,,30.8
543,337000,2026-01-09 12:42:41,0.0,5,7.554,0.0,0.0,0.0,55.8,-0.3,-7.7,1024,1024,1024,1024,0,0,0,0,77,5.244,73.94,101.377956,P-GPS,,30.9
544,337100,2026-01-09 12:42:41,0.0,5,7.554,0.0,0.0,0.0,55.9,-0.5,-7.4,1024,1024,1024,1024,0,0,0,0,77,5.244,73.94,101.377956,P-GPS,,30.9
545,337200,2026-01-09 12:42:41,0.0,5,7.554,0.0,0.0,-0.223694,55.9,-0.1,-8.7,1024,1024,1024,1024,0,0,0,0,77,5.244,73.94,101.377956,P-GPS,,30.9
546,337300,2026-01-09 12:42:41,0.0,5,7.554,0.0,0.0,0.0,55.8,0.1,-9.6,1024,1024,1024,1024,0,0,0,0,77,5.244,73.94,101.377956,P-GPS,,30.9
547,337400,2026-01-09 12:42:41,0.0,5,7.554,0.0,0.0,0.0,55.9,0.3,-9.8,1024,1024,1024,1024,0,0,0,0,77,5.244,73.94,101.70604,P-GPS,,31.0
548,337500,2026-01-09 12:42:42,0.0,5,7.554,0.0,0.0,0.0,55.8,0.7,-10.6,1024,1024,1024,1024,0,0,0,0,77,5.244,73.94,101.70604,P-GPS,,31.0
549,337600,2026-01-09 12:42:42,0.0,5,7.554,0.0,0.0,0.0,55.8,0.7,-10.7,1024,1024,1024,1024,0,0,0,0,77,5.244,73.94,101.70604,P-GPS,,31.0
550,337700,2026-01-09 12:42:42,0.0,5,7.554,0.0,0.0,0.0,55.7,1.0,-11.1,1024,1024,1024,1024,0,0,0,0,77,5.244,73.94,101.70604,P-GPS,,31.0
551,337800,2026-01-09 12:42:42,0.0,5,7.554,0.0,0.0,0.0,55.9,0.1,-10.6,1024,1024,1024,1024,0,0,0,0,77,5.244,73.94,101.70604,P-GPS,,31.0
552,337900,2026-01-09 12:42:42,0.0,5,7.554,0.0,0.0,0.0,55.8,0.4,-10.8,1024,1024,1024,1024,0,0,0,0,77,5.244,73.94,101.70604,P-GPS,,31.0
553,338000,2026-01-09 12:42:42,0.0,5,7.554,0.0,0.0,0.0,55.9,0.1,-10.9,1024,1024,1024,1024,0,0,0,0,77,5.244,73.94,101.70604,P-GPS,,31.0
554,338100,2026-01-09 12:42:42,0.0,5,7.554,0.0,0.0,0.0,55.8,0.0,-11.0,1024,1024,1024,1024,0,0,0,0,77,5.244,73.94,102.034124,P-GPS,,31.1
555,338200,2026-01-09 12:42:42,0.0,5,7.542,0.0,0.0,0.0,55.9,-0.1,-10.9,1024,1024,1024,1024,0,0,0,0,77,5.387,73.94,102.034124,P-GPS,,31.1
556,338300,2026-01-09 12:42:42,0.0,5,7.542,0.0,0.0,0.0,55.8,-0.4,-11.0,1024,1024,1024,1024,0,0,0,0,77,5.387,73.94,102.034124,P-GPS,,31.1
557,338400,2026-01-09 12:42:43,0.0,5,7.542,0.0,0.0,0.0,55.7,0.0,-11.5,1024,1024,1024,1024,0,0,0,0,77,5.387,73.94,102.034124,P-GPS,,31.1
558,338500,2026-01-09 12:42:43,0.0,5,7.542,0.0,0.0,0.0,55.7,-0.3,-11.2,1024,1024,1024,1024,0,0,0,0,77,5.387,73.94,102.034124,P-GPS,,31.1
559,338600,2026-01-09 12:42:43,0.0,5,7.542,0.0,0.0,0.0,55.6,0.0,-11.1,1024,1024,1024,1024,0,0,0,0,77,5.387,73.94,102.034124,P-GPS,,31.1
560,338700,2026-01-09 12:42:43,0.0,5,7.542,0.0,0.0,0.0,55.6,0.0,-10.8,1024,1024,1024,1024,0,0,0,0,77,5.387,73.94,102.034124,P-GPS,,31.1
561,338800,2026-01-09 12:42:43,0.0,5,7.542,0.0,0.0,0.0,55.5,0.4,-10.7,1024,1024,1024,1024,0,0,0,0,77,5.387,73.94,102.034124,P-GPS,,31.1
562,338900,2026-01-09 12:42:43,0.0,5,7.542,0.0,0.0,0.0,55.4,0.4,-10.5,1024,1024,1024,1024,0,0,0,0,77,5.387,73.94,102.034124,P-GPS,,31.1
563,339000,2026-01-09 12:42:43,0.0,5,7.542,0.0,0.0,0.0,55.5,0.4,-10.6,1024,1024,1024,1024,0,0,0,0,77,5.387,73.94,102.034124,P-GPS,,31.1
564,339100,2026-01-09 12:42:43,0.0,5,7.542,0.0,0.0,0.0,55.6,0.3,-10.5,1024,1024,1024,1024,0,0,0,0,77,5.387,73.94,101.70604,P-GPS,,31.0
565,339200,2026-01-09 12:42:43,0.0,5,7.542,0.0,0.0,0.0,55.6,0.1,-10.3,1024,1024,1024,1024,0,0,0,0,77,5.387,73.94,101.70604,P-GPS,,31.0
566,339300,2026-01-09 12:42:43,0.0,5,7.542,0.0,0.0,0.0,55.5,0.3,-10.4,1024,1024,1024,1024,0,0,0,0,77,5.387,73.94,101.70604,P-GPS,,31.0
567,339400,2026-01-09 12:42:43,0.0,5,7.541,0.0,0.0,0.0,55.5,0.0,-10.2,1024,1024,1024,1024,0,0,0,0,77,5.588,73.94,101.70604,P-GPS,,31.0
568,339500,2026-01-09 12:42:44,0.0,5,7.541,0.0,0.0,0.0,55.7,-0.2,-9.8,1024,1024,1024,1024,0,0,0,0,77,5.588,73.94,101.70604,P-GPS,,31.0
569,339600,2026-01-09 12:42:44,0.0,5,7.541,0.0,0.0,0.0,55.7,-0.4,-9.3,1024,1024,1024,1024,0,0,0,0,77,5.588,73.94,101.70604,P-GPS,,31.0
570,339700,2026-01-09 12:42:44,0.0,5,7.541,0.0,0.0,0.0,55.8,-0.8,-9.1,1024,1024,1024,1024,0,0,0,0,77,5.588,73.94,101.70604,P-GPS,,31.0
571,339800,2026-01-09 12:42:44,0.0,5,7.541,0.0,0.0,0.0,55.8,-0.7,-9.4,1024,1024,1024,1024,0,0,0,0,77,5.588,73.94,101.70604,P-GPS,,31.0
572,339900,2026-01-09 12:42:44,0.0,5,7.541,0.0,0.0,0.0,55.8,-0.3,-9.6,1024,1024,1024,1024,0,0,0,0,77,5.588,73.94,101.70604,P-GPS,,31.0
573,340000,2026-01-09 12:42:44,0.0,5,7.541,0.0,0.0,0.0,55.8,0.0,-9.5,1024,1024,1024,1024,0,0,0,0,77,5.588,73.94,101.70604,P-GPS,,31.0
574,340100,2026-01-09 12:42:44,0.0,5,7.541,0.0,0.0,0.0,55.9,0.0,-9.8,1024,1024,1024,1024,0,0,0,0,77,5.588,73.94,101.70604,P-GPS,,31.0
575,340200,2026-01-09 12:42:44,0.0,5,7.541,0.0,0.0,0.0,55.7,0.1,-10.1,1024,1024,1024,1024,0,0,0,0,77,5.588,73.94,101.70604,P-GPS,,31.0
576,340300,2026-01-09 12:42:44,0.0,5,7.541,0.0,0.0,0.0,55.7,0.1,-10.2,1024,1024,1024,1024,0,0,0,0,77,5.588,73.94,101.70604,P-GPS,,31.0
577,340400,2026-01-09 12:42:45,0.0,5,7.541,0.0,0.0,0.0,55.7,-0.2,-10.0,1024,1024,1024,1024,0,0,0,0,77,5.588,73.94,101.70604,P-GPS,,31.0
578,340500,2026-01-09 12:42:45,0.0,5,7.541,0.0,0.0,0.0,55.6,-0.4,-9.8,1024,1024,1024,1024,0,0,0,0,77,5.441,74.12,101.70604,P-GPS,,31.0
579,340600,2026-01-09 12:42:45,0.0,5,7.541,0.0,0.0,0.0,55.7,-0.6,-9.5,1024,1024,1024,1024,0,0,0,0,77,5.441,74.12,101.70604,P-GPS,,31.0
580,340700,2026-01-09 12:42:45,0.0,5,7.541,0.0,0.0,0.0,55.8,-0.6,-9.6,1024,1024,1024,1024,0,0,0,0,77,5.441,74.12,101.70604,P-GPS,,31.0
581,340800,2026-01-09 12:42:45,0.0,5,7.541,0.0,0.0,0.0,55.7,-0.3,-9.3,1024,1024,1024,1024,0,0,0,0,77,5.441,74.12,101.70604,P-GPS,,31.0
582,340900,2026-01-09 12:42:45,0.0,5,7.541,0.0,0.0,0.0,55.6,-0.4,-9.3,1024,1024,1024,1024,0,0,0,0,77,5.441,74.12,101.70604,P-GPS,,31.0
583,341000,2026-01-09 12:42:45,0.0,5,7.541,0.0,0.0,0.0,55.6,0.1,-9.3,1024,1024,1024,1024,0,0,0,0,77,5.441,74.12,101.70604,P-GPS,,31.0
584,341100,2026-01-09 12:42:45,0.0,5,7.541,0.0,0.0,0.0,55.7,0.0,-9.1,1024,1024,1024,1024,0,0,0,0,77,5.441,74.12,101.70604,P-GPS,,31.0
585,341200,2026-01-09 12:42:45,0.0,5,7.541,0.0,0.0,0.0,55.6,0.4,-8.9,1024,1024,1024,1024,0,0,0,0,77,5.441,74.12,101.70604,P-GPS,,31.0
586,341300,2026-01-09 12:42:45,0.0,5,7.541,0.0,0.0,0.0,55.8,0.0,-8.4,1024,1024,1024,1024,0,0,0,0,77,5.441,74.12,101.70604,P-GPS,,31.0
587,341400,2026-01-09 12:42:45,0.0,5,7.541,0.0,0.0,0.0,55.6,1.2,-8.4,1024,1024,1024,1024,0,0,0,0,77,5.441,74.12,101.377956,P-GPS,,30.9
588,341500,2026-01-09 12:42:46,0.0,5,7.541,0.0,0.0,0.0,55.6,1.2,-8.3,1024,1024,1024,1024,0,0,0,0,77,5.441,74.12,101.377956,P-GPS,,30.9
589,341600,2026-01-09 12:42:46,0.0,5,7.537,0.0,0.0,0.0,55.5,1.7,-8.6,1024,1024,1024,1024,0,0,0,0,77,5.403,74.12,101.377956,P-GPS,,30.9
590,341700,2026-01-09 12:42:46,0.0,5,7.537,0.0,0.0,0.0,55.5,2.0,-8.4,1024,1024,1024,1024,0,0,0,0,77,5.403,74.12,101.377956,P-GPS,,30.9
591,341800,2026-01-09 12:42:46,0.0,5,7.537,0.0,0.0,0.0,55.5,2.5,-8.4,1024,1024,1024,1024,0,0,0,0,77,5.403,74.12,101.377956,P-GPS,,30.9
592,341900,2026-01-09 12:42:46,0.0,5,7.537,0.0,0.0,0.0,55.6,1.8,-8.4,1024,1024,1024,1024,0,0,0,0,77,5.403,74.12,101.377956,P-GPS,,30.9
593,342000,2026-01-09 12:42:46,0.0,5,7.537,0.0,0.0,0.0,55.6,2.0,-8.5,1024,1024,1024,1024,0,0,0,0,77,5.403,74.12,101.377956,P-GPS,,30.9
594,342100,2026-01-09 12:42:46,0.0,5,7.537,0.0,0.0,0.0,55.6,1.7,-8.7,1024,1024,1024,1024,0,0,0,0,77,5.403,74.12,101.377956,P-GPS,,30.9
595,342200,2026-01-09 12:42:46,0.0,5,7.537,0.0,0.0,0.0,55.7,1.1,-9.1,1024,1024,1024,1024,0,0,0,0,77,5.403,74.12,101.377956,P-GPS,,30.9
596,342300,2026-01-09 12:42:46,0.0,5,7.537,0.0,0.0,0.0,55.6,1.5,-9.2,1024,1024,1024,1024,0,0,0,0,77,5.403,74.12,101.377956,P-GPS,,30.9
597,342400,2026-01-09 12:42:46,0.0,5,7.537,0.0,0.0,0.0,55.6,1.8,-9.0,1024,1024,1024,1024,0,0,0,0,77,5.403,74.12,101.377956,P-GPS,,30.9
598,342500,2026-01-09 12:42:47,0.0,5,7.537,0.0,0.0,0.0,55.6,2.0,-8.6,1024,1024,1024,1024,0,0,0,0,77,5.403,74.12,101.377956,P-GPS,,30.9
599,342600,2026-01-09 12:42:47,0.0,5,7.537,0.0,0.0,0.0,55.5,2.4,-8.5,1024,1024,1024,1024,0,0,0,0,77,5.403,74.12,101.377956,P-GPS,,30.9
600,342700,2026-01-09 12:42:47,0.0,5,7.537,0.0,0.0,0.0,55.4,2.7,-7.8,1024,1024,1024,1024,0,0,0,0,77,5.403,74.12,101.377956,P-GPS,,30.9
601,342800,2026-01-09 12:42:47,0.0,5,7.538,0.0,0.0,0.0,55.5,2.7,-7.7,1024,1024,1024,1024,0,0,0,0,77,5.428,74.12,101.377956,P-GPS,,30.9
602,342900,2026-01-09 12:42:47,0.0,5,7.538,0.0,0.0,0.0,55.5,2.6,-7.7,1024,1024,1024,1024,0,0,0,0,77,5.428,74.12,101.377956,P-GPS,,30.9
603,343000,2026-01-09 12:42:47,0.0,5,7.538,0.0,0.0,0.0,55.5,2.7,-7.6,1024,1024,1024,1024,0,0,0,0,77,5.428,74.12,101.377956,P-GPS,,30.9
604,343100,2026-01-09 12:42:47,0.0,5,7.538,0.0,0.0,0.0,55.5,2.9,-8.2,1024,1024,1024,1024,0,0,0,0,77,5.428,74.12,101.377956,P-GPS,,30.9
605,343200,2026-01-09 12:42:47,0.0,5,7.538,0.0,0.0,0.0,55.4,2.9,-8.6,1024,1024,1024,1024,0,0,0,0,77,5.428,74.12,101.377956,P-GPS,,30.9
606,343300,2026-01-09 12:42:47,0.0,5,7.538,0.0,0.0,0.0,55.3,3.0,-8.9,1024,1024,1024,1024,0,0,0,0,77,5.428,74.12,101.377956,P-GPS,,30.9
607,343400,2026-01-09 12:42:47,0.0,5,7.538,0.0,0.0,0.0,55.6,2.3,-8.5,1024,1024,1024,1024,0,0,0,0,77,5.428,74.12,101.377956,P-GPS,,30.9
608,343500,2026-01-09 12:42:48,0.0,5,7.538,0.0,0.0,0.0,55.5,2.6,-8.7,1024,1024,1024,1024,0,0,0,0,77,5.428,74.12,101.70604,P-GPS,,31.0
609,343600,2026-01-09 12:42:48,0.0,5,7.538,0.0,0.0,0.0,55.5,2.6,-8.7,1024,1024,1024,1024,0,0,0,0,77,5.428,74.12,101.70604,P-GPS,,31.0
610,343700,2026-01-09 12:42:48,0.0,5,7.538,0.0,0.0,0.0,55.5,2.5,-8.7,1024,1024,1024,1024,0,0,0,0,77,5.428,74.12,101.70604,P-GPS,,31.0
611,343800,2026-01-09 12:42:48,0.0,5,7.538,0.0,0.0,0.0,55.5,1.8,-8.6,1024,1024,1024,1024,0,0,0,0,77,5.428,74.12,101.70604,P-GPS,,31.0
612,343900,2026-01-09 12:42:48,0.0,5,7.573,0.0,0.0,0.0,55.5,1.9,-8.6,1024,1024,1024,1024,0,0,0,0,77,4.773,74.12,101.70604,P-GPS,,31.0
613,344000,2026-01-09 12:42:48,0.0,5,7.573,0.0,0.0,0.0,55.5,2.6,-8.5,1024,1024,1024,1024,0,0,0,0,77,4.773,74.12,101.70604,P-GPS,,31.0
614,344100,2026-01-09 12:42:48,0.0,5,7.573,0.0,0.0,0.0,55.3,3.3,-8.2,1024,1024,1024,1024,0,0,0,0,77,4.773,74.12,101.377956,P-GPS,,30.9
615,344200,2026-01-09 12:42:48,0.0,5,7.573,0.0,0.0,0.0,55.4,2.9,-8.0,1024,1024,1024,1024,0,0,0,0,77,4.773,74.12,101.377956,P-GPS,,30.9
616,344300,2026-01-09 12:42:48,0.0,5,7.573,0.0,0.0,0.0,55.4,3.2,-7.8,1024,1024,1024,1024,0,0,0,0,77,4.773,74.12,101.377956,P-GPS,,30.9
617,344400,2026-01-09 12:42:48,0.0,5,7.573,0.0,0.0,0.0,55.3,3.5,-7.9,1024,1024,1024,1024,0,0,0,0,77,4.773,74.12,101.377956,P-GPS,,30.9
618,344500,2026-01-09 12:42:49,0.0,5,7.573,0.0,0.0,0.0,55.4,3.3,-8.1,1024,1024,1024,1024,0,0,0,0,77,4.773,74.12,101.377956,P-GPS,,30.9
619,344600,2026-01-09 12:42:49,0.0,5,7.573,0.0,0.0,0.0,55.3,3.2,-8.4,1024,1024,1024,1024,0,0,0,0,77,4.773,74.12,101.377956,P-GPS,,30.9
620,344700,2026-01-09 12:42:49,0.0,5,7.573,0.0,0.0,0.0,55.3,3.5,-8.6,1024,1024,1024,1024,0,0,0,0,77,4.773,74.12,101.377956,P-GPS,,30.9
621,344800,2026-01-09 12:42:49,0.0,5,7.573,0.0,0.0,0.0,55.4,3.6,-9.0,1024,1024,1024,1024,0,0,0,0,77,4.773,74.12,101.377956,P-GPS,,30.9
622,344900,2026-01-09 12:42:49,0.0,5,7.573,0.0,0.0,0.0,55.4,3.7,-9.1,1024,1024,1024,1024,0,0,0,0,77,4.773,74.12,101.377956,P-GPS,,30.9
623,345000,2026-01-09 12:42:49,0.0,5,7.57,0.0,0.0,0.0,55.4,3.6,-9.3,1024,1024,1024,1024,0,0,0,0,77,4.646,74.12,101.377956,P-GPS,,30.9
624,345100,2026-01-09 12:42:49,0.0,5,7.57,0.0,0.0,0.0,55.6,2.9,-9.6,1024,1024,1024,1024,0,0,0,0,77,4.646,74.12,101.377956,P-GPS,,30.9
625,345200,2026-01-09 12:42:49,0.0,5,7.57,0.0,0.0,0.0,55.6,3.0,-9.6,1024,1024,1024,1024,0,0,0,0,77,4.646,74.12,101.377956,P-GPS,,30.9
626,345300,2026-01-09 12:42:49,0.0,5,7.57,0.0,0.0,0.0,55.6,2.6,-9.7,1024,1024,1024,1024,0,0,0,0,77,4.646,74.12,101.377956,P-GPS,,30.9
627,345400,2026-01-09 12:42:49,0.0,5,7.57,0.0,0.0,0.0,55.7,2.3,-9.5,1024,1024,1024,1024,0,0,0,0,77,4.646,74.12,101.377956,P-GPS,,30.9
628,345500,2026-01-09 12:42:50,0.0,5,7.57,0.0,0.0,0.0,55.5,2.5,-10.3,1024,1024,1024,1024,0,0,0,0,77,4.646,74.12,101.70604,P-GPS,,31.0
629,345600,2026-01-09 12:42:50,0.223694,5,7.57,-0.223694,0.0,0.0,55.4,2.6,-10.3,1024,1024,1024,1024,0,0,0,0,77,4.646,74.12,101.70604,P-GPS,,31.0
630,345700,2026-01-09 12:42:50,0.223694,5,7.57,-0.223694,0.0,0.0,55.6,1.7,-10.4,1024,1024,1024,1024,0,0,0,0,77,4.646,74.12,101.70604,P-GPS,,31.0
631,345800,2026-01-09 12:42:50,0.0,5,7.57,0.0,0.0,0.0,55.7,1.5,-9.8,1024,1024,1024,1024,0,0,0,0,77,4.646,74.12,101.70604,P-GPS,,31.0
632,345900,2026-01-09 12:42:50,0.0,5,7.57,0.0,0.0,0.0,55.7,1.3,-9.6,1024,1024,1024,1024,0,0,0,0,77,4.646,74.12,101.70604,P-GPS,,31.0
633,346000,2026-01-09 12:42:50,0.0,5,7.57,0.0,0.0,0.0,55.6,2.0,-9.6,1024,1024,1024,1024,0,0,0,0,77,4.646,74.12,101.70604,P-GPS,,31.0
634,346100,2026-01-09 12:42:50,0.0,5,7.538,0.0,0.0,0.0,55.5,2.2,-9.9,1024,1024,1024,1024,0,0,0,0,77,5.446,74.3,101.70604,P-GPS,,31.0
635,346200,2026-01-09 12:42:50,0.0,5,7.538,0.0,0.0,0.0,55.4,2.7,-10.2,1024,1024,1024,1024,0,0,0,0,77,5.446,74.3,101.70604,P-GPS,,31.0
636,346300,2026-01-09 12:42:50,0.0,5,7.538,0.0,0.0,0.0,55.2,3.2,-10.5,1024,1024,1024,1024,0,0,0,0,77,5.446,74.3,101.70604,P-GPS,,31.0
637,346400,2026-01-09 12:42:50,0.0,5,7.538,0.0,0.0,0.223694,55.4,2.6,-9.7,1024,1024,1024,1024,0,0,0,0,77,5.446,74.3,101.377956,P-GPS,,30.9
638,346500,2026-01-09 12:42:51,0.223694,5,7.538,0.0,-0.223694,0.0,55.9,0.5,-8.9,1024,1024,1024,1024,0,0,0,0,77,5.446,74.3,101.70604,P-GPS,,31.0
639,346600,2026-01-09 12:42:51,0.223694,5,7.538,-0.223694,0.0,0.0,56.0,-0.5,-9.1,1024,1024,1024,1024,0,0,0,0,77,5.446,74.3,101.70604,P-GPS,,31.0
640,346700,2026-01-09 12:42:51,0.0,5,7.538,0.0,0.0,0.0,55.9,-0.5,-9.3,1024,1024,1024,1024,0,0,0,0,77,5.446,74.3,101.70604,P-GPS,,31.0
641,346800,2026-01-09 12:42:51,0.0,5,7.538,0.0,0.0,0.0,56.0,-0.3,-9.4,1024,1024,1024,1024,0,0,0,0,77,5.446,74.3,101.70604,P-GPS,,31.0
642,346900,2026-01-09 12:42:51,0.0,5,7.538,0.0,0.0,0.0,55.9,-0.1,-9.9,1024,1024,1024,1024,0,0,0,0,77,5.446,74.3,101.70604,P-GPS,,31.0
643,347000,2026-01-09 12:42:51,0.0,5,7.538,0.0,0.0,0.0,55.7,0.6,-10.1,1024,1024,1024,1024,0,0,0,0,77,5.446,74.3,101.70604,P-GPS,,31.0
644,347100,2026-01-09 12:42:51,0.0,5,7.538,0.0,0.0,0.0,55.6,1.3,-10.3,1024,1024,1024,1024,0,0,0,0,77,5.446,74.3,101.70604,P-GPS,,31.0
645,347200,2026-01-09 12:42:51,0.0,5,7.538,0.0,0.0,0.0,55.6,1.6,-10.3,1024,1024,1024,1024,0,0,0,0,77,5.446,74.3,101.70604,P-GPS,,31.0
646,347300,2026-01-09 12:42:51,0.0,5,7.538,0.0,0.0,0.0,55.6,1.8,-10.0,1024,1024,1024,1024,0,0,0,0,77,5.446,74.3,101.70604,P-GPS,,31.0
647,347400,2026-01-09 12:42:51,0.0,5,7.538,0.0,0.0,0.0,55.7,1.7,-10.0,1024,1024,1024,1024,0,0,0,0,77,5.446,74.3,101.70604,P-GPS,,31.0
648,347500,2026-01-09 12:42:52,0.0,5,7.538,0.0,0.0,0.0,55.7,1.5,-10.2,1024,1024,1024,1024,0,0,0,0,77,5.446,74.3,101.70604,P-GPS,,31.0
649,347600,2026-01-09 12:42:52,0.0,5,7.538,0.0,0.0,0.0,55.7,1.5,-10.0,1024,1024,1024,1024,0,0,0,0,77,5.446,74.3,101.70604,P-GPS,,31.0
650,347700,2026-01-09 12:42:52,0.0,5,7.538,0.0,0.0,0.0,55.8,1.1,-9.9,1024,1024,1024,1024,0,0,0,0,77,5.446,74.3,101.70604,P-GPS,,31.0
651,347800,2026-01-09 12:42:52,0.0,5,7.538,0.0,0.0,0.0,55.7,1.2,-10.0,1024,1024,1024,1024,0,0,0,0,77,5.446,74.3,101.70604,P-GPS,,31.0
652,347900,2026-01-09 12:42:52,0.0,5,7.538,0.0,0.0,0.0,55.6,0.9,-10.1,1024,1024,1024,1024,0,0,0,0,77,5.446,74.3,101.70604,P-GPS,,31.0
653,348000,2026-01-09 12:42:52,0.0,5,7.538,0.0,0.0,0.0,55.7,0.8,-10.0,1024,1024,1024,1024,0,0,0,0,77,5.446,74.3,101.70604,P-GPS,,31.0
654,348100,2026-01-09 12:42:52,0.0,5,7.538,0.0,0.0,0.0,55.7,0.2,-9.8,1024,1024,1024,1024,0,0,0,0,77,5.446,74.3,101.70604,P-GPS,,31.0
655,348200,2026-01-09 12:42:52,0.0,5,7.56,0.0,0.0,0.0,55.6,1.0,-9.9,1024,1024,1024,1024,0,0,0,0,77,5.385,74.3,101.70604,P-GPS,,31.0
656,348300,2026-01-09 12:42:52,0.0,5,7.56,0.0,0.0,0.0,55.6,0.5,-9.7,1024,1024,1024,1024,0,0,0,0,77,5.385,74.3,101.70604,P-GPS,,31.0
657,348400,2026-01-09 12:42:52,0.0,5,7.56,0.0,0.0,0.0,55.6,0.5,-9.5,1024,1024,1024,1024,0,0,0,0,77,5.385,74.3,101.377956,P-GPS,,30.9
658,348500,2026-01-09 12:42:53,0.0,5,7.56,0.0,0.0,0.0,55.7,0.4,-9.1,1024,1024,1024,1024,0,0,0,0,77,5.385,74.3,101.377956,P-GPS,,30.9
659,348600,2026-01-09 12:42:53,0.0,5,7.56,0.0,0.0,0.0,55.7,0.1,-9.0,1024,1024,1024,1024,0,0,0,0,77,5.385,74.3,101.377956,P-GPS,,30.9
660,348700,2026-01-09 12:42:53,0.0,5,7.56,0.0,0.0,0.0,55.7,0.7,-9.1,1024,1024,1024,1024,0,0,0,0,77,5.385,74.3,101.377956,P-GPS,,30.9
661,348800,2026-01-09 12:42:53,0.0,5,7.56,0.0,0.0,0.0,55.7,0.9,-9.1,1024,1024,1024,1024,0,0,0,0,77,5.385,74.3,101.377956,P-GPS,,30.9
662,348900,2026-01-09 12:42:53,0.0,5,7.56,0.0,0.0,0.0,55.6,1.3,-9.3,1024,1024,1024,1024,0,0,0,0,77,5.385,74.3,101.377956,P-GPS,,30.9
663,349000,2026-01-09 12:42:53,0.0,5,7.56,0.0,0.0,0.0,55.5,1.8,-9.5,1024,1024,1024,1024,0,0,0,0,77,5.385,74.3,101.377956,P-GPS,,30.9
664,349100,2026-01-09 12:42:53,0.0,5,7.56,0.0,0.0,0.0,55.4,2.1,-9.8,1024,1024,1024,1024,0,0,0,0,77,5.385,74.3,101.377956,P-GPS,,30.9
665,349200,2026-01-09 12:42:53,0.0,5,7.56,0.0,0.0,0.0,55.4,2.0,-9.7,1024,1024,1024,1024,0,0,0,0,77,5.385,74.3,101.377956,P-GPS,,30.9
666,349300,2026-01-09 12:42:53,0.0,5,7.56,0.0,0.0,0.0,55.5,1.6,-9.5,1024,1024,1024,1024,0,0,0,0,77,5.385,74.3,101.049872,P-GPS,,30.8
667,349400,2026-01-09 12:42:53,0.0,5,7.536,0.0,0.0,0.0,55.5,1.7,-9.4,1024,1024,1024,1024,0,0,0,0,76,5.416,74.3,101.049872,P-GPS,,30.8
668,349500,2026-01-09 12:42:54,0.0,5,7.536,0.0,0.0,0.0,55.6,0.8,-8.8,1024,1024,1024,1024,0,0,0,0,76,5.416,74.3,101.049872,P-GPS,,30.8
669,349600,2026-01-09 12:42:54,0.0,5,7.536,0.0,0.0,0.0,55.6,1.0,-8.5,1024,1024,1024,1024,0,0,0,0,76,5.416,74.3,101.049872,P-GPS,,30.8
670,349700,2026-01-09 12:42:54,0.0,5,7.536,0.0,0.0,0.0,55.7,0.6,-8.4,1024,1024,1024,1024,0,0,0,0,76,5.416,74.3,101.049872,P-GPS,,30.8
671,349800,2026-01-09 12:42:54,0.0,5,7.536,0.0,0.0,0.0,55.6,0.8,-8.4,1024,1024,1024,1024,0,0,0,0,76,5.416,74.3,101.049872,P-GPS,,30.8
672,349900,2026-01-09 12:42:54,0.0,5,7.536,0.0,0.0,0.0,55.5,1.1,-8.6,1024,1024,1024,1024,0,0,0,0,76,5.416,74.3,101.049872,P-GPS,,30.8
673,350000,2026-01-09 12:42:54,0.0,5,7.536,0.0,0.0,0.0,55.3,2.0,-8.4,1024,1024,1024,1024,0,0,0,0,76,5.416,74.3,101.049872,P-GPS,,30.8
674,350100,2026-01-09 12:42:54,0.0,5,7.536,0.0,0.0,0.0,55.7,1.1,-8.3,1024,1024,1024,1024,0,0,0,0,76,5.416,74.3,101.049872,P-GPS,,30.8
675,350200,2026-01-09 12:42:54,0.0,5,7.536,0.0,0.0,0.0,56.0,-0.9,-8.2,1024,1024,1024,1024,0,0,0,0,76,5.416,74.3,101.049872,P-GPS,,30.8
676,350300,2026-01-09 12:42:54,0.0,5,7.536,0.0,0.0,0.0,56.0,-0.9,-8.3,1024,1024,1024,1024,0,0,0,0,76,5.416,74.3,101.049872,P-GPS,,30.8
677,350400,2026-01-09 12:42:54,0.0,5,7.536,0.0,0.0,0.0,55.7,0.6,-8.3,1024,1024,1024,1024,0,0,0,0,76,5.416,74.3,101.049872,P-GPS,,30.8
678,350500,2026-01-09 12:42:55,0.0,5,7.537,0.0,0.0,-0.223694,55.6,1.7,-8.3,1024,1024,1024,1024,0,0,0,0,76,5.541,74.3,101.049872,P-GPS,,30.8
679,350600,2026-01-09 12:42:55,0.0,5,7.537,0.0,0.0,-0.223694,55.6,1.6,-8.3,1024,1024,1024,1024,0,0,0,0,76,5.541,74.3,101.377956,P-GPS,,30.9
680,350700,2026-01-09 12:42:55,0.0,5,7.537,0.0,0.0,-0.223694,55.9,0.8,-8.4,1024,1024,1024,1024,0,0,0,0,76,5.541,74.3,101.377956,P-GPS,,30.9
681,350800,2026-01-09 12:42:55,0.0,5,7.537,0.0,0.0,-0.223694,55.9,0.6,-9.0,1024,1024,1024,1024,0,0,0,0,76,5.541,74.3,101.377956,P-GPS,,30.9
682,350900,2026-01-09 12:42:55,0.0,5,7.537,0.0,0.0,0.0,55.9,0.4,-9.2,1024,1024,1024,1024,0,0,0,0,76,5.541,74.3,101.377956,P-GPS,,30.9
683,351000,2026-01-09 12:42:55,0.0,5,7.537,0.0,0.0,0.0,56.2,0.0,-9.0,1024,1024,1024,1024,0,0,0,0,76,5.541,74.3,101.377956,P-GPS,,30.9
684,351100,2026-01-09 12:42:55,0.0,5,7.537,0.0,0.0,0.0,56.2,-0.3,-9.0,1024,1024,1024,1024,0,0,0,0,76,5.541,74.3,101.377956,P-GPS,,30.9
685,351200,2026-01-09 12:42:55,0.0,5,7.537,0.0,0.0,0.0,56.2,-1.2,-8.6,1024,1024,1024,1024,0,0,0,0,76,5.541,74.3,101.377956,P-GPS,,30.9
686,351300,2026-01-09 12:42:55,0.0,5,7.537,0.0,0.0,0.0,56.2,-1.2,-8.8,1024,1024,1024,1024,0,0,0,0,76,5.541,74.3,101.377956,P-GPS,,30.9
687,351400,2026-01-09 12:42:55,0.0,5,7.537,0.0,0.0,0.0,56.2,-1.5,-9.0,1024,1024,1024,1024,0,0,0,0,76,5.541,74.3,101.377956,P-GPS,,30.9
688,351500,2026-01-09 12:42:56,0.0,5,7.537,0.0,0.0,0.0,56.0,-1.8,-9.2,1024,1024,1024,1024,0,0,0,0,76,5.541,74.3,101.377956,P-GPS,,30.9
689,351600,2026-01-09 12:42:56,0.0,5,7.569,0.0,0.0,0.0,55.9,-0.7,-7.9,1024,1024,1024,1024,0,0,0,0,76,4.68,74.3,101.377956,P-GPS,,30.9
690,351700,2026-01-09 12:42:56,0.0,5,7.569,0.0,0.0,0.0,56.3,-2.4,-7.2,1024,1024,1024,1024,0,0,0,0,76,4.68,74.3,101.377956,P-GPS,,30.9
691,351800,2026-01-09 12:42:56,0.0,5,7.569,0.0,0.0,0.0,55.6,-0.6,-7.7,1024,1024,1024,1024,0,0,0,0,76,4.68,74.3,101.377956,P-GPS,,30.9
692,351900,2026-01-09 12:42:56,0.0,5,7.569,0.0,0.0,0.0,55.7,0.9,-7.1,1024,1024,1024,1024,0,0,0,0,76,4.68,74.3,101.377956,P-GPS,,30.9
693,352000,2026-01-09 12:42:56,0.0,5,7.569,0.0,0.0,0.0,55.9,0.3,-7.9,1024,1024,1024,1024,0,0,0,0,76,4.68,74.3,101.377956,P-GPS,,30.9
694,352100,2026-01-09 12:42:56,0.0,5,7.569,0.0,0.0,0.0,55.9,0.0,-8.6,1024,1024,1024,1024,0,0,0,0,76,4.68,74.3,101.377956,P-GPS,,30.9
695,352200,2026-01-09 12:42:56,0.0,5,7.569,0.0,0.0,0.0,56.2,-0.5,-8.6,1024,1024,1024,1024,0,0,0,0,76,4.68,74.3,101.377956,P-GPS,,30.9
696,352300,2026-01-09 12:42:56,0.0,5,7.569,0.0,0.0,0.0,56.3,-1.5,-8.7,1024,1024,1024,1024,0,0,0,0,76,4.68,74.3,101.377956,P-GPS,,30.9
697,352400,2026-01-09 12:42:56,0.0,5,7.569,0.0,0.0,0.0,56.3,-2.2,-9.1,1024,1024,1024,1024,0,0,0,0,76,4.68,74.3,101.70604,P-GPS,,31.0
698,352500,2026-01-09 12:42:57,0.0,5,7.569,0.0,0.0,0.0,56.3,-2.1,-9.3,1024,1024,1024,1024,0,0,0,0,76,4.68,74.3,101.70604,P-GPS,,31.0
699,352600,2026-01-09 12:42:57,0.0,5,7.569,0.0,0.0,0.0,56.4,-2.9,-8.9,1024,1024,1024,1024,0,0,0,0,76,4.68,74.3,101.70604,P-GPS,,31.0
700,352700,2026-01-09 12:42:57,0.0,5,7.575,0.0,0.0,0.0,56.1,-2.8,-9.1,1024,1024,1024,1024,0,0,0,0,76,4.749,74.3,101.70604,P-GPS,,31.0
701,352800,2026-01-09 12:42:57,0.0,5,7.575,0.0,0.0,0.0,55.7,-1.1,-9.0,1024,1024,1024,1024,0,0,0,0,76,4.749,74.3,101.70604,P-GPS,,31.0
702,352900,2026-01-09 12:42:57,0.0,5,7.575,0.0,0.0,0.0,55.7,-0.4,-9.4,1024,1024,1024,1024,0,0,0,0,76,4.749,74.3,101.70604,P-GPS,,31.0
703,353000,2026-01-09 12:42:57,0.223694,5,7.575,0.0,0.223694,0.0,55.6,0.4,-9.9,1024,1024,1024,1024,0,0,0,0,76,4.749,74.3,101.70604,P-GPS,,31.0
