time(millisecond),timestamp,speed(mph),gpslevel,voltage(v),xSpeed(mph),ySpeed(mph),zSpeed(mph),compass_heading(degrees),pitch(degrees),roll(degrees),rc_elevator,rc_aileron,rc_throttle,rc_rudder,rc_elevator(percent),rc_aileron(percent),rc_throttle(percent),rc_rudder(percent),battery_percent,current(A),battery_temperature(f),ascent(feet),flycState,message,height_above_takeoff(meters)
495700,2026-01-09 20:15:07,0.0,5,7.38,0.0,0.0,0.0,21.3,5.3,-0.4,1024,1024,1024,1024,0,0,0,0,66,6.066,77.36,163.385832,P-GPS,,49.8
495800,2026-01-09 20:15:07,0.0,5,7.462,0.0,0.0,0.0,21.2,5.4,-0.5,1024,1024,1024,1024,0,0,0,0,66,4.209,77.36,163.713916,P-GPS,,49.9
495900,2026-01-09 20:15:07,0.0,5,7.462,0.0,0.0,0.0,21.2,5.8,-0.5,1024,1024,1024,1024,0,0,0,0,66,4.209,77.36,163.713916,P-GPS,,49.9
496000,2026-01-09 20:15:08,0.0,5,7.462,0.0,0.0,0.0,21.2,6.3,-0.7,1024,1024,1024,1024,0,0,0,0,66,4.209,77.36,163.713916,P-GPS,,49.9
496100,2026-01-09 20:15:08,0.0,5,7.462,0.0,0.0,0.0,21.2,6.2,-0.6,1024,1024,1024,1024,0,0,0,0,66,4.209,77.36,163.713916,P-GPS,,49.9
496200,2026-01-09 20:15:08,0.0,5,7.462,0.0,0.0,0.0,21.2,6.0,-0.5,1024,1024,1024,1024,0,0,0,0,66,4.209,77.36,163.713916,P-GPS,,49.9
496300,2026-01-09 20:15:08,0.0,5,7.462,0.0,0.0,0.0,21.2,5.9,-0.6,1024,1024,1024,1024,0,0,0,0,66,4.209,77.36,163.713916,P-GPS,,49.9
496400,2026-01-09 20:15:08,0.0,5,7.462,0.0,0.0,0.0,21.2,5.9,-0.7,1024,1024,1024,1024,0,0,0,0,66,4.209,77.36,163.713916,P-GPS,,49.9
496500,2026-01-09 20:15:08,0.0,5,7.462,0.0,0.0,0.0,21.2,5.5,-0.7,1024,1024,1024,1024,0,0,0,0,66,4.209,77.36,163.713916,P-GPS,,49.9
496600,2026-01-09 20:15:08,0.0,5,7.462,0.0,0.0,0.0,21.2,5.5,-0.8,1024,1024,1024,1024,0,0,0,0,66,4.209,77.36,163.713916,P-GPS,,49.9
496700,2026-01-09 20:15:08,0.0,5,7.462,0.0,0.0,0.0,21.2,5.4,-0.6,1024,1024,1024,1024,0,0,0,0,66,4.209,77.36,163.713916,P-GPS,,49.9
496800,2026-01-09 20:15:08,0.0,5,7.462,0.0,0.0,0.0,21.2,5.4,-0.5,1024,1024,1024,1024,0,0,0,0,66,4.209,77.36,163.713916,P-GPS,,49.9
496900,2026-01-09 20:15:08,0.0,5,7.438,0.0,0.0,0.0,21.2,4.9,-0.4,1024,1024,1024,1024,0,0,0,0,66,4.847,77.36,163.713916,P-GPS,,49.9
497000,2026-01-09 20:15:08,0.0,5,7.438,0.0,0.0,0.0,21.2,4.8,-0.3,1024,1024,1024,1024,0,0,0,0,66,4.847,77.36,163.713916,P-GPS,,49.9
497100,2026-01-09 20:15:09,0.0,5,7.438,0.0,0.0,0.0,21.2,4.7,-0.2,1024,1024,1024,1024,0,0,0,0,66,4.847,77.36,163.713916,P-GPS,,49.9
497200,2026-01-09 20:15:09,0.0,5,7.438,0.0,0.0,0.0,21.2,4.7,-0.2,1024,1024,1024,1024,0,0,0,0,66,4.847,77.36,163.713916,P-GPS,,49.9
497300,2026-01-09 20:15:09,0.0,5,7.438,0.0,0.0,0.0,21.2,4.0,0.0,1024,1024,1024,1024,0,0,0,0,66,4.847,77.36,163.713916,P-GPS,,49.9
497400,2026-01-09 20:15:09,0.0,5,7.438,0.0,0.0,0.0,21.3,4.3,0.0,1024,1024,1024,1024,0,0,0,0,66,4.847,77.36,163.713916,P-GPS,,49.9
497500,2026-01-09 20:15:09,0.0,5,7.438,0.0,0.0,0.0,21.3,4.4,-0.1,1024,1024,1024,1024,0,0,0,0,66,4.847,77.36,163.713916,P-GPS,,49.9
497600,2026-01-09 20:15:09,0.0,5,7.438,0.0,0.0,0.0,21.2,4.6,-0.3,1024,1024,1024,1024,0,0,0,0,66,4.847,77.36,163.713916,P-GPS,,49.9
497700,2026-01-09 20:15:09,0.0,5,7.438,0.0,0.0,0.0,21.2,4.7,-0.6,1024,1024,1024,1024,0,0,0,0,66,4.847,77.36,163.713916,P-GPS,,49.9
497800,2026-01-09 20:15:09,0.0,5,7.438,0.0,0.0,0.0,21.2,4.8,-0.8,1024,1024,1024,1024,0,0,0,0,66,4.847,77.36,163.713916,P-GPS,,49.9
497900,2026-01-09 20:15:09,0.0,5,7.438,0.0,0.0,0.0,21.2,4.8,-1.0,1024,1024,1024,1024,0,0,0,0,66,4.847,77.36,163.713916,P-GPS,,49.9
498000,2026-01-09 20:15:10,0.0,5,7.434,0.0,0.0,0.0,21.2,4.9,-1.2,1024,1024,1024,1024,0,0,0,0,66,4.893,77.36,163.713916,P-GPS,,49.9
498100,2026-01-09 20:15:10,0.0,5,7.434,0.0,0.0,0.0,21.2,4.7,-1.1,1024,1024,1024,1024,0,0,0,0,66,4.893,77.36,163.713916,P-GPS,,49.9
498200,2026-01-09 20:15:10,0.0,5,7.434,0.0,0.0,0.0,21.2,4.8,-1.2,1024,1024,1024,1024,0,0,0,0,66,4.893,77.36,163.713916,P-GPS,,49.9
498300,2026-01-09 20:15:10,0.0,5,7.434,0.0,0.0,0.0,21.2,4.8,-1.2,1024,1024,1024,1024,0,0,0,0,66,4.893,77.36,163.385832,P-GPS,,49.8
498400,2026-01-09 20:15:10,0.0,5,7.434,0.0,0.0,0.0,21.2,4.8,-1.2,1024,1024,1024,1024,0,0,0,0,66,4.893,77.36,163.385832,P-GPS,,49.8
498500,2026-01-09 20:15:10,0.0,5,7.434,0.0,0.0,0.0,21.2,4.6,-1.1,1024,1024,1024,1024,0,0,0,0,66,4.893,77.36,163.385832,P-GPS,,49.8
498600,2026-01-09 20:15:10,0.0,5,7.434,0.0,0.0,0.0,21.2,4.7,-1.1,1024,1024,1024,1024,0,0,0,0,66,4.893,77.36,163.385832,P-GPS,,49.8
498700,2026-01-09 20:15:10,0.0,5,7.434,0.0,0.0,0.0,21.2,4.7,-1.1,1024,1024,1024,1024,0,0,0,0,66,4.893,77.36,163.385832,P-GPS,,49.8
498800,2026-01-09 20:15:10,0.0,5,7.434,0.0,0.0,0.0,21.1,4.7,-1.3,1024,1024,1024,1024,0,0,0,0,66,4.893,77.36,163.385832,P-GPS,,49.8
498900,2026-01-09 20:15:10,0.0,5,7.434,0.0,0.0,0.0,21.1,4.5,-1.2,1024,1024,1024,1024,0,0,0,0,66,4.893,77.36,163.385832,P-GPS,,49.8
499000,2026-01-09 20:15:11,0.0,5,7.434,0.0,0.0,0.0,21.1,4.6,-1.3,1024,1024,1024,1024,0,0,0,0,66,4.893,77.36,163.385832,P-GPS,,49.8
499100,2026-01-09 20:15:11,0.0,5,7.432,0.0,0.0,0.0,21.1,4.6,-1.3,1024,1024,1024,1024,0,0,0,0,66,4.839,77.36,163.385832,P-GPS,,49.8
499200,2026-01-09 20:15:11,0.0,5,7.432,0.0,0.0,0.0,21.1,4.6,-1.3,1024,1024,1024,1024,0,0,0,0,66,4.839,77.36,163.385832,P-GPS,,49.8
499300,2026-01-09 20:15:11,0.0,5,7.432,0.0,0.0,0.0,21.2,4.5,-1.1,1024,1024,1024,1024,0,0,0,0,66,4.839,77.36,163.385832,P-GPS,,49.8
499400,2026-01-09 20:15:11,0.0,5,7.432,0.0,0.0,0.0,21.1,4.5,-0.9,1024,1024,1024,1024,0,0,0,0,66,4.839,77.36,163.057748,P-GPS,,49.7
499500,2026-01-09 20:15:11,0.0,5,7.432,0.0,0.0,0.0,21.2,4.6,-1.0,1024,1024,1024,1024,0,0,0,0,66,4.839,77.36,163.057748,P-GPS,,49.7
499600,2026-01-09 20:15:11,0.0,5,7.432,0.0,0.0,0.0,21.1,4.7,-1.1,1024,1024,1024,1024,0,0,0,0,66,4.839,77.36,163.057748,P-GPS,,49.7
499700,2026-01-09 20:15:11,0.0,5,7.432,0.0,0.0,0.0,21.1,4.8,-0.8,1024,1024,1024,1024,0,0,0,0,66,4.839,77.36,163.057748,P-GPS,,49.7
499800,2026-01-09 20:15:11,0.0,5,7.432,0.0,0.0,0.0,21.0,5.0,-0.8,1024,1024,1024,1024,0,0,0,0,66,4.839,77.36,163.057748,P-GPS,,49.7
499900,2026-01-09 20:15:11,0.0,5,7.432,0.0,0.0,0.0,21.0,5.0,-0.5,1024,1024,1024,1024,0,0,0,0,66,4.839,77.36,163.057748,P-GPS,,49.7
500000,2026-01-09 20:15:11,0.0,5,7.432,0.0,0.0,0.0,21.0,5.2,-0.4,1024,1024,1024,1024,0,0,0,0,66,4.839,77.36,163.057748,P-GPS,,49.7
500100,2026-01-09 20:15:12,0.0,5,7.432,0.0,0.0,0.0,21.1,5.1,-0.1,1024,1024,1024,1024,0,0,0,0,66,4.839,77.36,163.057748,P-GPS,,49.7
500200,2026-01-09 20:15:12,0.0,5,7.428,0.0,0.0,0.0,21.1,5.2,-0.1,1024,1024,1024,1024,0,0,0,0,66,4.895,77.54,163.057748,P-GPS,,49.7
500300,2026-01-09 20:15:12,0.0,5,7.428,0.0,0.0,0.0,21.0,5.1,0.0,1024,1024,1024,1024,0,0,0,0,66,4.895,77.54,163.057748,P-GPS,,49.7
500400,2026-01-09 20:15:12,0.0,5,7.428,0.0,0.0,0.0,21.0,5.0,0.0,1024,1024,1024,1024,0,0,0,0,66,4.895,77.54,163.057748,P-GPS,,49.7
500500,2026-01-09 20:15:12,0.0,5,7.428,0.0,0.0,0.0,21.0,4.7,0.1,1024,1024,1024,1024,0,0,0,0,66,4.895,77.54,163.057748,P-GPS,,49.7
500600,2026-01-09 20:15:12,0.0,5,7.428,0.0,0.0,0.0,21.1,4.5,0.2,1024,1024,1024,1024,0,0,0,0,66,4.895,77.54,163.057748,P-GPS,,49.7
500700,2026-01-09 20:15:12,0.0,5,7.428,0.0,0.0,0.0,21.1,4.7,0.3,1024,1024,1024,1024,0,0,0,0,66,4.895,77.54,162.729664,P-GPS,,49.6
500800,2026-01-09 20:15:12,0.0,5,7.428,0.0,0.0,0.0,21.1,4.7,0.2,1024,1024,1024,1024,0,0,0,0,66,4.895,77.54,162.729664,P-GPS,,49.6
500900,2026-01-09 20:15:12,0.0,5,7.428,0.0,0.0,0.0,21.0,4.6,0.2,1024,1024,1024,1024,0,0,0,0,66,4.895,77.54,162.729664,P-GPS,,49.6
501000,2026-01-09 20:15:13,0.0,5,7.428,0.0,0.0,0.0,21.1,4.8,0.2,1024,1024,1024,1024,0,0,0,0,66,4.895,77.54,162.729664,P-GPS,,49.6
501100,2026-01-09 20:15:13,0.0,5,7.428,0.0,0.0,0.0,21.1,4.7,0.2,1024,1024,1024,1024,0,0,0,0,66,4.895,77.54,162.729664,P-GPS,,49.6
501200,2026-01-09 20:15:13,0.0,5,7.428,0.0,0.0,0.0,21.1,4.8,0.0,1024,1024,1024,1024,0,0,0,0,66,4.895,77.54,162.729664,P-GPS,,49.6
501300,2026-01-09 20:15:13,0.0,5,7.43,0.0,0.0,0.0,21.0,4.7,0.0,1024,1024,1024,1024,0,0,0,0,66,4.945,77.54,162.729664,P-GPS,,49.6
501400,2026-01-09 20:15:13,0.0,5,7.43,0.0,0.0,0.0,21.1,4.7,0.0,1024,1024,1024,1024,0,0,0,0,66,4.945,77.54,162.729664,P-GPS,,49.6
501500,2026-01-09 20:15:13,0.0,5,7.43,0.0,0.0,0.0,21.1,4.6,-0.1,1024,1024,1024,1024,0,0,0,0,66,4.945,77.54,162.729664,P-GPS,,49.6
501600,2026-01-09 20:15:13,0.0,5,7.43,0.0,0.0,0.0,21.1,4.6,-0.3,1024,1024,1024,1024,0,0,0,0,66,4.945,77.54,162.729664,P-GPS,,49.6
501700,2026-01-09 20:15:13,0.0,5,7.43,0.0,0.0,0.0,21.2,4.5,-0.4,1024,1024,1024,1024,0,0,0,0,66,4.945,77.54,162.729664,P-GPS,,49.6
501800,2026-01-09 20:15:13,0.0,5,7.43,0.0,0.0,0.0,21.2,4.6,-0.3,1024,1024,1024,1024,0,0,0,0,66,4.945,77.54,162.729664,P-GPS,,49.6
501900,2026-01-09 20:15:13,0.0,5,7.43,0.0,0.0,0.0,21.1,4.5,-0.3,1024,1024,1024,1024,0,0,0,0,66,4.945,77.54,162.729664,P-GPS,,49.6
502000,2026-01-09 20:15:13,0.0,5,7.43,0.0,0.0,0.0,21.1,4.6,-0.3,1024,1024,1024,1024,0,0,0,0,66,4.945,77.54,162.729664,P-GPS,,49.6
502100,2026-01-09 20:15:14,0.0,5,7.43,0.0,0.0,0.0,21.1,4.4,-0.2,1024,1024,1024,1024,0,0,0,0,66,4.945,77.54,162.729664,P-GPS,,49.6
502200,2026-01-09 20:15:14,0.0,5,7.43,0.0,0.0,0.0,21.2,4.4,-0.1,1024,1024,1024,1024,0,0,0,0,66,4.945,77.54,162.729664,P-GPS,,49.6
502300,2026-01-09 20:15:14,0.0,5,7.43,0.0,0.0,0.0,21.3,4.4,-0.2,1024,1024,1024,1024,0,0,0,0,66,4.945,77.54,163.057748,P-GPS,,49.7
502400,2026-01-09 20:15:14,0.0,5,7.43,0.0,0.0,0.0,21.3,4.7,-0.5,1024,1024,1024,1024,0,0,0,0,66,4.945,77.54,163.057748,P-GPS,,49.7
502500,2026-01-09 20:15:14,0.0,5,7.43,0.0,0.0,0.0,21.3,4.8,-0.9,1024,1024,1024,1024,0,0,0,0,66,4.945,77.54,163.057748,P-GPS,,49.7
502600,2026-01-09 20:15:14,0.0,5,7.43,0.0,0.0,0.0,21.2,4.9,-1.3,1024,1024,1024,1024,0,0,0,0,66,4.945,77.54,163.057748,P-GPS,,49.7
502700,2026-01-09 20:15:14,0.0,5,7.43,0.0,0.0,0.0,21.2,4.9,-1.2,1024,1024,1024,1024,0,0,0,0,66,4.945,77.54,163.057748,P-GPS,,49.7
502800,2026-01-09 20:15:14,0.0,5,7.43,0.0,0.0,0.0,21.1,5.0,-1.1,1024,1024,1024,1024,0,0,0,0,66,4.945,77.54,163.057748,P-GPS,,49.7
502900,2026-01-09 20:15:14,0.0,5,7.43,0.0,0.0,0.0,21.1,4.9,-0.9,1024,1024,1024,1024,0,0,0,0,66,4.945,77.54,163.057748,P-GPS,,49.7
503000,2026-01-09 20:15:15,0.0,5,7.43,0.0,0.0,0.0,21.2,4.9,-0.5,1024,1024,1024,1024,0,0,0,0,66,4.945,77.54,163.057748,P-GPS,,49.7
503100,2026-01-09 20:15:15,0.0,5,7.43,0.0,0.0,0.0,21.2,5.0,-0.3,1024,1024,1024,1024,0,0,0,0,66,4.945,77.54,163.057748,P-GPS,,49.7
503200,2026-01-09 20:15:15,0.0,5,7.43,0.0,0.0,0.0,21.2,5.2,-0.2,1024,1024,1024,1024,0,0,0,0,66,4.945,77.54,163.057748,P-GPS,,49.7
503300,2026-01-09 20:15:15,0.0,5,7.43,0.0,0.0,0.0,21.2,5.2,-0.2,1024,1024,1024,1024,0,0,0,0,66,4.945,77.54,163.057748,P-GPS,,49.7
503400,2026-01-09 20:15:15,0.0,5,7.433,0.0,0.0,0.0,21.1,5.3,-0.3,1024,1024,1024,1024,0,0,0,0,66,4.848,77.54,163.057748,P-GPS,,49.7
503500,2026-01-09 20:15:15,0.0,5,7.433,0.0,0.0,0.0,21.1,5.1,-0.3,1024,1024,1024,1024,0,0,0,0,66,4.848,77.54,163.057748,P-GPS,,49.7
503600,2026-01-09 20:15:15,0.0,5,7.433,0.0,0.0,0.0,21.2,5.2,-0.2,1024,1024,1024,1024,0,0,0,0,66,4.848,77.54,163.057748,P-GPS,,49.7
503700,2026-01-09 20:15:15,0.0,5,7.433,0.0,0.0,0.0,21.1,5.3,-0.3,1024,1024,1024,1024,0,0,0,0,66,4.848,77.54,163.057748,P-GPS,,49.7
503800,2026-01-09 20:15:15,0.0,5,7.433,0.0,0.0,0.0,21.1,5.2,-0.2,1024,1024,1024,1024,0,0,0,0,66,4.848,77.54,163.057748,P-GPS,,49.7
503900,2026-01-09 20:15:15,0.0,5,7.433,0.0,0.0,0.0,21.2,4.9,0.0,1024,1024,1024,1024,0,0,0,0,66,4.848,77.54,163.057748,P-GPS,,49.7
504000,2026-01-09 20:15:15,0.0,5,7.433,0.0,0.0,0.0,21.2,4.9,-0.2,1024,1024,1024,1024,0,0,0,0,66,4.848,77.54,163.057748,P-GPS,,49.7
504100,2026-01-09 20:15:16,0.0,5,7.433,0.0,0.0,0.0,21.2,5.1,-0.3,1024,1024,1024,1024,0,0,0,0,66,4.848,77.54,163.057748,P-GPS,,49.7
504200,2026-01-09 20:15:16,0.0,5,7.433,0.0,0.0,0.0,21.2,5.2,-0.5,1024,1024,1024,1024,0,0,0,0,66,4.848,77.54,163.057748,P-GPS,,49.7
504300,2026-01-09 20:15:16,0.0,5,7.433,0.0,0.0,0.0,21.2,5.1,-0.6,1024,1024,1024,1024,0,0,0,0,66,4.848,77.54,163.057748,P-GPS,,49.7
504400,2026-01-09 20:15:16,0.0,5,7.433,0.0,0.0,0.0,21.2,5.2,-0.6,1024,1024,1024,1024,0,0,0,0,65,4.848,77.54,163.057748,P-GPS,,49.7
504500,2026-01-09 20:15:16,0.0,5,7.433,0.0,0.0,0.0,21.1,4.8,-0.6,1024,1024,1024,1024,0,0,0,0,65,4.848,77.54,163.057748,P-GPS,,49.7
504600,2026-01-09 20:15:16,0.0,5,7.438,0.0,0.0,0.0,21.1,4.9,-0.6,1024,1024,1024,1024,0,0,0,0,65,4.726,77.54,163.057748,P-GPS,,49.7
504700,2026-01-09 20:15:16,0.0,5,7.438,0.0,0.0,0.0,21.1,4.8,-0.5,1024,1024,1024,1024,0,0,0,0,65,4.726,77.54,163.057748,P-GPS,,49.7
504800,2026-01-09 20:15:16,0.0,5,7.438,0.0,0.0,0.0,21.2,4.9,-0.3,1024,1024,1024,1024,0,0,0,0,65,4.726,77.54,163.057748,P-GPS,,49.7
504900,2026-01-09 20:15:16,0.0,5,7.438,0.0,0.0,0.0,21.1,4.9,-0.3,1024,1024,1024,1024,0,0,0,0,65,4.726,77.54,163.057748,P-GPS,,49.7
505000,2026-01-09 20:15:17,0.0,5,7.438,0.0,0.0,0.0,21.1,5.0,-0.3,1024,1024,1024,1024,0,0,0,0,65,4.726,77.54,163.057748,P-GPS,,49.7
505100,2026-01-09 20:15:17,0.0,5,7.438,0.0,0.0,0.0,21.1,4.9,-0.2,1024,1024,1024,1024,0,0,0,0,65,4.726,77.54,163.057748,P-GPS,,49.7
505200,2026-01-09 20:15:17,0.0,5,7.438,0.0,0.0,0.0,21.1,5.0,-0.2,1024,1024,1024,1024,0,0,0,0,65,4.726,77.54,163.057748,P-GPS,,49.7
505300,2026-01-09 20:15:17,0.0,5,7.438,0.0,0.0,0.0,21.1,5.0,-0.4,1024,1024,1024,1024,0,0,0,0,65,4.726,77.54,163.057748,P-GPS,,49.7
505400,2026-01-09 20:15:17,0.0,5,7.438,0.0,0.0,0.0,21.1,5.1,-0.5,1024,1024,1024,1024,0,0,0,0,65,4.726,77.54,163.057748,P-GPS,,49.7
505500,2026-01-09 20:15:17,0.0,5,7.438,0.0,0.0,0.0,21.1,5.2,-0.3,1024,1024,1024,1024,0,0,0,0,65,4.726,77.54,163.057748,P-GPS,,49.7
505600,2026-01-09 20:15:17,0.0,5,7.438,0.0,0.0,0.0,21.0,5.2,-0.2,1024,1024,1024,1024,0,0,0,0,65,4.726,77.54,163.057748,P-GPS,,49.7
505700,2026-01-09 20:15:17,0.0,5,7.436,0.0,0.0,0.0,21.1,4.9,-0.1,1024,1024,1024,1024,0,0,0,0,65,4.732,77.54,163.057748,P-GPS,,49.7
505800,2026-01-09 20:15:17,0.0,5,7.436,0.0,0.0,0.0,21.1,4.8,-0.1,1024,1024,1024,1024,0,0,0,0,65,4.732,77.54,163.057748,P-GPS,,49.7
505900,2026-01-09 20:15:17,0.0,5,7.436,0.0,0.0,0.0,21.1,4.7,0.0,1024,1024,1024,1024,0,0,0,0,65,4.732,77.54,163.057748,P-GPS,,49.7
506000,2026-01-09 20:15:18,0.0,5,7.436,0.0,0.0,0.0,21.1,4.8,0.0,1024,1024,1024,1024,0,0,0,0,65,4.732,77.54,163.057748,P-GPS,,49.7
506100,2026-01-09 20:15:18,0.0,5,7.436,0.0,0.0,0.0,21.1,4.8,0.1,1024,1024,1024,1024,0,0,0,0,65,4.732,77.54,163.057748,P-GPS,,49.7
506200,2026-01-09 20:15:18,0.0,5,7.436,0.0,0.0,0.0,21.1,5.1,0.0,1024,1024,1024,1024,0,0,0,0,65,4.732,77.54,163.057748,P-GPS,,49.7
506300,2026-01-09 20:15:18,0.0,5,7.436,0.0,0.0,0.0,21.1,5.2,0.0,1024,1024,1024,1024,0,0,0,0,65,4.732,77.54,163.057748,P-GPS,,49.7
506400,2026-01-09 20:15:18,0.0,5,7.436,0.0,0.0,0.0,21.1,5.1,0.0,1024,1024,1024,1024,0,0,0,0,65,4.732,77.54,163.057748,P-GPS,,49.7
506500,2026-01-09 20:15:18,0.0,5,7.436,0.0,0.0,0.0,21.1,5.0,0.0,1024,1024,1024,1024,0,0,0,0,65,4.732,77.54,163.057748,P-GPS,,49.7
506600,2026-01-09 20:15:18,0.0,5,7.436,0.0,0.0,0.0,21.1,4.9,0.0,1024,1024,1024,1024,0,0,0,0,65,4.732,77.54,163.057748,P-GPS,,49.7
506700,2026-01-09 20:15:18,0.0,5,7.436,0.0,0.0,0.0,21.1,5.0,0.1,1024,1024,1024,1024,0,0,0,0,65,4.732,77.54,163.057748,P-GPS,,49.7
506800,2026-01-09 20:15:18,0.0,5,7.434,0.0,0.0,0.0,21.2,5.0,-0.1,1024,1024,1024,1024,0,0,0,0,65,4.769,77.54,163.057748,P-GPS,,49.7
506900,2026-01-09 20:15:18,0.0,5,7.434,0.0,0.0,0.0,21.2,5.1,-0.3,1024,1024,1024,1024,0,0,0,0,65,4.769,77.54,163.057748,P-GPS,,49.7
507000,2026-01-09 20:15:18,0.0,5,7.434,0.0,0.0,0.0,21.1,5.1,-0.3,1024,1024,1024,1024,0,0,0,0,65,4.769,77.54,163.057748,P-GPS,,49.7
507100,2026-01-09 20:15:19,0.0,5,7.434,0.0,0.0,0.0,21.1,5.2,-0.4,1024,1024,1024,1024,0,0,0,0,65,4.769,77.54,163.057748,P-GPS,,49.7
507200,2026-01-09 20:15:19,0.0,5,7.434,0.0,0.0,0.0,21.1,5.1,-0.4,1024,1024,1024,1024,0,0,0,0,65,4.769,77.54,163.057748,P-GPS,,49.7
507300,2026-01-09 20:15:19,0.0,5,7.434,0.0,0.0,0.0,21.1,5.0,-0.3,1024,1024,1024,1024,0,0,0,0,65,4.769,77.54,163.057748,P-GPS,,49.7
507400,2026-01-09 20:15:19,0.0,5,7.434,0.0,0.0,0.0,21.2,4.9,-0.3,1024,1024,1024,1024,0,0,0,0,65,4.769,77.54,163.057748,P-GPS,,49.7
507500,2026-01-09 20:15:19,0.0,5,7.434,0.0,0.0,0.0,21.2,4.7,-0.3,1024,1024,1024,1024,0,0,0,0,65,4.769,77.54,163.057748,P-GPS,,49.7
507600,2026-01-09 20:15:19,0.0,5,7.434,0.0,0.0,0.0,21.1,4.7,-0.2,1024,1024,1024,1024,0,0,0,0,65,4.769,77.54,163.057748,P-GPS,,49.7
507700,2026-01-09 20:15:19,0.0,5,7.434,0.0,0.0,0.0,21.2,4.8,-0.1,1024,1024,1024,1024,0,0,0,0,65,4.769,77.54,163.057748,P-GPS,,49.7
507800,2026-01-09 20:15:19,0.0,5,7.434,0.0,0.0,0.0,21.2,4.9,-0.2,1024,1024,1024,1024,0,0,0,0,65,4.769,77.54,163.057748,P-GPS,,49.7
507900,2026-01-09 20:15:19,0.0,5,7.438,0.0,0.0,0.0,21.2,5.1,0.0,1024,1024,1024,1024,0,0,0,0,65,4.76,77.54,163.057748,P-GPS,,49.7
508000,2026-01-09 20:15:20,0.0,5,7.438,0.0,0.0,0.0,21.2,5.2,0.0,1024,1024,1024,1024,0,0,0,0,65,4.76,77.54,163.057748,P-GPS,,49.7
508100,2026-01-09 20:15:20,0.0,5,7.438,0.0,0.0,0.0,21.1,5.2,-0.1,1024,1024,1024,1024,0,0,0,0,65,4.76,77.54,163.057748,P-GPS,,49.7
508200,2026-01-09 20:15:20,0.0,5,7.438,0.0,0.0,0.0,21.1,5.2,-0.1,1024,1024,1024,1024,0,0,0,0,65,4.76,77.54,163.057748,P-GPS,,49.7
508300,2026-01-09 20:15:20,0.0,5,7.438,0.0,0.0,0.0,21.1,5.0,-0.1,1024,1024,1024,1024,0,0,0,0,65,4.76,77.54,162.729664,P-GPS,,49.6
508400,2026-01-09 20:15:20,0.0,5,7.438,0.0,0.0,0.0,21.1,5.0,-0.1,1024,1024,1024,1024,0,0,0,0,65,4.76,77.54,162.729664,P-GPS,,49.6
508500,2026-01-09 20:15:20,0.0,5,7.438,0.0,0.0,0.0,21.1,4.9,-0.1,1024,1024,1024,1024,0,0,0,0,65,4.76,77.54,162.729664,P-GPS,,49.6
508600,2026-01-09 20:15:20,0.0,5,7.438,0.0,0.0,0.0,21.2,5.0,-0.1,1024,1024,1024,1024,0,0,0,0,65,4.76,77.54,162.729664,P-GPS,,49.6
508700,2026-01-09 20:15:20,0.0,5,7.438,0.0,0.0,0.0,21.2,5.0,-0.3,1024,1024,1024,1024,0,0,0,0,65,4.76,77.54,162.729664,P-GPS,,49.6
508800,2026-01-09 20:15:20,0.0,5,7.438,0.0,0.0,0.0,21.2,5.0,-0.4,1024,1024,1024,1024,0,0,0,0,65,4.76,77.54,162.729664,P-GPS,,49.6
508900,2026-01-09 20:15:20,0.0,5,7.438,0.0,0.0,0.0,21.2,5.1,-0.4,1024,1024,1024,1024,0,0,0,0,65,4.76,77.54,162.729664,P-GPS,,49.6
509000,2026-01-09 20:15:21,0.0,5,7.439,0.0,0.0,0.0,21.1,5.3,-0.3,1024,1024,1024,1024,0,0,0,0,65,4.74,77.54,162.729664,P-GPS,,49.6
509100,2026-01-09 20:15:21,0.0,5,7.439,0.0,0.0,0.0,21.2,5.4,-0.3,1024,1024,1024,1024,0,0,0,0,65,4.74,77.54,162.729664,P-GPS,,49.6
509200,2026-01-09 20:15:21,0.0,5,7.439,0.0,0.0,0.0,21.1,5.5,-0.2,1024,1024,1024,1024,0,0,0,0,65,4.74,77.54,162.729664,P-GPS,,49.6
509300,2026-01-09 20:15:21,0.0,5,7.439,0.0,0.0,0.0,21.2,5.7,-0.1,1024,1024,1024,1024,0,0,0,0,65,4.74,77.54,162.729664,P-GPS,,49.6
509400,2026-01-09 20:15:21,0.0,5,7.439,0.0,0.0,0.0,21.2,5.5,-0.3,1024,1024,1024,1024,0,0,0,0,65,4.74,77.54,162.729664,P-GPS,,49.6
509500,2026-01-09 20:15:21,0.0,5,7.439,0.0,0.0,0.0,21.1,5.4,-0.1,1024,1024,1024,1024,0,0,0,0,65,4.74,77.54,162.729664,P-GPS,,49.6
509600,2026-01-09 20:15:21,0.0,5,7.439,0.0,0.0,0.0,21.2,5.3,-0.1,1024,1024,1024,1024,0,0,0,0,65,4.74,77.54,162.729664,P-GPS,,49.6
509700,2026-01-09 20:15:21,0.0,5,7.439,0.0,0.0,0.0,21.2,5.3,-0.1,1024,1024,1024,1024,0,0,0,0,65,4.74,77.54,162.729664,P-GPS,,49.6
509800,2026-01-09 20:15:21,0.0,5,7.439,0.0,0.0,0.0,21.2,5.5,-0.1,1024,1024,1024,1024,0,0,0,0,65,4.74,77.54,162.729664,P-GPS,,49.6
509900,2026-01-09 20:15:21,0.0,5,7.439,0.0,0.0,0.0,21.2,5.1,-0.3,1024,1024,1024,1024,0,0,0,0,65,4.74,77.54,162.729664,P-GPS,,49.6
510000,2026-01-09 20:15:21,0.0,5,7.439,0.0,0.0,0.0,21.2,5.2,-0.6,1024,1024,1024,1024,0,0,0,0,65,4.74,77.54,162.729664,P-GPS,,49.6
510100,2026-01-09 20:15:22,0.0,5,7.437,0.0,0.0,0.0,21.2,5.1,-0.5,1024,1024,1024,1024,0,0,0,0,65,4.727,77.54,162.729664,P-GPS,,49.6
510200,2026-01-09 20:15:22,0.0,5,7.437,0.0,0.0,0.0,21.2,5.2,-0.4,1024,1024,1024,1024,0,0,0,0,65,4.727,77.54,162.40158,P-GPS,,49.5
510300,2026-01-09 20:15:22,0.0,5,7.437,0.0,0.0,0.0,21.2,5.1,-0.4,1024,1024,1024,1024,0,0,0,0,65,4.727,77.54,162.40158,P-GPS,,49.5
510400,2026-01-09 20:15:22,0.0,5,7.437,0.0,0.0,0.0,21.2,5.2,-0.4,1024,1024,1024,1024,0,0,0,0,65,4.727,77.54,162.40158,P-GPS,,49.5
510500,2026-01-09 20:15:22,0.0,5,7.437,0.0,0.0,0.0,21.1,5.3,-0.5,1024,1024,1024,1024,0,0,0,0,65,4.727,77.54,162.40158,P-GPS,,49.5
510600,2026-01-09 20:15:22,0.0,5,7.437,0.0,0.0,0.0,21.0,5.5,-0.5,1024,1024,1024,1024,0,0,0,0,65,4.727,77.54,162.40158,P-GPS,,49.5
510700,2026-01-09 20:15:22,0.0,5,7.437,0.0,0.0,0.0,21.0,5.4,-0.4,1024,1024,1024,1024,0,0,0,0,65,4.727,77.54,162.40158,P-GPS,,49.5
510800,2026-01-09 20:15:22,0.0,5,7.437,0.0,0.0,0.0,21.1,5.5,0.0,1024,1024,1024,1024,0,0,0,0,65,4.727,77.54,162.40158,P-GPS,,49.5
510900,2026-01-09 20:15:22,0.0,5,7.437,0.0,0.0,0.0,21.1,5.2,-0.1,1024,1024,1024,1024,0,0,0,0,65,4.727,77.54,162.40158,P-GPS,,49.5
511000,2026-01-09 20:15:23,0.0,5,7.437,0.0,0.0,0.0,21.2,5.2,0.0,1024,1024,1024,1024,0,0,0,0,65,4.727,77.54,162.40158,P-GPS,,49.5
511100,2026-01-09 20:15:23,0.0,5,7.437,0.0,0.0,0.0,21.2,5.3,-0.1,1024,1024,1024,1024,0,0,0,0,65,4.727,77.54,162.40158,P-GPS,,49.5
511200,2026-01-09 20:15:23,0.0,5,7.435,0.0,0.0,0.0,21.1,5.9,-0.4,1024,1024,1024,1024,0,0,0,0,65,4.731,77.54,162.073496,P-GPS,,49.4
511300,2026-01-09 20:15:23,0.0,5,7.435,0.0,0.0,0.0,21.1,6.2,-0.4,1024,1024,1024,1024,0,0,0,0,65,4.731,77.54,162.073496,P-GPS,,49.4
511400,2026-01-09 20:15:23,0.0,5,7.435,0.0,0.0,0.0,21.0,6.1,-0.4,1024,1024,1024,1024,0,0,0,0,65,4.731,77.54,162.073496,P-GPS,,49.4
511500,2026-01-09 20:15:23,0.0,5,7.435,0.0,0.0,0.0,21.0,6.3,-0.3,1024,1024,1024,1024,0,0,0,0,65,4.731,77.54,162.073496,P-GPS,,49.4
511600,2026-01-09 20:15:23,0.0,5,7.435,0.0,0.0,0.0,21.0,6.3,-0.5,1024,1024,1024,1024,0,0,0,0,65,4.731,77.54,162.073496,P-GPS,,49.4
511700,2026-01-09 20:15:23,0.0,5,7.435,0.0,0.0,0.0,21.1,6.0,-0.9,1024,1024,1024,1024,0,0,0,0,65,4.731,77.54,162.073496,P-GPS,,49.4
511800,2026-01-09 20:15:23,0.0,5,7.435,0.0,0.0,0.0,21.1,5.8,-1.3,1024,1024,1024,1024,0,0,0,0,65,4.731,77.54,162.073496,P-GPS,,49.4
511900,2026-01-09 20:15:23,0.0,5,7.435,0.0,0.0,0.0,21.1,5.7,-1.3,1024,1024,1024,1024,0,0,0,0,65,4.731,77.54,162.073496,P-GPS,,49.4
512000,2026-01-09 20:15:23,0.0,5,7.435,0.0,0.0,0.0,21.2,5.6,-1.2,1024,1024,1024,1024,0,0,0,0,65,4.731,77.54,162.073496,P-GPS,,49.4
512100,2026-01-09 20:15:24,0.0,5,7.435,0.0,0.0,0.0,21.2,5.4,-1.1,1024,1024,1024,1024,0,0,0,0,65,4.731,77.54,162.073496,P-GPS,,49.4
512200,2026-01-09 20:15:24,0.0,5,7.435,0.0,0.0,0.0,21.2,5.3,-1.1,1024,1024,1024,1024,0,0,0,0,65,4.731,77.54,162.073496,P-GPS,,49.4
512300,2026-01-09 20:15:24,0.0,5,7.43,0.0,0.0,0.0,21.1,5.2,-1.0,1024,1024,1024,1024,0,0,0,0,65,4.864,77.54,162.073496,P-GPS,,49.4
512400,2026-01-09 20:15:24,0.0,5,7.43,0.0,0.0,0.0,21.1,5.2,-1.0,1024,1024,1024,1024,0,0,0,0,65,4.864,77.54,162.073496,P-GPS,,49.4
512500,2026-01-09 20:15:24,0.0,5,7.43,0.0,0.0,0.0,21.1,5.0,-1.0,1024,1024,1024,1024,0,0,0,0,65,4.864,77.54,162.073496,P-GPS,,49.4
512600,2026-01-09 20:15:24,0.0,5,7.43,0.0,0.0,0.0,21.1,5.0,-0.7,1024,1024,1024,1024,0,0,0,0,65,4.864,77.54,162.073496,P-GPS,,49.4
512700,2026-01-09 20:15:24,0.0,5,7.43,0.0,0.0,0.0,21.1,5.1,-0.6,1024,1024,1024,1024,0,0,0,0,65,4.864,77.54,162.073496,P-GPS,,49.4
512800,2026-01-09 20:15:24,0.0,5,7.43,0.0,0.0,0.0,21.0,5.3,-0.5,1024,1024,1024,1024,0,0,0,0,65,4.864,77.54,162.073496,P-GPS,,49.4
512900,2026-01-09 20:15:24,0.0,5,7.43,0.0,0.0,0.0,21.1,5.1,-0.4,1024,1024,1024,1024,0,0,0,0,65,4.864,77.54,162.073496,P-GPS,,49.4
513000,2026-01-09 20:15:25,0.0,5,7.43,0.0,0.0,0.0,21.2,5.5,-0.8,1024,1024,1024,1024,0,0,0,0,65,4.864,77.54,162.073496,P-GPS,,49.4
513100,2026-01-09 20:15:25,0.0,5,7.43,0.0,0.0,0.0,21.2,5.5,-0.8,1024,1024,1024,1024,0,0,0,0,65,4.864,77.54,162.073496,P-GPS,,49.4
513200,2026-01-09 20:15:25,0.0,5,7.43,0.0,0.0,0.0,21.2,5.6,-0.8,1024,1024,1024,1024,0,0,0,0,65,4.864,77.54,162.073496,P-GPS,,49.4
513300,2026-01-09 20:15:25,0.0,5,7.43,0.0,0.0,0.0,21.3,5.7,-0.6,1024,1024,1024,1024,0,0,0,0,65,4.864,77.54,162.073496,P-GPS,,49.4
513400,2026-01-09 20:15:25,0.0,5,7.43,0.0,0.0,0.0,21.2,5.8,-0.8,1024,1024,1024,1024,0,0,0,0,65,4.864,77.54,162.073496,P-GPS,,49.4
513500,2026-01-09 20:15:25,0.0,5,7.43,0.0,0.0,0.0,21.1,6.2,-1.0,1024,1024,1024,1024,0,0,0,0,65,4.864,77.54,162.073496,P-GPS,,49.4
513600,2026-01-09 20:15:25,0.0,5,7.43,0.0,0.0,0.0,21.1,6.0,-1.0,1024,1024,1024,1024,0,0,0,0,65,4.864,77.54,162.073496,P-GPS,,49.4
513700,2026-01-09 20:15:25,0.0,5,7.43,0.0,0.0,0.0,21.1,6.0,-0.9,1024,1024,1024,1024,0,0,0,0,65,4.864,77.54,162.073496,P-GPS,,49.4
513800,2026-01-09 20:15:25,0.0,5,7.43,0.0,0.0,0.0,21.1,5.8,-0.6,1024,1024,1024,1024,0,0,0,0,65,4.864,77.54,162.073496,P-GPS,,49.4
513900,2026-01-09 20:15:25,0.0,5,7.43,0.0,0.0,0.0,21.0,5.6,-0.6,1024,1024,1024,1024,0,0,0,0,65,4.864,77.54,162.073496,P-GPS,,49.4
514000,2026-01-09 20:15:25,0.0,5,7.43,0.0,0.0,0.0,21.0,5.6,-0.4,1024,1024,1024,1024,0,0,0,0,65,4.864,77.54,162.073496,P-GPS,,49.4
514100,2026-01-09 20:15:26,0.0,5,7.43,0.0,0.0,0.0,21.0,5.4,-0.2,1024,1024,1024,1024,0,0,0,0,65,4.864,77.54,162.073496,P-GPS,,49.4
514200,2026-01-09 20:15:26,0.0,5,7.43,0.0,0.0,0.0,21.0,5.2,-0.3,1024,1024,1024,1024,0,0,0,0,65,4.864,77.54,162.073496,P-GPS,,49.4
514300,2026-01-09 20:15:26,0.0,5,7.43,0.0,0.0,0.0,21.1,5.4,-0.1,1024,1024,1024,1024,0,0,0,0,65,4.864,77.54,162.073496,P-GPS,,49.4
514400,2026-01-09 20:15:26,0.0,5,7.44,0.0,0.0,0.0,21.2,5.2,-0.4,1024,1024,1024,1024,0,0,0,0,65,4.728,77.54,162.073496,P-GPS,,49.4
514500,2026-01-09 20:15:26,0.0,5,7.44,0.0,0.0,0.0,21.2,5.3,-0.8,1024,1024,1024,1024,0,0,0,0,65,4.728,77.54,162.073496,P-GPS,,49.4
514600,2026-01-09 20:15:26,0.0,5,7.44,0.0,0.0,0.0,21.2,5.3,-0.9,1024,1024,1024,1024,0,0,0,0,65,4.728,77.54,162.073496,P-GPS,,49.4
514700,2026-01-09 20:15:26,0.0,5,7.44,0.0,0.0,0.0,21.2,5.2,-1.2,1024,1024,1024,1024,0,0,0,0,65,4.728,77.54,162.073496,P-GPS,,49.4
514800,2026-01-09 20:15:26,0.0,5,7.44,0.0,0.0,0.0,21.3,5.1,-1.4,1024,1024,1024,1024,0,0,0,0,65,4.728,77.54,162.073496,P-GPS,,49.4
514900,2026-01-09 20:15:26,0.0,5,7.44,0.0,0.0,0.0,21.2,5.5,-1.5,1024,1024,1024,1024,0,0,0,0,65,4.728,77.54,161.745412,P-GPS,,49.3
515000,2026-01-09 20:15:26,0.0,5,7.44,0.0,0.0,0.0,21.1,5.9,-1.3,1024,1024,1024,1024,0,0,0,0,65,4.728,77.54,161.745412,P-GPS,,49.3
515100,2026-01-09 20:15:27,0.0,5,7.44,0.0,0.0,0.0,21.1,5.9,-1.1,1024,1024,1024,1024,0,0,0,0,65,4.728,77.54,161.745412,P-GPS,,49.3
515200,2026-01-09 20:15:27,0.0,5,7.44,0.0,0.0,0.0,21.1,5.8,-0.9,1024,1024,1024,1024,0,0,0,0,65,4.728,77.54,161.745412,P-GPS,,49.3
515300,2026-01-09 20:15:27,0.0,5,7.44,0.0,0.0,0.0,21.1,5.7,-0.8,1024,1024,1024,1024,0,0,0,0,65,4.728,77.54,161.745412,P-GPS,,49.3
515400,2026-01-09 20:15:27,0.0,5,7.44,0.0,0.0,0.0,21.1,5.7,-0.8,1024,1024,1024,1024,0,0,0,0,65,4.728,77.54,161.745412,P-GPS,,49.3
515500,2026-01-09 20:15:27,0.0,5,7.44,0.0,0.0,0.0,21.0,5.6,-0.8,1024,1024,1024,1024,0,0,0,0,65,4.728,77.54,161.745412,P-GPS,,49.3
515600,2026-01-09 20:15:27,0.0,5,7.431,0.0,0.0,0.0,21.0,5.5,-0.9,1024,1024,1024,1024,0,0,0,0,65,4.717,77.72,161.745412,P-GPS,,49.3
515700,2026-01-09 20:15:27,0.0,5,7.431,0.0,0.0,0.0,21.0,5.4,-0.7,1024,1024,1024,1024,0,0,0,0,65,4.717,77.72,161.745412,P-GPS,,49.3
515800,2026-01-09 20:15:27,0.0,5,7.431,0.0,0.0,0.0,21.1,5.4,-0.7,1024,1024,1024,1024,0,0,0,0,65,4.717,77.72,161.745412,P-GPS,,49.3
515900,2026-01-09 20:15:27,0.0,5,7.431,0.0,0.0,0.0,21.1,5.3,-0.5,1024,1024,1024,1024,0,0,0,0,65,4.717,77.72,161.745412,P-GPS,,49.3
516000,2026-01-09 20:15:28,0.0,5,7.431,0.0,0.0,0.0,21.1,5.4,-0.6,1024,1024,1024,1024,0,0,0,0,65,4.717,77.72,161.745412,P-GPS,,49.3
516100,2026-01-09 20:15:28,0.0,5,7.431,0.0,0.0,0.0,21.1,5.4,-0.6,1024,1024,1024,1024,0,0,0,0,65,4.717,77.72,161.745412,P-GPS,,49.3
516200,2026-01-09 20:15:28,0.0,5,7.431,0.0,0.0,0.0,21.1,5.6,-0.8,1024,1024,1024,1024,0,0,0,0,65,4.717,77.72,161.745412,P-GPS,,49.3
516300,2026-01-09 20:15:28,0.0,5,7.431,0.0,0.0,0.0,21.1,5.8,-1.1,1024,1024,1024,1024,0,0,0,0,65,4.717,77.72,161.745412,P-GPS,,49.3
516400,2026-01-09 20:15:28,0.0,5,7.431,0.0,0.0,0.0,21.0,5.8,-1.2,1024,1024,1024,1024,0,0,0,0,65,4.717,77.72,161.745412,P-GPS,,49.3
516500,2026-01-09 20:15:28,0.0,5,7.431,0.0,0.0,0.0,21.0,5.7,-1.0,1024,1024,1024,1024,0,0,0,0,65,4.717,77.72,161.745412,P-GPS,,49.3
516600,2026-01-09 20:15:28,0.0,5,7.431,0.0,0.0,0.0,21.0,5.6,-0.9,1024,1024,1024,1024,0,0,0,0,65,4.717,77.72,161.745412,P-GPS,,49.3
516700,2026-01-09 20:15:28,0.0,5,7.43,0.0,0.0,0.0,21.0,5.3,-0.7,1024,1024,1024,1024,0,0,0,0,64,4.755,77.72,162.073496,P-GPS,,49.4
516800,2026-01-09 20:15:28,0.0,5,7.43,0.0,0.0,0.0,21.1,5.4,-0.8,1024,1024,1024,1024,0,0,0,0,64,4.755,77.72,162.073496,P-GPS,,49.4
516900,2026-01-09 20:15:28,0.0,5,7.43,0.0,0.0,0.0,21.0,5.4,-0.7,1024,1024,1024,1024,0,0,0,0,64,4.755,77.72,162.073496,P-GPS,,49.4
517000,2026-01-09 20:15:28,0.0,5,7.43,0.0,0.0,0.0,21.0,5.4,-0.6,1024,1024,1024,1024,0,0,0,0,64,4.755,77.72,162.073496,P-GPS,,49.4
517100,2026-01-09 20:15:29,0.0,5,7.43,0.0,0.0,0.0,21.1,5.3,-0.5,1024,1024,1024,1024,0,0,0,0,64,4.755,77.72,162.073496,P-GPS,,49.4
517200,2026-01-09 20:15:29,0.0,5,7.43,0.0,0.0,0.0,21.1,5.1,-0.6,1024,1024,1024,1024,0,0,0,0,64,4.755,77.72,162.073496,P-GPS,,49.4
517300,2026-01-09 20:15:29,0.0,5,7.43,0.0,0.0,0.0,21.1,5.1,-0.8,1024,1024,1024,1024,0,0,0,0,64,4.755,77.72,162.073496,P-GPS,,49.4
517400,2026-01-09 20:15:29,0.0,5,7.43,0.0,0.0,0.0,21.1,5.2,-1.0,1024,1024,1024,1024,0,0,0,0,64,4.755,77.72,162.073496,P-GPS,,49.4
517500,2026-01-09 20:15:29,0.0,5,7.43,0.0,0.0,0.0,21.1,5.3,-1.0,1024,1024,1024,1024,0,0,0,0,64,4.755,77.72,162.073496,P-GPS,,49.4
517600,2026-01-09 20:15:29,0.0,5,7.43,0.0,0.0,0.0,21.0,5.5,-1.1,1024,1024,1024,1024,0,0,0,0,64,4.755,77.72,162.073496,P-GPS,,49.4
517700,2026-01-09 20:15:29,0.0,5,7.43,0.0,0.0,0.0,21.0,5.4,-1.3,1024,1024,1024,1024,0,0,0,0,64,4.755,77.72,162.073496,P-GPS,,49.4
517800,2026-01-09 20:15:29,0.0,5,7.429,0.0,0.0,0.0,21.0,5.5,-1.1,1024,1024,1024,1024,0,0,0,0,64,4.803,77.72,162.073496,P-GPS,,49.4
517900,2026-01-09 20:15:29,0.0,5,7.429,0.0,0.0,0.0,21.0,5.4,-1.0,1024,1024,1024,1024,0,0,0,0,64,4.803,77.72,162.073496,P-GPS,,49.4
518000,2026-01-09 20:15:30,0.0,5,7.429,0.0,0.0,0.0,21.0,5.5,-1.0,1024,1024,1024,1024,0,0,0,0,64,4.803,77.72,162.073496,P-GPS,,49.4
518100,2026-01-09 20:15:30,0.0,5,7.429,0.0,0.0,0.0,21.1,5.1,-0.8,1024,1024,1024,1024,0,0,0,0,64,4.803,77.72,162.073496,P-GPS,,49.4
518200,2026-01-09 20:15:30,0.0,5,7.429,0.0,0.0,0.0,21.1,5.1,-0.7,1024,1024,1024,1024,0,0,0,0,64,4.803,77.72,162.073496,P-GPS,,49.4
518300,2026-01-09 20:15:30,0.0,5,7.429,0.0,0.0,0.0,21.1,5.2,-0.7,1024,1024,1024,1024,0,0,0,0,64,4.803,77.72,162.073496,P-GPS,,49.4
518400,2026-01-09 20:15:30,0.0,5,7.429,0.0,0.0,0.0,21.1,5.4,-0.8,1024,1024,1024,1024,0,0,0,0,64,4.803,77.72,162.073496,P-GPS,,49.4
518500,2026-01-09 20:15:30,0.0,5,7.429,0.0,0.0,0.0,21.1,5.5,-1.0,1024,1024,1024,1024,0,0,0,0,64,4.803,77.72,162.073496,P-GPS,,49.4
518600,2026-01-09 20:15:30,0.0,5,7.429,0.0,0.0,0.0,21.1,5.6,-1.0,1024,1024,1024,1024,0,0,0,0,64,4.803,77.72,162.073496,P-GPS,,49.4
518700,2026-01-09 20:15:30,0.0,5,7.429,0.0,0.0,0.0,21.1,5.6,-1.1,1024,1024,1024,1024,0,0,0,0,64,4.803,77.72,162.073496,P-GPS,,49.4
518800,2026-01-09 20:15:30,0.0,5,7.429,0.0,0.0,0.0,21.0,5.6,-1.2,1024,1024,1024,1024,0,0,0,0,64,4.803,77.72,162.073496,P-GPS,,49.4
518900,2026-01-09 20:15:30,0.0,5,7.425,0.0,0.0,0.0,21.1,5.5,-1.3,1024,1024,1024,1024,0,0,0,0,64,4.864,77.72,162.073496,P-GPS,,49.4
519000,2026-01-09 20:15:30,0.0,5,7.425,0.0,0.0,0.0,21.0,5.6,-1.3,1024,1024,1024,1024,0,0,0,0,64,4.864,77.72,162.40158,P-GPS,,49.5
519100,2026-01-09 20:15:31,0.0,5,7.425,0.0,0.0,0.0,21.1,5.4,-1.3,1024,1024,1024,1024,0,0,0,0,64,4.864,77.72,162.40158,P-GPS,,49.5
519200,2026-01-09 20:15:31,0.0,5,7.425,0.0,0.0,0.0,21.1,5.6,-1.2,1024,1024,1024,1024,0,0,0,0,64,4.864,77.72,162.40158,P-GPS,,49.5
519300,2026-01-09 20:15:31,0.0,5,7.425,0.0,0.0,0.0,21.1,5.7,-1.3,1024,1024,1024,1024,0,0,0,0,64,4.864,77.72,162.40158,P-GPS,,49.5
519400,2026-01-09 20:15:31,0.0,5,7.425,0.0,0.0,0.0,21.1,5.8,-1.4,1024,1024,1024,1024,0,0,0,0,64,4.864,77.72,162.40158,P-GPS,,49.5
519500,2026-01-09 20:15:31,0.0,5,7.425,0.0,0.0,0.0,21.1,5.6,-1.4,1024,1024,1024,1024,0,0,0,0,64,4.864,77.72,162.40158,P-GPS,,49.5
519600,2026-01-09 20:15:31,0.0,5,7.425,0.0,0.0,0.0,21.1,5.7,-1.3,1024,1024,1024,1024,0,0,0,0,64,4.864,77.72,162.40158,P-GPS,,49.5
519700,2026-01-09 20:15:31,0.0,5,7.425,0.0,0.0,0.0,21.1,5.6,-1.3,1024,1024,1024,1024,0,0,0,0,64,4.864,77.72,162.40158,P-GPS,,49.5
519800,2026-01-09 20:15:31,0.0,5,7.425,0.0,0.0,0.0,21.1,5.5,-1.5,1024,1024,1024,1024,0,0,0,0,64,4.864,77.72,162.40158,P-GPS,,49.5
519900,2026-01-09 20:15:31,0.0,5,7.425,0.0,0.0,0.0,21.1,5.4,-1.6,1024,1024,1024,1024,0,0,0,0,64,4.864,77.72,162.40158,P-GPS,,49.5
520000,2026-01-09 20:15:31,0.0,5,7.424,0.0,0.0,0.0,21.0,5.5,-1.5,1024,1024,1024,1024,0,0,0,0,64,4.88,77.72,162.40158,P-GPS,,49.5
520100,2026-01-09 20:15:32,0.0,5,7.424,0.0,0.0,0.0,21.1,5.6,-1.2,1024,1024,1024,1024,0,0,0,0,64,4.88,77.72,162.40158,P-GPS,,49.5
520200,2026-01-09 20:15:32,0.0,5,7.424,0.0,0.0,0.0,21.1,5.6,-1.0,1024,1024,1024,1024,0,0,0,0,64,4.88,77.72,162.40158,P-GPS,,49.5
520300,2026-01-09 20:15:32,0.0,5,7.424,0.0,0.0,0.0,21.1,5.8,-1.1,1024,1024,1024,1024,0,0,0,0,64,4.88,77.72,162.40158,P-GPS,,49.5
520400,2026-01-09 20:15:32,0.0,5,7.424,0.0,0.0,0.0,21.1,5.9,-1.0,1024,1024,1024,1024,0,0,0,0,64,4.88,77.72,162.40158,P-GPS,,49.5
520500,2026-01-09 20:15:32,0.0,5,7.424,0.0,0.0,0.0,21.1,6.0,-0.9,1024,1024,1024,1024,0,0,0,0,64,4.88,77.72,162.729664,P-GPS,,49.6
520600,2026-01-09 20:15:32,0.0,5,7.424,0.0,0.0,0.0,21.1,5.9,-1.2,1024,1024,1024,1024,0,0,0,0,64,4.88,77.72,162.729664,P-GPS,,49.6
520700,2026-01-09 20:15:32,0.0,5,7.424,0.0,0.0,0.0,21.1,5.8,-1.6,1024,1024,1024,1024,0,0,0,0,64,4.88,77.72,162.729664,P-GPS,,49.6
520800,2026-01-09 20:15:32,0.0,5,7.424,0.0,0.0,0.0,21.1,5.6,-1.7,1024,1024,1024,1024,0,0,0,0,64,4.88,77.72,162.729664,P-GPS,,49.6
520900,2026-01-09 20:15:32,0.0,5,7.424,0.0,0.0,0.0,21.1,5.6,-1.8,1024,1024,1024,1024,0,0,0,0,64,4.88,77.72,162.729664,P-GPS,,49.6
521000,2026-01-09 20:15:33,0.0,5,7.424,0.0,0.0,0.0,21.1,5.7,-1.8,1024,1024,1024,1024,0,0,0,0,64,4.88,77.72,162.729664,P-GPS,,49.6
521100,2026-01-09 20:15:33,0.0,5,7.425,0.0,0.0,0.0,21.1,5.7,-1.7,1024,1024,1024,1024,0,0,0,0,64,4.846,77.72,162.729664,P-GPS,,49.6
521200,2026-01-09 20:15:33,0.0,5,7.425,0.0,0.0,0.0,21.1,5.7,-1.6,1024,1024,1024,1024,0,0,0,0,64,4.846,77.72,162.729664,P-GPS,,49.6
521300,2026-01-09 20:15:33,0.0,5,7.425,0.0,0.0,0.0,21.1,5.7,-1.7,1024,1024,1024,1024,0,0,0,0,64,4.846,77.72,162.729664,P-GPS,,49.6
521400,2026-01-09 20:15:33,0.0,5,7.425,0.0,0.0,0.0,21.1,5.7,-1.5,1024,1024,1024,1024,0,0,0,0,64,4.846,77.72,162.729664,P-GPS,,49.6
521500,2026-01-09 20:15:33,0.0,5,7.425,0.0,0.0,0.0,21.1,5.6,-1.3,1024,1024,692,1024,0,0,-50,0,64,4.846,77.72,162.729664,P-GPS,,49.6
521600,2026-01-09 20:15:33,0.0,5,7.425,0.0,0.0,0.0,21.1,5.8,-1.3,1024,1024,364,1024,0,0,-100,0,64,4.846,77.72,162.729664,P-GPS,,49.6
521700,2026-01-09 20:15:33,0.0,5,7.425,0.0,0.0,0.0,21.0,5.8,-1.2,1024,1024,364,1024,0,0,-100,0,64,4.846,77.72,162.729664,P-GPS,,49.6
