time(millisecond),timestamp,speed(mph),gpslevel,voltage(v),xSpeed(mph),ySpeed(mph),zSpeed(mph),compass_heading(degrees),pitch(degrees),roll(degrees),rc_elevator,rc_aileron,rc_throttle,rc_rudder,rc_elevator(percent),rc_aileron(percent),rc_throttle(percent),rc_rudder(percent),battery_percent,current(A),battery_temperature(f),ascent(feet),flycState,message,height_above_takeoff(meters)
289000,2026-01-09 12:41:53,0.223694,5,7.595,0.0,-0.223694,-4.250186,55.8,1.8,-5.5,1024,1024,1684,1024,0,0,100,0,81,6.03,72.5,26.902888,P-GPS,,8.2
289100,2026-01-09 12:41:53,0.223694,5,7.595,0.0,0.0,-4.250186,55.9,1.8,-5.9,1024,1024,1684,1024,0,0,100,0,81,6.03,72.5,27.559056,P-GPS,,8.4
289200,2026-01-09 12:41:53,0.0,5,7.595,0.0,0.0,-4.250186,55.6,3.0,-5.0,1024,1024,1684,1024,0,0,100,0,81,6.03,72.5,28.215224,P-GPS,,8.6
289300,2026-01-09 12:41:53,0.0,5,7.595,0.0,0.0,-4.47388,55.5,2.7,-4.9,1024,1024,1024,1024,0,0,0,0,81,6.03,72.5,28.871392,P-GPS,,8.8
289400,2026-01-09 12:41:53,0.0,5,7.595,0.0,0.0,-4.47388,55.5,2.1,-6.5,1024,1024,1024,1024,0,0,0,0,81,6.03,72.5,29.855644,P-GPS,,9.1
289500,2026-01-09 12:41:54,0.0,5,7.595,0.0,0.0,-4.250186,55.7,0.5,-6.2,1024,1024,1024,1024,0,0,0,0,81,6.03,72.5,30.511812,P-GPS,,9.3
289600,2026-01-09 12:41:54,0.0,5,7.612,0.0,0.0,-3.579104,55.5,2.0,-6.9,1024,1024,1024,1024,0,0,0,0,81,6.199,72.5,31.16798,P-GPS,,9.5
289700,2026-01-09 12:41:54,0.0,5,7.612,0.0,0.0,-2.908022,55.3,3.0,-7.4,1024,1024,1024,1024,0,0,0,0,81,6.199,72.5,31.496064,P-GPS,,9.6
289800,2026-01-09 12:41:54,0.0,5,7.612,0.0,0.0,-2.013246,55.2,3.3,-7.8,1024,1024,1024,1024,0,0,0,0,81,6.199,72.5,31.824148,P-GPS,,9.7
289900,2026-01-09 12:41:54,0.0,5,7.612,0.0,0.0,-1.11847,55.2,3.3,-7.9,1024,1024,1024,1024,0,0,0,0,81,6.199,72.5,32.152232,P-GPS,,9.8
290000,2026-01-09 12:41:54,0.0,5,7.612,0.0,0.0,-0.671082,55.2,3.0,-8.3,1024,1024,1024,1024,0,0,0,0,81,6.199,72.5,32.152232,P-GPS,,9.8
290100,2026-01-09 12:41:54,0.0,5,7.612,0.0,0.0,-0.223694,55.3,1.6,-8.4,1024,1024,1024,1024,0,0,0,0,81,6.199,72.5,32.480316,P-GPS,,9.9
290200,2026-01-09 12:41:54,0.0,5,7.612,0.0,0.0,0.0,55.4,0.9,-7.9,1024,1024,1024,1024,0,0,0,0,81,6.199,72.5,32.480316,P-GPS,,9.9
290300,2026-01-09 12:41:54,0.0,5,7.612,0.0,0.0,0.0,55.6,0.8,-6.9,1024,1024,1024,1024,0,0,0,0,81,6.199,72.5,32.480316,P-GPS,,9.9
290400,2026-01-09 12:41:54,0.223694,5,7.612,0.0,-0.223694,0.0,55.5,0.5,-6.4,1024,1024,1024,1024,0,0,0,0,81,6.199,72.5,32.152232,P-GPS,,9.8
290500,2026-01-09 12:41:55,0.0,5,7.612,0.0,0.0,0.0,55.6,0.2,-6.5,1024,1024,1024,1024,0,0,0,0,81,6.199,72.5,32.152232,P-GPS,,9.8
290600,2026-01-09 12:41:55,0.0,5,7.612,0.0,0.0,0.0,55.8,0.5,-5.8,1024,1024,1024,1024,0,0,0,0,81,6.199,72.5,32.152232,P-GPS,,9.8
290700,2026-01-09 12:41:55,0.0,5,7.649,0.0,0.0,0.0,55.6,0.8,-6.1,1024,1024,1024,1024,0,0,0,0,80,4.587,72.5,32.152232,P-GPS,,9.8
290800,2026-01-09 12:41:55,0.0,5,7.649,0.0,0.0,0.0,55.6,1.0,-6.5,1024,1024,1024,1024,0,0,0,0,80,4.587,72.5,32.152232,P-GPS,,9.8
290900,2026-01-09 12:41:55,0.0,5,7.649,0.0,0.0,0.0,55.6,0.7,-6.8,1024,1024,1024,1024,0,0,0,0,80,4.587,72.5,32.152232,P-GPS,,9.8
291000,2026-01-09 12:41:55,0.0,5,7.649,0.0,0.0,0.0,55.4,0.9,-7.0,1024,1024,1024,1024,0,0,0,0,80,4.587,72.5,32.152232,P-GPS,,9.8
291100,2026-01-09 12:41:55,0.0,5,7.649,0.0,0.0,0.0,55.6,0.3,-6.9,1024,1024,1024,1024,0,0,0,0,80,4.587,72.5,32.152232,P-GPS,,9.8
291200,2026-01-09 12:41:55,0.0,5,7.649,0.0,0.0,0.0,55.7,0.5,-6.9,1024,1024,1024,1024,0,0,0,0,80,4.587,72.5,32.152232,P-GPS,,9.8
291300,2026-01-09 12:41:55,0.0,5,7.649,0.0,0.0,0.0,55.5,1.2,-7.4,1024,1024,1024,1024,0,0,0,0,80,4.587,72.5,32.152232,P-GPS,,9.8
291400,2026-01-09 12:41:55,0.0,5,7.649,0.0,0.0,0.0,55.7,0.9,-7.5,1024,1024,1024,1024,0,0,0,0,80,4.587,72.5,32.152232,P-GPS,,9.8
291500,2026-01-09 12:41:56,0.0,5,7.649,0.0,0.0,0.0,55.7,1.0,-7.6,1024,1024,1024,1024,0,0,0,0,80,4.587,72.5,32.152232,P-GPS,,9.8
291600,2026-01-09 12:41:56,0.0,5,7.649,0.0,0.0,0.0,55.7,0.7,-7.4,1024,1024,1024,1024,0,0,0,0,80,4.587,72.5,32.152232,P-GPS,,9.8
291700,2026-01-09 12:41:56,0.0,5,7.649,0.0,0.0,0.0,55.6,1.5,-7.2,1024,1024,1024,1024,0,0,0,0,80,4.587,72.5,32.152232,P-GPS,,9.8
291800,2026-01-09 12:41:56,0.0,5,7.602,0.0,0.0,0.0,55.8,0.4,-6.6,1024,1024,1024,1024,0,0,0,0,80,5.903,72.5,32.152232,P-GPS,,9.8
291900,2026-01-09 12:41:56,0.0,5,7.602,0.0,0.0,0.0,55.7,0.3,-6.1,1024,1024,1024,1024,0,0,0,0,80,5.903,72.5,32.152232,P-GPS,,9.8
292000,2026-01-09 12:41:56,0.0,5,7.602,0.0,0.0,0.0,55.9,0.1,-6.2,1024,1024,1024,1024,0,0,0,0,80,5.903,72.5,32.152232,P-GPS,,9.8
292100,2026-01-09 12:41:56,0.0,5,7.602,0.0,0.0,0.0,55.8,-0.3,-6.4,1024,1024,1024,1024,0,0,0,0,80,5.903,72.5,32.152232,P-GPS,,9.8
292200,2026-01-09 12:41:56,0.0,5,7.602,0.0,0.0,0.0,55.7,-0.5,-6.8,1024,1024,1024,1024,0,0,0,0,80,5.903,72.5,32.152232,P-GPS,,9.8
292300,2026-01-09 12:41:56,0.0,5,7.602,0.0,0.0,0.0,55.7,0.0,-7.2,1024,1024,1024,1024,0,0,0,0,80,5.903,72.5,32.152232,P-GPS,,9.8
292400,2026-01-09 12:41:57,0.0,5,7.602,0.0,0.0,0.0,55.8,0.0,-6.6,1024,1024,1024,1024,0,0,0,0,80,5.903,72.5,31.824148,P-GPS,,9.7
292500,2026-01-09 12:41:57,0.0,5,7.602,0.0,0.0,0.0,55.7,0.3,-6.9,1024,1024,1024,1024,0,0,0,0,80,5.903,72.5,32.152232,P-GPS,,9.8
292600,2026-01-09 12:41:57,0.0,5,7.602,0.0,0.0,0.0,55.6,0.8,-7.1,1024,1024,1024,1024,0,0,0,0,80,5.903,72.5,32.152232,P-GPS,,9.8
292700,2026-01-09 12:41:57,0.0,5,7.602,0.0,0.0,0.0,55.6,1.2,-6.8,1024,1024,1024,1024,0,0,0,0,80,5.903,72.5,32.152232,P-GPS,,9.8
292800,2026-01-09 12:41:57,0.0,5,7.602,0.0,0.0,0.0,55.4,1.5,-7.1,1024,1024,1024,1024,0,0,0,0,80,5.903,72.5,32.152232,P-GPS,,9.8
292900,2026-01-09 12:41:57,0.0,5,7.631,0.0,0.0,0.0,55.6,1.7,-6.7,1024,1024,1024,1024,0,0,0,0,80,5.788,72.68,32.152232,P-GPS,,9.8
293000,2026-01-09 12:41:57,0.0,5,7.631,0.0,0.0,0.0,55.6,1.6,-6.4,1024,1024,1024,1024,0,0,0,0,80,5.788,72.68,32.152232,P-GPS,,9.8
293100,2026-01-09 12:41:57,0.0,5,7.631,0.0,0.0,0.0,55.5,2.3,-6.6,1024,1024,1024,1024,0,0,0,0,80,5.788,72.68,32.152232,P-GPS,,9.8
293200,2026-01-09 12:41:57,0.0,5,7.631,0.0,0.0,0.0,55.3,3.1,-7.1,1024,1024,1024,1024,0,0,0,0,80,5.788,72.68,32.152232,P-GPS,,9.8
293300,2026-01-09 12:41:57,0.0,5,7.631,0.0,0.0,0.0,55.4,3.0,-7.1,1024,1024,1024,1024,0,0,0,0,80,5.788,72.68,32.152232,P-GPS,,9.8
293400,2026-01-09 12:41:57,0.0,5,7.631,0.0,0.0,0.0,55.5,3.0,-7.3,1024,1024,1024,1024,0,0,0,0,80,5.788,72.68,32.480316,P-GPS,,9.9
293500,2026-01-09 12:41:58,0.0,5,7.631,0.0,0.0,0.0,55.5,2.2,-8.2,1024,1024,1024,1024,0,0,0,0,80,5.788,72.68,32.480316,P-GPS,,9.9
293600,2026-01-09 12:41:58,0.0,5,7.631,0.0,0.0,0.0,55.5,1.3,-8.7,1024,1024,1024,1024,0,0,0,0,80,5.788,72.68,32.480316,P-GPS,,9.9
293700,2026-01-09 12:41:58,0.223694,5,7.631,-0.223694,0.0,0.0,55.7,0.0,-9.1,1024,1024,1024,1024,0,0,0,0,80,5.788,72.68,32.480316,P-GPS,,9.9
293800,2026-01-09 12:41:58,0.223694,5,7.631,-0.223694,0.0,0.0,55.7,-0.1,-8.6,1024,1024,1024,1024,0,0,0,0,80,5.788,72.68,32.480316,P-GPS,,9.9
293900,2026-01-09 12:41:58,0.223694,5,7.631,-0.223694,0.0,0.0,56.2,-1.7,-9.0,1024,1024,1024,1024,0,0,0,0,80,5.788,72.68,32.480316,P-GPS,,9.9
294000,2026-01-09 12:41:58,0.0,5,7.631,0.0,0.0,0.0,56.4,-2.3,-9.6,1024,1024,1024,1024,0,0,0,0,80,5.788,72.68,32.480316,P-GPS,,9.9
294100,2026-01-09 12:41:58,0.0,5,7.591,0.0,0.0,0.0,56.1,-0.4,-9.0,1024,1024,1024,1024,0,0,0,0,80,5.746,72.68,32.480316,P-GPS,,9.9
294200,2026-01-09 12:41:58,0.0,5,7.591,0.0,0.0,0.0,55.9,0.0,-8.6,1024,1024,1024,1024,0,0,0,0,80,5.746,72.68,32.480316,P-GPS,,9.9
294300,2026-01-09 12:41:58,0.0,5,7.591,0.0,0.0,0.0,55.5,1.6,-7.7,1024,1024,1024,1024,0,0,0,0,80,5.746,72.68,32.152232,P-GPS,,9.8
294400,2026-01-09 12:41:58,0.0,5,7.591,0.0,0.0,0.0,55.8,1.3,-6.9,1024,1024,1024,1024,0,0,0,0,80,5.746,72.68,32.152232,P-GPS,,9.8
294500,2026-01-09 12:41:59,0.0,5,7.591,0.0,0.0,0.0,56.0,0.6,-6.8,1024,1024,1024,1024,0,0,0,0,80,5.746,72.68,31.824148,P-GPS,,9.7
294600,2026-01-09 12:41:59,0.0,5,7.591,0.0,0.0,0.0,55.1,3.9,-7.8,1024,1024,1024,1024,0,0,0,0,80,5.746,72.68,31.824148,P-GPS,,9.7
294700,2026-01-09 12:41:59,0.0,5,7.591,0.0,0.0,0.223694,55.7,2.9,-6.9,1024,1024,1024,1024,0,0,0,0,80,5.746,72.68,31.496064,P-GPS,,9.6
294800,2026-01-09 12:41:59,0.0,5,7.591,0.0,0.0,0.0,55.6,1.5,-7.6,1024,1024,1024,1024,0,0,0,0,80,5.746,72.68,31.496064,P-GPS,,9.6
294900,2026-01-09 12:41:59,0.223694,5,7.591,0.0,-0.223694,0.0,55.7,1.3,-6.4,1024,1024,1024,1024,0,0,0,0,80,5.746,72.68,31.16798,P-GPS,,9.5
295000,2026-01-09 12:41:59,0.223694,5,7.591,0.0,-0.223694,0.0,56.0,0.3,-5.8,1024,1024,1024,1024,0,0,0,0,80,5.746,72.68,30.839896,P-GPS,,9.4
295100,2026-01-09 12:41:59,0.223694,5,7.591,0.0,-0.223694,0.0,55.9,-1.0,-5.6,1024,1024,1024,1024,0,0,0,0,80,5.746,72.68,30.839896,P-GPS,,9.4
295200,2026-01-09 12:41:59,0.223694,5,7.591,0.0,-0.223694,0.0,55.8,-1.4,-5.9,1024,1024,1024,1024,0,0,0,0,80,5.746,72.68,30.511812,P-GPS,,9.3
295300,2026-01-09 12:41:59,0.223694,5,7.591,0.0,-0.223694,0.0,55.7,-0.9,-5.7,1024,1024,1024,1024,0,0,0,0,80,5.746,72.68,30.183728,P-GPS,,9.2
295400,2026-01-09 12:42:00,0.447388,5,7.591,0.0,-0.447388,0.0,55.7,-1.7,-4.9,1024,1024,1024,1024,0,0,0,0,80,5.746,72.68,30.183728,P-GPS,,9.2
295500,2026-01-09 12:42:00,0.447388,5,7.591,0.0,-0.223694,0.0,55.9,-3.2,-3.7,1024,1024,1024,1024,0,0,0,0,80,5.746,72.68,29.855644,P-GPS,,9.1
295600,2026-01-09 12:42:00,0.223694,5,7.591,0.0,-0.223694,0.0,55.8,-2.2,-4.3,1024,1024,1024,1024,0,0,0,0,80,5.746,72.68,29.855644,P-GPS,,9.1
295700,2026-01-09 12:42:00,0.0,5,7.591,0.0,0.0,0.0,56.0,-2.5,-4.2,1024,1024,1024,1024,0,0,0,0,80,5.746,72.68,29.855644,P-GPS,,9.1
295800,2026-01-09 12:42:00,0.0,5,7.591,0.0,0.0,0.0,56.0,-2.6,-5.2,1024,1024,1024,1024,0,0,0,0,80,5.746,72.68,29.855644,P-GPS,,9.1
295900,2026-01-09 12:42:00,0.0,5,7.591,0.0,0.0,0.0,55.7,-0.1,-6.3,1024,1024,1024,1024,0,0,0,0,80,5.746,72.68,29.855644,P-GPS,,9.1
296000,2026-01-09 12:42:00,0.0,5,7.591,0.0,0.0,0.0,55.7,0.8,-6.8,1024,1024,1024,1024,0,0,0,0,80,5.746,72.68,29.855644,P-GPS,,9.1
296100,2026-01-09 12:42:00,0.0,5,7.591,0.0,0.0,0.0,55.8,0.8,-7.0,1024,1024,1024,1024,0,0,0,0,80,5.746,72.68,29.855644,P-GPS,,9.1
296200,2026-01-09 12:42:00,0.0,5,7.624,0.0,0.0,0.0,55.7,1.0,-7.2,1024,1024,1024,1024,0,0,0,0,80,5.547,72.68,29.855644,P-GPS,,9.1
296300,2026-01-09 12:42:00,0.0,5,7.624,0.0,0.0,0.0,55.7,1.3,-7.0,1024,1024,1024,1024,0,0,0,0,80,5.547,72.68,29.855644,P-GPS,,9.1
296400,2026-01-09 12:42:00,0.0,5,7.624,0.0,0.0,0.0,55.8,0.9,-6.7,1024,1024,1024,1024,0,0,0,0,80,5.547,72.68,29.855644,P-GPS,,9.1
296500,2026-01-09 12:42:01,0.0,5,7.624,0.0,0.0,0.0,55.8,0.0,-6.3,1024,1024,1024,1024,0,0,0,0,80,5.547,72.68,29.855644,P-GPS,,9.1
296600,2026-01-09 12:42:01,0.0,5,7.624,0.0,0.0,0.0,55.9,-1.0,-6.1,1024,1024,1024,1024,0,0,0,0,80,5.547,72.68,29.855644,P-GPS,,9.1
296700,2026-01-09 12:42:01,0.0,5,7.624,0.0,0.0,0.0,56.0,-1.5,-6.3,1024,1024,1024,1024,0,0,0,0,80,5.547,72.68,29.52756,P-GPS,,9.0
296800,2026-01-09 12:42:01,0.0,5,7.624,0.0,0.0,0.0,56.1,-1.9,-6.1,1024,1024,1024,1024,0,0,0,0,80,5.547,72.68,29.52756,P-GPS,,9.0
296900,2026-01-09 12:42:01,0.0,5,7.624,0.0,0.0,0.0,55.8,-0.8,-6.2,1024,1024,1024,1024,0,0,0,0,80,5.547,72.68,29.52756,P-GPS,,9.0
297000,2026-01-09 12:42:01,0.0,5,7.624,0.0,0.0,0.0,55.9,-0.9,-6.0,1024,1024,1024,1024,0,0,0,0,80,5.547,72.68,29.52756,P-GPS,,9.0
297100,2026-01-09 12:42:01,0.0,5,7.624,0.0,0.0,0.0,56.2,-2.4,-6.0,1024,1024,1024,1024,0,0,0,0,80,5.547,72.68,29.52756,P-GPS,,9.0
297200,2026-01-09 12:42:01,0.0,5,7.624,0.0,0.0,0.0,56.0,-1.8,-6.6,1024,1024,1024,1024,0,0,0,0,80,5.547,72.68,29.52756,P-GPS,,9.0
297300,2026-01-09 12:42:01,0.0,5,7.624,0.0,0.0,0.0,56.0,-1.8,-7.2,1024,1024,1024,1024,0,0,0,0,80,5.547,72.68,29.52756,P-GPS,,9.0
297400,2026-01-09 12:42:02,0.0,5,7.638,0.0,0.0,0.0,55.9,-1.4,-7.2,1024,1024,1024,1024,0,0,0,0,80,4.865,72.68,29.199476,P-GPS,,8.9
297500,2026-01-09 12:42:02,0.0,5,7.638,0.0,0.0,0.0,55.8,-0.9,-6.9,1024,1024,1024,1024,0,0,0,0,80,4.865,72.68,29.199476,P-GPS,,8.9
297600,2026-01-09 12:42:02,0.0,5,7.638,0.0,0.0,0.0,55.9,-1.3,-6.8,1024,1024,1024,1024,0,0,0,0,80,4.865,72.68,29.199476,P-GPS,,8.9
297700,2026-01-09 12:42:02,0.0,5,7.638,0.0,0.0,0.0,55.9,-1.6,-7.0,1024,1024,1024,1024,0,0,0,0,80,4.865,72.68,29.199476,P-GPS,,8.9
297800,2026-01-09 12:42:02,0.0,5,7.638,0.0,0.0,0.0,55.9,-1.1,-7.4,1024,1024,1024,1024,0,0,0,0,80,4.865,72.68,29.199476,P-GPS,,8.9
297900,2026-01-09 12:42:02,0.0,5,7.638,0.0,0.0,0.0,55.7,-0.7,-7.6,1024,1024,1024,1024,0,0,0,0,80,4.865,72.68,29.199476,P-GPS,,8.9
298000,2026-01-09 12:42:02,0.0,5,7.638,0.0,0.0,0.0,55.9,-0.7,-7.7,1024,1024,1024,1024,0,0,0,0,80,4.865,72.68,29.199476,P-GPS,,8.9
298100,2026-01-09 12:42:02,0.0,5,7.638,0.0,0.0,0.0,55.8,-1.0,-8.2,1024,1024,1024,1024,0,0,0,0,80,4.865,72.68,29.199476,P-GPS,,8.9
298200,2026-01-09 12:42:02,0.0,5,7.638,0.0,0.0,0.0,55.6,-0.8,-8.6,1024,1024,1024,1024,0,0,0,0,80,4.865,72.68,29.199476,P-GPS,,8.9
298300,2026-01-09 12:42:02,0.0,5,7.638,0.0,0.0,0.0,55.6,-0.8,-8.4,1024,1024,1024,1024,0,0,0,0,80,4.865,72.68,29.199476,P-GPS,,8.9
298400,2026-01-09 12:42:02,0.0,5,7.638,0.0,0.0,0.0,55.6,0.4,-7.8,1024,1024,1024,1024,0,0,0,0,80,4.865,72.68,28.871392,P-GPS,,8.8
298500,2026-01-09 12:42:03,0.0,5,7.603,0.0,0.0,0.0,55.7,0.6,-6.9,1024,1024,1024,1024,0,0,0,0,80,5.566,72.68,28.871392,P-GPS,,8.8
298600,2026-01-09 12:42:03,0.0,5,7.603,0.0,0.0,0.0,55.8,0.9,-6.7,1024,1024,1024,1024,0,0,0,0,80,5.566,72.68,28.871392,P-GPS,,8.8
298700,2026-01-09 12:42:03,0.0,5,7.603,0.0,0.0,0.0,55.6,1.5,-7.4,1024,1024,1024,1024,0,0,0,0,80,5.566,72.68,28.871392,P-GPS,,8.8
298800,2026-01-09 12:42:03,0.0,5,7.603,0.0,0.0,0.0,55.6,1.1,-7.4,1024,1024,1024,1024,0,0,0,0,80,5.566,72.68,28.543308,P-GPS,,8.7
298900,2026-01-09 12:42:03,0.0,5,7.603,0.0,0.0,0.0,55.7,1.1,-7.0,1024,1024,1024,1024,0,0,0,0,80,5.566,72.68,28.543308,P-GPS,,8.7
299000,2026-01-09 12:42:03,0.0,5,7.603,0.0,0.0,0.0,55.8,0.9,-6.3,1024,1024,1024,1024,0,0,0,0,80,5.566,72.68,28.215224,P-GPS,,8.6
299100,2026-01-09 12:42:03,0.0,5,7.603,0.0,0.0,0.0,55.7,1.1,-5.8,1024,1024,1024,1024,0,0,0,0,80,5.566,72.68,28.215224,P-GPS,,8.6
299200,2026-01-09 12:42:03,0.223694,5,7.603,0.223694,0.0,0.0,55.6,1.0,-5.5,1024,1024,1024,1024,0,0,0,0,80,5.566,72.68,28.215224,P-GPS,,8.6
299300,2026-01-09 12:42:03,0.223694,5,7.603,0.223694,0.0,0.0,55.6,1.9,-5.0,1024,1024,1024,1024,0,0,0,0,80,5.566,72.68,27.88714,P-GPS,,8.5
299400,2026-01-09 12:42:03,0.223694,5,7.603,0.223694,0.0,0.0,55.5,2.7,-4.8,1024,1024,1024,1024,0,0,0,0,80,5.566,72.68,27.88714,P-GPS,,8.5
299500,2026-01-09 12:42:04,0.0,5,7.603,0.0,0.0,0.0,55.5,2.4,-5.0,1024,1024,1024,1024,0,0,0,0,80,5.566,72.68,27.88714,P-GPS,,8.5
299600,2026-01-09 12:42:04,0.0,5,7.608,0.0,0.0,0.0,55.6,2.4,-4.7,1024,1024,1024,1024,0,0,0,0,80,5.546,72.68,27.88714,P-GPS,,8.5
299700,2026-01-09 12:42:04,0.0,5,7.608,0.0,0.0,0.0,55.6,1.8,-4.6,1024,1024,1024,1024,0,0,0,0,80,5.546,72.68,27.559056,P-GPS,,8.4
299800,2026-01-09 12:42:04,0.0,5,7.608,0.0,0.0,0.0,55.6,1.6,-4.8,1024,1024,1024,1024,0,0,0,0,80,5.546,72.68,27.559056,P-GPS,,8.4
299900,2026-01-09 12:42:04,0.0,5,7.608,0.0,0.0,0.0,55.6,1.6,-4.4,1024,1024,1024,1024,0,0,0,0,80,5.546,72.68,27.559056,P-GPS,,8.4
300000,2026-01-09 12:42:04,0.0,5,7.608,0.0,0.0,0.0,55.8,1.2,-3.9,1024,1024,1024,1024,0,0,0,0,80,5.546,72.68,27.559056,P-GPS,,8.4
300100,2026-01-09 12:42:04,0.0,5,7.608,0.0,0.0,0.0,55.7,1.1,-4.4,1024,1024,1024,1024,0,0,0,0,80,5.546,72.68,27.559056,P-GPS,,8.4
300200,2026-01-09 12:42:04,0.0,5,7.608,0.0,0.0,0.0,55.7,1.5,-4.8,1024,1024,1024,1024,0,0,0,0,80,5.546,72.68,27.559056,P-GPS,,8.4
300300,2026-01-09 12:42:04,0.0,5,7.608,0.0,0.0,0.0,55.7,2.3,-4.9,1024,1024,1024,1024,0,0,0,0,80,5.546,72.68,27.559056,P-GPS,,8.4
300400,2026-01-09 12:42:05,0.0,5,7.608,0.0,0.0,0.0,55.6,3.5,-4.5,1024,1024,1024,1024,0,0,0,0,80,5.546,72.68,27.559056,P-GPS,,8.4
300500,2026-01-09 12:42:05,0.0,5,7.608,0.0,0.0,0.0,55.4,3.8,-4.8,1024,1024,1024,1024,0,0,0,0,80,5.546,72.68,27.559056,P-GPS,,8.4
300600,2026-01-09 12:42:05,0.0,5,7.608,0.0,0.0,0.0,55.3,3.9,-5.8,1024,1024,1024,1024,0,0,0,0,80,5.546,72.68,27.88714,P-GPS,,8.5
300700,2026-01-09 12:42:05,0.0,5,7.635,0.0,0.0,0.0,55.2,3.6,-6.0,1024,1024,1024,1024,0,0,0,0,80,5.002,72.68,27.88714,P-GPS,,8.5
300800,2026-01-09 12:42:05,0.0,5,7.635,0.0,0.0,0.0,55.4,3.3,-5.3,1024,1024,1024,1024,0,0,0,0,80,5.002,72.68,27.88714,P-GPS,,8.5
300900,2026-01-09 12:42:05,0.0,5,7.635,0.0,0.0,0.0,55.5,2.8,-5.5,1024,1024,1024,1024,0,0,0,0,80,5.002,72.68,27.88714,P-GPS,,8.5
301000,2026-01-09 12:42:05,0.0,5,7.635,0.0,0.0,0.0,55.5,2.4,-5.7,1024,1024,1024,1024,0,0,0,0,80,5.002,72.68,27.88714,P-GPS,,8.5
301100,2026-01-09 12:42:05,0.0,5,7.635,0.0,0.0,0.0,55.8,1.8,-5.9,1024,1024,1024,1024,0,0,0,0,80,5.002,72.68,28.215224,P-GPS,,8.6
301200,2026-01-09 12:42:05,0.0,5,7.635,0.0,0.0,0.0,55.5,2.0,-5.9,1024,1024,1024,1024,0,0,0,0,80,5.002,72.68,28.215224,P-GPS,,8.6
301300,2026-01-09 12:42:05,0.0,5,7.635,0.0,0.0,0.0,55.4,2.4,-6.1,1024,1024,1024,1024,0,0,0,0,80,5.002,72.68,28.215224,P-GPS,,8.6
301400,2026-01-09 12:42:05,0.0,5,7.635,0.0,0.0,0.0,55.5,3.0,-6.6,1024,1024,1024,1024,0,0,0,0,80,5.002,72.68,28.543308,P-GPS,,8.7
301500,2026-01-09 12:42:06,0.223694,5,7.635,-0.223694,0.0,0.0,55.9,1.1,-6.3,1024,1024,1024,1024,0,0,0,0,80,5.002,72.68,28.543308,P-GPS,,8.7
301600,2026-01-09 12:42:06,0.223694,5,7.635,-0.223694,0.0,0.0,55.9,-0.5,-6.8,1024,1024,1024,1024,0,0,0,0,80,5.002,72.68,28.543308,P-GPS,,8.7
301700,2026-01-09 12:42:06,0.223694,5,7.635,-0.223694,0.0,0.0,55.8,-1.1,-7.1,1024,1024,1024,1024,0,0,0,0,80,5.002,72.68,28.543308,P-GPS,,8.7
301800,2026-01-09 12:42:06,0.0,5,7.637,0.0,0.0,0.0,55.8,-1.3,-7.0,1024,1024,1024,1024,0,0,0,0,80,4.922,72.68,28.543308,P-GPS,,8.7
301900,2026-01-09 12:42:06,0.0,5,7.637,0.0,0.0,0.0,55.4,0.6,-6.7,1024,1024,1024,1024,0,0,0,0,80,4.922,72.68,28.543308,P-GPS,,8.7
302000,2026-01-09 12:42:06,0.0,5,7.637,0.0,0.0,0.0,55.3,1.5,-7.1,1024,1024,1024,1024,0,0,0,0,80,4.922,72.68,28.543308,P-GPS,,8.7
302100,2026-01-09 12:42:06,0.0,5,7.637,0.0,0.0,0.0,55.6,0.9,-6.5,1024,1024,1024,1024,0,0,0,0,80,4.922,72.68,28.871392,P-GPS,,8.8
302200,2026-01-09 12:42:06,0.0,5,7.637,0.0,0.0,0.0,55.7,0.7,-6.0,1024,1024,1024,1024,0,0,0,0,80,4.922,72.68,28.871392,P-GPS,,8.8
302300,2026-01-09 12:42:06,0.0,5,7.637,0.0,0.0,0.0,55.8,0.0,-5.3,1024,1024,1024,1024,0,0,0,0,80,4.922,72.68,28.871392,P-GPS,,8.8
302400,2026-01-09 12:42:06,0.0,5,7.637,0.0,0.0,0.0,55.8,0.4,-6.0,1024,1024,1024,1024,0,0,0,0,80,4.922,72.68,28.871392,P-GPS,,8.8
302500,2026-01-09 12:42:07,0.0,5,7.637,0.0,0.0,0.0,55.9,0.1,-6.2,1024,1024,1024,1024,0,0,0,0,80,4.922,72.68,28.871392,P-GPS,,8.8
302600,2026-01-09 12:42:07,0.0,5,7.637,0.0,0.0,0.0,55.7,-0.5,-6.9,1024,1024,1024,1024,0,0,0,0,80,4.922,72.68,28.871392,P-GPS,,8.8
302700,2026-01-09 12:42:07,0.0,5,7.637,0.0,0.0,0.0,55.7,0.4,-6.8,1024,1024,1024,1024,0,0,0,0,80,4.922,72.68,28.871392,P-GPS,,8.8
302800,2026-01-09 12:42:07,0.0,5,7.637,0.0,0.0,0.0,55.6,0.7,-6.4,1024,1024,1024,1024,0,0,0,0,80,4.922,72.68,28.871392,P-GPS,,8.8
302900,2026-01-09 12:42:07,0.0,5,7.635,0.0,0.0,0.0,55.7,0.7,-6.2,1024,1024,1024,1024,0,0,0,0,80,4.772,72.86,28.871392,P-GPS,,8.8
303000,2026-01-09 12:42:07,0.0,5,7.635,0.0,0.0,0.0,55.6,0.5,-6.1,1024,1024,1024,1024,0,0,0,0,80,4.772,72.86,28.871392,P-GPS,,8.8
303100,2026-01-09 12:42:07,0.0,5,7.635,0.0,0.0,0.0,55.7,0.6,-5.6,1024,1024,1024,1024,0,0,0,0,80,4.772,72.86,28.871392,P-GPS,,8.8
303200,2026-01-09 12:42:07,0.0,5,7.635,0.0,0.0,0.0,55.7,1.1,-5.1,1024,1024,1024,1024,0,0,0,0,80,4.772,72.86,28.543308,P-GPS,,8.7
303300,2026-01-09 12:42:07,0.0,5,7.635,0.0,0.0,0.0,55.5,2.8,-5.2,1024,1024,1024,1024,0,0,0,0,80,4.772,72.86,28.543308,P-GPS,,8.7
303400,2026-01-09 12:42:07,0.0,5,7.635,0.0,0.0,0.0,55.4,4.1,-4.6,1024,1024,1024,1024,0,0,0,0,80,4.772,72.86,28.543308,P-GPS,,8.7
303500,2026-01-09 12:42:08,0.0,5,7.635,0.0,0.0,0.0,55.4,3.0,-4.2,1024,1024,1024,1024,0,0,0,0,80,4.772,72.86,28.543308,P-GPS,,8.7
303600,2026-01-09 12:42:08,0.223694,5,7.635,0.0,-0.223694,0.0,55.4,2.0,-3.8,1024,1024,1024,1024,0,0,0,0,80,4.772,72.86,28.543308,P-GPS,,8.7
303700,2026-01-09 12:42:08,0.223694,5,7.635,0.0,-0.223694,0.0,55.4,-0.1,-3.8,1024,1024,1024,1024,0,0,0,0,80,4.772,72.86,28.543308,P-GPS,,8.7
303800,2026-01-09 12:42:08,0.223694,5,7.635,0.0,-0.223694,0.0,55.6,-1.6,-4.1,1024,1024,1024,1024,0,0,0,0,80,4.772,72.86,28.543308,P-GPS,,8.7
303900,2026-01-09 12:42:08,0.223694,5,7.635,0.0,0.0,0.0,56.0,-2.0,-4.3,1024,1024,1024,1024,0,0,0,0,80,4.772,72.86,28.871392,P-GPS,,8.8
304000,2026-01-09 12:42:08,0.0,5,7.614,0.0,0.0,0.0,55.9,-1.3,-4.7,1024,1024,1024,1024,0,0,0,0,79,5.031,72.86,28.543308,P-GPS,,8.7
304100,2026-01-09 12:42:08,0.0,5,7.614,0.0,0.0,0.0,55.7,-0.1,-4.7,1024,1024,1024,1024,0,0,0,0,79,5.031,72.86,28.543308,P-GPS,,8.7
304200,2026-01-09 12:42:08,0.0,5,7.614,0.0,0.0,0.0,55.8,0.5,-4.9,1024,1024,1024,1024,0,0,0,0,79,5.031,72.86,28.543308,P-GPS,,8.7
304300,2026-01-09 12:42:08,0.223694,5,7.614,0.223694,0.0,0.0,56.0,1.3,-4.5,1024,1024,1024,1024,0,0,0,0,79,5.031,72.86,28.543308,P-GPS,,8.7
304400,2026-01-09 12:42:08,0.223694,5,7.614,0.223694,0.0,0.0,55.8,2.6,-3.8,1024,1024,1024,1024,0,0,0,0,79,5.031,72.86,28.543308,P-GPS,,8.7
304500,2026-01-09 12:42:09,0.223694,5,7.614,0.223694,0.0,0.0,55.9,3.5,-3.6,1024,1024,1024,1024,0,0,0,0,79,5.031,72.86,28.215224,P-GPS,,8.6
304600,2026-01-09 12:42:09,0.223694,5,7.614,0.223694,0.0,0.0,56.0,3.7,-3.5,1024,1024,1024,1024,0,0,0,0,79,5.031,72.86,28.215224,P-GPS,,8.6
304700,2026-01-09 12:42:09,0.223694,5,7.614,0.223694,0.0,0.0,55.9,4.6,-2.6,1024,1024,1024,1024,0,0,0,0,79,5.031,72.86,27.88714,P-GPS,,8.5
304800,2026-01-09 12:42:09,0.223694,5,7.614,0.223694,0.0,0.0,55.9,4.4,-2.2,1024,1024,1024,1024,0,0,0,0,79,5.031,72.86,27.88714,P-GPS,,8.5
304900,2026-01-09 12:42:09,0.223694,5,7.614,0.223694,0.0,0.0,55.9,4.1,-2.2,1024,1024,1024,1024,0,0,0,0,79,5.031,72.86,27.88714,P-GPS,,8.5
305000,2026-01-09 12:42:09,0.0,5,7.614,0.0,0.0,0.0,56.0,4.2,-2.1,1024,1024,1024,1024,0,0,0,0,79,5.031,72.86,27.88714,P-GPS,,8.5
305100,2026-01-09 12:42:09,0.0,5,7.62,0.0,0.0,0.0,56.0,4.3,-2.0,1024,1024,1024,1024,0,0,0,0,79,4.891,72.86,27.88714,P-GPS,,8.5
305200,2026-01-09 12:42:09,0.0,5,7.62,0.0,0.0,0.0,56.0,4.1,-2.2,1024,1024,1024,1024,0,0,0,0,79,4.891,72.86,27.559056,P-GPS,,8.4
305300,2026-01-09 12:42:09,0.0,5,7.62,0.0,0.0,0.0,55.9,3.6,-2.2,1024,1024,1024,1024,0,0,0,0,79,4.891,72.86,27.559056,P-GPS,,8.4
305400,2026-01-09 12:42:10,0.0,5,7.62,0.0,0.0,0.0,55.9,3.5,-2.5,1024,1024,1024,1024,0,0,0,0,79,4.891,72.86,27.559056,P-GPS,,8.4
305500,2026-01-09 12:42:10,0.0,5,7.62,0.0,0.0,0.0,56.0,3.3,-2.6,1024,1024,1024,1024,0,0,0,0,79,4.891,72.86,27.559056,P-GPS,,8.4
305600,2026-01-09 12:42:10,0.0,5,7.62,0.0,0.0,0.0,55.9,3.6,-2.7,1024,1024,1024,1024,0,0,0,0,79,4.891,72.86,27.559056,P-GPS,,8.4
305700,2026-01-09 12:42:10,0.0,5,7.62,0.0,0.0,0.0,55.9,3.6,-2.7,1024,1024,1024,1024,0,0,0,0,79,4.891,72.86,27.559056,P-GPS,,8.4
305800,2026-01-09 12:42:10,0.0,5,7.62,0.0,0.0,0.0,56.0,3.6,-2.4,1024,1024,1024,1024,0,0,0,0,79,4.891,72.86,27.559056,P-GPS,,8.4
305900,2026-01-09 12:42:10,0.0,5,7.62,0.0,0.0,0.0,55.9,4.1,-2.5,1024,1024,1024,1024,0,0,0,0,79,4.891,72.86,27.559056,P-GPS,,8.4
306000,2026-01-09 12:42:10,0.0,5,7.62,0.0,0.0,0.0,55.8,3.6,-2.8,1024,1024,1024,1024,0,0,0,0,79,4.891,72.86,27.559056,P-GPS,,8.4
306100,2026-01-09 12:42:10,0.0,5,7.62,0.0,0.0,0.0,55.6,3.7,-2.8,1024,1024,1024,1024,0,0,0,0,79,4.891,72.86,27.88714,P-GPS,,8.5
306200,2026-01-09 12:42:10,0.0,5,7.62,0.0,0.0,0.0,55.6,3.0,-3.3,1024,1024,1024,1024,0,0,0,0,79,4.891,72.86,27.88714,P-GPS,,8.5
306300,2026-01-09 12:42:10,0.0,5,7.62,0.0,0.0,0.0,55.4,3.3,-3.9,1024,1024,1024,1024,0,0,0,0,79,4.891,72.86,27.88714,P-GPS,,8.5
306400,2026-01-09 12:42:10,0.223694,5,7.62,-0.223694,0.0,0.0,55.2,3.2,-4.5,1024,1024,1024,1024,0,0,0,0,79,4.891,72.86,28.215224,P-GPS,,8.6
306500,2026-01-09 12:42:11,0.223694,5,7.62,-0.223694,0.0,0.0,55.4,2.1,-5.1,1024,1024,1024,1024,0,0,0,0,79,4.891,72.86,28.215224,P-GPS,,8.6
306600,2026-01-09 12:42:11,0.223694,5,7.62,-0.223694,0.0,0.0,55.5,1.5,-5.9,1024,1024,1024,1024,0,0,0,0,79,4.891,72.86,28.215224,P-GPS,,8.6
306700,2026-01-09 12:42:11,0.223694,5,7.62,-0.223694,0.0,0.0,55.4,2.4,-6.4,1024,1024,1024,1024,0,0,0,0,79,4.891,72.86,28.543308,P-GPS,,8.7
306800,2026-01-09 12:42:11,0.223694,5,7.62,-0.223694,0.0,0.0,55.7,1.1,-5.7,1024,1024,1024,1024,0,0,0,0,79,4.891,72.86,28.543308,P-GPS,,8.7
306900,2026-01-09 12:42:11,0.223694,5,7.62,-0.223694,0.0,0.0,55.7,0.5,-4.9,1024,1024,1024,1024,0,0,0,0,79,4.891,72.86,28.543308,P-GPS,,8.7
307000,2026-01-09 12:42:11,0.223694,5,7.62,-0.223694,0.0,0.0,55.5,0.3,-5.4,1024,1024,1024,1024,0,0,0,0,79,4.891,72.86,28.543308,P-GPS,,8.7
307100,2026-01-09 12:42:11,0.223694,5,7.62,-0.223694,0.0,0.0,55.4,0.4,-6.2,1024,1024,1024,1024,0,0,0,0,79,4.891,72.86,28.871392,P-GPS,,8.8
307200,2026-01-09 12:42:11,0.0,5,7.62,0.0,0.0,0.0,55.8,-0.2,-5.8,1024,1024,1024,1024,0,0,0,0,79,4.891,72.86,28.871392,P-GPS,,8.8
307300,2026-01-09 12:42:11,0.0,5,7.623,0.0,0.0,0.0,55.6,-0.1,-5.4,1024,1024,1024,1024,0,0,0,0,79,4.912,72.86,28.871392,P-GPS,,8.8
307400,2026-01-09 12:42:12,0.0,5,7.623,0.0,0.0,0.0,55.6,0.4,-5.3,1024,1024,1024,1024,0,0,0,0,79,4.912,72.86,28.871392,P-GPS,,8.8
307500,2026-01-09 12:42:12,0.0,5,7.623,0.0,0.0,0.0,55.4,1.1,-5.0,1024,1024,1024,1024,0,0,0,0,79,4.912,72.86,28.871392,P-GPS,,8.8
307600,2026-01-09 12:42:12,0.0,5,7.623,0.0,0.0,0.0,55.4,1.3,-4.8,1024,1024,1024,1024,0,0,0,0,79,4.912,72.86,29.199476,P-GPS,,8.9
307700,2026-01-09 12:42:12,0.0,5,7.623,0.0,0.0,0.0,55.5,1.1,-4.9,1024,1024,1024,1024,0,0,0,0,79,4.912,72.86,29.199476,P-GPS,,8.9
307800,2026-01-09 12:42:12,0.0,5,7.623,0.0,0.0,0.0,55.6,0.7,-5.2,1024,1024,1024,1024,0,0,0,0,79,4.912,72.86,29.199476,P-GPS,,8.9
307900,2026-01-09 12:42:12,0.0,5,7.623,0.0,0.0,0.0,55.8,0.6,-5.3,1024,1024,1024,1024,0,0,0,0,79,4.912,72.86,29.199476,P-GPS,,8.9
308000,2026-01-09 12:42:12,0.0,5,7.623,0.0,0.0,0.0,55.6,1.3,-5.3,1024,1024,1024,1024,0,0,0,0,79,4.912,72.86,29.199476,P-GPS,,8.9
308100,2026-01-09 12:42:12,0.0,5,7.623,0.0,0.0,0.0,55.7,1.2,-5.3,1024,1024,1024,1024,0,0,0,0,79,4.912,72.86,29.199476,P-GPS,,8.9
308200,2026-01-09 12:42:12,0.0,5,7.623,0.0,0.0,0.0,55.8,1.2,-5.6,1024,1024,1024,1024,0,0,0,0,79,4.912,72.86,29.199476,P-GPS,,8.9
308300,2026-01-09 12:42:12,0.0,5,7.623,0.0,0.0,0.0,55.7,1.5,-5.0,1024,1024,1024,1024,0,0,0,0,79,4.912,72.86,29.52756,P-GPS,,9.0
308400,2026-01-09 12:42:12,0.0,5,7.623,0.0,0.0,0.0,55.8,2.6,-5.1,1024,1024,1024,1024,0,0,0,0,79,4.912,72.86,29.52756,P-GPS,,9.0
308500,2026-01-09 12:42:13,0.0,5,7.611,0.0,0.0,0.0,55.6,3.1,-5.4,1024,1024,1024,1024,0,0,0,0,79,4.968,72.86,29.52756,P-GPS,,9.0
308600,2026-01-09 12:42:13,0.0,5,7.611,0.0,0.0,0.0,55.7,3.4,-5.5,1024,1024,1024,1024,0,0,0,0,79,4.968,72.86,29.52756,P-GPS,,9.0
308700,2026-01-09 12:42:13,0.0,5,7.611,0.0,0.0,0.0,55.8,4.2,-5.3,1024,1024,1024,1024,0,0,0,0,79,4.968,72.86,29.52756,P-GPS,,9.0
308800,2026-01-09 12:42:13,0.223694,5,7.611,0.223694,0.0,0.0,55.8,4.7,-4.5,1024,1024,1024,1024,0,0,0,0,79,4.968,72.86,29.52756,P-GPS,,9.0
308900,2026-01-09 12:42:13,0.0,5,7.611,0.0,0.0,0.0,55.7,4.6,-4.2,1024,1024,1024,1024,0,0,0,0,79,4.968,72.86,29.52756,P-GPS,,9.0
309000,2026-01-09 12:42:13,0.0,5,7.611,0.0,0.0,0.0,55.8,3.7,-3.8,1024,1024,1024,1024,0,0,0,0,79,4.968,72.86,29.52756,P-GPS,,9.0
309100,2026-01-09 12:42:13,0.0,5,7.611,0.0,0.0,0.0,55.8,3.9,-4.4,1024,1024,1024,1024,0,0,0,0,79,4.968,72.86,29.52756,P-GPS,,9.0
309200,2026-01-09 12:42:13,0.0,5,7.611,0.0,0.0,0.0,55.6,3.8,-4.2,1024,1024,1024,1024,0,0,0,0,79,4.968,72.86,29.52756,P-GPS,,9.0
309300,2026-01-09 12:42:13,0.0,5,7.611,0.0,0.0,0.0,55.4,3.9,-4.5,1024,1024,1024,1024,0,0,0,0,79,4.968,72.86,29.52756,P-GPS,,9.0
309400,2026-01-09 12:42:14,0.0,5,7.611,0.0,0.0,0.0,55.4,3.7,-4.8,1024,1024,1024,1024,0,0,0,0,79,4.968,72.86,29.52756,P-GPS,,9.0
309500,2026-01-09 12:42:14,0.0,5,7.611,0.0,0.0,0.0,55.4,3.4,-4.9,1024,1024,1024,1024,0,0,0,0,79,4.968,72.86,29.52756,P-GPS,,9.0
309600,2026-01-09 12:42:14,0.0,5,7.612,0.0,0.0,0.0,55.6,2.8,-4.6,1024,1024,1024,1024,0,0,0,0,79,5.186,73.04,29.52756,P-GPS,,9.0
309700,2026-01-09 12:42:14,0.0,5,7.612,0.0,0.0,0.0,55.8,2.1,-4.4,1024,1024,1024,1024,0,0,0,0,79,5.186,73.04,29.52756,P-GPS,,9.0
309800,2026-01-09 12:42:14,0.0,5,7.612,0.0,0.0,0.0,55.7,2.1,-4.3,1024,1024,1024,1024,0,0,0,0,79,5.186,73.04,29.52756,P-GPS,,9.0
309900,2026-01-09 12:42:14,0.0,5,7.612,0.0,0.0,0.0,55.5,2.0,-4.8,1024,1024,1024,1024,0,0,0,0,79,5.186,73.04,29.52756,P-GPS,,9.0
310000,2026-01-09 12:42:14,0.0,5,7.612,0.0,0.0,0.0,55.5,1.2,-5.1,1024,1024,1024,1024,0,0,0,0,79,5.186,73.04,29.52756,P-GPS,,9.0
310100,2026-01-09 12:42:14,0.223694,5,7.612,0.0,-0.223694,0.0,55.5,0.6,-4.9,1024,1024,1024,1024,0,0,0,0,79,5.186,73.04,29.855644,P-GPS,,9.1
310200,2026-01-09 12:42:14,0.3131716,5,7.612,-0.223694,-0.223694,0.0,55.6,-0.7,-4.8,1024,1024,1024,1024,0,0,0,0,79,5.186,73.04,29.855644,P-GPS,,9.1
310300,2026-01-09 12:42:14,0.223694,5,7.612,-0.223694,0.0,0.0,55.8,-1.8,-4.7,1024,1024,1024,1024,0,0,0,0,79,5.186,73.04,29.855644,P-GPS,,9.1
310400,2026-01-09 12:42:14,0.0,5,7.612,0.0,0.0,0.0,55.6,-0.8,-5.2,1024,1024,1024,1024,0,0,0,0,79,5.186,73.04,29.855644,P-GPS,,9.1
310500,2026-01-09 12:42:15,0.0,5,7.612,0.0,0.0,0.0,55.4,0.7,-5.6,1024,1024,1024,1024,0,0,0,0,79,5.186,73.04,29.855644,P-GPS,,9.1
310600,2026-01-09 12:42:15,0.0,5,7.612,0.0,0.0,0.0,55.4,0.8,-5.7,1024,1024,1024,1024,0,0,0,0,79,5.186,73.04,29.855644,P-GPS,,9.1
310700,2026-01-09 12:42:15,0.0,5,7.621,0.0,0.0,0.0,55.6,0.0,-5.5,1024,1024,1024,1024,0,0,0,0,79,4.904,73.04,29.855644,P-GPS,,9.1
310800,2026-01-09 12:42:15,0.0,5,7.621,0.0,0.0,0.0,55.9,-0.7,-5.1,1024,1024,1024,1024,0,0,0,0,79,4.904,73.04,29.855644,P-GPS,,9.1
310900,2026-01-09 12:42:15,0.0,5,7.621,0.0,0.0,0.0,55.9,-0.5,-5.3,1024,1024,1024,1024,0,0,0,0,79,4.904,73.04,29.855644,P-GPS,,9.1
311000,2026-01-09 12:42:15,0.0,5,7.621,0.0,0.0,0.0,55.8,-0.5,-5.5,1024,1024,1024,1024,0,0,0,0,79,4.904,73.04,29.855644,P-GPS,,9.1
311100,2026-01-09 12:42:15,0.0,5,7.621,0.0,0.0,0.0,55.7,-0.4,-5.4,1024,1024,1024,1024,0,0,0,0,79,4.904,73.04,29.855644,P-GPS,,9.1
311200,2026-01-09 12:42:15,0.0,5,7.621,0.0,0.0,0.0,55.9,-0.3,-5.2,1024,1024,1024,1024,0,0,0,0,79,4.904,73.04,29.855644,P-GPS,,9.1
311300,2026-01-09 12:42:15,0.0,5,7.621,0.0,0.0,0.0,56.0,-0.2,-4.8,1024,1024,1024,1024,0,0,0,0,79,4.904,73.04,29.855644,P-GPS,,9.1
311400,2026-01-09 12:42:15,0.0,5,7.621,0.0,0.0,0.0,55.8,1.3,-4.9,1024,1024,1024,1024,0,0,0,0,79,4.904,73.04,29.855644,P-GPS,,9.1
311500,2026-01-09 12:42:16,0.223694,5,7.621,0.0,0.223694,0.0,55.6,3.3,-5.0,1024,1024,1024,1024,0,0,0,0,79,4.904,73.04,29.855644,P-GPS,,9.1
311600,2026-01-09 12:42:16,0.0,5,7.621,0.0,0.0,0.0,55.3,4.0,-5.5,1024,1024,1024,1024,0,0,0,0,79,4.904,73.04,29.855644,P-GPS,,9.1
311700,2026-01-09 12:42:16,0.0,5,7.621,0.0,0.0,0.0,55.5,3.5,-4.4,1024,1024,1024,1024,0,0,0,0,79,4.904,73.04,29.855644,P-GPS,,9.1
311800,2026-01-09 12:42:16,0.0,5,7.594,0.0,0.0,0.0,55.7,2.4,-4.3,1024,1024,1024,1024,0,0,0,0,79,5.144,73.04,29.855644,P-GPS,,9.1
311900,2026-01-09 12:42:16,0.0,5,7.594,0.0,0.0,0.0,55.9,1.3,-4.4,1024,1024,1024,1024,0,0,0,0,79,5.144,73.04,29.855644,P-GPS,,9.1
312000,2026-01-09 12:42:16,0.0,5,7.594,0.0,0.0,0.0,55.9,2.0,-4.4,1024,1024,1024,1024,0,0,0,0,79,5.144,73.04,29.855644,P-GPS,,9.1
312100,2026-01-09 12:42:16,0.0,5,7.594,0.0,0.0,0.0,55.8,2.5,-4.9,1024,1024,1024,1024,0,0,0,0,79,5.144,73.04,29.855644,P-GPS,,9.1
312200,2026-01-09 12:42:16,0.0,5,7.594,0.0,0.0,0.0,55.7,3.4,-4.8,1024,1024,1024,1024,0,0,0,0,79,5.144,73.04,29.855644,P-GPS,,9.1
312300,2026-01-09 12:42:16,0.0,5,7.594,0.0,0.0,0.0,55.7,3.3,-5.1,1024,1024,1024,1024,0,0,0,0,79,5.144,73.04,29.855644,P-GPS,,9.1
312400,2026-01-09 12:42:17,0.0,5,7.594,0.0,0.0,0.0,55.8,2.8,-5.1,1024,1024,1024,1024,0,0,0,0,79,5.144,73.04,29.855644,P-GPS,,9.1
312500,2026-01-09 12:42:17,0.0,5,7.594,0.0,0.0,0.0,55.7,3.1,-4.9,1024,1024,1024,1024,0,0,0,0,79,5.144,73.04,29.855644,P-GPS,,9.1
312600,2026-01-09 12:42:17,0.0,5,7.594,0.0,0.0,0.0,55.7,2.6,-4.8,1024,1024,1024,1024,0,0,0,0,79,5.144,73.04,29.855644,P-GPS,,9.1
312700,2026-01-09 12:42:17,0.0,5,7.594,0.0,0.0,0.0,55.5,2.5,-5.4,1024,1024,1024,1024,0,0,0,0,79,5.144,73.04,29.855644,P-GPS,,9.1
312800,2026-01-09 12:42:17,0.0,5,7.594,0.0,0.0,0.0,55.4,2.5,-4.8,1024,1024,1024,1024,0,0,0,0,79,5.144,73.04,30.183728,P-GPS,,9.2
312900,2026-01-09 12:42:17,0.0,5,7.592,0.0,0.0,0.0,55.6,1.8,-4.8,1024,1024,1024,1024,0,0,0,0,79,5.278,73.04,30.183728,P-GPS,,9.2
313000,2026-01-09 12:42:17,0.0,5,7.592,0.0,0.0,0.0,55.7,2.0,-4.7,1024,1024,1024,1024,0,0,0,0,79,5.278,73.04,30.183728,P-GPS,,9.2
313100,2026-01-09 12:42:17,0.0,5,7.592,0.0,0.0,0.0,55.6,2.2,-4.6,1024,1024,1024,1024,0,0,0,0,79,5.278,73.04,30.183728,P-GPS,,9.2
313200,2026-01-09 12:42:17,0.0,5,7.592,0.0,0.0,0.0,55.5,3.1,-4.1,1024,1024,1024,1024,0,0,0,0,79,5.278,73.04,30.183728,P-GPS,,9.2
313300,2026-01-09 12:42:17,0.0,5,7.592,0.0,0.0,0.0,55.6,3.2,-4.1,1024,1024,1024,1024,0,0,0,0,79,5.278,73.04,30.183728,P-GPS,,9.2
313400,2026-01-09 12:42:17,0.0,5,7.592,0.0,0.0,0.0,55.7,3.1,-4.1,1024,1024,1024,1024,0,0,0,0,79,5.278,73.04,30.183728,P-GPS,,9.2
313500,2026-01-09 12:42:18,0.0,5,7.592,0.0,0.0,0.0,55.7,3.7,-4.0,1024,1024,1024,1024,0,0,0,0,79,5.278,73.04,29.855644,P-GPS,,9.1
313600,2026-01-09 12:42:18,0.0,5,7.592,0.0,0.0,0.0,55.8,3.3,-3.9,1024,1024,1024,1024,0,0,0,0,79,5.278,73.04,29.855644,P-GPS,,9.1
313700,2026-01-09 12:42:18,0.0,5,7.592,0.0,0.0,0.0,55.7,3.1,-3.9,1024,1024,1024,1024,0,0,0,0,79,5.278,73.04,29.855644,P-GPS,,9.1
313800,2026-01-09 12:42:18,0.0,5,7.592,0.0,0.0,0.0,55.7,2.6,-4.2,1024,1024,1024,1024,0,0,0,0,79,5.278,73.04,29.855644,P-GPS,,9.1
313900,2026-01-09 12:42:18,0.0,5,7.592,0.0,0.0,0.0,55.7,2.5,-4.1,1024,1024,1024,1024,0,0,0,0,79,5.278,73.04,29.855644,P-GPS,,9.1
314000,2026-01-09 12:42:18,0.0,5,7.599,0.0,0.0,0.0,55.8,2.0,-3.5,1024,1024,1024,1024,0,0,0,0,79,5.142,73.04,29.855644,P-GPS,,9.1
314100,2026-01-09 12:42:18,0.0,5,7.599,0.0,0.0,0.0,56.0,1.3,-3.0,1024,1024,1024,1024,0,0,0,0,79,5.142,73.04,29.855644,P-GPS,,9.1
314200,2026-01-09 12:42:18,0.0,5,7.599,0.0,0.0,0.0,55.8,2.5,-3.1,1024,1024,1024,1024,0,0,0,0,79,5.142,73.04,29.855644,P-GPS,,9.1
314300,2026-01-09 12:42:18,0.0,5,7.599,0.0,0.0,0.0,55.7,3.2,-3.1,1024,1024,1024,1024,0,0,0,0,79,5.142,73.04,29.855644,P-GPS,,9.1
314400,2026-01-09 12:42:19,0.0,5,7.599,0.0,0.0,0.0,55.8,3.3,-3.5,1024,1024,1024,1024,0,0,0,0,79,5.142,73.04,29.855644,P-GPS,,9.1
314500,2026-01-09 12:42:19,0.0,5,7.599,0.0,0.0,0.0,55.9,3.0,-3.6,1024,1024,1024,1024,0,0,0,0,79,5.142,73.04,30.183728,P-GPS,,9.2
314600,2026-01-09 12:42:19,0.0,5,7.599,0.0,0.0,0.0,56.0,3.3,-3.8,1024,1024,1024,1024,0,0,0,0,79,5.142,73.04,30.183728,P-GPS,,9.2
314700,2026-01-09 12:42:19,0.0,5,7.599,0.0,0.0,0.0,56.0,3.8,-4.0,1024,1024,1024,1024,0,0,0,0,79,5.142,73.04,30.183728,P-GPS,,9.2
314800,2026-01-09 12:42:19,0.0,5,7.599,0.0,0.0,0.0,56.0,4.1,-3.9,1024,1024,1024,1024,0,0,0,0,79,5.142,73.04,30.183728,P-GPS,,9.2
314900,2026-01-09 12:42:19,0.0,5,7.599,0.0,0.0,0.0,56.1,4.0,-3.6,1024,1024,1024,1024,0,0,0,0,79,5.142,73.04,30.183728,P-GPS,,9.2
315000,2026-01-09 12:42:19,0.0,5,7.599,0.0,0.0,0.0,56.0,4.0,-3.6,1024,1024,1024,1024,0,0,0,0,79,5.142,73.04,30.183728,P-GPS,,9.2
315100,2026-01-09 12:42:19,0.0,5,7.623,0.0,0.0,0.0,55.9,3.8,-3.5,1024,1024,1024,1024,0,0,0,0,79,4.577,73.22,29.855644,P-GPS,,9.1
315200,2026-01-09 12:42:19,0.0,5,7.623,0.0,0.0,0.0,55.9,3.6,-3.0,1024,1024,1024,1024,0,0,0,0,79,4.577,73.22,29.855644,P-GPS,,9.1
315300,2026-01-09 12:42:19,0.0,5,7.623,0.0,0.0,0.0,55.9,3.5,-3.1,1024,1024,1024,1024,0,0,0,0,79,4.577,73.22,29.855644,P-GPS,,9.1
315400,2026-01-09 12:42:19,0.0,5,7.623,0.0,0.0,0.0,56.0,3.2,-3.0,1024,1024,1024,1024,0,0,0,0,79,4.577,73.22,29.855644,P-GPS,,9.1
315500,2026-01-09 12:42:20,0.0,5,7.623,0.0,0.0,0.0,56.0,3.1,-2.6,1024,1024,1024,1024,0,0,0,0,79,4.577,73.22,29.855644,P-GPS,,9.1
315600,2026-01-09 12:42:20,0.0,5,7.623,0.0,0.0,0.0,55.9,3.7,-2.4,1024,1024,1024,1024,0,0,0,0,79,4.577,73.22,29.855644,P-GPS,,9.1
315700,2026-01-09 12:42:20,0.0,5,7.623,0.0,0.0,0.0,55.8,4.0,-2.4,1024,1024,1024,1024,0,0,0,0,79,4.577,73.22,29.855644,P-GPS,,9.1
315800,2026-01-09 12:42:20,0.0,5,7.623,0.0,0.0,0.0,55.9,3.3,-2.3,1024,1024,1024,1024,0,0,0,0,79,4.577,73.22,29.855644,P-GPS,,9.1
315900,2026-01-09 12:42:20,0.0,5,7.623,0.0,0.0,0.0,55.9,3.2,-2.4,1024,1024,1024,1024,0,0,0,0,79,4.577,73.22,29.855644,P-GPS,,9.1
316000,2026-01-09 12:42:20,0.0,5,7.623,0.0,0.0,0.0,56.0,3.0,-2.9,1024,1024,1024,1024,0,0,0,0,79,4.577,73.22,29.855644,P-GPS,,9.1
316100,2026-01-09 12:42:20,0.0,5,7.623,0.0,0.0,0.0,56.0,3.3,-3.3,1024,1024,1024,1024,0,0,0,0,79,4.577,73.22,29.855644,P-GPS,,9.1
316200,2026-01-09 12:42:20,0.0,5,7.621,0.0,0.0,0.0,55.8,3.3,-3.8,1024,1024,1024,1024,0,0,0,0,79,4.701,73.22,29.855644,P-GPS,,9.1
316300,2026-01-09 12:42:20,0.0,5,7.621,0.0,0.0,0.0,55.8,3.6,-3.7,1024,1024,1024,1024,0,0,0,0,79,4.701,73.22,30.183728,P-GPS,,9.2
316400,2026-01-09 12:42:20,0.0,5,7.621,0.0,0.0,0.0,55.7,4.3,-3.2,1024,1024,1024,1024,0,0,0,0,79,4.701,73.22,30.183728,P-GPS,,9.2
316500,2026-01-09 12:42:21,0.0,5,7.621,0.0,0.0,0.0,55.7,4.4,-3.1,1024,1024,1116,1024,0,0,14,0,79,4.701,73.22,30.183728,P-GPS,,9.2
316600,2026-01-09 12:42:21,0.0,5,7.621,0.0,0.0,0.0,55.7,4.1,-3.3,1024,1024,1684,1024,0,0,100,0,79,4.701,73.22,30.183728,P-GPS,,9.2
316700,2026-01-09 12:42:21,0.0,5,7.621,0.0,0.0,0.0,55.8,3.7,-3.3,1024,1024,1684,1024,0,0,100,0,79,4.701,73.22,29.855644,P-GPS,,9.1
316800,2026-01-09 12:42:21,0.0,5,7.621,0.0,0.0,0.0,55.7,4.1,-3.1,1024,1024,1684,1024,0,0,100,0,79,4.701,73.22,29.855644,P-GPS,,9.1
316900,2026-01-09 12:42:21,0.0,5,7.621,0.0,0.0,0.0,55.8,4.2,-2.6,1024,1024,1684,1024,0,0,100,0,79,4.701,73.22,30.183728,P-GPS,,9.2
317000,2026-01-09 12:42:21,0.0,5,7.621,0.0,0.0,-0.671082,56.0,3.8,-2.8,1024,1024,1684,1024,0,0,100,0,79,4.701,73.22,30.183728,P-GPS,,9.2
317100,2026-01-09 12:42:21,0.0,5,7.621,0.0,0.0,-1.565858,56.1,3.6,-3.2,1024,1024,1684,1024,0,0,100,0,79,4.701,73.22,30.183728,P-GPS,,9.2
317200,2026-01-09 12:42:21,0.0,5,7.621,0.0,0.0,-2.23694,56.0,3.8,-3.3,1024,1024,1684,1024,0,0,100,0,79,4.701,73.22,30.511812,P-GPS,,9.3
317300,2026-01-09 12:42:21,0.0,5,7.621,0.0,0.0,-3.131716,55.9,3.8,-3.3,1024,1024,1684,1024,0,0,100,0,79,4.701,73.22,31.16798,P-GPS,,9.5
317400,2026-01-09 12:42:21,0.0,5,7.621,0.0,0.0,-3.579104,55.8,3.2,-2.9,1024,1024,1684,1024,0,0,100,0,79,4.701,73.22,31.496064,P-GPS,,9.6
317500,2026-01-09 12:42:22,0.0,5,7.621,0.0,0.0,-4.026492,55.7,3.2,-2.6,1024,1024,1684,1024,0,0,100,0,79,4.701,73.22,32.152232,P-GPS,,9.8
317600,2026-01-09 12:42:22,0.0,5,7.621,0.0,0.0,-4.250186,55.4,3.5,-2.5,1024,1024,1684,1024,0,0,100,0,79,4.701,73.22,32.8084,P-GPS,,10.0
317700,2026-01-09 12:42:22,0.0,5,7.621,0.0,0.0,-4.250186,55.3,2.8,-2.3,1024,1024,1684,1024,0,0,100,0,79,4.701,73.22,33.464568,P-GPS,,10.2
317800,2026-01-09 12:42:22,0.0,5,7.621,0.0,0.0,-4.47388,55.3,1.9,-2.2,1024,1024,1684,1024,0,0,100,0,79,4.701,73.22,34.120736,P-GPS,,10.4
317900,2026-01-09 12:42:22,0.0,5,7.621,0.0,0.0,-4.250186,55.2,2.0,-2.0,1024,1024,1684,1024,0,0,100,0,79,4.701,73.22,34.776904,P-GPS,,10.6
318000,2026-01-09 12:42:22,0.0,5,7.621,0.0,0.0,-4.47388,55.2,1.6,-2.4,1024,1024,1684,1024,0,0,100,0,79,4.701,73.22,35.433072,P-GPS,,10.8
318100,2026-01-09 12:42:22,0.0,5,7.621,0.0,0.0,-4.47388,55.3,1.4,-2.8,1024,1024,1684,1024,0,0,100,0,79,4.701,73.22,36.08924,P-GPS,,11.0
318200,2026-01-09 12:42:22,0.0,5,7.621,0.0,0.0,-4.47388,55.3,1.4,-3.1,1024,1024,1684,1024,0,0,100,0,79,4.701,73.22,36.745408,P-GPS,,11.2
318300,2026-01-09 12:42:22,0.223694,5,7.621,-0.223694,0.0,-4.47388,55.3,1.4,-3.8,1024,1024,1684,1024,0,0,100,0,79,4.701,73.22,37.401576,P-GPS,,11.4
318400,2026-01-09 12:42:23,0.223694,5,7.569,-0.223694,0.0,-4.47388,55.4,1.4,-4.1,1024,1024,1684,1024,0,0,100,0,79,5.935,73.22,38.057744,P-GPS,,11.6
318500,2026-01-09 12:42:23,0.223694,5,7.569,-0.223694,0.0,-4.47388,55.3,1.1,-4.7,1024,1024,1684,1024,0,0,100,0,79,5.935,73.22,38.713912,P-GPS,,11.8
411000,2026-01-09 12:43:55,0.0,5,7.542,0.0,0.0,3.802798,55.9,0.3,-4.7,1024,1024,364,1024,0,0,-100,0,73,4.509,75.38,38.713912,P-GPS,,11.8
411100,2026-01-09 12:43:55,0.0,5,7.542,0.0,0.0,3.802798,56.0,1.0,-4.4,1024,1024,364,1024,0,0,-100,0,73,4.509,75.38,38.057744,P-GPS,,11.6
411200,2026-01-09 12:43:55,0.223694,5,7.524,0.223694,0.0,3.802798,55.8,2.5,-3.8,1024,1024,364,1024,0,0,-100,0,73,4.547,75.74,37.401576,P-GPS,,11.4
411300,2026-01-09 12:43:55,0.223694,5,7.524,0.223694,0.0,3.802798,55.6,3.9,-2.8,1024,1024,364,1024,0,0,-100,0,73,4.547,75.74,37.073492,P-GPS,,11.3
411400,2026-01-09 12:43:56,0.0,5,7.524,0.0,0.0,4.026492,55.5,4.2,-2.9,1024,1024,364,1024,0,0,-100,0,73,4.547,75.74,36.417324,P-GPS,,11.1
411500,2026-01-09 12:43:56,0.0,5,7.524,0.0,0.0,4.026492,55.6,4.5,-1.9,1024,1024,364,1024,0,0,-100,0,73,4.547,75.74,35.761156,P-GPS,,10.9
411600,2026-01-09 12:43:56,0.0,5,7.524,0.0,0.0,3.802798,55.6,1.4,-3.4,1024,1024,364,1024,0,0,-100,0,73,4.547,75.74,35.104988,P-GPS,,10.7
411700,2026-01-09 12:43:56,0.0,5,7.524,0.0,0.0,4.026492,55.6,3.3,-3.4,1024,1024,364,1024,0,0,-100,0,73,4.547,75.74,34.44882,P-GPS,,10.5
411800,2026-01-09 12:43:56,0.0,5,7.524,0.0,0.0,4.026492,55.7,3.0,-3.6,1024,1024,364,1024,0,0,-100,0,73,4.547,75.74,33.792652,P-GPS,,10.3
411900,2026-01-09 12:43:56,0.0,5,7.524,0.0,0.0,3.802798,55.7,1.8,-4.2,1024,1024,364,1024,0,0,-100,0,73,4.547,75.74,33.464568,P-GPS,,10.2
412000,2026-01-09 12:43:56,0.0,5,7.524,0.0,0.0,3.802798,54.3,2.7,-4.5,1024,1024,364,1024,0,0,-100,0,73,4.547,75.74,32.8084,P-GPS,,10.0
412100,2026-01-09 12:43:56,0.223694,5,7.524,-0.223694,0.0,3.802798,55.2,1.4,-5.2,1024,1024,364,1024,0,0,-100,0,73,4.547,75.74,32.152232,P-GPS,,9.8
412200,2026-01-09 12:43:56,0.0,5,7.524,0.0,0.0,4.026492,55.7,0.9,-5.6,1024,1024,364,1024,0,0,-100,0,73,4.547,75.74,31.824148,P-GPS,,9.7
412300,2026-01-09 12:43:56,0.0,5,7.524,0.0,0.0,3.802798,55.7,2.3,-5.9,1024,1024,364,1024,0,0,-100,0,72,4.547,75.74,31.16798,P-GPS,,9.5
412400,2026-01-09 12:43:56,0.0,5,7.526,0.0,0.0,4.026492,55.5,3.5,-5.1,1024,1024,364,1024,0,0,-100,0,72,4.55,75.74,30.839896,P-GPS,,9.4
412500,2026-01-09 12:43:57,0.0,5,7.526,0.0,0.0,4.026492,55.4,3.6,-4.1,1024,1024,364,1024,0,0,-100,0,72,4.55,75.74,30.183728,P-GPS,,9.2
412600,2026-01-09 12:43:57,0.0,5,7.526,0.0,0.0,4.026492,55.7,2.7,-4.3,1024,1024,364,1024,0,0,-100,0,72,4.55,75.74,29.52756,P-GPS,,9.0
412700,2026-01-09 12:43:57,0.0,5,7.526,0.0,0.0,3.802798,55.8,2.5,-3.8,1024,1024,364,1024,0,0,-100,0,72,4.55,75.74,29.199476,P-GPS,,8.9
412800,2026-01-09 12:43:57,0.0,5,7.526,0.0,0.0,3.802798,55.6,2.7,-3.8,1024,1024,364,1024,0,0,-100,0,72,4.55,75.74,28.543308,P-GPS,,8.7
412900,2026-01-09 12:43:57,0.0,5,7.526,0.0,0.0,3.802798,55.8,2.1,-3.6,1024,1024,364,1024,0,0,-100,0,72,4.55,75.74,28.215224,P-GPS,,8.6
413000,2026-01-09 12:43:57,0.0,5,7.526,0.0,0.0,3.802798,55.7,3.0,-4.0,1024,1024,364,1024,0,0,-100,0,72,4.55,75.74,27.88714,P-GPS,,8.5
413100,2026-01-09 12:43:57,0.0,5,7.526,0.0,0.0,3.802798,55.7,3.4,-3.0,1024,1024,364,1024,0,0,-100,0,72,4.55,75.74,27.230972,P-GPS,,8.3
413200,2026-01-09 12:43:57,0.0,5,7.526,0.0,0.0,3.802798,55.7,2.5,-2.7,1024,1024,364,1024,0,0,-100,0,72,4.55,75.74,26.574804,P-GPS,,8.1
