index,time(millisecond),timestamp,speed(mph),gpslevel,voltage(v),xSpeed(mph),ySpeed(mph),zSpeed(mph),compass_heading(degrees),pitch(degrees),roll(degrees),rc_elevator,rc_aileron,rc_throttle,rc_rudder,rc_elevator(percent),rc_aileron(percent),rc_throttle(percent),rc_rudder(percent),battery_percent,current(A),battery_temperature(f),ascent(feet),flycState,message,height_above_takeoff(meters)
89,8900,2026-01-09 12:36:54,0.0,5,7.919,0.0,0.0,0.0,25.0,0.0,-3.7,1024,1024,1024,1024,0,0,0,0,98,4.526,61.7,36.745408,P-GPS,,11.2
90,9000,2026-01-09 12:36:54,0.0,5,7.919,0.0,0.0,0.0,24.9,-0.2,-3.9,1024,1024,1024,1024,0,0,0,0,98,4.526,61.7,36.745408,P-GPS,,11.2
91,9100,2026-01-09 12:36:54,0.0,5,7.919,0.0,0.0,0.0,25.0,0.1,-3.8,1024,1024,1024,1024,0,0,0,0,98,4.526,61.7,36.745408,P-GPS,,11.2
92,9200,2026-01-09 12:36:54,0.0,5,7.919,0.0,0.0,0.0,25.0,-0.8,-3.8,1024,1024,1024,1024,0,0,0,0,98,4.526,61.7,36.745408,P-GPS,,11.2
93,9300,2026-01-09 12:36:54,0.0,5,7.919,0.0,0.0,0.0,25.1,-1.0,-4.1,1024,1024,1024,1024,0,0,0,0,98,4.526,61.7,37.073492,P-GPS,,11.3
94,9400,2026-01-09 12:36:54,0.0,5,7.84,0.0,0.0,0.0,25.1,-0.9,-4.5,1024,1024,1024,1024,0,0,0,0,98,4.646,61.7,37.073492,P-GPS,,11.3
95,9500,2026-01-09 12:36:54,0.0,5,7.84,0.0,0.0,0.0,25.0,-0.7,-4.9,1024,1024,1024,1024,0,0,0,0,98,4.646,61.7,37.073492,P-GPS,,11.3
96,9600,2026-01-09 12:36:54,0.0,5,7.84,0.0,0.0,0.0,25.0,-0.7,-5.4,1024,1024,1024,1024,0,0,0,0,98,4.646,61.7,37.073492,P-GPS,,11.3
97,9700,2026-01-09 12:36:54,0.0,5,7.84,0.0,0.0,0.0,25.2,-0.7,-5.4,1024,1024,1024,1024,0,0,0,0,98,4.646,61.7,37.401576,P-GPS,,11.4
98,9800,2026-01-09 12:36:54,0.0,5,7.84,0.0,0.0,0.0,25.2,-0.9,-5.8,1024,1024,1024,1024,0,0,0,0,98,4.646,61.7,37.401576,P-GPS,,11.4
99,9900,2026-01-09 12:36:55,0.0,5,7.84,0.0,0.0,0.0,25.2,-0.6,-5.6,1024,1024,1024,1024,0,0,0,0,98,4.646,61.7,37.401576,P-GPS,,11.4
100,10000,2026-01-09 12:36:55,0.0,5,7.84,0.0,0.0,0.0,25.1,-0.4,-4.9,1024,1024,1024,1024,0,0,0,0,98,4.646,61.7,37.401576,P-GPS,,11.4
101,10100,2026-01-09 12:36:55,0.0,5,7.84,0.0,0.0,0.0,25.0,0.0,-4.6,1024,1024,1024,1024,0,0,0,0,98,4.646,61.7,37.073492,P-GPS,,11.3
102,10200,2026-01-09 12:36:55,0.0,5,7.84,0.0,0.0,0.0,25.0,0.3,-4.3,1024,1024,1024,1024,0,0,0,0,98,4.646,61.7,37.073492,P-GPS,,11.3
103,10300,2026-01-09 12:36:55,0.0,5,7.84,0.0,0.0,0.0,24.9,0.6,-4.2,1024,1024,1024,1024,0,0,0,0,98,4.646,61.7,37.073492,P-GPS,,11.3
104,10400,2026-01-09 12:36:55,0.0,5,7.84,0.0,0.0,0.0,24.8,0.9,-4.7,1024,1024,1024,1024,0,0,0,0,98,4.646,61.7,37.073492,P-GPS,,11.3
105,10500,2026-01-09 12:36:55,0.0,5,7.84,0.0,0.0,0.0,24.8,0.8,-4.6,1024,1024,1024,1024,0,0,0,0,98,4.646,61.7,37.073492,P-GPS,,11.3
106,10600,2026-01-09 12:36:55,0.0,5,7.84,0.0,0.0,0.0,24.9,1.1,-4.4,1024,1024,1024,1024,0,0,0,0,98,4.646,61.7,37.073492,P-GPS,,11.3
107,10700,2026-01-09 12:36:55,0.0,5,7.84,0.0,0.0,0.0,25.1,0.3,-4.2,1024,1024,1024,1024,0,0,0,0,98,4.646,61.7,37.073492,P-GPS,,11.3
108,10800,2026-01-09 12:36:55,0.0,5,7.84,0.0,0.0,0.0,25.2,-0.2,-3.9,1024,1024,1024,1024,0,0,0,0,98,4.646,61.7,37.401576,P-GPS,,11.4
109,10900,2026-01-09 12:36:56,0.0,5,7.84,0.0,0.0,0.0,25.1,-0.1,-4.2,1024,1024,1024,1024,0,0,0,0,98,4.646,61.7,37.401576,P-GPS,,11.4
110,11000,2026-01-09 12:36:56,0.0,5,7.84,0.0,0.0,0.0,24.8,0.6,-4.8,1024,1024,1024,1024,0,0,0,0,98,4.646,61.7,37.401576,P-GPS,,11.4
111,11100,2026-01-09 12:36:56,0.0,5,7.84,0.0,0.0,0.0,24.7,1.6,-4.9,1024,1024,1024,1024,0,0,0,0,98,4.646,61.7,37.401576,P-GPS,,11.4
112,11200,2026-01-09 12:36:56,0.0,5,7.84,0.0,0.0,0.0,24.7,0.9,-4.9,1024,1024,1024,1024,0,0,0,0,98,4.646,61.7,37.72966,P-GPS,,11.5
113,11300,2026-01-09 12:36:56,0.0,5,7.84,0.0,0.0,0.0,24.8,0.0,-5.2,1024,1024,1024,1024,0,0,0,0,98,4.646,61.7,37.72966,P-GPS,,11.5
114,11400,2026-01-09 12:36:56,0.0,5,7.84,0.0,0.0,-0.223694,24.8,-0.2,-5.1,1024,1024,1024,1024,0,0,0,0,98,4.646,61.7,37.72966,P-GPS,,11.5
115,11500,2026-01-09 12:36:56,0.0,5,7.84,0.0,0.0,0.0,24.9,-0.7,-5.1,1024,1024,1024,1024,0,0,0,0,98,4.646,61.7,37.72966,P-GPS,,11.5
116,11600,2026-01-09 12:36:56,0.0,5,7.84,0.0,0.0,0.0,24.9,-1.0,-5.0,1024,1024,1024,1024,0,0,0,0,98,4.646,61.7,37.72966,P-GPS,,11.5
117,11700,2026-01-09 12:36:56,0.0,5,7.84,0.0,0.0,0.0,24.8,-0.5,-5.2,1024,1024,1024,1024,0,0,0,0,98,4.646,61.7,37.72966,P-GPS,,11.5
118,11800,2026-01-09 12:36:56,0.0,5,7.84,0.0,0.0,0.0,24.8,-0.3,-4.1,1024,1024,1024,1024,0,0,0,0,98,4.646,61.7,37.72966,P-GPS,,11.5
119,11900,2026-01-09 12:36:57,0.0,5,7.809,0.0,0.0,0.0,24.7,-0.2,-4.0,1024,1024,1024,1024,0,0,0,0,98,5.055,61.7,37.401576,P-GPS,,11.4
120,12000,2026-01-09 12:36:57,0.0,5,7.809,0.0,0.0,0.0,24.8,-0.8,-3.7,1024,1024,1024,1024,0,0,0,0,98,5.055,61.7,37.401576,P-GPS,,11.4
121,12100,2026-01-09 12:36:57,0.0,5,7.809,0.0,0.0,0.0,24.8,-0.9,-3.5,1024,1024,1024,1024,0,0,0,0,98,5.055,61.7,37.401576,P-GPS,,11.4
122,12200,2026-01-09 12:36:57,0.0,5,7.809,0.0,0.0,0.0,25.0,-1.7,-3.4,1024,1024,1024,1024,0,0,0,0,98,5.055,61.7,37.401576,P-GPS,,11.4
123,12300,2026-01-09 12:36:57,0.0,5,7.809,0.0,0.0,0.0,24.9,-2.3,-3.6,1024,1024,1024,1024,0,0,0,0,98,5.055,61.7,37.401576,P-GPS,,11.4
124,12400,2026-01-09 12:36:57,0.0,5,7.809,0.0,0.0,0.0,25.0,-2.6,-4.1,1024,1024,1024,1024,0,0,0,0,98,5.055,61.7,37.073492,P-GPS,,11.3
125,12500,2026-01-09 12:36:57,0.0,5,7.809,0.0,0.0,0.0,24.9,-1.3,-3.8,1024,1024,1024,1024,0,0,0,0,98,5.055,61.7,37.073492,P-GPS,,11.3
126,12600,2026-01-09 12:36:57,0.0,5,7.809,0.0,0.0,0.0,25.0,-1.3,-3.7,1024,1024,1024,1024,0,0,0,0,98,5.055,61.7,37.073492,P-GPS,,11.3
127,12700,2026-01-09 12:36:57,0.0,5,7.809,0.0,0.0,0.0,25.0,-0.7,-4.0,1024,1024,1024,1024,0,0,0,0,98,5.055,61.7,37.073492,P-GPS,,11.3
128,12800,2026-01-09 12:36:57,0.0,5,7.809,0.0,0.0,0.0,25.2,-1.4,-3.9,1024,1024,1024,1024,0,0,0,0,98,5.055,61.7,37.073492,P-GPS,,11.3
129,12900,2026-01-09 12:36:58,0.0,5,7.809,0.0,0.0,0.0,25.2,-0.7,-4.4,1024,1024,1024,1024,0,0,0,0,98,5.055,61.7,37.073492,P-GPS,,11.3
130,13000,2026-01-09 12:36:58,0.0,5,7.827,0.0,0.0,0.0,25.2,-0.4,-4.9,1024,1024,1024,1024,0,0,0,0,98,4.696,61.7,37.401576,P-GPS,,11.4
131,13100,2026-01-09 12:36:58,0.0,5,7.827,0.0,0.0,0.0,25.1,-0.2,-5.2,1024,1024,1024,1024,0,0,0,0,98,4.696,61.7,37.401576,P-GPS,,11.4
132,13200,2026-01-09 12:36:58,0.0,5,7.827,0.0,0.0,0.0,25.0,0.5,-5.7,1024,1024,1024,1024,0,0,0,0,98,4.696,61.7,37.401576,P-GPS,,11.4
133,13300,2026-01-09 12:36:58,0.0,5,7.827,0.0,0.0,0.0,24.9,0.9,-5.8,1024,1024,1024,1024,0,0,0,0,98,4.696,61.7,37.401576,P-GPS,,11.4
134,13400,2026-01-09 12:36:58,0.0,5,7.827,0.0,0.0,0.0,24.8,1.7,-6.1,1024,1024,1024,1024,0,0,0,0,98,4.696,61.7,37.401576,P-GPS,,11.4
135,13500,2026-01-09 12:36:58,0.0,5,7.827,0.0,0.0,0.0,24.7,1.4,-5.4,1024,1024,1024,1024,0,0,0,0,98,4.696,61.7,37.401576,P-GPS,,11.4
136,13600,2026-01-09 12:36:58,0.0,5,7.827,0.0,0.0,0.0,24.9,0.5,-5.3,1024,1024,1024,1024,0,0,0,0,98,4.696,61.7,37.401576,P-GPS,,11.4
137,13700,2026-01-09 12:36:58,0.0,5,7.827,0.0,0.0,0.0,25.1,0.7,-5.0,1024,1024,1024,1024,0,0,0,0,98,4.696,61.7,37.073492,P-GPS,,11.3
138,13800,2026-01-09 12:36:58,0.0,5,7.827,0.0,0.0,0.0,25.3,0.6,-4.4,1024,1024,1024,1024,0,0,0,0,98,4.696,61.7,37.073492,P-GPS,,11.3
139,13900,2026-01-09 12:36:59,0.0,5,7.827,0.0,0.0,0.0,25.2,-0.2,-4.1,1024,1024,1024,1024,0,0,0,0,98,4.696,61.7,37.073492,P-GPS,,11.3
140,14000,2026-01-09 12:36:59,0.0,5,7.827,0.0,0.0,0.0,25.1,0.1,-4.1,1024,1024,1024,1024,0,0,0,0,98,4.696,61.7,37.073492,P-GPS,,11.3
141,14100,2026-01-09 12:36:59,0.0,5,7.798,0.0,0.0,0.0,25.0,0.0,-4.3,1024,1024,1024,1024,0,0,0,0,98,4.926,61.88,37.073492,P-GPS,,11.3
142,14200,2026-01-09 12:36:59,0.0,5,7.798,0.0,0.0,0.0,25.0,0.3,-4.3,1024,1024,1024,1024,0,0,0,0,98,4.926,61.88,36.745408,P-GPS,,11.2
143,14300,2026-01-09 12:36:59,0.0,5,7.798,0.0,0.0,0.0,24.9,0.7,-4.2,1024,1024,1024,1024,0,0,0,0,98,4.926,61.88,36.745408,P-GPS,,11.2
144,14400,2026-01-09 12:36:59,0.0,5,7.798,0.0,0.0,0.0,25.0,0.4,-4.0,1024,1024,1024,1024,0,0,0,0,98,4.926,61.88,36.745408,P-GPS,,11.2
145,14500,2026-01-09 12:36:59,0.0,5,7.798,0.0,0.0,0.0,24.9,0.1,-3.9,1024,1024,1024,1024,0,0,0,0,98,4.926,61.88,36.745408,P-GPS,,11.2
146,14600,2026-01-09 12:36:59,0.0,5,7.798,0.0,0.0,0.0,24.8,0.2,-3.7,1024,1024,1024,1024,0,0,0,0,98,4.926,61.88,36.417324,P-GPS,,11.1
147,14700,2026-01-09 12:36:59,0.223694,5,7.798,0.0,-0.223694,0.0,24.9,-0.3,-3.3,1024,1024,1024,1024,0,0,0,0,98,4.926,61.88,36.417324,P-GPS,,11.1
148,14800,2026-01-09 12:36:59,0.223694,5,7.798,0.0,-0.223694,0.0,24.9,-0.8,-3.1,1024,1024,1024,1024,0,0,0,0,98,4.926,61.88,36.417324,P-GPS,,11.1
149,14900,2026-01-09 12:37:00,0.223694,5,7.798,0.0,-0.223694,0.0,25.0,-1.7,-2.6,1024,1024,1024,1024,0,0,0,0,98,4.926,61.88,36.417324,P-GPS,,11.1
150,15000,2026-01-09 12:37:00,0.223694,5,7.798,0.0,-0.223694,0.0,25.0,-1.7,-2.2,1024,1024,1024,1024,0,0,0,0,98,4.926,61.88,36.417324,P-GPS,,11.1
151,15100,2026-01-09 12:37:00,0.223694,5,7.798,0.0,-0.223694,0.0,24.9,-2.2,-2.0,1024,1024,1024,1024,0,0,0,0,98,4.926,61.88,36.08924,P-GPS,,11.0
152,15200,2026-01-09 12:37:00,0.0,5,7.818,0.0,0.0,0.0,24.9,-2.4,-2.2,1024,1024,1024,1024,0,0,0,0,98,4.773,61.88,36.08924,P-GPS,,11.0
153,15300,2026-01-09 12:37:00,0.0,5,7.818,0.0,0.0,0.0,25.0,-2.4,-2.3,1024,1024,1024,1024,0,0,0,0,98,4.773,61.88,36.08924,P-GPS,,11.0
154,15400,2026-01-09 12:37:00,0.0,5,7.818,0.0,0.0,0.0,25.0,-1.9,-2.5,1024,1024,1024,1024,0,0,0,0,98,4.773,61.88,36.08924,P-GPS,,11.0
155,15500,2026-01-09 12:37:00,0.0,5,7.818,0.0,0.0,0.0,24.9,-1.5,-2.6,1024,1024,1024,1024,0,0,0,0,98,4.773,61.88,36.08924,P-GPS,,11.0
156,15600,2026-01-09 12:37:00,0.0,5,7.818,0.0,0.0,0.0,25.0,-1.2,-2.4,1024,1024,1024,1024,0,0,0,0,98,4.773,61.88,36.08924,P-GPS,,11.0
157,15700,2026-01-09 12:37:00,0.0,5,7.818,0.0,0.0,0.0,24.9,-1.0,-2.3,1024,1024,1024,1024,0,0,0,0,98,4.773,61.88,36.08924,P-GPS,,11.0
158,15800,2026-01-09 12:37:00,0.0,5,7.818,0.0,0.0,0.0,24.8,-1.2,-2.2,1024,1024,1024,1024,0,0,0,0,98,4.773,61.88,36.08924,P-GPS,,11.0
159,15900,2026-01-09 12:37:01,0.0,5,7.818,0.0,0.0,0.0,24.9,-1.5,-1.9,1024,1024,1024,1024,0,0,0,0,98,4.773,61.88,36.08924,P-GPS,,11.0
160,16000,2026-01-09 12:37:01,0.0,5,7.818,0.0,0.0,0.0,24.9,-1.4,-1.6,1024,1024,1024,1024,0,0,0,0,98,4.773,61.88,36.08924,P-GPS,,11.0
161,16100,2026-01-09 12:37:01,0.0,5,7.818,0.0,0.0,0.0,25.0,-1.6,-1.7,1024,1024,1024,1024,0,0,0,0,98,4.773,61.88,36.08924,P-GPS,,11.0
162,16200,2026-01-09 12:37:01,0.0,5,7.818,0.0,0.0,0.0,24.9,-1.3,-2.4,1024,1024,1024,1024,0,0,0,0,98,4.773,61.88,36.08924,P-GPS,,11.0
163,16300,2026-01-09 12:37:01,0.0,5,7.818,0.0,0.0,0.0,25.0,-1.7,-2.3,1024,1024,1024,1024,0,0,0,0,98,4.773,61.88,36.08924,P-GPS,,11.0
164,16400,2026-01-09 12:37:01,0.0,5,7.82,0.0,0.0,0.0,25.0,-1.4,-2.6,1024,1024,1024,1024,0,0,0,0,98,4.61,61.88,36.08924,P-GPS,,11.0
165,16500,2026-01-09 12:37:01,0.0,5,7.82,0.0,0.0,0.0,25.1,-1.4,-2.4,1024,1024,1024,1024,0,0,0,0,98,4.61,61.88,36.08924,P-GPS,,11.0
166,16600,2026-01-09 12:37:01,0.0,5,7.82,0.0,0.0,0.0,25.1,-1.7,-2.5,1024,1024,1024,1024,0,0,0,0,98,4.61,61.88,36.08924,P-GPS,,11.0
167,16700,2026-01-09 12:37:01,0.0,5,7.82,0.0,0.0,0.0,25.1,-1.3,-2.4,1024,1024,1024,1024,0,0,0,0,98,4.61,61.88,36.08924,P-GPS,,11.0
168,16800,2026-01-09 12:37:01,0.0,5,7.82,0.0,0.0,0.0,25.0,-0.7,-2.3,1024,1024,1024,1024,0,0,0,0,98,4.61,61.88,36.08924,P-GPS,,11.0
169,16900,2026-01-09 12:37:02,0.0,5,7.82,0.0,0.0,0.0,24.9,-0.2,-2.2,1024,1024,1024,1024,0,0,0,0,98,4.61,61.88,36.08924,P-GPS,,11.0
170,17000,2026-01-09 12:37:02,0.0,5,7.82,0.0,0.0,0.0,24.9,0.0,-2.2,1024,1024,1024,1024,0,0,0,0,98,4.61,61.88,36.08924,P-GPS,,11.0
171,17100,2026-01-09 12:37:02,0.0,5,7.82,0.0,0.0,0.0,24.9,0.1,-2.0,1024,1024,1024,1024,0,0,0,0,98,4.61,61.88,36.08924,P-GPS,,11.0
172,17200,2026-01-09 12:37:02,0.0,5,7.82,0.0,0.0,0.0,24.8,0.1,-2.0,1024,1024,1024,1024,0,0,0,0,98,4.61,61.88,36.08924,P-GPS,,11.0
173,17300,2026-01-09 12:37:02,0.0,5,7.82,0.0,0.0,0.0,24.8,0.2,-1.9,1024,1024,1024,1024,0,0,0,0,98,4.61,61.88,36.08924,P-GPS,,11.0
174,17400,2026-01-09 12:37:02,0.0,5,7.82,0.0,0.0,0.0,24.9,0.2,-1.9,1024,1024,1024,1024,0,0,0,0,98,4.61,61.88,36.08924,P-GPS,,11.0
175,17500,2026-01-09 12:37:02,0.0,5,7.816,0.0,0.0,0.0,25.0,0.0,-1.9,1024,1024,1024,1024,0,0,0,0,98,4.667,61.88,36.08924,P-GPS,,11.0
176,17600,2026-01-09 12:37:02,0.0,5,7.816,0.0,0.0,0.0,25.1,0.0,-1.9,1024,1024,1024,1024,0,0,0,0,98,4.667,61.88,36.08924,P-GPS,,11.0
177,17700,2026-01-09 12:37:02,0.0,5,7.816,0.0,0.0,0.0,25.0,0.0,-2.0,1024,1024,1024,1024,0,0,0,0,98,4.667,61.88,36.08924,P-GPS,,11.0
178,17800,2026-01-09 12:37:02,0.0,5,7.816,0.0,0.0,0.0,25.1,0.1,-2.1,1024,1024,1024,1024,0,0,0,0,98,4.667,61.88,36.08924,P-GPS,,11.0
179,17900,2026-01-09 12:37:03,0.0,5,7.816,0.0,0.0,0.0,25.0,0.3,-2.1,1024,1024,1024,1024,0,0,0,0,98,4.667,61.88,36.08924,P-GPS,,11.0
180,18000,2026-01-09 12:37:03,0.0,5,7.816,0.0,0.0,0.0,25.1,0.0,-2.3,1024,1024,1024,1024,0,0,0,0,98,4.667,61.88,36.08924,P-GPS,,11.0
181,18100,2026-01-09 12:37:03,0.0,5,7.816,0.0,0.0,0.0,25.1,0.3,-2.5,1024,1024,1024,1024,0,0,0,0,98,4.667,61.88,36.08924,P-GPS,,11.0
182,18200,2026-01-09 12:37:03,0.0,5,7.816,0.0,0.0,0.0,25.0,0.7,-2.5,1024,1024,1024,1024,0,0,0,0,98,4.667,61.88,36.08924,P-GPS,,11.0
183,18300,2026-01-09 12:37:03,0.0,5,7.816,0.0,0.0,0.0,25.0,1.3,-2.5,1024,1024,1024,1024,0,0,0,0,98,4.667,61.88,36.08924,P-GPS,,11.0
184,18400,2026-01-09 12:37:03,0.0,5,7.816,0.0,0.0,0.0,24.8,1.5,-2.6,1024,1024,1024,1024,0,0,0,0,98,4.667,61.88,36.08924,P-GPS,,11.0
185,18500,2026-01-09 12:37:03,0.0,5,7.816,0.0,0.0,0.0,24.7,1.2,-2.9,1024,1024,1024,1024,0,0,0,0,98,4.667,61.88,36.08924,P-GPS,,11.0
186,18600,2026-01-09 12:37:03,0.0,5,7.816,0.0,0.0,0.0,24.9,1.2,-2.0,1024,1024,1024,1024,0,0,0,0,98,4.667,61.88,36.08924,P-GPS,,11.0
187,18700,2026-01-09 12:37:03,0.0,5,7.816,0.0,0.0,0.0,24.9,0.6,-2.1,1024,1024,1024,1024,0,0,0,0,98,4.667,61.88,36.08924,P-GPS,,11.0
188,18800,2026-01-09 12:37:04,0.223694,5,7.816,-0.223694,0.0,0.0,25.0,-0.6,-2.3,1024,1024,1024,1024,0,0,0,0,98,4.667,61.88,36.08924,P-GPS,,11.0
189,18900,2026-01-09 12:37:04,0.223694,5,7.816,-0.223694,0.0,0.0,25.1,-1.4,-2.7,1024,1024,1024,1024,0,0,0,0,98,4.667,61.88,36.08924,P-GPS,,11.0
190,19000,2026-01-09 12:37:04,0.0,5,7.816,0.0,0.0,0.0,25.1,-1.5,-2.9,1024,1024,1024,1024,0,0,0,0,98,4.667,61.88,36.417324,P-GPS,,11.1
191,19100,2026-01-09 12:37:04,0.0,5,7.816,0.0,0.0,0.0,25.1,-1.5,-3.0,1024,1024,1024,1024,0,0,0,0,98,4.667,61.88,36.417324,P-GPS,,11.1
192,19200,2026-01-09 12:37:04,0.0,5,7.816,0.0,0.0,0.0,25.1,-1.3,-3.1,1024,1024,1024,1024,0,0,0,0,98,4.667,61.88,36.417324,P-GPS,,11.1
193,19300,2026-01-09 12:37:04,0.0,5,7.816,0.0,0.0,0.0,25.2,-1.4,-3.6,1024,1024,1024,1024,0,0,0,0,98,4.667,61.88,36.417324,P-GPS,,11.1
194,19400,2026-01-09 12:37:04,0.0,5,7.816,0.0,0.0,0.0,25.3,-1.6,-4.1,1024,1024,1024,1024,0,0,0,0,98,4.667,61.88,36.745408,P-GPS,,11.2
195,19500,2026-01-09 12:37:04,0.0,5,7.816,0.0,0.0,0.0,25.2,-1.0,-4.5,1024,1024,1024,1024,0,0,0,0,98,4.667,61.88,36.745408,P-GPS,,11.2
196,19600,2026-01-09 12:37:04,0.0,5,7.816,0.0,0.0,0.0,25.2,-0.8,-4.0,1024,1024,1024,1024,0,0,0,0,98,4.667,61.88,36.745408,P-GPS,,11.2
197,19700,2026-01-09 12:37:04,0.0,5,7.807,0.0,0.0,0.0,25.0,0.0,-4.0,1024,1024,1024,1024,0,0,0,0,98,4.76,61.88,36.745408,P-GPS,,11.2
198,19800,2026-01-09 12:37:04,0.0,5,7.807,0.0,0.0,0.0,25.1,0.0,-3.8,1024,1024,1024,1024,0,0,0,0,98,4.76,61.88,36.745408,P-GPS,,11.2
199,19900,2026-01-09 12:37:05,0.0,5,7.807,0.0,0.0,0.0,25.0,0.0,-3.8,1024,1024,1024,1024,0,0,0,0,98,4.76,61.88,36.745408,P-GPS,,11.2
200,20000,2026-01-09 12:37:05,0.0,5,7.807,0.0,0.0,0.0,25.0,-0.7,-3.8,1024,1024,1024,1024,0,0,0,0,98,4.76,61.88,36.745408,P-GPS,,11.2
201,20100,2026-01-09 12:37:05,0.0,5,7.807,0.0,0.0,0.0,25.1,-0.8,-3.4,1024,1024,1024,1024,0,0,0,0,98,4.76,61.88,36.745408,P-GPS,,11.2
202,20200,2026-01-09 12:37:05,0.0,5,7.807,0.0,0.0,0.0,25.0,-0.7,-3.1,1024,1024,1024,1024,0,0,0,0,98,4.76,61.88,36.745408,P-GPS,,11.2
203,20300,2026-01-09 12:37:05,0.0,5,7.807,0.0,0.0,0.0,25.0,-1.0,-2.9,1024,1024,1024,1024,0,0,0,0,98,4.76,61.88,36.745408,P-GPS,,11.2
204,20400,2026-01-09 12:37:05,0.0,5,7.807,0.0,0.0,0.0,24.8,-0.8,-3.1,1024,1024,1024,1024,0,0,0,0,98,4.76,61.88,36.745408,P-GPS,,11.2
205,20500,2026-01-09 12:37:05,0.0,5,7.807,0.0,0.0,0.0,24.9,-1.0,-2.9,1024,1024,1024,1024,0,0,0,0,98,4.76,61.88,36.745408,P-GPS,,11.2
206,20600,2026-01-09 12:37:05,0.0,5,7.807,0.0,0.0,0.0,25.0,-0.8,-2.8,1024,1024,1024,1024,0,0,0,0,98,4.76,61.88,36.745408,P-GPS,,11.2
207,20700,2026-01-09 12:37:05,0.0,5,7.807,0.0,0.0,0.0,25.0,-1.0,-2.6,1024,1024,1024,1024,0,0,0,0,98,4.76,61.88,36.745408,P-GPS,,11.2
208,20800,2026-01-09 12:37:05,0.0,5,7.807,0.0,0.0,0.0,25.0,-1.2,-3.0,1024,1024,1024,1024,0,0,0,0,98,4.76,61.88,36.745408,P-GPS,,11.2
209,20900,2026-01-09 12:37:06,0.0,5,7.807,0.0,0.0,0.0,25.1,-1.4,-3.0,1024,1024,1024,1024,0,0,0,0,98,4.76,61.88,36.745408,P-GPS,,11.2
210,21000,2026-01-09 12:37:06,0.0,5,7.807,0.0,0.0,0.0,25.1,-1.5,-2.8,1024,1024,1024,1024,0,0,0,0,98,4.76,61.88,36.745408,P-GPS,,11.2
211,21100,2026-01-09 12:37:06,0.0,5,7.807,0.0,0.0,0.0,25.0,-0.8,-3.0,1024,1024,1024,1024,0,0,0,0,98,4.76,61.88,36.745408,P-GPS,,11.2
212,21200,2026-01-09 12:37:06,0.0,5,7.807,0.0,0.0,0.0,25.0,-0.2,-2.8,1024,1024,1024,1024,0,0,0,0,98,4.76,61.88,36.745408,P-GPS,,11.2
213,21300,2026-01-09 12:37:06,0.0,5,7.807,0.0,0.0,0.0,25.0,-0.4,-2.9,1024,1024,1024,1024,0,0,0,0,98,4.76,61.88,36.745408,P-GPS,,11.2
214,21400,2026-01-09 12:37:06,0.0,5,7.807,0.0,0.0,0.0,24.9,-0.8,-2.9,1024,1024,1024,1024,0,0,0,0,98,4.76,61.88,36.745408,P-GPS,,11.2
215,21500,2026-01-09 12:37:06,0.0,5,7.805,0.0,0.0,0.0,24.8,-0.7,-2.8,1024,1024,1024,1024,0,0,0,0,98,4.656,62.06,37.073492,P-GPS,,11.3
216,21600,2026-01-09 12:37:06,0.0,5,7.805,0.0,0.0,0.0,24.9,-1.1,-2.7,1024,1024,1024,1024,0,0,0,0,98,4.656,62.06,37.073492,P-GPS,,11.3
217,21700,2026-01-09 12:37:06,0.0,5,7.805,0.0,0.0,0.0,24.9,-1.3,-2.7,1024,1024,1024,1024,0,0,0,0,98,4.656,62.06,37.073492,P-GPS,,11.3
218,21800,2026-01-09 12:37:07,0.0,5,7.805,0.0,0.0,0.0,25.0,-1.7,-2.9,1024,1024,1024,1024,0,0,0,0,98,4.656,62.06,36.745408,P-GPS,,11.2
219,21900,2026-01-09 12:37:07,0.0,5,7.805,0.0,0.0,0.0,25.0,-1.2,-2.5,1024,1024,1024,1024,0,0,0,0,98,4.656,62.06,36.745408,P-GPS,,11.2
220,22000,2026-01-09 12:37:07,0.0,5,7.805,0.0,0.0,0.0,25.0,-0.4,-2.4,1024,1024,1024,1024,0,0,0,0,98,4.656,62.06,36.745408,P-GPS,,11.2
221,22100,2026-01-09 12:37:07,0.0,5,7.805,0.0,0.0,0.0,25.0,-0.5,-2.1,1024,1024,1024,1024,0,0,0,0,98,4.656,62.06,36.745408,P-GPS,,11.2
222,22200,2026-01-09 12:37:07,0.0,5,7.805,0.0,0.0,0.0,25.2,-1.0,-1.9,1024,1024,1024,1024,0,0,0,0,98,4.656,62.06,36.745408,P-GPS,,11.2
223,22300,2026-01-09 12:37:07,0.0,5,7.805,0.0,0.0,0.0,25.1,-0.9,-1.8,1024,1024,1024,1024,0,0,0,0,98,4.656,62.06,36.745408,P-GPS,,11.2
224,22400,2026-01-09 12:37:07,0.0,5,7.805,0.0,0.0,0.0,25.2,-0.5,-2.1,1024,1024,1024,1024,0,0,0,0,98,4.656,62.06,36.745408,P-GPS,,11.2
225,22500,2026-01-09 12:37:07,0.0,5,7.812,0.0,0.0,0.0,25.2,0.2,-2.2,1024,1024,1024,1024,0,0,0,0,97,4.606,62.06,36.745408,P-GPS,,11.2
226,22600,2026-01-09 12:37:07,0.0,5,7.812,0.0,0.0,0.0,25.2,0.9,-2.4,1024,1024,1024,1024,0,0,0,0,97,4.606,62.06,36.745408,P-GPS,,11.2
227,22700,2026-01-09 12:37:07,0.0,5,7.812,0.0,0.0,0.0,25.2,1.1,-2.7,1024,1024,1024,1024,0,0,0,0,97,4.606,62.06,36.745408,P-GPS,,11.2
228,22800,2026-01-09 12:37:07,0.0,5,7.812,0.0,0.0,0.0,25.2,1.5,-2.9,1024,1024,1024,1024,0,0,0,0,97,4.606,62.06,37.073492,P-GPS,,11.3
229,22900,2026-01-09 12:37:08,0.0,5,7.812,0.0,0.0,0.0,25.0,1.4,-3.5,1024,1024,1024,1024,0,0,0,0,97,4.606,62.06,37.073492,P-GPS,,11.3
230,23000,2026-01-09 12:37:08,0.0,5,7.812,0.0,0.0,0.0,25.1,1.8,-3.6,1024,1024,1024,1024,0,0,0,0,97,4.606,62.06,37.073492,P-GPS,,11.3
231,23100,2026-01-09 12:37:08,0.0,5,7.812,0.0,0.0,0.0,25.2,1.6,-3.7,1024,1024,1024,1024,0,0,0,0,97,4.606,62.06,37.073492,P-GPS,,11.3
232,23200,2026-01-09 12:37:08,0.0,5,7.812,0.0,0.0,0.0,25.2,0.9,-4.1,1024,1024,1024,1024,0,0,0,0,97,4.606,62.06,37.073492,P-GPS,,11.3
233,23300,2026-01-09 12:37:08,0.0,5,7.812,0.0,0.0,0.0,25.2,0.9,-4.2,1024,1024,1024,1024,0,0,0,0,97,4.606,62.06,37.401576,P-GPS,,11.4
234,23400,2026-01-09 12:37:08,0.0,5,7.812,0.0,0.0,0.0,25.1,1.0,-4.1,1024,1024,1024,1024,0,0,0,0,97,4.606,62.06,37.401576,P-GPS,,11.4
235,23500,2026-01-09 12:37:08,0.0,5,7.794,0.0,0.0,0.0,25.2,1.3,-4.0,1024,1024,1024,1024,0,0,0,0,97,4.887,62.06,37.401576,P-GPS,,11.4
236,23600,2026-01-09 12:37:08,0.0,5,7.794,0.0,0.0,0.0,25.2,1.1,-3.8,1024,1024,1024,1024,0,0,0,0,97,4.887,62.06,37.401576,P-GPS,,11.4
237,23700,2026-01-09 12:37:08,0.0,5,7.794,0.0,0.0,0.0,25.4,1.1,-3.2,1024,1024,1024,1024,0,0,0,0,97,4.887,62.06,37.401576,P-GPS,,11.4
238,23800,2026-01-09 12:37:08,0.0,5,7.794,0.0,0.0,0.0,25.4,1.3,-3.0,1024,1024,1024,1024,0,0,0,0,97,4.887,62.06,37.401576,P-GPS,,11.4
239,23900,2026-01-09 12:37:09,0.0,5,7.794,0.0,0.0,0.0,25.2,1.6,-2.9,1024,1024,1024,1024,0,0,0,0,97,4.887,62.06,37.401576,P-GPS,,11.4
240,24000,2026-01-09 12:37:09,0.0,5,7.794,0.0,0.0,0.0,25.1,2.0,-3.0,1024,1024,1024,1024,0,0,0,0,97,4.887,62.06,37.401576,P-GPS,,11.4
241,24100,2026-01-09 12:37:09,0.0,5,7.794,0.0,0.0,0.0,25.0,1.6,-2.9,1024,1024,1024,1024,0,0,0,0,97,4.887,62.06,37.401576,P-GPS,,11.4
242,24200,2026-01-09 12:37:09,0.0,5,7.794,0.0,0.0,0.0,25.0,1.3,-3.1,1024,1024,1024,1024,0,0,0,0,97,4.887,62.06,37.401576,P-GPS,,11.4
243,24300,2026-01-09 12:37:09,0.0,5,7.794,0.0,0.0,0.0,24.9,1.2,-3.2,1024,1024,1024,1024,0,0,0,0,97,4.887,62.06,37.401576,P-GPS,,11.4
244,24400,2026-01-09 12:37:09,0.0,5,7.794,0.0,0.0,0.0,24.7,0.1,-3.5,1024,1024,1024,1024,0,0,0,0,97,4.887,62.06,37.401576,P-GPS,,11.4
245,24500,2026-01-09 12:37:09,0.0,5,7.794,0.0,0.0,0.0,24.8,0.1,-3.5,1024,1024,1024,1024,0,0,0,0,97,4.887,62.06,37.401576,P-GPS,,11.4
246,24600,2026-01-09 12:37:09,0.223694,5,7.8,-0.223694,0.0,0.0,24.9,-0.4,-3.9,1024,1024,1024,1024,0,0,0,0,97,4.843,62.24,37.401576,P-GPS,,11.4
247,24700,2026-01-09 12:37:09,0.0,5,7.8,0.0,0.0,0.0,24.9,-1.2,-3.8,1024,1024,1024,1024,0,0,0,0,97,4.843,62.24,37.72966,P-GPS,,11.5
248,24800,2026-01-09 12:37:09,0.0,5,7.8,0.0,0.0,0.0,24.9,-1.2,-3.3,1024,1024,1024,1024,0,0,0,0,97,4.843,62.24,37.401576,P-GPS,,11.4
249,24900,2026-01-09 12:37:10,0.0,5,7.8,0.0,0.0,0.0,24.8,-0.6,-3.0,1024,1024,1024,1024,0,0,0,0,97,4.843,62.24,37.401576,P-GPS,,11.4
250,25000,2026-01-09 12:37:10,0.0,5,7.8,0.0,0.0,0.0,24.9,0.3,-3.1,1024,1024,1024,1024,0,0,0,0,97,4.843,62.24,37.401576,P-GPS,,11.4
251,25100,2026-01-09 12:37:10,0.0,5,7.8,0.0,0.0,0.0,25.0,-0.7,-2.9,1024,1024,1024,1024,0,0,0,0,97,4.843,62.24,37.401576,P-GPS,,11.4
252,25200,2026-01-09 12:37:10,0.0,5,7.8,0.0,0.0,0.0,24.9,-0.5,-3.2,1024,1024,1024,1024,0,0,0,0,97,4.843,62.24,37.401576,P-GPS,,11.4
253,25300,2026-01-09 12:37:10,0.0,5,7.8,0.0,0.0,0.0,24.8,0.2,-3.4,1024,1024,1024,1024,0,0,0,0,97,4.843,62.24,37.401576,P-GPS,,11.4
254,25400,2026-01-09 12:37:10,0.0,5,7.8,0.0,0.0,0.0,24.9,0.0,-3.7,1024,1024,1024,1024,0,0,0,0,97,4.843,62.24,37.401576,P-GPS,,11.4
255,25500,2026-01-09 12:37:10,0.0,5,7.791,0.0,0.0,0.0,24.9,0.3,-3.5,1024,1024,1024,1024,0,0,0,0,97,4.879,62.24,37.401576,P-GPS,,11.4
256,25600,2026-01-09 12:37:10,0.0,5,7.791,0.0,0.0,0.0,24.9,0.5,-3.4,1024,1024,1024,1024,0,0,0,0,97,4.879,62.24,37.401576,P-GPS,,11.4
257,25700,2026-01-09 12:37:10,0.0,5,7.791,0.0,0.0,0.0,24.9,0.3,-3.4,1024,1024,1024,1024,0,0,0,0,97,4.879,62.24,37.401576,P-GPS,,11.4
258,25800,2026-01-09 12:37:10,0.0,5,7.791,0.0,0.0,0.0,24.9,-0.6,-3.1,1024,1024,1024,1024,0,0,0,0,97,4.879,62.24,37.401576,P-GPS,,11.4
259,25900,2026-01-09 12:37:11,0.0,5,7.791,0.0,0.0,0.0,24.7,-0.5,-3.4,1024,1024,1024,1024,0,0,0,0,97,4.879,62.24,37.401576,P-GPS,,11.4
260,26000,2026-01-09 12:37:11,0.0,5,7.791,0.0,0.0,0.0,24.7,0.2,-2.9,1024,1024,1024,1024,0,0,0,0,97,4.879,62.24,37.401576,P-GPS,,11.4
261,26100,2026-01-09 12:37:11,0.0,5,7.791,0.0,0.0,0.0,24.7,-0.1,-2.6,1024,1024,1024,1024,0,0,0,0,97,4.879,62.24,37.401576,P-GPS,,11.4
262,26200,2026-01-09 12:37:11,0.0,5,7.791,0.0,0.0,0.0,24.7,-0.4,-3.0,1024,1024,1024,1024,0,0,0,0,97,4.879,62.24,37.401576,P-GPS,,11.4
263,26300,2026-01-09 12:37:11,0.0,5,7.791,0.0,0.0,0.0,24.7,-0.9,-2.8,1024,1024,1024,1024,0,0,0,0,97,4.879,62.24,37.401576,P-GPS,,11.4
264,26400,2026-01-09 12:37:11,0.0,5,7.798,0.0,0.0,0.0,24.8,-1.3,-2.7,1024,1024,1024,1024,0,0,0,0,97,4.765,62.42,37.401576,P-GPS,,11.4
265,26500,2026-01-09 12:37:11,0.0,5,7.798,0.0,0.0,0.0,24.8,-1.6,-2.7,1024,1024,1024,1024,0,0,0,0,97,4.765,62.42,37.401576,P-GPS,,11.4
266,26600,2026-01-09 12:37:11,0.0,5,7.798,0.0,0.0,0.0,24.9,-2.0,-2.5,1024,1024,1024,1024,0,0,0,0,97,4.765,62.42,37.401576,P-GPS,,11.4
267,26700,2026-01-09 12:37:11,0.0,5,7.798,0.0,0.0,0.0,24.8,-1.5,-2.8,1024,1024,1024,1024,0,0,0,0,97,4.765,62.42,37.401576,P-GPS,,11.4
268,26800,2026-01-09 12:37:11,0.0,5,7.798,0.0,0.0,0.0,24.9,-1.5,-2.7,1024,1024,1024,1024,0,0,0,0,97,4.765,62.42,37.401576,P-GPS,,11.4
269,26900,2026-01-09 12:37:12,0.0,5,7.798,0.0,0.0,0.0,25.0,-1.5,-2.3,1024,1024,1024,1024,0,0,0,0,97,4.765,62.42,37.401576,P-GPS,,11.4
270,27000,2026-01-09 12:37:12,0.0,5,7.798,0.0,0.0,0.0,25.0,-0.7,-2.3,1024,1024,1024,1024,0,0,0,0,97,4.765,62.42,37.401576,P-GPS,,11.4
271,27100,2026-01-09 12:37:12,0.0,5,7.798,0.0,0.0,0.0,24.9,0.0,-2.2,1024,1024,1024,1024,0,0,0,0,97,4.765,62.42,37.401576,P-GPS,,11.4
272,27200,2026-01-09 12:37:12,0.0,5,7.798,0.0,0.0,0.0,24.8,0.0,-2.3,1024,1024,1024,1024,0,0,0,0,97,4.765,62.42,37.401576,P-GPS,,11.4
273,27300,2026-01-09 12:37:12,0.0,5,7.798,0.0,0.0,0.0,24.8,0.1,-2.1,1024,1024,1024,1024,0,0,0,0,97,4.765,62.42,37.073492,P-GPS,,11.3
274,27400,2026-01-09 12:37:12,0.0,5,7.798,0.0,0.0,0.0,24.8,-0.1,-2.2,1024,1024,1024,1024,0,0,0,0,97,4.765,62.42,37.073492,P-GPS,,11.3
275,27500,2026-01-09 12:37:12,0.0,5,7.803,0.0,0.0,0.0,24.9,-0.6,-2.3,1024,1024,1024,1024,0,0,0,0,97,4.655,62.42,37.073492,P-GPS,,11.3
276,27600,2026-01-09 12:37:12,0.0,5,7.803,0.0,0.0,0.0,24.9,-0.9,-2.3,1024,1024,1024,1024,0,0,0,0,97,4.655,62.42,37.073492,P-GPS,,11.3
277,27700,2026-01-09 12:37:12,0.0,5,7.803,0.0,0.0,0.0,24.9,-0.9,-2.0,1024,1024,1024,1024,0,0,0,0,97,4.655,62.42,37.073492,P-GPS,,11.3
278,27800,2026-01-09 12:37:13,0.0,5,7.803,0.0,0.0,0.0,24.9,-1.1,-2.0,1024,1024,1024,1024,0,0,0,0,97,4.655,62.42,37.073492,P-GPS,,11.3
279,27900,2026-01-09 12:37:13,0.0,5,7.803,0.0,0.0,0.0,25.0,-1.0,-1.8,1024,1024,1024,1024,0,0,0,0,97,4.655,62.42,37.073492,P-GPS,,11.3
280,28000,2026-01-09 12:37:13,0.0,5,7.803,0.0,0.0,0.0,25.0,-1.1,-1.9,1024,1024,1024,1024,0,0,0,0,97,4.655,62.42,37.073492,P-GPS,,11.3
281,28100,2026-01-09 12:37:13,0.0,5,7.803,0.0,0.0,0.0,25.0,-1.0,-2.0,1024,1024,1024,1024,0,0,0,0,97,4.655,62.42,37.073492,P-GPS,,11.3
282,28200,2026-01-09 12:37:13,0.0,5,7.803,0.0,0.0,0.0,25.0,-1.2,-1.6,1024,1024,1024,1024,0,0,0,0,97,4.655,62.42,37.073492,P-GPS,,11.3
283,28300,2026-01-09 12:37:13,0.0,5,7.803,0.0,0.0,0.0,25.0,-1.3,-1.2,1024,1024,1024,1024,0,0,0,0,97,4.655,62.42,37.073492,P-GPS,,11.3
284,28400,2026-01-09 12:37:13,0.0,5,7.803,0.0,0.0,0.0,24.9,-1.3,-1.5,1024,1024,1024,1024,0,0,0,0,97,4.655,62.42,37.073492,P-GPS,,11.3
285,28500,2026-01-09 12:37:13,0.0,5,7.803,0.0,0.0,0.0,24.9,-1.6,-1.5,1024,1024,1024,1024,0,0,0,0,97,4.655,62.42,37.073492,P-GPS,,11.3
286,28600,2026-01-09 12:37:13,0.0,5,7.803,0.0,0.0,0.0,25.0,-1.4,-1.5,1024,1024,1024,1024,0,0,0,0,97,4.655,62.42,37.073492,P-GPS,,11.3
287,28700,2026-01-09 12:37:13,0.0,5,7.803,0.0,0.0,0.0,24.9,-1.4,-1.6,1024,1024,1024,1024,0,0,0,0,97,4.655,62.42,37.073492,P-GPS,,11.3
288,28800,2026-01-09 12:37:13,0.0,5,7.803,0.0,0.0,0.0,24.8,-0.9,-2.3,1024,1024,1024,1024,0,0,0,0,97,4.655,62.42,37.073492,P-GPS,,11.3
289,28900,2026-01-09 12:37:14,0.0,5,7.803,0.0,0.0,0.0,24.8,-0.7,-2.2,1024,1024,1024,1024,0,0,0,0,97,4.655,62.42,37.073492,P-GPS,,11.3
290,29000,2026-01-09 12:37:14,0.0,5,7.803,0.0,0.0,0.0,24.8,-0.3,-2.2,1024,1024,1024,1024,0,0,0,0,97,4.655,62.42,37.073492,P-GPS,,11.3
291,29100,2026-01-09 12:37:14,0.0,5,7.803,0.0,0.0,0.0,24.8,-0.1,-2.1,1024,1024,1024,1024,0,0,0,0,97,4.655,62.42,37.073492,P-GPS,,11.3
292,29200,2026-01-09 12:37:14,0.0,5,7.803,0.0,0.0,0.0,24.8,0.0,-2.0,1024,1024,1024,1024,0,0,0,0,97,4.655,62.42,37.073492,P-GPS,,11.3
293,29300,2026-01-09 12:37:14,0.0,5,7.803,0.0,0.0,0.0,24.8,0.0,-1.7,1024,1024,1024,1024,0,0,0,0,97,4.655,62.42,37.073492,P-GPS,,11.3
294,29400,2026-01-09 12:37:14,0.0,5,7.803,0.0,0.0,0.0,24.9,0.0,-1.3,1024,1024,1024,1024,0,0,0,0,97,4.655,62.42,36.745408,P-GPS,,11.2
295,29500,2026-01-09 12:37:14,0.0,5,7.803,0.0,0.0,0.0,25.1,-0.2,-0.9,1024,1024,1024,1024,0,0,0,0,97,4.655,62.42,36.745408,P-GPS,,11.2
296,29600,2026-01-09 12:37:14,0.0,5,7.803,0.0,0.0,0.0,25.0,-0.1,-1.0,1024,1024,1024,1024,0,0,0,0,97,4.655,62.42,36.745408,P-GPS,,11.2
297,29700,2026-01-09 12:37:14,0.0,5,7.799,0.0,0.0,0.0,25.0,-0.9,-0.7,1024,1024,1024,1024,0,0,0,0,97,4.667,62.42,36.745408,P-GPS,,11.2
298,29800,2026-01-09 12:37:15,0.0,5,7.799,0.0,0.0,0.0,24.9,-1.1,-1.1,1024,1024,1024,1024,0,0,0,0,97,4.667,62.42,36.745408,P-GPS,,11.2
299,29900,2026-01-09 12:37:15,0.0,5,7.799,0.0,0.0,0.0,24.9,-0.9,-1.4,1024,1024,1024,1024,0,0,0,0,97,4.667,62.42,37.073492,P-GPS,,11.3
300,30000,2026-01-09 12:37:15,0.0,5,7.799,0.0,0.0,0.0,24.9,-1.4,-1.8,1024,1024,1024,1024,0,0,0,0,97,4.667,62.42,37.073492,P-GPS,,11.3
301,30100,2026-01-09 12:37:15,0.0,5,7.799,0.0,0.0,0.0,25.0,-1.7,-2.3,1024,1024,1024,1024,0,0,0,0,97,4.667,62.42,37.073492,P-GPS,,11.3
302,30200,2026-01-09 12:37:15,0.0,5,7.799,0.0,0.0,0.0,25.2,-2.2,-2.2,1024,1024,1024,1024,0,0,0,0,97,4.667,62.42,37.073492,P-GPS,,11.3
303,30300,2026-01-09 12:37:15,0.0,5,7.799,0.0,0.0,0.0,25.2,-1.7,-2.5,1024,1024,1024,1024,0,0,0,0,97,4.667,62.42,37.073492,P-GPS,,11.3
304,30400,2026-01-09 12:37:15,0.0,5,7.799,0.0,0.0,0.0,25.1,-1.6,-2.6,1024,1024,1024,1024,0,0,0,0,97,4.667,62.42,37.073492,P-GPS,,11.3
305,30500,2026-01-09 12:37:15,0.0,5,7.799,0.0,0.0,0.0,25.0,-1.6,-2.7,1024,1024,1024,1024,0,0,0,0,97,4.667,62.42,37.073492,P-GPS,,11.3
306,30600,2026-01-09 12:37:15,0.0,5,7.799,0.0,0.0,0.0,25.0,-1.5,-2.6,1024,1024,1024,1024,0,0,0,0,97,4.667,62.42,37.073492,P-GPS,,11.3
307,30700,2026-01-09 12:37:15,0.0,5,7.799,0.0,0.0,0.0,25.0,-1.4,-2.2,1024,1024,1024,1024,0,0,0,0,97,4.667,62.42,37.073492,P-GPS,,11.3
308,30800,2026-01-09 12:37:15,0.0,5,7.802,0.0,0.0,0.0,25.0,-1.7,-2.4,1024,1024,1024,1024,0,0,0,0,97,4.698,62.6,37.401576,P-GPS,,11.4
309,30900,2026-01-09 12:37:16,0.0,5,7.802,0.0,0.0,0.0,25.2,-2.3,-2.4,1024,1024,1024,1024,0,0,0,0,97,4.698,62.6,37.401576,P-GPS,,11.4
310,31000,2026-01-09 12:37:16,0.0,5,7.802,0.0,0.0,0.0,25.3,-1.8,-2.6,1024,1024,1024,1024,0,0,0,0,97,4.698,62.6,37.401576,P-GPS,,11.4
311,31100,2026-01-09 12:37:16,0.223694,5,7.802,0.0,0.223694,0.0,25.3,-1.4,-3.7,1024,1024,1024,1024,0,0,0,0,97,4.698,62.6,37.401576,P-GPS,,11.4
312,31200,2026-01-09 12:37:16,0.223694,5,7.802,0.0,0.223694,0.0,25.2,-0.7,-4.5,1024,1024,1024,1024,0,0,0,0,97,4.698,62.6,37.72966,P-GPS,,11.5
313,31300,2026-01-09 12:37:16,0.223694,5,7.802,0.0,0.223694,0.0,25.0,-0.1,-4.7,1024,1024,1024,1024,0,0,0,0,97,4.698,62.6,37.72966,P-GPS,,11.5
314,31400,2026-01-09 12:37:16,0.0,5,7.802,0.0,0.0,0.0,25.2,-1.2,-4.6,1024,1024,1024,1024,0,0,0,0,97,4.698,62.6,37.72966,P-GPS,,11.5
315,31500,2026-01-09 12:37:16,0.0,5,7.802,0.0,0.0,0.0,25.4,-2.3,-5.0,1024,1024,1024,1024,0,0,0,0,97,4.698,62.6,37.72966,P-GPS,,11.5
316,31600,2026-01-09 12:37:16,0.0,5,7.802,0.0,0.0,0.0,25.3,-2.0,-5.6,1024,1024,1024,1024,0,0,0,0,97,4.698,62.6,37.72966,P-GPS,,11.5
317,31700,2026-01-09 12:37:16,0.0,5,7.802,0.0,0.0,0.0,25.2,-1.9,-5.3,1024,1024,1024,1024,0,0,0,0,97,4.698,62.6,37.72966,P-GPS,,11.5
318,31800,2026-01-09 12:37:16,0.0,5,7.802,0.0,0.0,0.0,25.1,-1.7,-5.3,1024,1024,1024,1024,0,0,0,0,97,4.698,62.6,37.72966,P-GPS,,11.5
319,31900,2026-01-09 12:37:17,0.0,5,7.749,0.0,0.0,0.0,25.2,-1.5,-4.6,1024,1024,1024,1024,0,0,0,0,97,5.238,62.6,37.72966,P-GPS,,11.5
320,32000,2026-01-09 12:37:17,0.0,5,7.749,0.0,0.0,0.0,25.2,-1.2,-4.5,1024,1024,1024,1024,0,0,0,0,97,5.238,62.6,37.72966,P-GPS,,11.5
321,32100,2026-01-09 12:37:17,0.0,5,7.749,0.0,0.0,0.0,25.2,-1.0,-4.2,1024,1024,1024,1024,0,0,0,0,97,5.238,62.6,37.72966,P-GPS,,11.5
322,32200,2026-01-09 12:37:17,0.0,5,7.749,0.0,0.0,0.0,25.1,-0.6,-4.2,1024,1024,1024,1024,0,0,0,0,97,5.238,62.6,37.72966,P-GPS,,11.5
323,32300,2026-01-09 12:37:17,0.0,5,7.749,0.0,0.0,0.0,24.9,-0.7,-4.9,1024,1024,1024,1024,0,0,0,0,97,5.238,62.6,37.72966,P-GPS,,11.5
324,32400,2026-01-09 12:37:17,0.0,5,7.749,0.0,0.0,0.0,25.0,-1.2,-4.5,1024,1024,1024,1024,0,0,0,0,97,5.238,62.6,37.72966,P-GPS,,11.5
325,32500,2026-01-09 12:37:17,0.0,5,7.749,0.0,0.0,0.0,25.2,-1.5,-4.1,1024,1024,1024,1024,0,0,0,0,97,5.238,62.6,38.057744,P-GPS,,11.6
326,32600,2026-01-09 12:37:17,0.0,5,7.749,0.0,0.0,0.0,25.1,-1.1,-4.3,1024,1024,1024,1024,0,0,0,0,97,5.238,62.6,38.057744,P-GPS,,11.6
327,32700,2026-01-09 12:37:17,0.0,5,7.749,0.0,0.0,0.0,25.0,-0.5,-4.8,1024,1024,1024,1024,0,0,0,0,97,5.238,62.6,38.057744,P-GPS,,11.6
328,32800,2026-01-09 12:37:17,0.0,5,7.749,0.0,0.0,0.0,25.0,-0.9,-4.9,1024,1024,1024,1024,0,0,0,0,97,5.238,62.6,38.057744,P-GPS,,11.6
329,32900,2026-01-09 12:37:18,0.0,5,7.749,0.0,0.0,0.0,25.1,-1.7,-5.1,1024,1024,1024,1024,0,0,0,0,97,5.238,62.6,38.385828,P-GPS,,11.7
330,33000,2026-01-09 12:37:18,0.0,5,7.782,0.0,0.0,0.0,25.0,-1.9,-5.5,1024,1024,1024,1024,0,0,0,0,97,5.129,62.78,38.385828,P-GPS,,11.7
331,33100,2026-01-09 12:37:18,0.0,5,7.782,0.0,0.0,0.0,25.1,-2.2,-5.6,1024,1024,1024,1024,0,0,0,0,97,5.129,62.78,38.385828,P-GPS,,11.7
332,33200,2026-01-09 12:37:18,0.0,5,7.782,0.0,0.0,0.0,25.2,-1.7,-6.4,1024,1024,1024,1024,0,0,0,0,97,5.129,62.78,38.385828,P-GPS,,11.7
333,33300,2026-01-09 12:37:18,0.0,5,7.782,0.0,0.0,0.0,25.4,-1.8,-6.2,1024,1024,1024,1024,0,0,0,0,97,5.129,62.78,38.713912,P-GPS,,11.8
334,33400,2026-01-09 12:37:18,0.0,5,7.782,0.0,0.0,0.0,25.3,-0.9,-6.6,1024,1024,1024,1024,0,0,0,0,97,5.129,62.78,38.713912,P-GPS,,11.8
335,33500,2026-01-09 12:37:18,0.0,5,7.782,0.0,0.0,0.0,25.1,0.2,-6.4,1024,1024,1024,1024,0,0,0,0,97,5.129,62.78,38.713912,P-GPS,,11.8
336,33600,2026-01-09 12:37:18,0.223694,5,7.782,0.223694,0.0,0.0,25.0,1.3,-6.3,1024,1024,1024,1024,0,0,0,0,97,5.129,62.78,38.713912,P-GPS,,11.8
337,33700,2026-01-09 12:37:18,0.223694,5,7.782,0.223694,0.0,0.0,25.0,1.2,-5.5,1024,1024,1024,1024,0,0,0,0,97,5.129,62.78,38.713912,P-GPS,,11.8
338,33800,2026-01-09 12:37:18,0.223694,5,7.782,0.223694,0.0,0.0,24.7,2.9,-5.3,1024,1024,1024,1024,0,0,0,0,97,5.129,62.78,39.041996,P-GPS,,11.9
339,33900,2026-01-09 12:37:19,0.0,5,7.782,0.0,0.0,0.0,24.6,3.2,-5.1,1024,1024,1024,1024,0,0,0,0,97,5.129,62.78,38.713912,P-GPS,,11.8
340,34000,2026-01-09 12:37:19,0.223694,5,7.782,0.0,-0.223694,0.0,24.5,1.8,-4.7,1024,1024,1024,1024,0,0,0,0,97,5.129,62.78,38.713912,P-GPS,,11.8
341,34100,2026-01-09 12:37:19,0.223694,5,7.787,0.0,-0.223694,0.0,24.8,0.1,-3.0,1024,1024,1024,1024,0,0,0,0,97,4.886,62.78,38.713912,P-GPS,,11.8
342,34200,2026-01-09 12:37:19,0.223694,5,7.787,0.0,-0.223694,0.0,24.8,-0.8,-2.5,1024,1024,1024,1024,0,0,0,0,97,4.886,62.78,38.713912,P-GPS,,11.8
343,34300,2026-01-09 12:37:19,0.223694,5,7.787,0.0,-0.223694,0.0,24.9,-0.8,-2.7,1024,1024,1024,1024,0,0,0,0,97,4.886,62.78,38.713912,P-GPS,,11.8
344,34400,2026-01-09 12:37:19,0.223694,5,7.787,0.0,-0.223694,0.0,24.8,-0.9,-3.1,1024,1024,1024,1024,0,0,0,0,97,4.886,62.78,38.713912,P-GPS,,11.8
345,34500,2026-01-09 12:37:19,0.223694,5,7.787,0.0,-0.223694,0.0,24.9,-2.0,-2.7,1024,1024,1024,1024,0,0,0,0,97,4.886,62.78,38.713912,P-GPS,,11.8
346,34600,2026-01-09 12:37:19,0.0,5,7.787,0.0,0.0,0.0,24.9,-2.1,-2.7,1024,1024,1024,1024,0,0,0,0,97,4.886,62.78,38.713912,P-GPS,,11.8
347,34700,2026-01-09 12:37:19,0.0,5,7.787,0.0,0.0,0.0,25.0,-1.8,-2.9,1024,1024,1024,1024,0,0,0,0,97,4.886,62.78,38.713912,P-GPS,,11.8
348,34800,2026-01-09 12:37:19,0.0,5,7.787,0.0,0.0,0.0,25.0,-1.6,-2.9,1024,1024,1024,1024,0,0,0,0,97,4.886,62.78,38.385828,P-GPS,,11.7
349,34900,2026-01-09 12:37:20,0.0,5,7.787,0.0,0.0,0.0,24.9,-1.4,-3.1,1024,1024,1024,1024,0,0,0,0,97,4.886,62.78,38.385828,P-GPS,,11.7
350,35000,2026-01-09 12:37:20,0.0,5,7.787,0.0,0.0,0.0,24.9,-1.8,-2.6,1024,1024,1024,1024,0,0,0,0,97,4.886,62.78,38.385828,P-GPS,,11.7
351,35100,2026-01-09 12:37:20,0.0,5,7.787,0.0,0.0,0.0,24.9,-2.1,-2.0,1024,1024,1024,1024,0,0,0,0,97,4.886,62.78,38.385828,P-GPS,,11.7
352,35200,2026-01-09 12:37:20,0.0,5,7.795,0.0,0.0,0.0,25.0,-2.4,-2.1,1024,1024,1024,1024,0,0,0,0,97,4.703,62.78,38.385828,P-GPS,,11.7
353,35300,2026-01-09 12:37:20,0.0,5,7.795,0.0,0.0,0.0,25.0,-1.3,-2.0,1024,1024,1024,1024,0,0,0,0,97,4.703,62.78,38.385828,P-GPS,,11.7
354,35400,2026-01-09 12:37:20,0.0,5,7.795,0.0,0.0,0.0,25.0,-1.8,-1.7,1024,1024,1024,1024,0,0,0,0,97,4.703,62.78,38.385828,P-GPS,,11.7
355,35500,2026-01-09 12:37:20,0.0,5,7.795,0.0,0.0,0.0,25.1,-1.6,-1.8,1024,1024,1024,1024,0,0,0,0,97,4.703,62.78,38.385828,P-GPS,,11.7
356,35600,2026-01-09 12:37:20,0.0,5,7.795,0.0,0.0,0.0,25.0,-2.2,-2.1,1024,1024,1024,1024,0,0,0,0,97,4.703,62.78,38.385828,P-GPS,,11.7
357,35700,2026-01-09 12:37:20,0.0,5,7.795,0.0,0.0,0.0,24.8,-1.1,-2.8,1024,1024,1024,1024,0,0,0,0,97,4.703,62.78,38.385828,P-GPS,,11.7
358,35800,2026-01-09 12:37:20,0.0,5,7.795,0.0,0.0,0.0,24.9,-1.5,-2.2,1024,1024,1024,1024,0,0,0,0,97,4.703,62.78,38.385828,P-GPS,,11.7
359,35900,2026-01-09 12:37:21,0.0,5,7.795,0.0,0.0,0.0,24.8,-2.1,-2.6,1024,1024,1024,1024,0,0,0,0,97,4.703,62.78,38.385828,P-GPS,,11.7
360,36000,2026-01-09 12:37:21,0.0,5,7.795,0.0,0.0,0.0,24.8,-2.5,-2.7,1024,1024,1024,1024,0,0,0,0,97,4.703,62.78,38.385828,P-GPS,,11.7
361,36100,2026-01-09 12:37:21,0.0,5,7.795,0.0,0.0,0.0,24.8,-2.2,-2.7,1024,1024,1024,1024,0,0,0,0,97,4.703,62.78,38.385828,P-GPS,,11.7
362,36200,2026-01-09 12:37:21,0.0,5,7.795,0.0,0.0,0.0,24.8,-1.8,-2.2,1024,1024,1024,1024,0,0,0,0,97,4.703,62.78,38.713912,P-GPS,,11.8
363,36300,2026-01-09 12:37:21,0.0,5,7.795,0.0,0.0,0.0,24.9,-1.6,-3.8,1024,1024,1024,1024,0,0,0,0,97,4.703,62.78,38.713912,P-GPS,,11.8
364,36400,2026-01-09 12:37:21,0.0,5,7.795,0.0,0.0,0.0,25.1,-2.9,-3.3,1024,1024,1024,1024,0,0,0,0,97,4.678,62.78,38.713912,P-GPS,,11.8
365,36500,2026-01-09 12:37:21,0.0,5,7.795,0.0,0.223694,0.0,25.1,-2.2,-3.9,1024,1024,1024,1024,0,0,0,0,97,4.678,62.78,38.713912,P-GPS,,11.8
366,36600,2026-01-09 12:37:21,0.223694,5,7.795,0.0,0.223694,0.0,24.9,0.6,-4.6,1024,1024,1024,1024,0,0,0,0,97,4.678,62.78,38.713912,P-GPS,,11.8
367,36700,2026-01-09 12:37:21,0.0,5,7.795,0.0,0.0,0.0,25.2,-0.5,-3.9,1024,1024,1024,1024,0,0,0,0,97,4.678,62.78,39.041996,P-GPS,,11.9
368,36800,2026-01-09 12:37:21,0.0,5,7.795,0.0,0.0,0.0,25.3,-1.2,-4.8,1024,1024,1024,1024,0,0,0,0,97,4.678,62.78,39.041996,P-GPS,,11.9
369,36900,2026-01-09 12:37:22,0.0,5,7.795,0.0,0.0,0.0,25.4,-1.9,-3.8,1024,1024,1024,1024,0,0,0,0,97,4.678,62.78,38.713912,P-GPS,,11.8
370,37000,2026-01-09 12:37:22,0.0,5,7.795,0.0,0.0,0.0,25.0,-0.5,-4.2,1024,1024,1024,1024,0,0,0,0,97,4.678,62.78,38.713912,P-GPS,,11.8
371,37100,2026-01-09 12:37:22,0.0,5,7.795,0.0,0.0,0.0,25.0,-0.9,-3.7,1024,1024,1024,1024,0,0,0,0,97,4.678,62.78,38.713912,P-GPS,,11.8
372,37200,2026-01-09 12:37:22,0.0,5,7.795,0.0,0.0,0.0,24.9,-1.3,-3.7,1024,1024,1024,1024,0,0,0,0,97,4.678,62.78,39.041996,P-GPS,,11.9
373,37300,2026-01-09 12:37:22,0.0,5,7.795,0.0,0.0,0.0,25.0,-2.1,-3.3,1024,1024,1024,1024,0,0,0,0,97,4.678,62.78,39.041996,P-GPS,,11.9
