time(millisecond),timestamp,speed(mph),gpslevel,voltage(v),xSpeed(mph),ySpeed(mph),zSpeed(mph),compass_heading(degrees),pitch(degrees),roll(degrees),rc_elevator,rc_aileron,rc_throttle,rc_rudder,rc_elevator(percent),rc_aileron(percent),rc_throttle(percent),rc_rudder(percent),battery_percent,current(A),battery_temperature(f),ascent(feet),flycState,message,height_above_takeoff(meters)
461600,2026-01-09 20:14:33,0.0,5,7.404,0.0,0.0,0.0,21.2,5.6,0.1,1024,1024,1024,1024,0,0,0,0,68,6.187,76.64,100.06562,P-GPS,,30.5
461700,2026-01-09 20:14:33,0.0,5,7.517,0.0,0.0,0.0,21.2,5.5,0.1,1024,1024,1024,1024,0,0,0,0,68,4.759,76.82,100.06562,P-GPS,,30.5
461800,2026-01-09 20:14:33,0.0,5,7.517,0.0,0.0,0.0,21.2,5.7,0.1,1024,1024,1024,1024,0,0,0,0,68,4.759,76.82,100.06562,P-GPS,,30.5
461900,2026-01-09 20:14:33,0.0,5,7.517,0.0,0.0,0.0,21.1,5.7,0.0,1024,1024,1024,1024,0,0,0,0,68,4.759,76.82,100.06562,P-GPS,,30.5
462000,2026-01-09 20:14:34,0.0,5,7.517,0.0,0.0,0.0,21.1,6.2,-0.2,1024,1024,1024,1024,0,0,0,0,68,4.759,76.82,100.06562,P-GPS,,30.5
462100,2026-01-09 20:14:34,0.0,5,7.517,0.0,0.0,0.0,21.2,6.0,-0.3,1024,1024,1024,1024,0,0,0,0,68,4.759,76.82,100.393704,P-GPS,,30.6
462200,2026-01-09 20:14:34,0.0,5,7.517,0.0,0.0,0.0,21.2,6.1,-0.3,1024,1024,1024,1024,0,0,0,0,68,4.759,76.82,100.393704,P-GPS,,30.6
462300,2026-01-09 20:14:34,0.0,5,7.517,0.0,0.0,0.0,21.2,5.9,-0.5,1024,1024,1024,1024,0,0,0,0,68,4.759,76.82,100.393704,P-GPS,,30.6
462400,2026-01-09 20:14:34,0.0,5,7.517,0.0,0.0,0.0,21.2,6.0,-0.5,1024,1024,1024,1024,0,0,0,0,68,4.759,76.82,100.393704,P-GPS,,30.6
462500,2026-01-09 20:14:34,0.0,5,7.517,0.0,0.0,0.0,21.2,5.5,-0.5,1024,1024,1024,1024,0,0,0,0,68,4.759,76.82,100.393704,P-GPS,,30.6
462600,2026-01-09 20:14:34,0.0,5,7.517,0.0,0.0,0.0,21.2,5.6,-0.4,1024,1024,1024,1024,0,0,0,0,68,4.759,76.82,100.393704,P-GPS,,30.6
462700,2026-01-09 20:14:34,0.0,5,7.517,0.0,0.0,0.0,21.2,5.4,-0.3,1024,1024,1024,1024,0,0,0,0,68,4.759,76.82,100.393704,P-GPS,,30.6
462800,2026-01-09 20:14:34,0.0,5,7.457,0.0,0.0,0.0,21.2,5.5,-0.4,1024,1024,1024,1024,0,0,0,0,68,4.944,76.82,100.393704,P-GPS,,30.6
462900,2026-01-09 20:14:34,0.0,5,7.457,0.0,0.0,0.0,21.1,5.1,-0.5,1024,1024,1024,1024,0,0,0,0,68,4.944,76.82,100.393704,P-GPS,,30.6
463000,2026-01-09 20:14:34,0.0,5,7.457,0.0,0.0,0.0,21.1,5.4,-0.2,1024,1024,1024,1024,0,0,0,0,68,4.944,76.82,100.393704,P-GPS,,30.6
463100,2026-01-09 20:14:35,0.0,5,7.457,0.0,0.0,0.0,21.3,4.9,-0.1,1024,1024,1024,1024,0,0,0,0,68,4.944,76.82,100.393704,P-GPS,,30.6
463200,2026-01-09 20:14:35,0.0,5,7.457,0.0,0.0,0.0,21.2,5.3,0.1,1024,1024,1024,1024,0,0,0,0,68,4.944,76.82,100.393704,P-GPS,,30.6
463300,2026-01-09 20:14:35,0.0,5,7.457,0.0,0.0,0.0,21.2,4.6,0.0,1024,1024,1024,1024,0,0,0,0,68,4.944,76.82,100.393704,P-GPS,,30.6
463400,2026-01-09 20:14:35,0.0,5,7.457,0.0,0.0,0.0,21.2,4.7,0.0,1024,1024,1024,1024,0,0,0,0,68,4.944,76.82,100.393704,P-GPS,,30.6
463500,2026-01-09 20:14:35,0.0,5,7.457,0.0,0.0,0.0,21.2,4.7,-0.3,1024,1024,1024,1024,0,0,0,0,68,4.944,76.82,100.393704,P-GPS,,30.6
463600,2026-01-09 20:14:35,0.0,5,7.457,0.0,0.0,0.0,21.2,4.9,-0.4,1024,1024,1024,1024,0,0,0,0,68,4.944,76.82,100.393704,P-GPS,,30.6
463700,2026-01-09 20:14:35,0.0,5,7.457,0.0,0.0,0.0,21.1,4.5,-0.7,1024,1024,1024,1024,0,0,0,0,68,4.944,76.82,100.393704,P-GPS,,30.6
463800,2026-01-09 20:14:35,0.0,5,7.457,0.0,0.0,0.0,21.1,5.0,-0.3,1024,1024,1024,1024,0,0,0,0,68,4.944,76.82,100.393704,P-GPS,,30.6
463900,2026-01-09 20:14:35,0.0,5,7.46,0.0,0.0,0.0,21.1,5.0,-0.4,1024,1024,1024,1024,0,0,0,0,68,4.999,76.82,100.393704,P-GPS,,30.6
464000,2026-01-09 20:14:36,0.0,5,7.46,0.0,0.0,0.0,21.1,5.3,-0.3,1024,1024,1024,1024,0,0,0,0,68,4.999,76.82,100.393704,P-GPS,,30.6
464100,2026-01-09 20:14:36,0.0,5,7.46,0.0,0.0,0.0,21.3,5.4,-0.2,1024,1024,1024,1024,0,0,0,0,68,4.999,76.82,100.393704,P-GPS,,30.6
464200,2026-01-09 20:14:36,0.0,5,7.46,0.0,0.0,0.0,21.2,5.7,-0.2,1024,1024,1024,1024,0,0,0,0,68,4.999,76.82,100.721788,P-GPS,,30.7
464300,2026-01-09 20:14:36,0.0,5,7.46,0.0,0.0,0.0,21.1,5.3,0.0,1024,1024,1024,1024,0,0,0,0,68,4.999,76.82,100.393704,P-GPS,,30.6
464400,2026-01-09 20:14:36,0.0,5,7.46,0.0,0.0,0.0,21.2,5.4,0.3,1024,1024,1024,1024,0,0,0,0,68,4.999,76.82,100.393704,P-GPS,,30.6
464500,2026-01-09 20:14:36,0.0,5,7.46,0.0,0.0,0.0,21.1,5.5,0.0,1024,1024,1024,1024,0,0,0,0,68,4.999,76.82,100.393704,P-GPS,,30.6
464600,2026-01-09 20:14:36,0.0,5,7.46,0.0,0.0,0.0,21.1,5.5,0.3,1024,1024,1024,1024,0,0,0,0,68,4.999,76.82,100.721788,P-GPS,,30.7
464700,2026-01-09 20:14:36,0.0,5,7.46,0.0,0.0,0.0,21.1,5.3,0.2,1024,1024,1024,1024,0,0,0,0,68,4.999,76.82,100.721788,P-GPS,,30.7
464800,2026-01-09 20:14:36,0.0,5,7.46,0.0,0.0,0.0,21.2,5.3,0.2,1024,1024,1024,1024,0,0,0,0,68,4.999,76.82,100.721788,P-GPS,,30.7
464900,2026-01-09 20:14:36,0.0,5,7.46,0.0,0.0,0.0,21.2,5.1,0.4,1024,1024,1024,1024,0,0,0,0,68,4.999,76.82,100.721788,P-GPS,,30.7
465000,2026-01-09 20:14:36,0.0,5,7.463,0.0,0.0,0.0,21.1,5.2,0.4,1024,1024,1024,1024,0,0,0,0,68,4.813,76.82,100.721788,P-GPS,,30.7
465100,2026-01-09 20:14:37,0.0,5,7.463,0.0,0.0,0.0,21.2,5.4,0.7,1024,1024,1024,1024,0,0,0,0,68,4.813,76.82,100.721788,P-GPS,,30.7
465200,2026-01-09 20:14:37,0.0,5,7.463,0.0,0.0,0.0,21.2,5.3,0.5,1024,1024,1024,1024,0,0,0,0,68,4.813,76.82,100.721788,P-GPS,,30.7
465300,2026-01-09 20:14:37,0.0,5,7.463,0.0,0.0,0.0,21.2,5.1,0.7,1024,1024,1024,1024,0,0,0,0,68,4.813,76.82,100.721788,P-GPS,,30.7
465400,2026-01-09 20:14:37,0.0,5,7.463,0.0,0.0,0.0,21.2,4.9,0.7,1024,1024,1024,1024,0,0,0,0,68,4.813,76.82,100.721788,P-GPS,,30.7
465500,2026-01-09 20:14:37,0.0,5,7.463,0.0,0.0,0.0,21.1,4.9,0.5,1024,1024,1024,1024,0,0,0,0,68,4.813,76.82,100.721788,P-GPS,,30.7
465600,2026-01-09 20:14:37,0.0,5,7.463,0.0,0.0,0.0,21.1,5.0,0.6,1024,1024,1024,1024,0,0,0,0,68,4.813,76.82,100.721788,P-GPS,,30.7
465700,2026-01-09 20:14:37,0.0,5,7.463,0.0,0.0,0.0,21.1,5.0,0.4,1024,1024,1024,1024,0,0,0,0,68,4.813,76.82,100.721788,P-GPS,,30.7
465800,2026-01-09 20:14:37,0.0,5,7.463,0.0,0.0,0.0,21.2,5.1,0.3,1024,1024,1024,1024,0,0,0,0,68,4.813,76.82,100.393704,P-GPS,,30.6
465900,2026-01-09 20:14:37,0.0,5,7.463,0.0,0.0,0.0,21.2,5.1,0.1,1024,1024,1024,1024,0,0,0,0,68,4.813,76.82,100.393704,P-GPS,,30.6
466000,2026-01-09 20:14:38,0.0,5,7.463,0.0,0.0,0.0,21.2,5.3,0.0,1024,1024,1024,1024,0,0,0,0,68,4.813,76.82,100.393704,P-GPS,,30.6
466100,2026-01-09 20:14:38,0.0,5,7.47,0.0,0.0,0.0,21.2,5.4,0.0,1024,1024,1024,1024,0,0,0,0,68,4.724,76.82,100.393704,P-GPS,,30.6
466200,2026-01-09 20:14:38,0.0,5,7.47,0.0,0.0,0.0,21.2,5.5,0.1,1024,1024,1024,1024,0,0,0,0,68,4.724,76.82,100.393704,P-GPS,,30.6
466300,2026-01-09 20:14:38,0.0,5,7.47,0.0,0.0,0.0,21.2,5.5,0.3,1024,1024,1024,1024,0,0,0,0,68,4.724,76.82,100.721788,P-GPS,,30.7
466400,2026-01-09 20:14:38,0.0,5,7.47,0.0,0.0,0.0,21.3,5.5,0.5,1024,1024,1024,1024,0,0,0,0,68,4.724,76.82,100.721788,P-GPS,,30.7
466500,2026-01-09 20:14:38,0.0,5,7.47,0.0,0.0,0.0,21.3,5.5,0.5,1024,1024,1024,1024,0,0,0,0,68,4.724,76.82,100.393704,P-GPS,,30.6
466600,2026-01-09 20:14:38,0.0,5,7.47,0.0,0.0,0.0,21.3,5.6,0.4,1024,1024,1024,1024,0,0,0,0,68,4.724,76.82,100.393704,P-GPS,,30.6
466700,2026-01-09 20:14:38,0.0,5,7.47,0.0,0.0,0.0,21.2,5.4,0.1,1024,1024,1024,1024,0,0,0,0,68,4.724,76.82,100.393704,P-GPS,,30.6
466800,2026-01-09 20:14:38,0.0,5,7.47,0.0,0.0,0.0,21.1,5.6,0.1,1024,1024,1024,1024,0,0,0,0,68,4.724,76.82,100.393704,P-GPS,,30.6
466900,2026-01-09 20:14:38,0.0,5,7.47,0.0,0.0,0.0,21.2,5.4,0.2,1024,1024,1024,1024,0,0,0,0,68,4.724,76.82,100.393704,P-GPS,,30.6
467000,2026-01-09 20:14:38,0.0,5,7.47,0.0,0.0,0.0,21.1,5.5,0.2,1024,1024,1024,1024,0,0,0,0,68,4.724,76.82,100.393704,P-GPS,,30.6
467100,2026-01-09 20:14:39,0.0,5,7.47,0.0,0.0,0.0,21.2,5.3,0.4,1024,1024,1024,1024,0,0,0,0,68,4.724,76.82,100.393704,P-GPS,,30.6
467200,2026-01-09 20:14:39,0.0,5,7.471,0.0,0.0,0.0,21.2,5.6,0.6,1024,1024,1024,1024,0,0,0,0,68,4.678,76.82,100.393704,P-GPS,,30.6
467300,2026-01-09 20:14:39,0.0,5,7.471,0.0,0.0,0.0,21.1,5.6,0.4,1024,1024,1024,1024,0,0,0,0,68,4.678,76.82,100.393704,P-GPS,,30.6
467400,2026-01-09 20:14:39,0.0,5,7.471,0.0,0.0,0.0,21.1,5.6,0.8,1024,1024,1024,1024,0,0,0,0,68,4.678,76.82,100.393704,P-GPS,,30.6
467500,2026-01-09 20:14:39,0.0,5,7.471,0.0,0.0,0.0,21.1,5.7,0.9,1024,1024,1024,1024,0,0,0,0,68,4.678,76.82,100.393704,P-GPS,,30.6
467600,2026-01-09 20:14:39,0.0,5,7.471,0.0,0.0,0.0,21.2,5.4,1.2,1024,1024,1024,1024,0,0,0,0,68,4.678,76.82,100.393704,P-GPS,,30.6
467700,2026-01-09 20:14:39,0.0,5,7.471,0.0,0.0,0.0,21.2,5.2,1.0,1024,1024,1024,1024,0,0,0,0,68,4.678,76.82,100.393704,P-GPS,,30.6
467800,2026-01-09 20:14:39,0.0,5,7.471,0.0,0.0,0.0,21.2,5.4,1.0,1024,1024,1024,1024,0,0,0,0,68,4.678,76.82,100.393704,P-GPS,,30.6
467900,2026-01-09 20:14:39,0.0,5,7.471,0.0,0.0,0.0,21.2,5.4,1.0,1024,1024,1024,1024,0,0,0,0,68,4.678,76.82,100.393704,P-GPS,,30.6
468000,2026-01-09 20:14:39,0.0,5,7.471,0.0,0.0,0.0,21.2,5.2,0.9,1024,1024,1024,1024,0,0,0,0,68,4.678,76.82,100.393704,P-GPS,,30.6
468100,2026-01-09 20:14:40,0.0,5,7.471,0.0,0.0,0.0,21.2,4.5,0.7,1024,1024,1024,1024,0,0,0,0,68,4.678,76.82,100.393704,P-GPS,,30.6
468200,2026-01-09 20:14:40,0.0,5,7.471,0.0,0.0,0.0,21.2,4.5,0.7,1024,1024,1024,1024,0,0,0,0,68,4.678,76.82,100.393704,P-GPS,,30.6
468300,2026-01-09 20:14:40,0.0,5,7.463,0.0,0.0,0.0,21.1,4.7,0.7,1024,1024,1024,1024,0,0,0,0,68,4.772,76.82,100.393704,P-GPS,,30.6
468400,2026-01-09 20:14:40,0.0,5,7.463,0.0,0.0,0.0,21.1,4.9,0.7,1024,1024,1024,1024,0,0,0,0,68,4.772,76.82,100.393704,P-GPS,,30.6
468500,2026-01-09 20:14:40,0.0,5,7.463,0.0,0.0,0.0,21.0,4.5,0.5,1024,1024,1024,1024,0,0,0,0,68,4.772,76.82,100.393704,P-GPS,,30.6
468600,2026-01-09 20:14:40,0.0,5,7.463,0.0,0.0,0.0,21.0,4.3,0.5,1024,1024,1024,1024,0,0,0,0,68,4.772,76.82,100.393704,P-GPS,,30.6
468700,2026-01-09 20:14:40,0.0,5,7.463,0.0,0.0,0.0,21.1,4.1,0.4,1024,1024,1024,1024,0,0,0,0,68,4.772,76.82,100.393704,P-GPS,,30.6
468800,2026-01-09 20:14:40,0.0,5,7.463,0.0,0.0,0.0,21.2,3.9,0.5,1024,1024,1024,1024,0,0,0,0,68,4.772,76.82,100.393704,P-GPS,,30.6
468900,2026-01-09 20:14:40,0.0,5,7.463,0.0,0.0,0.0,21.3,4.0,0.5,1024,1024,1024,1024,0,0,0,0,68,4.772,76.82,100.393704,P-GPS,,30.6
469000,2026-01-09 20:14:40,0.0,5,7.463,0.0,0.0,0.0,21.3,4.5,0.6,1024,1024,1024,1024,0,0,0,0,68,4.772,76.82,100.393704,P-GPS,,30.6
469100,2026-01-09 20:14:41,0.0,5,7.463,0.0,0.0,0.0,21.3,4.6,0.5,1024,1024,1024,1024,0,0,0,0,68,4.772,76.82,100.393704,P-GPS,,30.6
469200,2026-01-09 20:14:41,0.0,5,7.463,0.0,0.0,0.0,21.3,4.8,0.3,1024,1024,1024,1024,0,0,0,0,68,4.772,76.82,100.393704,P-GPS,,30.6
469300,2026-01-09 20:14:41,0.0,5,7.463,0.0,0.0,0.0,21.3,4.9,0.1,1024,1024,1024,1024,0,0,0,0,68,4.772,76.82,100.393704,P-GPS,,30.6
469400,2026-01-09 20:14:41,0.0,5,7.463,0.0,0.0,0.0,21.3,5.2,0.1,1024,1024,1024,1024,0,0,0,0,68,4.772,76.82,100.06562,P-GPS,,30.5
469500,2026-01-09 20:14:41,0.0,5,7.463,0.0,0.0,0.0,21.3,5.1,0.0,1024,1024,1024,1024,0,0,0,0,68,4.772,76.82,100.06562,P-GPS,,30.5
469600,2026-01-09 20:14:41,0.0,5,7.463,0.0,0.0,0.0,21.3,5.3,0.0,1024,1024,1024,1024,0,0,0,0,68,4.772,76.82,100.06562,P-GPS,,30.5
469700,2026-01-09 20:14:41,0.0,5,7.463,0.0,0.0,0.0,21.2,5.4,-0.1,1024,1024,1024,1024,0,0,0,0,68,4.772,76.82,100.06562,P-GPS,,30.5
469800,2026-01-09 20:14:41,0.0,5,7.463,0.0,0.0,0.0,21.2,5.6,-0.3,1024,1024,1024,1024,0,0,0,0,68,4.772,76.82,100.393704,P-GPS,,30.6
469900,2026-01-09 20:14:41,0.0,5,7.463,0.0,0.0,0.0,21.1,5.7,-0.2,1024,1024,1024,1024,0,0,0,0,68,4.772,76.82,100.393704,P-GPS,,30.6
470000,2026-01-09 20:14:41,0.0,5,7.463,0.0,0.0,0.0,21.2,5.9,0.0,1024,1024,1024,1024,0,0,0,0,68,4.772,76.82,100.393704,P-GPS,,30.6
470100,2026-01-09 20:14:42,0.0,5,7.463,0.0,0.0,0.0,21.1,5.5,0.1,1024,1024,1024,1024,0,0,0,0,68,4.772,76.82,100.393704,P-GPS,,30.6
470200,2026-01-09 20:14:42,0.0,5,7.463,0.0,0.0,0.0,21.2,5.6,0.3,1024,1024,1024,1024,0,0,0,0,68,4.772,76.82,100.393704,P-GPS,,30.6
470300,2026-01-09 20:14:42,0.0,5,7.463,0.0,0.0,0.0,21.2,5.8,0.3,1024,1024,1024,1024,0,0,0,0,68,4.772,76.82,100.06562,P-GPS,,30.5
470400,2026-01-09 20:14:42,0.0,5,7.47,0.0,0.0,0.0,21.2,5.9,0.8,1024,1024,1024,1024,0,0,0,0,68,4.706,76.82,100.06562,P-GPS,,30.5
470500,2026-01-09 20:14:42,0.0,5,7.47,0.0,0.0,0.0,21.2,5.8,0.8,1024,1024,1024,1024,0,0,0,0,68,4.706,76.82,100.06562,P-GPS,,30.5
470600,2026-01-09 20:14:42,0.0,5,7.47,0.0,0.0,0.0,21.2,6.0,0.7,1024,1024,1024,1024,0,0,0,0,68,4.706,76.82,100.06562,P-GPS,,30.5
470700,2026-01-09 20:14:42,0.0,5,7.47,0.0,0.0,0.0,21.2,5.6,0.6,1024,1024,1024,1024,0,0,0,0,68,4.706,76.82,100.06562,P-GPS,,30.5
470800,2026-01-09 20:14:42,0.0,5,7.47,0.0,0.0,0.0,21.2,5.7,0.4,1024,1024,1024,1024,0,0,0,0,68,4.706,76.82,100.06562,P-GPS,,30.5
470900,2026-01-09 20:14:42,0.0,5,7.47,0.0,0.0,0.0,21.3,5.5,0.4,1024,1024,1024,1024,0,0,0,0,68,4.706,76.82,100.06562,P-GPS,,30.5
471000,2026-01-09 20:14:43,0.0,5,7.47,0.0,0.0,0.0,21.3,5.5,0.2,1024,1024,1024,1024,0,0,0,0,68,4.706,76.82,100.06562,P-GPS,,30.5
471100,2026-01-09 20:14:43,0.0,5,7.47,0.0,0.0,0.0,21.2,5.1,0.0,1024,1024,1024,1024,0,0,0,0,68,4.706,76.82,100.06562,P-GPS,,30.5
471200,2026-01-09 20:14:43,0.0,5,7.47,0.0,0.0,0.0,21.2,5.3,0.0,1024,1024,1024,1024,0,0,0,0,68,4.706,76.82,100.06562,P-GPS,,30.5
471300,2026-01-09 20:14:43,0.0,5,7.47,0.0,0.0,0.0,21.2,5.1,-0.1,1024,1024,1024,1024,0,0,0,0,68,4.706,76.82,100.06562,P-GPS,,30.5
471400,2026-01-09 20:14:43,0.0,5,7.47,0.0,0.0,0.0,21.2,5.2,-0.2,1024,1024,1024,1024,0,0,0,0,68,4.706,76.82,100.06562,P-GPS,,30.5
471500,2026-01-09 20:14:43,0.0,5,7.47,0.0,0.0,0.0,21.2,5.0,0.0,1024,1024,1024,1024,0,0,0,0,68,4.706,76.82,100.06562,P-GPS,,30.5
471600,2026-01-09 20:14:43,0.0,5,7.461,0.0,0.0,0.0,21.2,5.0,-0.2,1024,1024,1024,1024,0,0,0,0,68,4.803,76.82,100.06562,P-GPS,,30.5
471700,2026-01-09 20:14:43,0.0,5,7.461,0.0,0.0,0.0,21.3,4.7,-0.2,1024,1024,1024,1024,0,0,0,0,68,4.803,76.82,100.06562,P-GPS,,30.5
471800,2026-01-09 20:14:43,0.0,5,7.461,0.0,0.0,0.0,21.2,4.9,-0.5,1024,1024,1024,1024,0,0,0,0,68,4.803,76.82,100.06562,P-GPS,,30.5
471900,2026-01-09 20:14:43,0.0,5,7.461,0.0,0.0,0.0,21.2,4.8,-0.5,1024,1024,1024,1024,0,0,0,0,68,4.803,76.82,100.06562,P-GPS,,30.5
472000,2026-01-09 20:14:43,0.0,5,7.461,0.0,0.0,0.0,21.2,5.1,-0.4,1024,1024,1024,1024,0,0,0,0,68,4.803,76.82,100.06562,P-GPS,,30.5
472100,2026-01-09 20:14:44,0.0,5,7.461,0.0,0.0,0.0,21.2,5.1,-0.4,1024,1024,1024,1024,0,0,0,0,68,4.803,76.82,100.06562,P-GPS,,30.5
472200,2026-01-09 20:14:44,0.0,5,7.461,0.0,0.0,0.0,21.2,5.4,-0.3,1024,1024,1024,1024,0,0,0,0,68,4.803,76.82,100.06562,P-GPS,,30.5
472300,2026-01-09 20:14:44,0.0,5,7.461,0.0,0.0,0.0,21.2,5.0,0.0,1024,1024,1024,1024,0,0,0,0,68,4.803,76.82,100.06562,P-GPS,,30.5
472400,2026-01-09 20:14:44,0.0,5,7.461,0.0,0.0,0.0,21.2,5.5,0.1,1024,1024,1024,1024,0,0,0,0,68,4.803,76.82,100.06562,P-GPS,,30.5
472500,2026-01-09 20:14:44,0.0,5,7.461,0.0,0.0,0.0,21.2,5.3,0.2,1024,1024,1024,1024,0,0,0,0,68,4.803,76.82,100.06562,P-GPS,,30.5
472600,2026-01-09 20:14:44,0.0,5,7.461,0.0,0.0,0.0,21.2,5.4,0.1,1024,1024,1024,1024,0,0,0,0,68,4.803,76.82,100.06562,P-GPS,,30.5
472700,2026-01-09 20:14:44,0.0,5,7.466,0.0,0.0,0.0,21.2,5.2,0.1,1024,1024,1024,1024,0,0,0,0,68,4.752,77.0,100.06562,P-GPS,,30.5
472800,2026-01-09 20:14:44,0.0,5,7.466,0.0,0.0,0.0,21.3,5.2,0.0,1024,1024,1024,1024,0,0,0,0,68,4.752,77.0,100.06562,P-GPS,,30.5
472900,2026-01-09 20:14:44,0.0,5,7.466,0.0,0.0,0.0,21.2,5.2,-0.2,1024,1024,1024,1024,0,0,0,0,68,4.752,77.0,99.737536,P-GPS,,30.4
473000,2026-01-09 20:14:45,0.0,5,7.466,0.0,0.0,0.0,21.2,5.5,-0.1,1024,1024,1024,1024,0,0,0,0,68,4.752,77.0,99.737536,P-GPS,,30.4
473100,2026-01-09 20:14:45,0.0,5,7.466,0.0,0.0,0.0,21.2,5.5,0.0,1024,1024,1024,1024,0,0,0,0,68,4.752,77.0,99.737536,P-GPS,,30.4
473200,2026-01-09 20:14:45,0.0,5,7.466,0.0,0.0,0.0,21.3,5.5,0.2,1024,1024,1024,1024,0,0,0,0,68,4.752,77.0,99.737536,P-GPS,,30.4
473300,2026-01-09 20:14:45,0.0,5,7.466,0.0,0.0,0.0,21.3,5.3,0.1,1024,1024,1024,1024,0,0,0,0,68,4.752,77.0,99.737536,P-GPS,,30.4
473400,2026-01-09 20:14:45,0.0,5,7.466,0.0,0.0,0.0,21.2,5.6,-0.1,1024,1024,1024,1024,0,0,0,0,68,4.752,77.0,99.737536,P-GPS,,30.4
473500,2026-01-09 20:14:45,0.0,5,7.466,0.0,0.0,0.0,21.2,5.4,-0.2,1024,1024,1024,1024,0,0,0,0,68,4.752,77.0,99.737536,P-GPS,,30.4
473600,2026-01-09 20:14:45,0.0,5,7.466,0.0,0.0,0.0,21.2,5.5,-0.1,1024,1024,1024,1024,0,0,0,0,68,4.752,77.0,99.737536,P-GPS,,30.4
473700,2026-01-09 20:14:45,0.0,5,7.466,0.0,0.0,0.0,21.2,5.3,0.0,1024,1024,1024,1024,0,0,0,0,68,4.752,77.0,99.737536,P-GPS,,30.4
473800,2026-01-09 20:14:45,0.0,5,7.465,0.0,0.0,0.0,21.1,5.3,0.0,1024,1024,1024,1024,0,0,0,0,68,4.734,77.0,99.737536,P-GPS,,30.4
473900,2026-01-09 20:14:45,0.0,5,7.465,0.0,0.0,0.0,21.1,4.9,0.0,1024,1024,1024,1024,0,0,0,0,68,4.734,77.0,99.737536,P-GPS,,30.4
474000,2026-01-09 20:14:46,0.0,5,7.465,0.0,0.0,0.0,21.2,5.1,0.1,1024,1024,1024,1024,0,0,0,0,68,4.734,77.0,99.737536,P-GPS,,30.4
474100,2026-01-09 20:14:46,0.0,5,7.465,0.0,0.0,0.0,21.2,4.8,0.2,1024,1024,1024,1024,0,0,0,0,68,4.734,77.0,99.737536,P-GPS,,30.4
474200,2026-01-09 20:14:46,0.0,5,7.465,0.0,0.0,0.0,21.2,4.9,0.2,1024,1024,1024,1024,0,0,0,0,68,4.734,77.0,99.737536,P-GPS,,30.4
474300,2026-01-09 20:14:46,0.0,5,7.465,0.0,0.0,0.0,21.2,4.8,0.1,1024,1024,1024,1024,0,0,0,0,68,4.734,77.0,99.737536,P-GPS,,30.4
474400,2026-01-09 20:14:46,0.0,5,7.465,0.0,0.0,0.0,21.2,4.7,0.2,1024,1024,1024,1024,0,0,0,0,68,4.734,77.0,99.737536,P-GPS,,30.4
474500,2026-01-09 20:14:46,0.0,5,7.465,0.0,0.0,0.0,21.2,4.6,0.2,1024,1024,1024,1024,0,0,0,0,68,4.734,77.0,99.737536,P-GPS,,30.4
474600,2026-01-09 20:14:46,0.0,5,7.465,0.0,0.0,0.0,21.2,5.0,0.4,1024,1024,1024,1024,0,0,0,0,68,4.734,77.0,99.737536,P-GPS,,30.4
474700,2026-01-09 20:14:46,0.0,5,7.465,0.0,0.0,0.0,21.1,4.8,0.3,1024,1024,1024,1024,0,0,0,0,68,4.734,77.0,99.737536,P-GPS,,30.4
474800,2026-01-09 20:14:46,0.0,5,7.465,0.0,0.0,0.0,21.1,5.0,0.5,1024,1024,1024,1024,0,0,0,0,68,4.734,77.0,99.737536,P-GPS,,30.4
474900,2026-01-09 20:14:46,0.0,5,7.462,0.0,0.0,0.0,21.1,4.8,0.5,1024,1024,1024,1024,0,0,0,0,68,4.829,77.0,99.737536,P-GPS,,30.4
475000,2026-01-09 20:14:47,0.0,5,7.462,0.0,0.0,0.0,21.1,4.9,0.5,1024,1024,1024,1024,0,0,0,0,68,4.829,77.0,99.737536,P-GPS,,30.4
475100,2026-01-09 20:14:47,0.0,5,7.462,0.0,0.0,0.0,21.2,4.7,0.2,1024,1024,1024,1024,0,0,0,0,68,4.829,77.0,99.737536,P-GPS,,30.4
475200,2026-01-09 20:14:47,0.0,5,7.462,0.0,0.0,0.0,21.2,4.8,0.2,1024,1024,1024,1024,0,0,0,0,68,4.829,77.0,99.737536,P-GPS,,30.4
475300,2026-01-09 20:14:47,0.0,5,7.462,0.0,0.0,0.0,21.1,4.5,0.0,1024,1024,1024,1024,0,0,0,0,68,4.829,77.0,99.737536,P-GPS,,30.4
475400,2026-01-09 20:14:47,0.0,5,7.462,0.0,0.0,0.0,21.2,4.5,0.1,1024,1024,1024,1024,0,0,0,0,68,4.829,77.0,99.737536,P-GPS,,30.4
475500,2026-01-09 20:14:47,0.0,5,7.462,0.0,0.0,0.0,21.1,4.8,0.0,1024,1024,1024,1024,0,0,0,0,68,4.829,77.0,99.737536,P-GPS,,30.4
475600,2026-01-09 20:14:47,0.0,5,7.462,0.0,0.0,0.0,21.1,4.9,0.2,1024,1024,1024,1024,0,0,0,0,68,4.829,77.0,99.737536,P-GPS,,30.4
475700,2026-01-09 20:14:47,0.0,5,7.462,0.0,0.0,0.0,21.1,4.7,0.3,1024,1024,1024,1024,0,0,0,0,68,4.829,77.0,99.737536,P-GPS,,30.4
475800,2026-01-09 20:14:47,0.0,5,7.462,0.0,0.0,0.0,21.1,4.8,0.5,1024,1024,1024,1024,0,0,0,0,68,4.829,77.0,99.737536,P-GPS,,30.4
475900,2026-01-09 20:14:47,0.0,5,7.462,0.0,0.0,0.0,21.1,4.7,0.4,1024,1024,1024,1024,0,0,0,0,68,4.829,77.0,99.737536,P-GPS,,30.4
476000,2026-01-09 20:14:48,0.0,5,7.465,0.0,0.0,0.0,21.1,4.9,0.6,1024,1024,1024,1024,0,0,0,0,68,4.745,77.0,99.737536,P-GPS,,30.4
476100,2026-01-09 20:14:48,0.0,5,7.465,0.0,0.0,0.0,21.2,4.7,0.5,1024,1024,1024,1024,0,0,0,0,68,4.745,77.0,99.737536,P-GPS,,30.4
476200,2026-01-09 20:14:48,0.0,5,7.465,0.0,0.0,0.0,21.2,5.0,0.5,1024,1024,1024,1024,0,0,0,0,68,4.745,77.0,99.737536,P-GPS,,30.4
476300,2026-01-09 20:14:48,0.0,5,7.465,0.0,0.0,0.0,21.2,5.0,0.5,1024,1024,1024,1024,0,0,0,0,68,4.745,77.0,99.737536,P-GPS,,30.4
476400,2026-01-09 20:14:48,0.0,5,7.465,0.0,0.0,0.0,21.2,5.1,0.4,1024,1024,1024,1024,0,0,0,0,68,4.745,77.0,99.737536,P-GPS,,30.4
476500,2026-01-09 20:14:48,0.0,5,7.465,0.0,0.0,0.0,21.2,4.9,0.6,1024,1024,1024,1024,0,0,0,0,68,4.745,77.0,99.737536,P-GPS,,30.4
476600,2026-01-09 20:14:48,0.0,5,7.465,0.0,0.0,0.0,21.2,5.0,0.7,1024,1024,1024,1024,0,0,0,0,68,4.745,77.0,99.737536,P-GPS,,30.4
476700,2026-01-09 20:14:48,0.0,5,7.465,0.0,0.0,0.0,21.2,4.9,0.6,1024,1024,1024,1024,0,0,0,0,68,4.745,77.0,99.737536,P-GPS,,30.4
476800,2026-01-09 20:14:48,0.0,5,7.465,0.0,0.0,0.0,21.1,5.0,0.5,1024,1024,1024,1024,0,0,0,0,68,4.745,77.0,99.737536,P-GPS,,30.4
476900,2026-01-09 20:14:48,0.0,5,7.465,0.0,0.0,0.0,21.1,5.1,0.4,1024,1024,1024,1024,0,0,0,0,68,4.745,77.0,99.737536,P-GPS,,30.4
477000,2026-01-09 20:14:48,0.0,5,7.465,0.0,0.0,0.0,21.2,5.1,0.8,1024,1024,1024,1024,0,0,0,0,68,4.745,77.0,99.737536,P-GPS,,30.4
477100,2026-01-09 20:14:49,0.0,5,7.467,0.0,0.0,0.0,21.2,4.9,0.9,1024,1024,1024,1024,0,0,0,0,67,4.756,77.0,99.737536,P-GPS,,30.4
477200,2026-01-09 20:14:49,0.0,5,7.467,0.0,0.0,0.0,21.2,4.9,0.8,1024,1024,1024,1024,0,0,0,0,67,4.756,77.0,99.737536,P-GPS,,30.4
477300,2026-01-09 20:14:49,0.0,5,7.467,0.0,0.0,0.0,21.2,4.8,0.7,1024,1024,1024,1024,0,0,0,0,67,4.756,77.0,99.737536,P-GPS,,30.4
477400,2026-01-09 20:14:49,0.0,5,7.467,0.0,0.0,0.0,21.2,4.7,0.8,1024,1024,1024,1024,0,0,0,0,67,4.756,77.0,99.737536,P-GPS,,30.4
477500,2026-01-09 20:14:49,0.0,5,7.467,0.0,0.0,0.0,21.3,4.5,0.8,1024,1024,1024,1024,0,0,0,0,67,4.756,77.0,99.737536,P-GPS,,30.4
477600,2026-01-09 20:14:49,0.0,5,7.467,0.0,0.0,0.0,21.3,4.5,0.5,1024,1024,1024,1024,0,0,0,0,67,4.756,77.0,99.737536,P-GPS,,30.4
477700,2026-01-09 20:14:49,0.0,5,7.467,0.0,0.0,0.0,21.3,4.4,0.5,1024,1024,1024,1024,0,0,0,0,67,4.756,77.0,99.737536,P-GPS,,30.4
477800,2026-01-09 20:14:49,0.0,5,7.467,0.0,0.0,0.0,21.3,4.6,0.5,1024,1024,1024,1024,0,0,0,0,67,4.756,77.0,99.409452,P-GPS,,30.3
477900,2026-01-09 20:14:49,0.0,5,7.467,0.0,0.0,0.0,21.3,4.6,0.1,1024,1024,1024,1024,0,0,0,0,67,4.756,77.0,99.409452,P-GPS,,30.3
478000,2026-01-09 20:14:50,0.0,5,7.467,0.0,0.0,0.0,21.3,4.8,0.1,1024,1024,1024,1024,0,0,0,0,67,4.756,77.0,99.409452,P-GPS,,30.3
478100,2026-01-09 20:14:50,0.0,5,7.467,0.0,0.0,0.0,21.3,5.1,0.1,1024,1024,1024,1024,0,0,0,0,67,4.756,77.0,99.409452,P-GPS,,30.3
478200,2026-01-09 20:14:50,0.0,5,7.466,0.0,0.0,0.0,21.2,5.0,0.1,1024,1024,1024,1024,0,0,0,0,67,4.723,77.0,99.409452,P-GPS,,30.3
478300,2026-01-09 20:14:50,0.0,5,7.466,0.0,0.0,0.0,21.2,4.7,0.1,1024,1024,1024,1024,0,0,0,0,67,4.723,77.0,99.409452,P-GPS,,30.3
478400,2026-01-09 20:14:50,0.0,5,7.466,0.0,0.0,0.0,21.2,4.5,0.2,1024,1024,1024,1024,0,0,0,0,67,4.723,77.0,99.409452,P-GPS,,30.3
478500,2026-01-09 20:14:50,0.0,5,7.466,0.0,0.0,0.0,21.2,4.8,0.1,1024,1024,1024,1024,0,0,0,0,67,4.723,77.0,99.409452,P-GPS,,30.3
478600,2026-01-09 20:14:50,0.0,5,7.466,0.0,0.0,0.0,21.2,4.8,0.2,1024,1024,1024,1024,0,0,0,0,67,4.723,77.0,99.409452,P-GPS,,30.3
478700,2026-01-09 20:14:50,0.0,5,7.466,0.0,0.0,0.0,21.3,4.9,0.2,1024,1024,1024,1024,0,0,0,0,67,4.723,77.0,99.409452,P-GPS,,30.3
478800,2026-01-09 20:14:50,0.0,5,7.466,0.0,0.0,0.0,21.2,4.9,0.0,1024,1024,1024,1024,0,0,0,0,67,4.723,77.0,99.081368,P-GPS,,30.2
478900,2026-01-09 20:14:50,0.0,5,7.466,0.0,0.0,0.0,21.2,4.9,-0.1,1024,1024,1024,1024,0,0,0,0,67,4.723,77.0,99.081368,P-GPS,,30.2
479000,2026-01-09 20:14:50,0.0,5,7.466,0.0,0.0,0.0,21.2,4.7,-0.2,1024,1024,1024,1024,0,0,0,0,67,4.723,77.0,99.081368,P-GPS,,30.2
479100,2026-01-09 20:14:51,0.0,5,7.466,0.0,0.0,0.0,21.2,4.8,-0.2,1024,1024,1024,1024,0,0,0,0,67,4.723,77.0,99.081368,P-GPS,,30.2
479200,2026-01-09 20:14:51,0.0,5,7.466,0.0,0.0,0.0,21.2,4.8,0.0,1024,1024,1024,1024,0,0,0,0,67,4.723,77.0,99.081368,P-GPS,,30.2
479300,2026-01-09 20:14:51,0.0,5,7.464,0.0,0.0,0.0,21.3,4.8,0.2,1024,1024,1024,1024,0,0,0,0,67,4.68,77.0,99.081368,P-GPS,,30.2
479400,2026-01-09 20:14:51,0.0,5,7.464,0.0,0.0,0.0,21.3,4.8,0.2,1024,1024,1024,1024,0,0,0,0,67,4.68,77.0,99.081368,P-GPS,,30.2
479500,2026-01-09 20:14:51,0.0,5,7.464,0.0,0.0,0.0,21.2,4.9,0.2,1024,1024,1024,1024,0,0,0,0,67,4.68,77.0,99.081368,P-GPS,,30.2
479600,2026-01-09 20:14:51,0.0,5,7.464,0.0,0.0,0.0,21.2,5.0,0.3,1024,1024,1024,1024,0,0,0,0,67,4.68,77.0,99.081368,P-GPS,,30.2
479700,2026-01-09 20:14:51,0.0,5,7.464,0.0,0.0,0.0,21.2,5.0,0.3,1024,1024,1024,1024,0,0,0,0,67,4.68,77.0,99.081368,P-GPS,,30.2
479800,2026-01-09 20:14:51,0.0,5,7.464,0.0,0.0,0.0,21.2,5.0,0.4,1024,1024,1024,1024,0,0,0,0,67,4.68,77.0,99.081368,P-GPS,,30.2
479900,2026-01-09 20:14:51,0.0,5,7.464,0.0,0.0,0.0,21.2,4.9,0.4,1024,1024,1024,1024,0,0,0,0,67,4.68,77.0,99.081368,P-GPS,,30.2
480000,2026-01-09 20:14:52,0.0,5,7.464,0.0,0.0,0.0,21.2,4.7,0.5,1024,1024,1024,1024,0,0,0,0,67,4.68,77.0,98.753284,P-GPS,,30.1
480100,2026-01-09 20:14:52,0.0,5,7.464,0.0,0.0,0.0,21.2,4.8,0.5,1024,1024,1024,1024,0,0,0,0,67,4.68,77.0,98.753284,P-GPS,,30.1
480200,2026-01-09 20:14:52,0.0,5,7.464,0.0,0.0,0.0,21.2,4.5,0.4,1024,1024,1024,1024,0,0,0,0,67,4.68,77.0,98.753284,P-GPS,,30.1
480300,2026-01-09 20:14:52,0.0,5,7.464,0.0,0.0,0.0,21.2,4.6,0.2,1024,1024,1024,1024,0,0,0,0,67,4.68,77.0,98.753284,P-GPS,,30.1
480400,2026-01-09 20:14:52,0.0,5,7.464,0.0,0.0,0.0,21.2,4.6,0.1,1024,1024,1024,1024,0,0,0,0,67,4.68,77.0,98.753284,P-GPS,,30.1
480500,2026-01-09 20:14:52,0.0,5,7.464,0.0,0.0,0.0,21.2,4.6,0.0,1024,1024,1024,1024,0,0,0,0,67,4.68,77.0,98.753284,P-GPS,,30.1
480600,2026-01-09 20:14:52,0.0,5,7.464,0.0,0.0,0.0,21.2,4.5,0.0,1024,1024,1024,1024,0,0,0,0,67,4.68,77.0,98.753284,P-GPS,,30.1
480700,2026-01-09 20:14:52,0.0,5,7.464,0.0,0.0,0.0,21.2,4.7,0.0,1024,1024,1024,1024,0,0,0,0,67,4.68,77.0,98.753284,P-GPS,,30.1
480800,2026-01-09 20:14:52,0.0,5,7.464,0.0,0.0,0.0,21.2,4.8,0.0,1024,1024,1024,1024,0,0,0,0,67,4.68,77.0,98.753284,P-GPS,,30.1
480900,2026-01-09 20:14:52,0.0,5,7.464,0.0,0.0,0.0,21.2,4.8,-0.1,1024,1024,1024,1024,0,0,0,0,67,4.68,77.0,98.753284,P-GPS,,30.1
481000,2026-01-09 20:14:52,0.0,5,7.464,0.0,0.0,0.0,21.2,4.7,0.0,1024,1024,1024,1024,0,0,0,0,67,4.68,77.0,98.753284,P-GPS,,30.1
481100,2026-01-09 20:14:53,0.0,5,7.464,0.0,0.0,0.0,21.2,4.7,-0.1,1024,1024,1024,1024,0,0,0,0,67,4.68,77.0,98.753284,P-GPS,,30.1
481200,2026-01-09 20:14:53,0.0,5,7.464,0.0,0.0,0.0,21.1,4.8,0.0,1024,1024,1024,1024,0,0,0,0,67,4.68,77.0,98.753284,P-GPS,,30.1
481300,2026-01-09 20:14:53,0.0,5,7.464,0.0,0.0,0.0,21.2,4.7,0.1,1024,1024,1024,1024,0,0,0,0,67,4.68,77.0,98.753284,P-GPS,,30.1
481400,2026-01-09 20:14:53,0.0,5,7.464,0.0,0.0,0.0,21.2,4.7,0.2,1024,1024,1024,1024,0,0,0,0,67,4.683,77.0,98.753284,P-GPS,,30.1
481500,2026-01-09 20:14:53,0.0,5,7.464,0.0,0.0,0.0,21.2,4.7,0.2,1024,1024,1024,1024,0,0,0,0,67,4.683,77.0,98.753284,P-GPS,,30.1
481600,2026-01-09 20:14:53,0.0,5,7.464,0.0,0.0,0.0,21.2,4.9,0.2,1024,1024,1024,1024,0,0,0,0,67,4.683,77.0,98.753284,P-GPS,,30.1
481700,2026-01-09 20:14:53,0.0,5,7.464,0.0,0.0,0.0,21.1,5.0,0.1,1024,1024,1024,1024,0,0,0,0,67,4.683,77.0,98.753284,P-GPS,,30.1
481800,2026-01-09 20:14:53,0.0,5,7.464,0.0,0.0,0.0,21.1,4.9,0.2,1024,1024,1024,1024,0,0,0,0,67,4.683,77.0,98.753284,P-GPS,,30.1
481900,2026-01-09 20:14:53,0.0,5,7.464,0.0,0.0,0.0,21.1,4.8,0.1,1024,1024,1024,1024,0,0,0,0,67,4.683,77.0,98.753284,P-GPS,,30.1
482000,2026-01-09 20:14:53,0.0,5,7.464,0.0,0.0,0.0,21.2,4.8,0.2,1024,1024,1024,1024,0,0,0,0,67,4.683,77.0,98.753284,P-GPS,,30.1
482100,2026-01-09 20:14:54,0.0,5,7.464,0.0,0.0,0.0,21.2,4.8,0.3,1024,1024,1024,1024,0,0,0,0,67,4.683,77.0,98.753284,P-GPS,,30.1
482200,2026-01-09 20:14:54,0.0,5,7.464,0.0,0.0,0.0,21.2,4.7,0.4,1024,1024,1024,1024,0,0,0,0,67,4.683,77.0,99.081368,P-GPS,,30.2
482300,2026-01-09 20:14:54,0.0,5,7.464,0.0,0.0,0.0,21.2,4.7,0.4,1024,1024,1024,1024,0,0,0,0,67,4.683,77.0,99.081368,P-GPS,,30.2
482400,2026-01-09 20:14:54,0.0,5,7.464,0.0,0.0,0.0,21.2,4.8,0.4,1024,1024,1024,1024,0,0,0,0,67,4.683,77.0,99.081368,P-GPS,,30.2
482500,2026-01-09 20:14:54,0.0,5,7.464,0.0,0.0,0.0,21.2,4.9,0.2,1024,1024,1024,1024,0,0,0,0,67,4.683,77.0,99.081368,P-GPS,,30.2
482600,2026-01-09 20:14:54,0.0,5,7.46,0.0,0.0,0.0,21.1,4.9,0.3,1024,1024,1024,1024,0,0,0,0,67,4.789,77.0,99.081368,P-GPS,,30.2
482700,2026-01-09 20:14:54,0.0,5,7.46,0.0,0.0,0.0,21.2,4.7,0.3,1024,1024,1024,1024,0,0,0,0,67,4.789,77.0,99.081368,P-GPS,,30.2
482800,2026-01-09 20:14:54,0.0,5,7.46,0.0,0.0,0.0,21.3,4.8,0.4,1024,1024,1024,1024,0,0,0,0,67,4.789,77.0,99.081368,P-GPS,,30.2
482900,2026-01-09 20:14:54,0.0,5,7.46,0.0,0.0,0.0,21.3,5.1,0.3,1024,1024,1024,1024,0,0,0,0,67,4.789,77.0,99.081368,P-GPS,,30.2
483000,2026-01-09 20:14:55,0.0,5,7.46,0.0,0.0,0.0,21.2,5.0,0.4,1024,1024,1024,1024,0,0,0,0,67,4.789,77.0,99.081368,P-GPS,,30.2
483100,2026-01-09 20:14:55,0.0,5,7.46,0.0,0.0,0.0,21.2,4.8,0.3,1024,1024,1024,1024,0,0,0,0,67,4.789,77.0,99.081368,P-GPS,,30.2
483200,2026-01-09 20:14:55,0.0,5,7.46,0.0,0.0,0.0,21.2,4.7,0.3,1024,1024,1024,1024,0,0,0,0,67,4.789,77.0,99.081368,P-GPS,,30.2
483300,2026-01-09 20:14:55,0.0,5,7.46,0.0,0.0,0.0,21.2,4.8,0.1,1024,1024,1024,1024,0,0,0,0,67,4.789,77.0,99.081368,P-GPS,,30.2
483400,2026-01-09 20:14:55,0.0,5,7.46,0.0,0.0,0.0,21.2,4.8,0.1,1024,1024,1024,1024,0,0,0,0,67,4.789,77.0,99.081368,P-GPS,,30.2
483500,2026-01-09 20:14:55,0.0,5,7.46,0.0,0.0,0.0,21.2,4.6,0.2,1024,1024,1024,1024,0,0,0,0,67,4.789,77.0,99.081368,P-GPS,,30.2
483600,2026-01-09 20:14:55,0.0,5,7.46,0.0,0.0,0.0,21.2,4.5,0.2,1024,1024,1024,1024,0,0,0,0,67,4.789,77.0,99.081368,P-GPS,,30.2
483700,2026-01-09 20:14:55,0.0,5,7.459,0.0,0.0,0.0,21.2,4.2,0.2,1024,1024,1024,1024,0,0,0,0,67,4.777,77.0,99.081368,P-GPS,,30.2
483800,2026-01-09 20:14:55,0.0,5,7.459,0.0,0.0,0.0,21.2,4.3,0.2,1024,1024,1024,1024,0,0,0,0,67,4.777,77.0,99.081368,P-GPS,,30.2
483900,2026-01-09 20:14:55,0.0,5,7.459,0.0,0.0,0.0,21.2,4.4,0.2,1024,1024,1024,1024,0,0,0,0,67,4.777,77.0,99.081368,P-GPS,,30.2
484000,2026-01-09 20:14:55,0.0,5,7.459,0.0,0.0,0.0,21.2,4.3,0.2,1024,1024,1024,1024,0,0,0,0,67,4.777,77.0,99.081368,P-GPS,,30.2
484100,2026-01-09 20:14:56,0.0,5,7.459,0.0,0.0,0.0,21.2,4.4,0.1,1024,1024,1024,1024,0,0,0,0,67,4.777,77.0,99.081368,P-GPS,,30.2
484200,2026-01-09 20:14:56,0.0,5,7.459,0.0,0.0,0.0,21.2,4.3,0.1,1024,1024,1024,1024,0,0,0,0,67,4.777,77.0,99.081368,P-GPS,,30.2
484300,2026-01-09 20:14:56,0.0,5,7.459,0.0,0.0,0.0,21.2,4.3,0.1,1024,1024,1024,1024,0,0,0,0,67,4.777,77.0,99.081368,P-GPS,,30.2
484400,2026-01-09 20:14:56,0.0,5,7.459,0.0,0.0,0.0,21.2,4.2,0.2,1024,1024,1024,1024,0,0,0,0,67,4.777,77.0,99.081368,P-GPS,,30.2
484500,2026-01-09 20:14:56,0.0,5,7.459,0.0,0.0,0.0,21.2,4.1,0.2,1024,1024,1024,1024,0,0,0,0,67,4.777,77.0,99.081368,P-GPS,,30.2
484600,2026-01-09 20:14:56,0.0,5,7.459,0.0,0.0,0.0,21.2,4.1,0.2,1024,1024,1024,1024,0,0,0,0,67,4.777,77.0,99.081368,P-GPS,,30.2
484700,2026-01-09 20:14:56,0.0,5,7.459,0.0,0.0,0.0,21.2,4.2,0.2,1024,1024,1024,1024,0,0,0,0,67,4.777,77.0,99.081368,P-GPS,,30.2
484800,2026-01-09 20:14:56,0.0,5,7.461,0.0,0.0,0.0,21.2,4.1,0.3,1024,1024,1024,1024,0,0,0,0,67,4.706,77.18,99.081368,P-GPS,,30.2
484900,2026-01-09 20:14:56,0.0,5,7.461,0.0,0.0,0.0,21.2,4.3,0.4,1024,1024,1024,1024,0,0,0,0,67,4.706,77.18,99.081368,P-GPS,,30.2
485000,2026-01-09 20:14:57,0.0,5,7.461,0.0,0.0,0.0,21.2,4.4,0.5,1024,1024,1024,1024,0,0,0,0,67,4.706,77.18,99.081368,P-GPS,,30.2
485100,2026-01-09 20:14:57,0.0,5,7.461,0.0,0.0,0.0,21.2,4.5,0.6,1024,1024,1684,1024,0,0,100,0,67,4.706,77.18,99.081368,P-GPS,,30.2
485200,2026-01-09 20:14:57,0.0,5,7.461,0.0,0.0,0.0,21.1,4.5,0.5,1024,1024,1684,1024,0,0,100,0,67,4.706,77.18,99.081368,P-GPS,,30.2
485300,2026-01-09 20:14:57,0.0,5,7.461,0.0,0.0,0.0,21.1,4.5,0.6,1024,1024,1684,1024,0,0,100,0,67,4.706,77.18,99.081368,P-GPS,,30.2
