time(millisecond),timestamp,speed(mph),gpslevel,voltage(v),xSpeed(mph),ySpeed(mph),zSpeed(mph),compass_heading(degrees),pitch(degrees),roll(degrees),rc_elevator,rc_aileron,rc_throttle,rc_rudder,rc_elevator(percent),rc_aileron(percent),rc_throttle(percent),rc_rudder(percent),battery_percent,current(A),battery_temperature(f),ascent(feet),flycState,message,height_above_takeoff(meters)
8600,2026-01-09 12:36:53,0.0,5,7.919,0.0,0.0,0.0,25.1,-1.1,-4.5,1024,1024,1024,1024,0,0,0,0,98,4.526,61.7,36.417324,P-GPS,,11.1
8700,2026-01-09 12:36:53,0.0,5,7.919,0.0,0.0,0.0,25.0,-1.3,-4.2,1024,1024,1024,1024,0,0,0,0,98,4.526,61.7,36.417324,P-GPS,,11.1
8800,2026-01-09 12:36:53,0.0,5,7.919,0.0,0.0,0.0,25.0,-0.8,-3.9,1024,1024,1024,1024,0,0,0,0,98,4.526,61.7,36.417324,P-GPS,,11.1
8900,2026-01-09 12:36:54,0.0,5,7.919,0.0,0.0,0.0,25.0,0.0,-3.7,1024,1024,1024,1024,0,0,0,0,98,4.526,61.7,36.745408,P-GPS,,11.2
9000,2026-01-09 12:36:54,0.0,5,7.919,0.0,0.0,0.0,24.9,-0.2,-3.9,1024,1024,1024,1024,0,0,0,0,98,4.526,61.7,36.745408,P-GPS,,11.2
9100,2026-01-09 12:36:54,0.0,5,7.919,0.0,0.0,0.0,25.0,0.1,-3.8,1024,1024,1024,1024,0,0,0,0,98,4.526,61.7,36.745408,P-GPS,,11.2
9200,2026-01-09 12:36:54,0.0,5,7.919,0.0,0.0,0.0,25.0,-0.8,-3.8,1024,1024,1024,1024,0,0,0,0,98,4.526,61.7,36.745408,P-GPS,,11.2
9300,2026-01-09 12:36:54,0.0,5,7.919,0.0,0.0,0.0,25.1,-1.0,-4.1,1024,1024,1024,1024,0,0,0,0,98,4.526,61.7,37.073492,P-GPS,,11.3
9400,2026-01-09 12:36:54,0.0,5,7.84,0.0,0.0,0.0,25.1,-0.9,-4.5,1024,1024,1024,1024,0,0,0,0,98,4.646,61.7,37.073492,P-GPS,,11.3
9500,2026-01-09 12:36:54,0.0,5,7.84,0.0,0.0,0.0,25.0,-0.7,-4.9,1024,1024,1024,1024,0,0,0,0,98,4.646,61.7,37.073492,P-GPS,,11.3
9600,2026-01-09 12:36:54,0.0,5,7.84,0.0,0.0,0.0,25.0,-0.7,-5.4,1024,1024,1024,1024,0,0,0,0,98,4.646,61.7,37.073492,P-GPS,,11.3
9700,2026-01-09 12:36:54,0.0,5,7.84,0.0,0.0,0.0,25.2,-0.7,-5.4,1024,1024,1024,1024,0,0,0,0,98,4.646,61.7,37.401576,P-GPS,,11.4
9800,2026-01-09 12:36:54,0.0,5,7.84,0.0,0.0,0.0,25.2,-0.9,-5.8,1024,1024,1024,1024,0,0,0,0,98,4.646,61.7,37.401576,P-GPS,,11.4
9900,2026-01-09 12:36:55,0.0,5,7.84,0.0,0.0,0.0,25.2,-0.6,-5.6,1024,1024,1024,1024,0,0,0,0,98,4.646,61.7,37.401576,P-GPS,,11.4
10000,2026-01-09 12:36:55,0.0,5,7.84,0.0,0.0,0.0,25.1,-0.4,-4.9,1024,1024,1024,1024,0,0,0,0,98,4.646,61.7,37.401576,P-GPS,,11.4
10100,2026-01-09 12:36:55,0.0,5,7.84,0.0,0.0,0.0,25.0,0.0,-4.6,1024,1024,1024,1024,0,0,0,0,98,4.646,61.7,37.073492,P-GPS,,11.3
10200,2026-01-09 12:36:55,0.0,5,7.84,0.0,0.0,0.0,25.0,0.3,-4.3,1024,1024,1024,1024,0,0,0,0,98,4.646,61.7,37.073492,P-GPS,,11.3
10300,2026-01-09 12:36:55,0.0,5,7.84,0.0,0.0,0.0,24.9,0.6,-4.2,1024,1024,1024,1024,0,0,0,0,98,4.646,61.7,37.073492,P-GPS,,11.3
10400,2026-01-09 12:36:55,0.0,5,7.84,0.0,0.0,0.0,24.8,0.9,-4.7,1024,1024,1024,1024,0,0,0,0,98,4.646,61.7,37.073492,P-GPS,,11.3
10500,2026-01-09 12:36:55,0.0,5,7.84,0.0,0.0,0.0,24.8,0.8,-4.6,1024,1024,1024,1024,0,0,0,0,98,4.646,61.7,37.073492,P-GPS,,11.3
10600,2026-01-09 12:36:55,0.0,5,7.84,0.0,0.0,0.0,24.9,1.1,-4.4,1024,1024,1024,1024,0,0,0,0,98,4.646,61.7,37.073492,P-GPS,,11.3
10700,2026-01-09 12:36:55,0.0,5,7.84,0.0,0.0,0.0,25.1,0.3,-4.2,1024,1024,1024,1024,0,0,0,0,98,4.646,61.7,37.073492,P-GPS,,11.3
10800,2026-01-09 12:36:55,0.0,5,7.84,0.0,0.0,0.0,25.2,-0.2,-3.9,1024,1024,1024,1024,0,0,0,0,98,4.646,61.7,37.401576,P-GPS,,11.4
10900,2026-01-09 12:36:56,0.0,5,7.84,0.0,0.0,0.0,25.1,-0.1,-4.2,1024,1024,1024,1024,0,0,0,0,98,4.646,61.7,37.401576,P-GPS,,11.4
11000,2026-01-09 12:36:56,0.0,5,7.84,0.0,0.0,0.0,24.8,0.6,-4.8,1024,1024,1024,1024,0,0,0,0,98,4.646,61.7,37.401576,P-GPS,,11.4
11100,2026-01-09 12:36:56,0.0,5,7.84,0.0,0.0,0.0,24.7,1.6,-4.9,1024,1024,1024,1024,0,0,0,0,98,4.646,61.7,37.401576,P-GPS,,11.4
11200,2026-01-09 12:36:56,0.0,5,7.84,0.0,0.0,0.0,24.7,0.9,-4.9,1024,1024,1024,1024,0,0,0,0,98,4.646,61.7,37.72966,P-GPS,,11.5
11300,2026-01-09 12:36:56,0.0,5,7.84,0.0,0.0,0.0,24.8,0.0,-5.2,1024,1024,1024,1024,0,0,0,0,98,4.646,61.7,37.72966,P-GPS,,11.5
11500,2026-01-09 12:36:56,0.0,5,7.84,0.0,0.0,0.0,24.9,-0.7,-5.1,1024,1024,1024,1024,0,0,0,0,98,4.646,61.7,37.72966,P-GPS,,11.5
11600,2026-01-09 12:36:56,0.0,5,7.84,0.0,0.0,0.0,24.9,-1.0,-5.0,1024,1024,1024,1024,0,0,0,0,98,4.646,61.7,37.72966,P-GPS,,11.5
11700,2026-01-09 12:36:56,0.0,5,7.84,0.0,0.0,0.0,24.8,-0.5,-5.2,1024,1024,1024,1024,0,0,0,0,98,4.646,61.7,37.72966,P-GPS,,11.5
11800,2026-01-09 12:36:56,0.0,5,7.84,0.0,0.0,0.0,24.8,-0.3,-4.1,1024,1024,1024,1024,0,0,0,0,98,4.646,61.7,37.72966,P-GPS,,11.5
11900,2026-01-09 12:36:57,0.0,5,7.809,0.0,0.0,0.0,24.7,-0.2,-4.0,1024,1024,1024,1024,0,0,0,0,98,5.055,61.7,37.401576,P-GPS,,11.4
12000,2026-01-09 12:36:57,0.0,5,7.809,0.0,0.0,0.0,24.8,-0.8,-3.7,1024,1024,1024,1024,0,0,0,0,98,5.055,61.7,37.401576,P-GPS,,11.4
12100,2026-01-09 12:36:57,0.0,5,7.809,0.0,0.0,0.0,24.8,-0.9,-3.5,1024,1024,1024,1024,0,0,0,0,98,5.055,61.7,37.401576,P-GPS,,11.4
12200,2026-01-09 12:36:57,0.0,5,7.809,0.0,0.0,0.0,25.0,-1.7,-3.4,1024,1024,1024,1024,0,0,0,0,98,5.055,61.7,37.401576,P-GPS,,11.4
12300,2026-01-09 12:36:57,0.0,5,7.809,0.0,0.0,0.0,24.9,-2.3,-3.6,1024,1024,1024,1024,0,0,0,0,98,5.055,61.7,37.401576,P-GPS,,11.4
12400,2026-01-09 12:36:57,0.0,5,7.809,0.0,0.0,0.0,25.0,-2.6,-4.1,1024,1024,1024,1024,0,0,0,0,98,5.055,61.7,37.073492,P-GPS,,11.3
12500,2026-01-09 12:36:57,0.0,5,7.809,0.0,0.0,0.0,24.9,-1.3,-3.8,1024,1024,1024,1024,0,0,0,0,98,5.055,61.7,37.073492,P-GPS,,11.3
12600,2026-01-09 12:36:57,0.0,5,7.809,0.0,0.0,0.0,25.0,-1.3,-3.7,1024,1024,1024,1024,0,0,0,0,98,5.055,61.7,37.073492,P-GPS,,11.3
12700,2026-01-09 12:36:57,0.0,5,7.809,0.0,0.0,0.0,25.0,-0.7,-4.0,1024,1024,1024,1024,0,0,0,0,98,5.055,61.7,37.073492,P-GPS,,11.3
12800,2026-01-09 12:36:57,0.0,5,7.809,0.0,0.0,0.0,25.2,-1.4,-3.9,1024,1024,1024,1024,0,0,0,0,98,5.055,61.7,37.073492,P-GPS,,11.3
12900,2026-01-09 12:36:58,0.0,5,7.809,0.0,0.0,0.0,25.2,-0.7,-4.4,1024,1024,1024,1024,0,0,0,0,98,5.055,61.7,37.073492,P-GPS,,11.3
13000,2026-01-09 12:36:58,0.0,5,7.827,0.0,0.0,0.0,25.2,-0.4,-4.9,1024,1024,1024,1024,0,0,0,0,98,4.696,61.7,37.401576,P-GPS,,11.4
13100,2026-01-09 12:36:58,0.0,5,7.827,0.0,0.0,0.0,25.1,-0.2,-5.2,1024,1024,1024,1024,0,0,0,0,98,4.696,61.7,37.401576,P-GPS,,11.4
13200,2026-01-09 12:36:58,0.0,5,7.827,0.0,0.0,0.0,25.0,0.5,-5.7,1024,1024,1024,1024,0,0,0,0,98,4.696,61.7,37.401576,P-GPS,,11.4
13300,2026-01-09 12:36:58,0.0,5,7.827,0.0,0.0,0.0,24.9,0.9,-5.8,1024,1024,1024,1024,0,0,0,0,98,4.696,61.7,37.401576,P-GPS,,11.4
13400,2026-01-09 12:36:58,0.0,5,7.827,0.0,0.0,0.0,24.8,1.7,-6.1,1024,1024,1024,1024,0,0,0,0,98,4.696,61.7,37.401576,P-GPS,,11.4
13500,2026-01-09 12:36:58,0.0,5,7.827,0.0,0.0,0.0,24.7,1.4,-5.4,1024,1024,1024,1024,0,0,0,0,98,4.696,61.7,37.401576,P-GPS,,11.4
13600,2026-01-09 12:36:58,0.0,5,7.827,0.0,0.0,0.0,24.9,0.5,-5.3,1024,1024,1024,1024,0,0,0,0,98,4.696,61.7,37.401576,P-GPS,,11.4
13700,2026-01-09 12:36:58,0.0,5,7.827,0.0,0.0,0.0,25.1,0.7,-5.0,1024,1024,1024,1024,0,0,0,0,98,4.696,61.7,37.073492,P-GPS,,11.3
13800,2026-01-09 12:36:58,0.0,5,7.827,0.0,0.0,0.0,25.3,0.6,-4.4,1024,1024,1024,1024,0,0,0,0,98,4.696,61.7,37.073492,P-GPS,,11.3
13900,2026-01-09 12:36:59,0.0,5,7.827,0.0,0.0,0.0,25.2,-0.2,-4.1,1024,1024,1024,1024,0,0,0,0,98,4.696,61.7,37.073492,P-GPS,,11.3
14000,2026-01-09 12:36:59,0.0,5,7.827,0.0,0.0,0.0,25.1,0.1,-4.1,1024,1024,1024,1024,0,0,0,0,98,4.696,61.7,37.073492,P-GPS,,11.3
14100,2026-01-09 12:36:59,0.0,5,7.798,0.0,0.0,0.0,25.0,0.0,-4.3,1024,1024,1024,1024,0,0,0,0,98,4.926,61.88,37.073492,P-GPS,,11.3
14200,2026-01-09 12:36:59,0.0,5,7.798,0.0,0.0,0.0,25.0,0.3,-4.3,1024,1024,1024,1024,0,0,0,0,98,4.926,61.88,36.745408,P-GPS,,11.2
14300,2026-01-09 12:36:59,0.0,5,7.798,0.0,0.0,0.0,24.9,0.7,-4.2,1024,1024,1024,1024,0,0,0,0,98,4.926,61.88,36.745408,P-GPS,,11.2
14400,2026-01-09 12:36:59,0.0,5,7.798,0.0,0.0,0.0,25.0,0.4,-4.0,1024,1024,1024,1024,0,0,0,0,98,4.926,61.88,36.745408,P-GPS,,11.2
14500,2026-01-09 12:36:59,0.0,5,7.798,0.0,0.0,0.0,24.9,0.1,-3.9,1024,1024,1024,1024,0,0,0,0,98,4.926,61.88,36.745408,P-GPS,,11.2
14600,2026-01-09 12:36:59,0.0,5,7.798,0.0,0.0,0.0,24.8,0.2,-3.7,1024,1024,1024,1024,0,0,0,0,98,4.926,61.88,36.417324,P-GPS,,11.1
14700,2026-01-09 12:36:59,0.223694,5,7.798,0.0,-0.223694,0.0,24.9,-0.3,-3.3,1024,1024,1024,1024,0,0,0,0,98,4.926,61.88,36.417324,P-GPS,,11.1
14800,2026-01-09 12:36:59,0.223694,5,7.798,0.0,-0.223694,0.0,24.9,-0.8,-3.1,1024,1024,1024,1024,0,0,0,0,98,4.926,61.88,36.417324,P-GPS,,11.1
14900,2026-01-09 12:37:00,0.223694,5,7.798,0.0,-0.223694,0.0,25.0,-1.7,-2.6,1024,1024,1024,1024,0,0,0,0,98,4.926,61.88,36.417324,P-GPS,,11.1
15000,2026-01-09 12:37:00,0.223694,5,7.798,0.0,-0.223694,0.0,25.0,-1.7,-2.2,1024,1024,1024,1024,0,0,0,0,98,4.926,61.88,36.417324,P-GPS,,11.1
15100,2026-01-09 12:37:00,0.223694,5,7.798,0.0,-0.223694,0.0,24.9,-2.2,-2.0,1024,1024,1024,1024,0,0,0,0,98,4.926,61.88,36.08924,P-GPS,,11.0
15200,2026-01-09 12:37:00,0.0,5,7.818,0.0,0.0,0.0,24.9,-2.4,-2.2,1024,1024,1024,1024,0,0,0,0,98,4.773,61.88,36.08924,P-GPS,,11.0
15300,2026-01-09 12:37:00,0.0,5,7.818,0.0,0.0,0.0,25.0,-2.4,-2.3,1024,1024,1024,1024,0,0,0,0,98,4.773,61.88,36.08924,P-GPS,,11.0
15400,2026-01-09 12:37:00,0.0,5,7.818,0.0,0.0,0.0,25.0,-1.9,-2.5,1024,1024,1024,1024,0,0,0,0,98,4.773,61.88,36.08924,P-GPS,,11.0
15500,2026-01-09 12:37:00,0.0,5,7.818,0.0,0.0,0.0,24.9,-1.5,-2.6,1024,1024,1024,1024,0,0,0,0,98,4.773,61.88,36.08924,P-GPS,,11.0
15600,2026-01-09 12:37:00,0.0,5,7.818,0.0,0.0,0.0,25.0,-1.2,-2.4,1024,1024,1024,1024,0,0,0,0,98,4.773,61.88,36.08924,P-GPS,,11.0
15700,2026-01-09 12:37:00,0.0,5,7.818,0.0,0.0,0.0,24.9,-1.0,-2.3,1024,1024,1024,1024,0,0,0,0,98,4.773,61.88,36.08924,P-GPS,,11.0
15800,2026-01-09 12:37:00,0.0,5,7.818,0.0,0.0,0.0,24.8,-1.2,-2.2,1024,1024,1024,1024,0,0,0,0,98,4.773,61.88,36.08924,P-GPS,,11.0
15900,2026-01-09 12:37:01,0.0,5,7.818,0.0,0.0,0.0,24.9,-1.5,-1.9,1024,1024,1024,1024,0,0,0,0,98,4.773,61.88,36.08924,P-GPS,,11.0
16000,2026-01-09 12:37:01,0.0,5,7.818,0.0,0.0,0.0,24.9,-1.4,-1.6,1024,1024,1024,1024,0,0,0,0,98,4.773,61.88,36.08924,P-GPS,,11.0
16100,2026-01-09 12:37:01,0.0,5,7.818,0.0,0.0,0.0,25.0,-1.6,-1.7,1024,1024,1024,1024,0,0,0,0,98,4.773,61.88,36.08924,P-GPS,,11.0
16200,2026-01-09 12:37:01,0.0,5,7.818,0.0,0.0,0.0,24.9,-1.3,-2.4,1024,1024,1024,1024,0,0,0,0,98,4.773,61.88,36.08924,P-GPS,,11.0
16300,2026-01-09 12:37:01,0.0,5,7.818,0.0,0.0,0.0,25.0,-1.7,-2.3,1024,1024,1024,1024,0,0,0,0,98,4.773,61.88,36.08924,P-GPS,,11.0
16400,2026-01-09 12:37:01,0.0,5,7.82,0.0,0.0,0.0,25.0,-1.4,-2.6,1024,1024,1024,1024,0,0,0,0,98,4.61,61.88,36.08924,P-GPS,,11.0
16500,2026-01-09 12:37:01,0.0,5,7.82,0.0,0.0,0.0,25.1,-1.4,-2.4,1024,1024,1024,1024,0,0,0,0,98,4.61,61.88,36.08924,P-GPS,,11.0
16600,2026-01-09 12:37:01,0.0,5,7.82,0.0,0.0,0.0,25.1,-1.7,-2.5,1024,1024,1024,1024,0,0,0,0,98,4.61,61.88,36.08924,P-GPS,,11.0
16700,2026-01-09 12:37:01,0.0,5,7.82,0.0,0.0,0.0,25.1,-1.3,-2.4,1024,1024,1024,1024,0,0,0,0,98,4.61,61.88,36.08924,P-GPS,,11.0
16800,2026-01-09 12:37:01,0.0,5,7.82,0.0,0.0,0.0,25.0,-0.7,-2.3,1024,1024,1024,1024,0,0,0,0,98,4.61,61.88,36.08924,P-GPS,,11.0
16900,2026-01-09 12:37:02,0.0,5,7.82,0.0,0.0,0.0,24.9,-0.2,-2.2,1024,1024,1024,1024,0,0,0,0,98,4.61,61.88,36.08924,P-GPS,,11.0
17000,2026-01-09 12:37:02,0.0,5,7.82,0.0,0.0,0.0,24.9,0.0,-2.2,1024,1024,1024,1024,0,0,0,0,98,4.61,61.88,36.08924,P-GPS,,11.0
17100,2026-01-09 12:37:02,0.0,5,7.82,0.0,0.0,0.0,24.9,0.1,-2.0,1024,1024,1024,1024,0,0,0,0,98,4.61,61.88,36.08924,P-GPS,,11.0
17200,2026-01-09 12:37:02,0.0,5,7.82,0.0,0.0,0.0,24.8,0.1,-2.0,1024,1024,1024,1024,0,0,0,0,98,4.61,61.88,36.08924,P-GPS,,11.0
17300,2026-01-09 12:37:02,0.0,5,7.82,0.0,0.0,0.0,24.8,0.2,-1.9,1024,1024,1024,1024,0,0,0,0,98,4.61,61.88,36.08924,P-GPS,,11.0
17400,2026-01-09 12:37:02,0.0,5,7.82,0.0,0.0,0.0,24.9,0.2,-1.9,1024,1024,1024,1024,0,0,0,0,98,4.61,61.88,36.08924,P-GPS,,11.0
17500,2026-01-09 12:37:02,0.0,5,7.816,0.0,0.0,0.0,25.0,0.0,-1.9,1024,1024,1024,1024,0,0,0,0,98,4.667,61.88,36.08924,P-GPS,,11.0
17600,2026-01-09 12:37:02,0.0,5,7.816,0.0,0.0,0.0,25.1,0.0,-1.9,1024,1024,1024,1024,0,0,0,0,98,4.667,61.88,36.08924,P-GPS,,11.0
17700,2026-01-09 12:37:02,0.0,5,7.816,0.0,0.0,0.0,25.0,0.0,-2.0,1024,1024,1024,1024,0,0,0,0,98,4.667,61.88,36.08924,P-GPS,,11.0
17800,2026-01-09 12:37:02,0.0,5,7.816,0.0,0.0,0.0,25.1,0.1,-2.1,1024,1024,1024,1024,0,0,0,0,98,4.667,61.88,36.08924,P-GPS,,11.0
17900,2026-01-09 12:37:03,0.0,5,7.816,0.0,0.0,0.0,25.0,0.3,-2.1,1024,1024,1024,1024,0,0,0,0,98,4.667,61.88,36.08924,P-GPS,,11.0
18000,2026-01-09 12:37:03,0.0,5,7.816,0.0,0.0,0.0,25.1,0.0,-2.3,1024,1024,1024,1024,0,0,0,0,98,4.667,61.88,36.08924,P-GPS,,11.0
18100,2026-01-09 12:37:03,0.0,5,7.816,0.0,0.0,0.0,25.1,0.3,-2.5,1024,1024,1024,1024,0,0,0,0,98,4.667,61.88,36.08924,P-GPS,,11.0
18200,2026-01-09 12:37:03,0.0,5,7.816,0.0,0.0,0.0,25.0,0.7,-2.5,1024,1024,1024,1024,0,0,0,0,98,4.667,61.88,36.08924,P-GPS,,11.0
18300,2026-01-09 12:37:03,0.0,5,7.816,0.0,0.0,0.0,25.0,1.3,-2.5,1024,1024,1024,1024,0,0,0,0,98,4.667,61.88,36.08924,P-GPS,,11.0
18400,2026-01-09 12:37:03,0.0,5,7.816,0.0,0.0,0.0,24.8,1.5,-2.6,1024,1024,1024,1024,0,0,0,0,98,4.667,61.88,36.08924,P-GPS,,11.0
18500,2026-01-09 12:37:03,0.0,5,7.816,0.0,0.0,0.0,24.7,1.2,-2.9,1024,1024,1024,1024,0,0,0,0,98,4.667,61.88,36.08924,P-GPS,,11.0
18600,2026-01-09 12:37:03,0.0,5,7.816,0.0,0.0,0.0,24.9,1.2,-2.0,1024,1024,1024,1024,0,0,0,0,98,4.667,61.88,36.08924,P-GPS,,11.0
18700,2026-01-09 12:37:03,0.0,5,7.816,0.0,0.0,0.0,24.9,0.6,-2.1,1024,1024,1024,1024,0,0,0,0,98,4.667,61.88,36.08924,P-GPS,,11.0
18800,2026-01-09 12:37:04,0.223694,5,7.816,-0.223694,0.0,0.0,25.0,-0.6,-2.3,1024,1024,1024,1024,0,0,0,0,98,4.667,61.88,36.08924,P-GPS,,11.0
18900,2026-01-09 12:37:04,0.223694,5,7.816,-0.223694,0.0,0.0,25.1,-1.4,-2.7,1024,1024,1024,1024,0,0,0,0,98,4.667,61.88,36.08924,P-GPS,,11.0
19000,2026-01-09 12:37:04,0.0,5,7.816,0.0,0.0,0.0,25.1,-1.5,-2.9,1024,1024,1024,1024,0,0,0,0,98,4.667,61.88,36.417324,P-GPS,,11.1
19100,2026-01-09 12:37:04,0.0,5,7.816,0.0,0.0,0.0,25.1,-1.5,-3.0,1024,1024,1024,1024,0,0,0,0,98,4.667,61.88,36.417324,P-GPS,,11.1
19200,2026-01-09 12:37:04,0.0,5,7.816,0.0,0.0,0.0,25.1,-1.3,-3.1,1024,1024,1024,1024,0,0,0,0,98,4.667,61.88,36.417324,P-GPS,,11.1
19300,2026-01-09 12:37:04,0.0,5,7.816,0.0,0.0,0.0,25.2,-1.4,-3.6,1024,1024,1024,1024,0,0,0,0,98,4.667,61.88,36.417324,P-GPS,,11.1
19400,2026-01-09 12:37:04,0.0,5,7.816,0.0,0.0,0.0,25.3,-1.6,-4.1,1024,1024,1024,1024,0,0,0,0,98,4.667,61.88,36.745408,P-GPS,,11.2
19500,2026-01-09 12:37:04,0.0,5,7.816,0.0,0.0,0.0,25.2,-1.0,-4.5,1024,1024,1024,1024,0,0,0,0,98,4.667,61.88,36.745408,P-GPS,,11.2
19600,2026-01-09 12:37:04,0.0,5,7.816,0.0,0.0,0.0,25.2,-0.8,-4.0,1024,1024,1024,1024,0,0,0,0,98,4.667,61.88,36.745408,P-GPS,,11.2
19700,2026-01-09 12:37:04,0.0,5,7.807,0.0,0.0,0.0,25.0,0.0,-4.0,1024,1024,1024,1024,0,0,0,0,98,4.76,61.88,36.745408,P-GPS,,11.2
19800,2026-01-09 12:37:04,0.0,5,7.807,0.0,0.0,0.0,25.1,0.0,-3.8,1024,1024,1024,1024,0,0,0,0,98,4.76,61.88,36.745408,P-GPS,,11.2
19900,2026-01-09 12:37:05,0.0,5,7.807,0.0,0.0,0.0,25.0,0.0,-3.8,1024,1024,1024,1024,0,0,0,0,98,4.76,61.88,36.745408,P-GPS,,11.2
20000,2026-01-09 12:37:05,0.0,5,7.807,0.0,0.0,0.0,25.0,-0.7,-3.8,1024,1024,1024,1024,0,0,0,0,98,4.76,61.88,36.745408,P-GPS,,11.2
20100,2026-01-09 12:37:05,0.0,5,7.807,0.0,0.0,0.0,25.1,-0.8,-3.4,1024,1024,1024,1024,0,0,0,0,98,4.76,61.88,36.745408,P-GPS,,11.2
20200,2026-01-09 12:37:05,0.0,5,7.807,0.0,0.0,0.0,25.0,-0.7,-3.1,1024,1024,1024,1024,0,0,0,0,98,4.76,61.88,36.745408,P-GPS,,11.2
20300,2026-01-09 12:37:05,0.0,5,7.807,0.0,0.0,0.0,25.0,-1.0,-2.9,1024,1024,1024,1024,0,0,0,0,98,4.76,61.88,36.745408,P-GPS,,11.2
20400,2026-01-09 12:37:05,0.0,5,7.807,0.0,0.0,0.0,24.8,-0.8,-3.1,1024,1024,1024,1024,0,0,0,0,98,4.76,61.88,36.745408,P-GPS,,11.2
20500,2026-01-09 12:37:05,0.0,5,7.807,0.0,0.0,0.0,24.9,-1.0,-2.9,1024,1024,1024,1024,0,0,0,0,98,4.76,61.88,36.745408,P-GPS,,11.2
20600,2026-01-09 12:37:05,0.0,5,7.807,0.0,0.0,0.0,25.0,-0.8,-2.8,1024,1024,1024,1024,0,0,0,0,98,4.76,61.88,36.745408,P-GPS,,11.2
20700,2026-01-09 12:37:05,0.0,5,7.807,0.0,0.0,0.0,25.0,-1.0,-2.6,1024,1024,1024,1024,0,0,0,0,98,4.76,61.88,36.745408,P-GPS,,11.2
20800,2026-01-09 12:37:05,0.0,5,7.807,0.0,0.0,0.0,25.0,-1.2,-3.0,1024,1024,1024,1024,0,0,0,0,98,4.76,61.88,36.745408,P-GPS,,11.2
20900,2026-01-09 12:37:06,0.0,5,7.807,0.0,0.0,0.0,25.1,-1.4,-3.0,1024,1024,1024,1024,0,0,0,0,98,4.76,61.88,36.745408,P-GPS,,11.2
21000,2026-01-09 12:37:06,0.0,5,7.807,0.0,0.0,0.0,25.1,-1.5,-2.8,1024,1024,1024,1024,0,0,0,0,98,4.76,61.88,36.745408,P-GPS,,11.2
21100,2026-01-09 12:37:06,0.0,5,7.807,0.0,0.0,0.0,25.0,-0.8,-3.0,1024,1024,1024,1024,0,0,0,0,98,4.76,61.88,36.745408,P-GPS,,11.2
21200,2026-01-09 12:37:06,0.0,5,7.807,0.0,0.0,0.0,25.0,-0.2,-2.8,1024,1024,1024,1024,0,0,0,0,98,4.76,61.88,36.745408,P-GPS,,11.2
21300,2026-01-09 12:37:06,0.0,5,7.807,0.0,0.0,0.0,25.0,-0.4,-2.9,1024,1024,1024,1024,0,0,0,0,98,4.76,61.88,36.745408,P-GPS,,11.2
21400,2026-01-09 12:37:06,0.0,5,7.807,0.0,0.0,0.0,24.9,-0.8,-2.9,1024,1024,1024,1024,0,0,0,0,98,4.76,61.88,36.745408,P-GPS,,11.2
21500,2026-01-09 12:37:06,0.0,5,7.805,0.0,0.0,0.0,24.8,-0.7,-2.8,1024,1024,1024,1024,0,0,0,0,98,4.656,62.06,37.073492,P-GPS,,11.3
21600,2026-01-09 12:37:06,0.0,5,7.805,0.0,0.0,0.0,24.9,-1.1,-2.7,1024,1024,1024,1024,0,0,0,0,98,4.656,62.06,37.073492,P-GPS,,11.3
21700,2026-01-09 12:37:06,0.0,5,7.805,0.0,0.0,0.0,24.9,-1.3,-2.7,1024,1024,1024,1024,0,0,0,0,98,4.656,62.06,37.073492,P-GPS,,11.3
21800,2026-01-09 12:37:07,0.0,5,7.805,0.0,0.0,0.0,25.0,-1.7,-2.9,1024,1024,1024,1024,0,0,0,0,98,4.656,62.06,36.745408,P-GPS,,11.2
21900,2026-01-09 12:37:07,0.0,5,7.805,0.0,0.0,0.0,25.0,-1.2,-2.5,1024,1024,1024,1024,0,0,0,0,98,4.656,62.06,36.745408,P-GPS,,11.2
22000,2026-01-09 12:37:07,0.0,5,7.805,0.0,0.0,0.0,25.0,-0.4,-2.4,1024,1024,1024,1024,0,0,0,0,98,4.656,62.06,36.745408,P-GPS,,11.2
22100,2026-01-09 12:37:07,0.0,5,7.805,0.0,0.0,0.0,25.0,-0.5,-2.1,1024,1024,1024,1024,0,0,0,0,98,4.656,62.06,36.745408,P-GPS,,11.2
22200,2026-01-09 12:37:07,0.0,5,7.805,0.0,0.0,0.0,25.2,-1.0,-1.9,1024,1024,1024,1024,0,0,0,0,98,4.656,62.06,36.745408,P-GPS,,11.2
22300,2026-01-09 12:37:07,0.0,5,7.805,0.0,0.0,0.0,25.1,-0.9,-1.8,1024,1024,1024,1024,0,0,0,0,98,4.656,62.06,36.745408,P-GPS,,11.2
22400,2026-01-09 12:37:07,0.0,5,7.805,0.0,0.0,0.0,25.2,-0.5,-2.1,1024,1024,1024,1024,0,0,0,0,98,4.656,62.06,36.745408,P-GPS,,11.2
22500,2026-01-09 12:37:07,0.0,5,7.812,0.0,0.0,0.0,25.2,0.2,-2.2,1024,1024,1024,1024,0,0,0,0,97,4.606,62.06,36.745408,P-GPS,,11.2
22600,2026-01-09 12:37:07,0.0,5,7.812,0.0,0.0,0.0,25.2,0.9,-2.4,1024,1024,1024,1024,0,0,0,0,97,4.606,62.06,36.745408,P-GPS,,11.2
22700,2026-01-09 12:37:07,0.0,5,7.812,0.0,0.0,0.0,25.2,1.1,-2.7,1024,1024,1024,1024,0,0,0,0,97,4.606,62.06,36.745408,P-GPS,,11.2
22800,2026-01-09 12:37:07,0.0,5,7.812,0.0,0.0,0.0,25.2,1.5,-2.9,1024,1024,1024,1024,0,0,0,0,97,4.606,62.06,37.073492,P-GPS,,11.3
22900,2026-01-09 12:37:08,0.0,5,7.812,0.0,0.0,0.0,25.0,1.4,-3.5,1024,1024,1024,1024,0,0,0,0,97,4.606,62.06,37.073492,P-GPS,,11.3
23000,2026-01-09 12:37:08,0.0,5,7.812,0.0,0.0,0.0,25.1,1.8,-3.6,1024,1024,1024,1024,0,0,0,0,97,4.606,62.06,37.073492,P-GPS,,11.3
23100,2026-01-09 12:37:08,0.0,5,7.812,0.0,0.0,0.0,25.2,1.6,-3.7,1024,1024,1024,1024,0,0,0,0,97,4.606,62.06,37.073492,P-GPS,,11.3
23200,2026-01-09 12:37:08,0.0,5,7.812,0.0,0.0,0.0,25.2,0.9,-4.1,1024,1024,1024,1024,0,0,0,0,97,4.606,62.06,37.073492,P-GPS,,11.3
23300,2026-01-09 12:37:08,0.0,5,7.812,0.0,0.0,0.0,25.2,0.9,-4.2,1024,1024,1024,1024,0,0,0,0,97,4.606,62.06,37.401576,P-GPS,,11.4
23400,2026-01-09 12:37:08,0.0,5,7.812,0.0,0.0,0.0,25.1,1.0,-4.1,1024,1024,1024,1024,0,0,0,0,97,4.606,62.06,37.401576,P-GPS,,11.4
23500,2026-01-09 12:37:08,0.0,5,7.794,0.0,0.0,0.0,25.2,1.3,-4.0,1024,1024,1024,1024,0,0,0,0,97,4.887,62.06,37.401576,P-GPS,,11.4
23600,2026-01-09 12:37:08,0.0,5,7.794,0.0,0.0,0.0,25.2,1.1,-3.8,1024,1024,1024,1024,0,0,0,0,97,4.887,62.06,37.401576,P-GPS,,11.4
23700,2026-01-09 12:37:08,0.0,5,7.794,0.0,0.0,0.0,25.4,1.1,-3.2,1024,1024,1024,1024,0,0,0,0,97,4.887,62.06,37.401576,P-GPS,,11.4
23800,2026-01-09 12:37:08,0.0,5,7.794,0.0,0.0,0.0,25.4,1.3,-3.0,1024,1024,1024,1024,0,0,0,0,97,4.887,62.06,37.401576,P-GPS,,11.4
23900,2026-01-09 12:37:09,0.0,5,7.794,0.0,0.0,0.0,25.2,1.6,-2.9,1024,1024,1024,1024,0,0,0,0,97,4.887,62.06,37.401576,P-GPS,,11.4
24000,2026-01-09 12:37:09,0.0,5,7.794,0.0,0.0,0.0,25.1,2.0,-3.0,1024,1024,1024,1024,0,0,0,0,97,4.887,62.06,37.401576,P-GPS,,11.4
24100,2026-01-09 12:37:09,0.0,5,7.794,0.0,0.0,0.0,25.0,1.6,-2.9,1024,1024,1024,1024,0,0,0,0,97,4.887,62.06,37.401576,P-GPS,,11.4
24200,2026-01-09 12:37:09,0.0,5,7.794,0.0,0.0,0.0,25.0,1.3,-3.1,1024,1024,1024,1024,0,0,0,0,97,4.887,62.06,37.401576,P-GPS,,11.4
24300,2026-01-09 12:37:09,0.0,5,7.794,0.0,0.0,0.0,24.9,1.2,-3.2,1024,1024,1024,1024,0,0,0,0,97,4.887,62.06,37.401576,P-GPS,,11.4
24400,2026-01-09 12:37:09,0.0,5,7.794,0.0,0.0,0.0,24.7,0.1,-3.5,1024,1024,1024,1024,0,0,0,0,97,4.887,62.06,37.401576,P-GPS,,11.4
24500,2026-01-09 12:37:09,0.0,5,7.794,0.0,0.0,0.0,24.8,0.1,-3.5,1024,1024,1024,1024,0,0,0,0,97,4.887,62.06,37.401576,P-GPS,,11.4
24600,2026-01-09 12:37:09,0.223694,5,7.8,-0.223694,0.0,0.0,24.9,-0.4,-3.9,1024,1024,1024,1024,0,0,0,0,97,4.843,62.24,37.401576,P-GPS,,11.4
24700,2026-01-09 12:37:09,0.0,5,7.8,0.0,0.0,0.0,24.9,-1.2,-3.8,1024,1024,1024,1024,0,0,0,0,97,4.843,62.24,37.72966,P-GPS,,11.5
24800,2026-01-09 12:37:09,0.0,5,7.8,0.0,0.0,0.0,24.9,-1.2,-3.3,1024,1024,1024,1024,0,0,0,0,97,4.843,62.24,37.401576,P-GPS,,11.4
24900,2026-01-09 12:37:10,0.0,5,7.8,0.0,0.0,0.0,24.8,-0.6,-3.0,1024,1024,1024,1024,0,0,0,0,97,4.843,62.24,37.401576,P-GPS,,11.4
25000,2026-01-09 12:37:10,0.0,5,7.8,0.0,0.0,0.0,24.9,0.3,-3.1,1024,1024,1024,1024,0,0,0,0,97,4.843,62.24,37.401576,P-GPS,,11.4
25100,2026-01-09 12:37:10,0.0,5,7.8,0.0,0.0,0.0,25.0,-0.7,-2.9,1024,1024,1024,1024,0,0,0,0,97,4.843,62.24,37.401576,P-GPS,,11.4
25200,2026-01-09 12:37:10,0.0,5,7.8,0.0,0.0,0.0,24.9,-0.5,-3.2,1024,1024,1024,1024,0,0,0,0,97,4.843,62.24,37.401576,P-GPS,,11.4
25300,2026-01-09 12:37:10,0.0,5,7.8,0.0,0.0,0.0,24.8,0.2,-3.4,1024,1024,1024,1024,0,0,0,0,97,4.843,62.24,37.401576,P-GPS,,11.4
25400,2026-01-09 12:37:10,0.0,5,7.8,0.0,0.0,0.0,24.9,0.0,-3.7,1024,1024,1024,1024,0,0,0,0,97,4.843,62.24,37.401576,P-GPS,,11.4
25500,2026-01-09 12:37:10,0.0,5,7.791,0.0,0.0,0.0,24.9,0.3,-3.5,1024,1024,1024,1024,0,0,0,0,97,4.879,62.24,37.401576,P-GPS,,11.4
25600,2026-01-09 12:37:10,0.0,5,7.791,0.0,0.0,0.0,24.9,0.5,-3.4,1024,1024,1024,1024,0,0,0,0,97,4.879,62.24,37.401576,P-GPS,,11.4
25700,2026-01-09 12:37:10,0.0,5,7.791,0.0,0.0,0.0,24.9,0.3,-3.4,1024,1024,1024,1024,0,0,0,0,97,4.879,62.24,37.401576,P-GPS,,11.4
25800,2026-01-09 12:37:10,0.0,5,7.791,0.0,0.0,0.0,24.9,-0.6,-3.1,1024,1024,1024,1024,0,0,0,0,97,4.879,62.24,37.401576,P-GPS,,11.4
25900,2026-01-09 12:37:11,0.0,5,7.791,0.0,0.0,0.0,24.7,-0.5,-3.4,1024,1024,1024,1024,0,0,0,0,97,4.879,62.24,37.401576,P-GPS,,11.4
26000,2026-01-09 12:37:11,0.0,5,7.791,0.0,0.0,0.0,24.7,0.2,-2.9,1024,1024,1024,1024,0,0,0,0,97,4.879,62.24,37.401576,P-GPS,,11.4
26100,2026-01-09 12:37:11,0.0,5,7.791,0.0,0.0,0.0,24.7,-0.1,-2.6,1024,1024,1024,1024,0,0,0,0,97,4.879,62.24,37.401576,P-GPS,,11.4
26200,2026-01-09 12:37:11,0.0,5,7.791,0.0,0.0,0.0,24.7,-0.4,-3.0,1024,1024,1024,1024,0,0,0,0,97,4.879,62.24,37.401576,P-GPS,,11.4
26300,2026-01-09 12:37:11,0.0,5,7.791,0.0,0.0,0.0,24.7,-0.9,-2.8,1024,1024,1024,1024,0,0,0,0,97,4.879,62.24,37.401576,P-GPS,,11.4
26400,2026-01-09 12:37:11,0.0,5,7.798,0.0,0.0,0.0,24.8,-1.3,-2.7,1024,1024,1024,1024,0,0,0,0,97,4.765,62.42,37.401576,P-GPS,,11.4
26500,2026-01-09 12:37:11,0.0,5,7.798,0.0,0.0,0.0,24.8,-1.6,-2.7,1024,1024,1024,1024,0,0,0,0,97,4.765,62.42,37.401576,P-GPS,,11.4
26600,2026-01-09 12:37:11,0.0,5,7.798,0.0,0.0,0.0,24.9,-2.0,-2.5,1024,1024,1024,1024,0,0,0,0,97,4.765,62.42,37.401576,P-GPS,,11.4
26700,2026-01-09 12:37:11,0.0,5,7.798,0.0,0.0,0.0,24.8,-1.5,-2.8,1024,1024,1024,1024,0,0,0,0,97,4.765,62.42,37.401576,P-GPS,,11.4
26800,2026-01-09 12:37:11,0.0,5,7.798,0.0,0.0,0.0,24.9,-1.5,-2.7,1024,1024,1024,1024,0,0,0,0,97,4.765,62.42,37.401576,P-GPS,,11.4
26900,2026-01-09 12:37:12,0.0,5,7.798,0.0,0.0,0.0,25.0,-1.5,-2.3,1024,1024,1024,1024,0,0,0,0,97,4.765,62.42,37.401576,P-GPS,,11.4
27000,2026-01-09 12:37:12,0.0,5,7.798,0.0,0.0,0.0,25.0,-0.7,-2.3,1024,1024,1024,1024,0,0,0,0,97,4.765,62.42,37.401576,P-GPS,,11.4
27100,2026-01-09 12:37:12,0.0,5,7.798,0.0,0.0,0.0,24.9,0.0,-2.2,1024,1024,1024,1024,0,0,0,0,97,4.765,62.42,37.401576,P-GPS,,11.4
27200,2026-01-09 12:37:12,0.0,5,7.798,0.0,0.0,0.0,24.8,0.0,-2.3,1024,1024,1024,1024,0,0,0,0,97,4.765,62.42,37.401576,P-GPS,,11.4
27300,2026-01-09 12:37:12,0.0,5,7.798,0.0,0.0,0.0,24.8,0.1,-2.1,1024,1024,1024,1024,0,0,0,0,97,4.765,62.42,37.073492,P-GPS,,11.3
27400,2026-01-09 12:37:12,0.0,5,7.798,0.0,0.0,0.0,24.8,-0.1,-2.2,1024,1024,1024,1024,0,0,0,0,97,4.765,62.42,37.073492,P-GPS,,11.3
27500,2026-01-09 12:37:12,0.0,5,7.803,0.0,0.0,0.0,24.9,-0.6,-2.3,1024,1024,1024,1024,0,0,0,0,97,4.655,62.42,37.073492,P-GPS,,11.3
27600,2026-01-09 12:37:12,0.0,5,7.803,0.0,0.0,0.0,24.9,-0.9,-2.3,1024,1024,1024,1024,0,0,0,0,97,4.655,62.42,37.073492,P-GPS,,11.3
27700,2026-01-09 12:37:12,0.0,5,7.803,0.0,0.0,0.0,24.9,-0.9,-2.0,1024,1024,1024,1024,0,0,0,0,97,4.655,62.42,37.073492,P-GPS,,11.3
27800,2026-01-09 12:37:13,0.0,5,7.803,0.0,0.0,0.0,24.9,-1.1,-2.0,1024,1024,1024,1024,0,0,0,0,97,4.655,62.42,37.073492,P-GPS,,11.3
27900,2026-01-09 12:37:13,0.0,5,7.803,0.0,0.0,0.0,25.0,-1.0,-1.8,1024,1024,1024,1024,0,0,0,0,97,4.655,62.42,37.073492,P-GPS,,11.3
28000,2026-01-09 12:37:13,0.0,5,7.803,0.0,0.0,0.0,25.0,-1.1,-1.9,1024,1024,1024,1024,0,0,0,0,97,4.655,62.42,37.073492,P-GPS,,11.3
28100,2026-01-09 12:37:13,0.0,5,7.803,0.0,0.0,0.0,25.0,-1.0,-2.0,1024,1024,1024,1024,0,0,0,0,97,4.655,62.42,37.073492,P-GPS,,11.3
28200,2026-01-09 12:37:13,0.0,5,7.803,0.0,0.0,0.0,25.0,-1.2,-1.6,1024,1024,1024,1024,0,0,0,0,97,4.655,62.42,37.073492,P-GPS,,11.3
28300,2026-01-09 12:37:13,0.0,5,7.803,0.0,0.0,0.0,25.0,-1.3,-1.2,1024,1024,1024,1024,0,0,0,0,97,4.655,62.42,37.073492,P-GPS,,11.3
28400,2026-01-09 12:37:13,0.0,5,7.803,0.0,0.0,0.0,24.9,-1.3,-1.5,1024,1024,1024,1024,0,0,0,0,97,4.655,62.42,37.073492,P-GPS,,11.3
28500,2026-01-09 12:37:13,0.0,5,7.803,0.0,0.0,0.0,24.9,-1.6,-1.5,1024,1024,1024,1024,0,0,0,0,97,4.655,62.42,37.073492,P-GPS,,11.3
28600,2026-01-09 12:37:13,0.0,5,7.803,0.0,0.0,0.0,25.0,-1.4,-1.5,1024,1024,1024,1024,0,0,0,0,97,4.655,62.42,37.073492,P-GPS,,11.3
28700,2026-01-09 12:37:13,0.0,5,7.803,0.0,0.0,0.0,24.9,-1.4,-1.6,1024,1024,1024,1024,0,0,0,0,97,4.655,62.42,37.073492,P-GPS,,11.3
28800,2026-01-09 12:37:13,0.0,5,7.803,0.0,0.0,0.0,24.8,-0.9,-2.3,1024,1024,1024,1024,0,0,0,0,97,4.655,62.42,37.073492,P-GPS,,11.3
28900,2026-01-09 12:37:14,0.0,5,7.803,0.0,0.0,0.0,24.8,-0.7,-2.2,1024,1024,1024,1024,0,0,0,0,97,4.655,62.42,37.073492,P-GPS,,11.3
29000,2026-01-09 12:37:14,0.0,5,7.803,0.0,0.0,0.0,24.8,-0.3,-2.2,1024,1024,1024,1024,0,0,0,0,97,4.655,62.42,37.073492,P-GPS,,11.3
29100,2026-01-09 12:37:14,0.0,5,7.803,0.0,0.0,0.0,24.8,-0.1,-2.1,1024,1024,1024,1024,0,0,0,0,97,4.655,62.42,37.073492,P-GPS,,11.3
29200,2026-01-09 12:37:14,0.0,5,7.803,0.0,0.0,0.0,24.8,0.0,-2.0,1024,1024,1024,1024,0,0,0,0,97,4.655,62.42,37.073492,P-GPS,,11.3
29300,2026-01-09 12:37:14,0.0,5,7.803,0.0,0.0,0.0,24.8,0.0,-1.7,1024,1024,1024,1024,0,0,0,0,97,4.655,62.42,37.073492,P-GPS,,11.3
29400,2026-01-09 12:37:14,0.0,5,7.803,0.0,0.0,0.0,24.9,0.0,-1.3,1024,1024,1024,1024,0,0,0,0,97,4.655,62.42,36.745408,P-GPS,,11.2
29500,2026-01-09 12:37:14,0.0,5,7.803,0.0,0.0,0.0,25.1,-0.2,-0.9,1024,1024,1024,1024,0,0,0,0,97,4.655,62.42,36.745408,P-GPS,,11.2
29600,2026-01-09 12:37:14,0.0,5,7.803,0.0,0.0,0.0,25.0,-0.1,-1.0,1024,1024,1024,1024,0,0,0,0,97,4.655,62.42,36.745408,P-GPS,,11.2
29700,2026-01-09 12:37:14,0.0,5,7.799,0.0,0.0,0.0,25.0,-0.9,-0.7,1024,1024,1024,1024,0,0,0,0,97,4.667,62.42,36.745408,P-GPS,,11.2
29800,2026-01-09 12:37:15,0.0,5,7.799,0.0,0.0,0.0,24.9,-1.1,-1.1,1024,1024,1024,1024,0,0,0,0,97,4.667,62.42,36.745408,P-GPS,,11.2
29900,2026-01-09 12:37:15,0.0,5,7.799,0.0,0.0,0.0,24.9,-0.9,-1.4,1024,1024,1024,1024,0,0,0,0,97,4.667,62.42,37.073492,P-GPS,,11.3
30000,2026-01-09 12:37:15,0.0,5,7.799,0.0,0.0,0.0,24.9,-1.4,-1.8,1024,1024,1024,1024,0,0,0,0,97,4.667,62.42,37.073492,P-GPS,,11.3
30100,2026-01-09 12:37:15,0.0,5,7.799,0.0,0.0,0.0,25.0,-1.7,-2.3,1024,1024,1024,1024,0,0,0,0,97,4.667,62.42,37.073492,P-GPS,,11.3
30200,2026-01-09 12:37:15,0.0,5,7.799,0.0,0.0,0.0,25.2,-2.2,-2.2,1024,1024,1024,1024,0,0,0,0,97,4.667,62.42,37.073492,P-GPS,,11.3
30300,2026-01-09 12:37:15,0.0,5,7.799,0.0,0.0,0.0,25.2,-1.7,-2.5,1024,1024,1024,1024,0,0,0,0,97,4.667,62.42,37.073492,P-GPS,,11.3
30400,2026-01-09 12:37:15,0.0,5,7.799,0.0,0.0,0.0,25.1,-1.6,-2.6,1024,1024,1024,1024,0,0,0,0,97,4.667,62.42,37.073492,P-GPS,,11.3
30500,2026-01-09 12:37:15,0.0,5,7.799,0.0,0.0,0.0,25.0,-1.6,-2.7,1024,1024,1024,1024,0,0,0,0,97,4.667,62.42,37.073492,P-GPS,,11.3
30600,2026-01-09 12:37:15,0.0,5,7.799,0.0,0.0,0.0,25.0,-1.5,-2.6,1024,1024,1024,1024,0,0,0,0,97,4.667,62.42,37.073492,P-GPS,,11.3
30700,2026-01-09 12:37:15,0.0,5,7.799,0.0,0.0,0.0,25.0,-1.4,-2.2,1024,1024,1024,1024,0,0,0,0,97,4.667,62.42,37.073492,P-GPS,,11.3
30800,2026-01-09 12:37:15,0.0,5,7.802,0.0,0.0,0.0,25.0,-1.7,-2.4,1024,1024,1024,1024,0,0,0,0,97,4.698,62.6,37.401576,P-GPS,,11.4
30900,2026-01-09 12:37:16,0.0,5,7.802,0.0,0.0,0.0,25.2,-2.3,-2.4,1024,1024,1024,1024,0,0,0,0,97,4.698,62.6,37.401576,P-GPS,,11.4
31000,2026-01-09 12:37:16,0.0,5,7.802,0.0,0.0,0.0,25.3,-1.8,-2.6,1024,1024,1024,1024,0,0,0,0,97,4.698,62.6,37.401576,P-GPS,,11.4
31100,2026-01-09 12:37:16,0.223694,5,7.802,0.0,0.223694,0.0,25.3,-1.4,-3.7,1024,1024,1024,1024,0,0,0,0,97,4.698,62.6,37.401576,P-GPS,,11.4
31200,2026-01-09 12:37:16,0.223694,5,7.802,0.0,0.223694,0.0,25.2,-0.7,-4.5,1024,1024,1024,1024,0,0,0,0,97,4.698,62.6,37.72966,P-GPS,,11.5
31300,2026-01-09 12:37:16,0.223694,5,7.802,0.0,0.223694,0.0,25.0,-0.1,-4.7,1024,1024,1024,1024,0,0,0,0,97,4.698,62.6,37.72966,P-GPS,,11.5
31400,2026-01-09 12:37:16,0.0,5,7.802,0.0,0.0,0.0,25.2,-1.2,-4.6,1024,1024,1024,1024,0,0,0,0,97,4.698,62.6,37.72966,P-GPS,,11.5
31500,2026-01-09 12:37:16,0.0,5,7.802,0.0,0.0,0.0,25.4,-2.3,-5.0,1024,1024,1024,1024,0,0,0,0,97,4.698,62.6,37.72966,P-GPS,,11.5
31600,2026-01-09 12:37:16,0.0,5,7.802,0.0,0.0,0.0,25.3,-2.0,-5.6,1024,1024,1024,1024,0,0,0,0,97,4.698,62.6,37.72966,P-GPS,,11.5
31700,2026-01-09 12:37:16,0.0,5,7.802,0.0,0.0,0.0,25.2,-1.9,-5.3,1024,1024,1024,1024,0,0,0,0,97,4.698,62.6,37.72966,P-GPS,,11.5
31800,2026-01-09 12:37:16,0.0,5,7.802,0.0,0.0,0.0,25.1,-1.7,-5.3,1024,1024,1024,1024,0,0,0,0,97,4.698,62.6,37.72966,P-GPS,,11.5
31900,2026-01-09 12:37:17,0.0,5,7.749,0.0,0.0,0.0,25.2,-1.5,-4.6,1024,1024,1024,1024,0,0,0,0,97,5.238,62.6,37.72966,P-GPS,,11.5
32000,2026-01-09 12:37:17,0.0,5,7.749,0.0,0.0,0.0,25.2,-1.2,-4.5,1024,1024,1024,1024,0,0,0,0,97,5.238,62.6,37.72966,P-GPS,,11.5
32100,2026-01-09 12:37:17,0.0,5,7.749,0.0,0.0,0.0,25.2,-1.0,-4.2,1024,1024,1024,1024,0,0,0,0,97,5.238,62.6,37.72966,P-GPS,,11.5
32200,2026-01-09 12:37:17,0.0,5,7.749,0.0,0.0,0.0,25.1,-0.6,-4.2,1024,1024,1024,1024,0,0,0,0,97,5.238,62.6,37.72966,P-GPS,,11.5
32300,2026-01-09 12:37:17,0.0,5,7.749,0.0,0.0,0.0,24.9,-0.7,-4.9,1024,1024,1024,1024,0,0,0,0,97,5.238,62.6,37.72966,P-GPS,,11.5
32400,2026-01-09 12:37:17,0.0,5,7.749,0.0,0.0,0.0,25.0,-1.2,-4.5,1024,1024,1024,1024,0,0,0,0,97,5.238,62.6,37.72966,P-GPS,,11.5
32500,2026-01-09 12:37:17,0.0,5,7.749,0.0,0.0,0.0,25.2,-1.5,-4.1,1024,1024,1024,1024,0,0,0,0,97,5.238,62.6,38.057744,P-GPS,,11.6
32600,2026-01-09 12:37:17,0.0,5,7.749,0.0,0.0,0.0,25.1,-1.1,-4.3,1024,1024,1024,1024,0,0,0,0,97,5.238,62.6,38.057744,P-GPS,,11.6
32700,2026-01-09 12:37:17,0.0,5,7.749,0.0,0.0,0.0,25.0,-0.5,-4.8,1024,1024,1024,1024,0,0,0,0,97,5.238,62.6,38.057744,P-GPS,,11.6
32800,2026-01-09 12:37:17,0.0,5,7.749,0.0,0.0,0.0,25.0,-0.9,-4.9,1024,1024,1024,1024,0,0,0,0,97,5.238,62.6,38.057744,P-GPS,,11.6
32900,2026-01-09 12:37:18,0.0,5,7.749,0.0,0.0,0.0,25.1,-1.7,-5.1,1024,1024,1024,1024,0,0,0,0,97,5.238,62.6,38.385828,P-GPS,,11.7
33000,2026-01-09 12:37:18,0.0,5,7.782,0.0,0.0,0.0,25.0,-1.9,-5.5,1024,1024,1024,1024,0,0,0,0,97,5.129,62.78,38.385828,P-GPS,,11.7
33100,2026-01-09 12:37:18,0.0,5,7.782,0.0,0.0,0.0,25.1,-2.2,-5.6,1024,1024,1024,1024,0,0,0,0,97,5.129,62.78,38.385828,P-GPS,,11.7
33200,2026-01-09 12:37:18,0.0,5,7.782,0.0,0.0,0.0,25.2,-1.7,-6.4,1024,1024,1024,1024,0,0,0,0,97,5.129,62.78,38.385828,P-GPS,,11.7
33300,2026-01-09 12:37:18,0.0,5,7.782,0.0,0.0,0.0,25.4,-1.8,-6.2,1024,1024,1024,1024,0,0,0,0,97,5.129,62.78,38.713912,P-GPS,,11.8
33400,2026-01-09 12:37:18,0.0,5,7.782,0.0,0.0,0.0,25.3,-0.9,-6.6,1024,1024,1024,1024,0,0,0,0,97,5.129,62.78,38.713912,P-GPS,,11.8
33500,2026-01-09 12:37:18,0.0,5,7.782,0.0,0.0,0.0,25.1,0.2,-6.4,1024,1024,1024,1024,0,0,0,0,97,5.129,62.78,38.713912,P-GPS,,11.8
33600,2026-01-09 12:37:18,0.223694,5,7.782,0.223694,0.0,0.0,25.0,1.3,-6.3,1024,1024,1024,1024,0,0,0,0,97,5.129,62.78,38.713912,P-GPS,,11.8
33700,2026-01-09 12:37:18,0.223694,5,7.782,0.223694,0.0,0.0,25.0,1.2,-5.5,1024,1024,1024,1024,0,0,0,0,97,5.129,62.78,38.713912,P-GPS,,11.8
33800,2026-01-09 12:37:18,0.223694,5,7.782,0.223694,0.0,0.0,24.7,2.9,-5.3,1024,1024,1024,1024,0,0,0,0,97,5.129,62.78,39.041996,P-GPS,,11.9
33900,2026-01-09 12:37:19,0.0,5,7.782,0.0,0.0,0.0,24.6,3.2,-5.1,1024,1024,1024,1024,0,0,0,0,97,5.129,62.78,38.713912,P-GPS,,11.8
34000,2026-01-09 12:37:19,0.223694,5,7.782,0.0,-0.223694,0.0,24.5,1.8,-4.7,1024,1024,1024,1024,0,0,0,0,97,5.129,62.78,38.713912,P-GPS,,11.8
34100,2026-01-09 12:37:19,0.223694,5,7.787,0.0,-0.223694,0.0,24.8,0.1,-3.0,1024,1024,1024,1024,0,0,0,0,97,4.886,62.78,38.713912,P-GPS,,11.8
34200,2026-01-09 12:37:19,0.223694,5,7.787,0.0,-0.223694,0.0,24.8,-0.8,-2.5,1024,1024,1024,1024,0,0,0,0,97,4.886,62.78,38.713912,P-GPS,,11.8
34300,2026-01-09 12:37:19,0.223694,5,7.787,0.0,-0.223694,0.0,24.9,-0.8,-2.7,1024,1024,1024,1024,0,0,0,0,97,4.886,62.78,38.713912,P-GPS,,11.8
34400,2026-01-09 12:37:19,0.223694,5,7.787,0.0,-0.223694,0.0,24.8,-0.9,-3.1,1024,1024,1024,1024,0,0,0,0,97,4.886,62.78,38.713912,P-GPS,,11.8
34500,2026-01-09 12:37:19,0.223694,5,7.787,0.0,-0.223694,0.0,24.9,-2.0,-2.7,1024,1024,1024,1024,0,0,0,0,97,4.886,62.78,38.713912,P-GPS,,11.8
34600,2026-01-09 12:37:19,0.0,5,7.787,0.0,0.0,0.0,24.9,-2.1,-2.7,1024,1024,1024,1024,0,0,0,0,97,4.886,62.78,38.713912,P-GPS,,11.8
34700,2026-01-09 12:37:19,0.0,5,7.787,0.0,0.0,0.0,25.0,-1.8,-2.9,1024,1024,1024,1024,0,0,0,0,97,4.886,62.78,38.713912,P-GPS,,11.8
34800,2026-01-09 12:37:19,0.0,5,7.787,0.0,0.0,0.0,25.0,-1.6,-2.9,1024,1024,1024,1024,0,0,0,0,97,4.886,62.78,38.385828,P-GPS,,11.7
34900,2026-01-09 12:37:20,0.0,5,7.787,0.0,0.0,0.0,24.9,-1.4,-3.1,1024,1024,1024,1024,0,0,0,0,97,4.886,62.78,38.385828,P-GPS,,11.7
35000,2026-01-09 12:37:20,0.0,5,7.787,0.0,0.0,0.0,24.9,-1.8,-2.6,1024,1024,1024,1024,0,0,0,0,97,4.886,62.78,38.385828,P-GPS,,11.7
35100,2026-01-09 12:37:20,0.0,5,7.787,0.0,0.0,0.0,24.9,-2.1,-2.0,1024,1024,1024,1024,0,0,0,0,97,4.886,62.78,38.385828,P-GPS,,11.7
35200,2026-01-09 12:37:20,0.0,5,7.795,0.0,0.0,0.0,25.0,-2.4,-2.1,1024,1024,1024,1024,0,0,0,0,97,4.703,62.78,38.385828,P-GPS,,11.7
35300,2026-01-09 12:37:20,0.0,5,7.795,0.0,0.0,0.0,25.0,-1.3,-2.0,1024,1024,1024,1024,0,0,0,0,97,4.703,62.78,38.385828,P-GPS,,11.7
35400,2026-01-09 12:37:20,0.0,5,7.795,0.0,0.0,0.0,25.0,-1.8,-1.7,1024,1024,1024,1024,0,0,0,0,97,4.703,62.78,38.385828,P-GPS,,11.7
35500,2026-01-09 12:37:20,0.0,5,7.795,0.0,0.0,0.0,25.1,-1.6,-1.8,1024,1024,1024,1024,0,0,0,0,97,4.703,62.78,38.385828,P-GPS,,11.7
35600,2026-01-09 12:37:20,0.0,5,7.795,0.0,0.0,0.0,25.0,-2.2,-2.1,1024,1024,1024,1024,0,0,0,0,97,4.703,62.78,38.385828,P-GPS,,11.7
35700,2026-01-09 12:37:20,0.0,5,7.795,0.0,0.0,0.0,24.8,-1.1,-2.8,1024,1024,1024,1024,0,0,0,0,97,4.703,62.78,38.385828,P-GPS,,11.7
35800,2026-01-09 12:37:20,0.0,5,7.795,0.0,0.0,0.0,24.9,-1.5,-2.2,1024,1024,1024,1024,0,0,0,0,97,4.703,62.78,38.385828,P-GPS,,11.7
35900,2026-01-09 12:37:21,0.0,5,7.795,0.0,0.0,0.0,24.8,-2.1,-2.6,1024,1024,1024,1024,0,0,0,0,97,4.703,62.78,38.385828,P-GPS,,11.7
36000,2026-01-09 12:37:21,0.0,5,7.795,0.0,0.0,0.0,24.8,-2.5,-2.7,1024,1024,1024,1024,0,0,0,0,97,4.703,62.78,38.385828,P-GPS,,11.7
36100,2026-01-09 12:37:21,0.0,5,7.795,0.0,0.0,0.0,24.8,-2.2,-2.7,1024,1024,1024,1024,0,0,0,0,97,4.703,62.78,38.385828,P-GPS,,11.7
36200,2026-01-09 12:37:21,0.0,5,7.795,0.0,0.0,0.0,24.8,-1.8,-2.2,1024,1024,1024,1024,0,0,0,0,97,4.703,62.78,38.713912,P-GPS,,11.8
36300,2026-01-09 12:37:21,0.0,5,7.795,0.0,0.0,0.0,24.9,-1.6,-3.8,1024,1024,1024,1024,0,0,0,0,97,4.703,62.78,38.713912,P-GPS,,11.8
36400,2026-01-09 12:37:21,0.0,5,7.795,0.0,0.0,0.0,25.1,-2.9,-3.3,1024,1024,1024,1024,0,0,0,0,97,4.678,62.78,38.713912,P-GPS,,11.8
36500,2026-01-09 12:37:21,0.0,5,7.795,0.0,0.223694,0.0,25.1,-2.2,-3.9,1024,1024,1024,1024,0,0,0,0,97,4.678,62.78,38.713912,P-GPS,,11.8
36600,2026-01-09 12:37:21,0.223694,5,7.795,0.0,0.223694,0.0,24.9,0.6,-4.6,1024,1024,1024,1024,0,0,0,0,97,4.678,62.78,38.713912,P-GPS,,11.8
36700,2026-01-09 12:37:21,0.0,5,7.795,0.0,0.0,0.0,25.2,-0.5,-3.9,1024,1024,1024,1024,0,0,0,0,97,4.678,62.78,39.041996,P-GPS,,11.9
36800,2026-01-09 12:37:21,0.0,5,7.795,0.0,0.0,0.0,25.3,-1.2,-4.8,1024,1024,1024,1024,0,0,0,0,97,4.678,62.78,39.041996,P-GPS,,11.9
36900,2026-01-09 12:37:22,0.0,5,7.795,0.0,0.0,0.0,25.4,-1.9,-3.8,1024,1024,1024,1024,0,0,0,0,97,4.678,62.78,38.713912,P-GPS,,11.8
37000,2026-01-09 12:37:22,0.0,5,7.795,0.0,0.0,0.0,25.0,-0.5,-4.2,1024,1024,1024,1024,0,0,0,0,97,4.678,62.78,38.713912,P-GPS,,11.8
37100,2026-01-09 12:37:22,0.0,5,7.795,0.0,0.0,0.0,25.0,-0.9,-3.7,1024,1024,1024,1024,0,0,0,0,97,4.678,62.78,38.713912,P-GPS,,11.8
37200,2026-01-09 12:37:22,0.0,5,7.795,0.0,0.0,0.0,24.9,-1.3,-3.7,1024,1024,1024,1024,0,0,0,0,97,4.678,62.78,39.041996,P-GPS,,11.9
37300,2026-01-09 12:37:22,0.0,5,7.795,0.0,0.0,0.0,25.0,-2.1,-3.3,1024,1024,1024,1024,0,0,0,0,97,4.678,62.78,39.041996,P-GPS,,11.9
37400,2026-01-09 12:37:22,0.0,5,7.795,0.0,0.0,0.0,25.1,-2.4,-3.0,1024,1024,1684,1024,0,0,100,0,97,4.678,62.78,39.041996,P-GPS,,11.9
37500,2026-01-09 12:37:22,0.0,5,7.795,0.0,0.0,0.0,25.1,-2.2,-3.4,1024,1024,1684,1024,0,0,100,0,96,4.919,62.96,39.041996,P-GPS,,11.9
