time(millisecond),timestamp,speed(mph),gpslevel,voltage(v),xSpeed(mph),ySpeed(mph),zSpeed(mph),compass_heading(degrees),pitch(degrees),roll(degrees),rc_elevator,rc_aileron,rc_throttle,rc_rudder,rc_elevator(percent),rc_aileron(percent),rc_throttle(percent),rc_rudder(percent),battery_percent,current(A),battery_temperature(f),ascent(feet),flycState,message,height_above_takeoff(meters)
322600,2026-01-09 20:12:10,0.0,5,7.541,0.0,0.0,-4.250186,11.6,4.7,-0.9,1024,1024,1684,1024,0,0,100,0,77,5.979,73.58,92.519688,P-GPS,,28.2
322700,2026-01-09 20:12:10,0.0,5,7.541,0.0,0.0,-4.250186,11.5,4.8,-1.6,1024,1024,1684,1024,0,0,100,0,77,5.979,73.58,93.175856,P-GPS,,28.4
322800,2026-01-09 20:12:10,0.0,5,7.541,0.0,0.0,-4.47388,11.6,4.7,-1.3,1024,1024,1684,1024,0,0,100,0,77,5.979,73.58,93.832024,P-GPS,,28.6
322900,2026-01-09 20:12:10,0.0,5,7.541,0.0,0.0,-4.47388,11.6,4.7,-1.3,1024,1024,1684,1024,0,0,100,0,77,5.979,73.58,94.488192,P-GPS,,28.8
323000,2026-01-09 20:12:11,0.0,5,7.541,0.0,0.0,-4.47388,11.5,4.7,-1.4,1024,1024,1318,1024,0,0,45,0,77,5.979,73.58,95.14436,P-GPS,,29.0
323100,2026-01-09 20:12:11,0.0,5,7.541,0.0,0.0,-4.47388,11.5,4.9,-1.2,1024,1024,1024,1024,0,0,0,0,77,5.979,73.58,95.800528,P-GPS,,29.2
323200,2026-01-09 20:12:11,0.0,5,7.545,0.0,0.0,-4.250186,11.6,4.8,-1.1,1024,1024,1024,1024,0,0,0,0,77,5.824,73.58,96.456696,P-GPS,,29.4
323300,2026-01-09 20:12:11,0.0,5,7.545,0.0,0.0,-3.579104,11.6,5.2,-1.2,1024,1024,1024,1024,0,0,0,0,77,5.824,73.58,97.112864,P-GPS,,29.6
323400,2026-01-09 20:12:11,0.0,5,7.545,0.0,0.0,-2.684328,11.6,5.2,-0.9,1024,1024,1024,1024,0,0,0,0,77,5.824,73.58,97.440948,P-GPS,,29.7
323500,2026-01-09 20:12:11,0.0,5,7.545,0.0,0.0,-2.013246,11.6,4.9,-0.3,1024,1024,1024,1024,0,0,0,0,77,5.824,73.58,97.769032,P-GPS,,29.8
323600,2026-01-09 20:12:11,0.0,5,7.545,0.0,0.0,-1.11847,11.7,4.8,-0.3,1024,1024,1024,1024,0,0,0,0,77,5.824,73.58,98.097116,P-GPS,,29.9
323700,2026-01-09 20:12:11,0.0,5,7.545,0.0,0.0,-0.447388,11.7,4.7,-0.5,1024,1024,1024,1024,0,0,0,0,77,5.824,73.58,98.4252,P-GPS,,30.0
323800,2026-01-09 20:12:11,0.0,5,7.545,0.0,0.0,-0.223694,11.7,4.6,-0.9,1024,1024,1024,1024,0,0,0,0,77,5.824,73.58,98.4252,P-GPS,,30.0
323900,2026-01-09 20:12:11,0.0,5,7.545,0.0,0.0,0.0,11.6,4.6,-1.2,1024,1024,1024,1024,0,0,0,0,77,5.824,73.58,98.4252,P-GPS,,30.0
324000,2026-01-09 20:12:11,0.0,5,7.545,0.0,0.0,0.0,11.8,4.4,-1.2,1024,1024,1024,1024,0,0,0,0,77,5.824,73.58,98.4252,P-GPS,,30.0
324100,2026-01-09 20:12:12,0.0,5,7.545,0.0,0.0,0.0,11.8,4.1,-1.5,1024,1024,1024,1024,0,0,0,0,77,5.824,73.58,98.4252,P-GPS,,30.0
324200,2026-01-09 20:12:12,0.0,5,7.545,0.0,0.0,0.0,11.7,4.2,-2.0,1024,1024,1024,1024,0,0,0,0,77,5.824,73.58,98.753284,P-GPS,,30.1
324300,2026-01-09 20:12:12,0.0,5,7.6,0.0,0.0,0.0,11.7,4.2,-2.2,1024,1024,1024,1024,0,0,0,0,77,4.026,73.76,98.753284,P-GPS,,30.1
324400,2026-01-09 20:12:12,0.0,5,7.6,0.0,0.0,0.0,11.7,4.6,-2.6,1024,1024,1024,1024,0,0,0,0,77,4.026,73.76,98.753284,P-GPS,,30.1
324500,2026-01-09 20:12:12,0.0,5,7.6,0.0,0.0,0.0,11.7,4.5,-2.6,1024,1024,1024,1024,0,0,0,0,77,4.026,73.76,98.753284,P-GPS,,30.1
324600,2026-01-09 20:12:12,0.0,5,7.6,0.0,0.0,0.0,11.7,4.6,-2.5,1024,1024,1024,1024,0,0,0,0,77,4.026,73.76,98.753284,P-GPS,,30.1
324700,2026-01-09 20:12:12,0.0,5,7.6,0.0,0.0,0.0,11.7,4.4,-2.5,1024,1024,1024,1024,0,0,0,0,77,4.026,73.76,98.753284,P-GPS,,30.1
324800,2026-01-09 20:12:12,0.0,5,7.6,0.0,0.0,0.0,11.7,4.7,-2.5,1024,1024,1024,1024,0,0,0,0,77,4.026,73.76,99.081368,P-GPS,,30.2
324900,2026-01-09 20:12:12,0.0,5,7.6,0.0,0.0,0.0,11.7,4.3,-2.5,1024,1024,1024,1024,0,0,0,0,77,4.026,73.76,99.081368,P-GPS,,30.2
325000,2026-01-09 20:12:12,0.0,5,7.6,0.0,0.0,0.0,11.7,4.3,-2.4,1024,1024,1024,1024,0,0,0,0,77,4.026,73.76,99.081368,P-GPS,,30.2
325100,2026-01-09 20:12:13,0.0,5,7.6,0.0,0.0,0.0,11.7,4.2,-2.4,1024,1024,1024,1024,0,0,0,0,77,4.026,73.76,99.081368,P-GPS,,30.2
325200,2026-01-09 20:12:13,0.0,5,7.6,0.0,0.0,0.0,11.6,4.3,-2.3,1024,1024,1024,1024,0,0,0,0,77,4.026,73.76,99.081368,P-GPS,,30.2
325300,2026-01-09 20:12:13,0.0,5,7.6,0.0,0.0,0.0,11.6,4.3,-2.3,1024,1024,1024,1024,0,0,0,0,77,4.026,73.76,99.081368,P-GPS,,30.2
325400,2026-01-09 20:12:13,0.0,5,7.6,0.0,0.0,0.0,11.6,4.1,-2.2,1024,1024,1024,1024,0,0,0,0,77,4.026,73.76,99.081368,P-GPS,,30.2
325500,2026-01-09 20:12:13,0.0,5,7.6,0.0,0.0,0.0,11.6,4.1,-2.2,1024,1024,1024,1024,0,0,0,0,77,4.026,73.76,99.081368,P-GPS,,30.2
325600,2026-01-09 20:12:13,0.0,5,7.6,0.0,0.0,0.0,11.7,3.8,-2.2,1024,1024,1024,1024,0,0,0,0,77,4.026,73.76,99.081368,P-GPS,,30.2
325700,2026-01-09 20:12:13,0.0,5,7.6,0.0,0.0,0.0,11.7,3.5,-2.1,1024,1024,1024,1024,0,0,0,0,77,4.026,73.76,99.081368,P-GPS,,30.2
325800,2026-01-09 20:12:13,0.0,5,7.6,0.0,0.0,0.0,11.7,3.5,-2.1,1024,1024,1024,1024,0,0,0,0,77,4.026,73.76,99.081368,P-GPS,,30.2
325900,2026-01-09 20:12:13,0.0,5,7.6,0.0,0.0,0.0,11.7,3.5,-2.2,1024,1024,1024,1024,0,0,0,0,77,4.026,73.76,99.081368,P-GPS,,30.2
326000,2026-01-09 20:12:14,0.0,5,7.6,0.0,0.0,0.0,11.7,3.4,-2.1,1024,1024,1024,1024,0,0,0,0,77,4.026,73.76,99.081368,P-GPS,,30.2
326100,2026-01-09 20:12:14,0.0,5,7.6,0.0,0.0,0.0,11.8,3.4,-2.0,1024,1024,1024,1024,0,0,0,0,77,4.026,73.76,99.081368,P-GPS,,30.2
326200,2026-01-09 20:12:14,0.0,5,7.6,0.0,0.0,0.0,11.9,3.2,-2.0,1024,1024,1024,1024,0,0,0,0,77,4.026,73.76,99.081368,P-GPS,,30.2
326300,2026-01-09 20:12:14,0.0,5,7.6,0.0,0.0,0.0,11.8,3.2,-2.0,1024,1024,1024,1024,0,0,0,0,77,4.026,73.76,99.081368,P-GPS,,30.2
326400,2026-01-09 20:12:14,0.0,5,7.6,0.0,0.0,0.0,11.8,3.2,-2.2,1024,1024,1024,1024,0,0,0,0,77,4.026,73.76,99.081368,P-GPS,,30.2
326500,2026-01-09 20:12:14,0.0,5,7.595,0.0,0.0,0.0,11.8,3.1,-2.0,1024,1024,1024,1024,0,0,0,0,77,4.727,73.76,99.081368,P-GPS,,30.2
326600,2026-01-09 20:12:14,0.0,5,7.595,0.0,0.0,0.0,11.8,3.3,-2.2,1024,1024,1024,1024,0,0,0,0,77,4.727,73.76,99.081368,P-GPS,,30.2
326700,2026-01-09 20:12:14,0.0,5,7.595,0.0,0.0,0.0,11.7,3.5,-2.2,1024,1024,1024,1024,0,0,0,0,77,4.727,73.76,99.081368,P-GPS,,30.2
326800,2026-01-09 20:12:14,0.0,5,7.595,0.0,0.0,0.0,11.7,3.7,-2.0,1024,1024,1024,1024,0,0,0,0,77,4.727,73.76,99.081368,P-GPS,,30.2
326900,2026-01-09 20:12:14,0.0,5,7.595,0.0,0.0,0.0,11.7,3.4,-1.9,1024,1024,1024,1024,0,0,0,0,77,4.727,73.76,99.081368,P-GPS,,30.2
327000,2026-01-09 20:12:14,0.0,5,7.595,0.0,0.0,0.0,11.7,3.4,-1.8,1024,1024,1024,1024,0,0,0,0,77,4.727,73.76,99.081368,P-GPS,,30.2
327100,2026-01-09 20:12:15,0.0,5,7.595,0.0,0.0,0.0,11.6,3.4,-1.6,1024,1024,1024,1024,0,0,0,0,77,4.727,73.76,99.081368,P-GPS,,30.2
327200,2026-01-09 20:12:15,0.0,5,7.595,0.0,0.0,0.0,11.5,3.6,-1.5,1024,1024,1024,1024,0,0,0,0,77,4.727,73.76,99.081368,P-GPS,,30.2
327300,2026-01-09 20:12:15,0.0,5,7.595,0.0,0.0,0.0,11.5,3.6,-1.3,1024,1024,1024,1024,0,0,0,0,77,4.727,73.76,99.081368,P-GPS,,30.2
327400,2026-01-09 20:12:15,0.0,5,7.595,0.0,0.0,0.0,11.6,3.6,-1.2,1024,1024,1024,1024,0,0,0,0,77,4.727,73.76,99.081368,P-GPS,,30.2
327500,2026-01-09 20:12:15,0.0,5,7.595,0.0,0.0,0.0,11.5,3.6,-1.2,1024,1024,1024,1024,0,0,0,0,77,4.727,73.76,98.753284,P-GPS,,30.1
327600,2026-01-09 20:12:15,0.0,5,7.593,0.0,0.0,0.0,11.6,3.6,-1.2,1024,1024,1024,1024,0,0,0,0,77,4.868,73.76,98.753284,P-GPS,,30.1
327700,2026-01-09 20:12:15,0.0,5,7.593,0.0,0.0,0.0,11.5,3.6,-1.2,1024,1024,1024,1024,0,0,0,0,77,4.868,73.76,98.753284,P-GPS,,30.1
327800,2026-01-09 20:12:15,0.0,5,7.593,0.0,0.0,0.0,11.5,3.9,-1.2,1024,1024,1024,1024,0,0,0,0,77,4.868,73.76,98.753284,P-GPS,,30.1
327900,2026-01-09 20:12:15,0.0,5,7.593,0.0,0.0,0.0,11.5,4.1,-1.2,1024,1024,1024,1024,0,0,0,0,77,4.868,73.76,98.753284,P-GPS,,30.1
328000,2026-01-09 20:12:16,0.0,5,7.593,0.0,0.0,0.0,11.5,4.2,-1.1,1024,1024,1024,1024,0,0,0,0,77,4.868,73.76,98.753284,P-GPS,,30.1
328100,2026-01-09 20:12:16,0.0,5,7.593,0.0,0.0,0.0,11.6,4.2,-1.0,1024,1024,1024,1024,0,0,0,0,77,4.868,73.76,98.753284,P-GPS,,30.1
328200,2026-01-09 20:12:16,0.0,5,7.593,0.0,0.0,0.0,11.6,4.1,-0.9,1024,1024,1024,1024,0,0,0,0,77,4.868,73.76,98.753284,P-GPS,,30.1
328300,2026-01-09 20:12:16,0.0,5,7.593,0.0,0.0,0.0,11.6,4.1,-1.0,1024,1024,1024,1024,0,0,0,0,77,4.868,73.76,98.753284,P-GPS,,30.1
328400,2026-01-09 20:12:16,0.0,5,7.593,0.0,0.0,0.0,11.6,4.0,-1.0,1024,1024,1024,1024,0,0,0,0,77,4.868,73.76,98.753284,P-GPS,,30.1
328500,2026-01-09 20:12:16,0.0,5,7.593,0.0,0.0,0.0,11.5,3.9,-1.0,1024,1024,1024,1024,0,0,0,0,77,4.868,73.76,98.753284,P-GPS,,30.1
328600,2026-01-09 20:12:16,0.0,5,7.593,0.0,0.0,0.0,11.6,3.8,-1.0,1024,1024,1024,1024,0,0,0,0,77,4.868,73.76,98.753284,P-GPS,,30.1
328700,2026-01-09 20:12:16,0.0,5,7.588,0.0,0.0,0.0,11.6,3.6,-1.0,1024,1024,1024,1024,0,0,0,0,77,4.878,73.76,98.753284,P-GPS,,30.1
328800,2026-01-09 20:12:16,0.0,5,7.588,0.0,0.0,0.0,11.6,3.8,-1.0,1024,1024,1024,1024,0,0,0,0,77,4.878,73.76,98.753284,P-GPS,,30.1
328900,2026-01-09 20:12:16,0.0,5,7.588,0.0,0.0,0.0,11.5,3.9,-1.1,1024,1024,1024,1024,0,0,0,0,77,4.878,73.76,98.753284,P-GPS,,30.1
329000,2026-01-09 20:12:16,0.0,5,7.588,0.0,0.0,0.0,11.5,4.0,-1.1,1024,1024,1024,1024,0,0,0,0,77,4.878,73.76,98.753284,P-GPS,,30.1
329100,2026-01-09 20:12:17,0.0,5,7.588,0.0,0.0,0.0,11.6,4.2,-1.3,1024,1024,1024,1024,0,0,0,0,77,4.878,73.76,98.753284,P-GPS,,30.1
329200,2026-01-09 20:12:17,0.0,5,7.588,0.0,0.0,0.0,11.6,4.0,-1.3,1024,1024,1024,1024,0,0,0,0,77,4.878,73.76,98.753284,P-GPS,,30.1
329300,2026-01-09 20:12:17,0.0,5,7.588,0.0,0.0,0.0,11.7,3.7,-1.0,1024,1024,1024,1024,0,0,0,0,77,4.878,73.76,99.081368,P-GPS,,30.2
329400,2026-01-09 20:12:17,0.0,5,7.588,0.0,0.0,0.0,11.8,3.6,-0.7,1024,1024,1024,1024,0,0,0,0,77,4.878,73.76,99.081368,P-GPS,,30.2
329500,2026-01-09 20:12:17,0.0,5,7.588,0.0,0.0,0.0,11.7,3.6,-1.1,1024,1024,1024,1024,0,0,0,0,77,4.878,73.76,99.081368,P-GPS,,30.2
329600,2026-01-09 20:12:17,0.0,5,7.588,0.0,0.0,0.0,11.7,4.0,-1.3,1024,1024,1024,1024,0,0,0,0,77,4.878,73.76,99.081368,P-GPS,,30.2
329700,2026-01-09 20:12:17,0.0,5,7.588,0.0,0.0,0.0,11.6,4.2,-1.4,1024,1024,1024,1024,0,0,0,0,77,4.878,73.76,99.081368,P-GPS,,30.2
329800,2026-01-09 20:12:17,0.0,5,7.592,0.0,0.0,0.0,11.7,4.2,-1.7,1024,1024,1024,1024,0,0,0,0,77,4.809,73.76,99.081368,P-GPS,,30.2
329900,2026-01-09 20:12:17,0.0,5,7.592,0.0,0.0,0.0,11.6,4.1,-1.8,1024,1024,1024,1024,0,0,0,0,77,4.809,73.76,99.081368,P-GPS,,30.2
330000,2026-01-09 20:12:18,0.0,5,7.592,0.0,0.0,0.0,11.7,3.8,-1.9,1024,1024,1024,1024,0,0,0,0,77,4.809,73.76,99.081368,P-GPS,,30.2
330100,2026-01-09 20:12:18,0.0,5,7.592,0.0,0.0,0.0,11.7,3.8,-2.0,1024,1024,1024,1024,0,0,0,0,77,4.809,73.76,99.081368,P-GPS,,30.2
330200,2026-01-09 20:12:18,0.0,5,7.592,0.0,0.0,0.0,11.7,3.9,-2.1,1024,1024,1024,1024,0,0,0,0,77,4.809,73.76,99.081368,P-GPS,,30.2
330300,2026-01-09 20:12:18,0.0,5,7.592,0.0,0.0,0.0,11.6,3.9,-2.0,1024,1024,1024,1024,0,0,0,0,77,4.809,73.76,99.081368,P-GPS,,30.2
330400,2026-01-09 20:12:18,0.0,5,7.592,0.0,0.0,0.0,11.6,4.1,-2.0,1024,1024,1024,1024,0,0,0,0,77,4.809,73.76,99.409452,P-GPS,,30.3
330500,2026-01-09 20:12:18,0.0,5,7.592,0.0,0.0,0.0,11.6,4.3,-1.9,1024,1024,1024,1024,0,0,0,0,77,4.809,73.76,99.409452,P-GPS,,30.3
330600,2026-01-09 20:12:18,0.0,5,7.592,0.0,0.0,0.0,11.6,4.2,-1.9,1024,1024,1024,1024,0,0,0,0,77,4.809,73.76,99.409452,P-GPS,,30.3
330700,2026-01-09 20:12:18,0.0,5,7.592,0.0,0.0,0.0,11.6,4.2,-1.7,1024,1024,1024,1024,0,0,0,0,77,4.809,73.76,99.409452,P-GPS,,30.3
330800,2026-01-09 20:12:18,0.0,5,7.592,0.0,0.0,0.0,11.6,4.1,-1.7,1024,1024,1024,1024,0,0,0,0,77,4.809,73.76,99.409452,P-GPS,,30.3
330900,2026-01-09 20:12:18,0.0,5,7.598,0.0,0.0,0.0,11.6,4.0,-1.7,1024,1024,1024,1024,0,0,0,0,77,4.692,73.76,99.409452,P-GPS,,30.3
331000,2026-01-09 20:12:18,0.0,5,7.598,0.0,0.0,0.0,11.6,3.8,-1.8,1024,1024,1024,1024,0,0,0,0,77,4.692,73.76,99.409452,P-GPS,,30.3
331100,2026-01-09 20:12:19,0.0,5,7.598,0.0,0.0,0.0,11.6,3.7,-1.9,1024,1024,1024,1024,0,0,0,0,77,4.692,73.76,99.409452,P-GPS,,30.3
331200,2026-01-09 20:12:19,0.0,5,7.598,0.0,0.0,0.0,11.6,3.5,-2.1,1024,1024,1024,1024,0,0,0,0,77,4.692,73.76,99.409452,P-GPS,,30.3
331300,2026-01-09 20:12:19,0.0,5,7.598,0.0,0.0,0.0,11.6,3.5,-2.1,1024,1024,1024,1024,0,0,0,0,77,4.692,73.76,99.409452,P-GPS,,30.3
331400,2026-01-09 20:12:19,0.0,5,7.598,0.0,0.0,0.0,11.6,3.6,-2.0,1024,1024,1024,1024,0,0,0,0,77,4.692,73.76,99.409452,P-GPS,,30.3
331500,2026-01-09 20:12:19,0.0,5,7.598,0.0,0.0,0.0,11.7,3.8,-1.8,1024,1024,1024,1024,0,0,0,0,77,4.692,73.76,99.409452,P-GPS,,30.3
331600,2026-01-09 20:12:19,0.0,5,7.598,0.0,0.0,0.0,11.7,4.3,-1.7,1024,1024,1024,1024,0,0,0,0,77,4.692,73.76,99.409452,P-GPS,,30.3
331700,2026-01-09 20:12:19,0.0,5,7.598,0.0,0.0,0.0,11.7,4.3,-1.6,1024,1024,1024,1024,0,0,0,0,77,4.692,73.76,99.409452,P-GPS,,30.3
331800,2026-01-09 20:12:19,0.0,5,7.598,0.0,0.0,0.0,11.6,4.2,-1.7,1024,1024,1024,1024,0,0,0,0,77,4.692,73.76,99.409452,P-GPS,,30.3
331900,2026-01-09 20:12:19,0.0,5,7.598,0.0,0.0,0.223694,11.6,4.1,-1.6,1024,1024,1024,1024,0,0,0,0,77,4.692,73.76,99.409452,P-GPS,,30.3
332000,2026-01-09 20:12:20,0.0,5,7.599,0.0,0.0,0.223694,11.7,4.1,-1.4,1024,1024,1024,1024,0,0,0,0,77,4.646,73.94,99.409452,P-GPS,,30.3
332100,2026-01-09 20:12:20,0.0,5,7.599,0.0,0.0,0.223694,11.6,4.1,-1.4,1024,1024,1024,1024,0,0,0,0,77,4.646,73.94,99.081368,P-GPS,,30.2
332200,2026-01-09 20:12:20,0.0,5,7.599,0.0,0.0,0.223694,11.6,4.2,-1.5,1024,1024,1024,1024,0,0,0,0,77,4.646,73.94,99.081368,P-GPS,,30.2
332300,2026-01-09 20:12:20,0.0,5,7.599,0.0,0.0,0.223694,11.7,4.3,-1.9,1024,1024,1024,1024,0,0,0,0,77,4.646,73.94,99.081368,P-GPS,,30.2
332400,2026-01-09 20:12:20,0.0,5,7.599,0.0,0.0,0.223694,11.7,4.4,-2.2,1024,1024,1024,1024,0,0,0,0,77,4.646,73.94,99.081368,P-GPS,,30.2
332500,2026-01-09 20:12:20,0.0,5,7.599,0.0,0.0,0.223694,11.6,4.3,-2.2,1024,1024,1024,1024,0,0,0,0,77,4.646,73.94,99.081368,P-GPS,,30.2
332600,2026-01-09 20:12:20,0.0,5,7.599,0.0,0.0,0.223694,11.6,4.4,-2.0,1024,1024,1024,1024,0,0,0,0,77,4.646,73.94,99.081368,P-GPS,,30.2
332700,2026-01-09 20:12:20,0.0,5,7.599,0.0,0.0,0.223694,11.6,4.3,-1.9,1024,1024,1024,1024,0,0,0,0,77,4.646,73.94,99.081368,P-GPS,,30.2
332800,2026-01-09 20:12:20,0.0,5,7.599,0.0,0.0,0.223694,11.6,4.1,-1.7,1024,1024,1024,1024,0,0,0,0,77,4.646,73.94,99.081368,P-GPS,,30.2
332900,2026-01-09 20:12:20,0.0,5,7.599,0.0,0.0,0.223694,11.7,4.1,-1.4,1024,1024,1024,1024,0,0,0,0,77,4.646,73.94,99.081368,P-GPS,,30.2
333000,2026-01-09 20:12:20,0.0,5,7.599,0.0,0.0,0.223694,11.7,4.0,-1.3,1024,1024,1024,1024,0,0,0,0,77,4.646,73.94,98.753284,P-GPS,,30.1
333100,2026-01-09 20:12:21,0.0,5,7.584,0.0,0.0,0.223694,11.7,4.2,-1.5,1024,1024,1024,1024,0,0,0,0,77,4.818,73.94,98.753284,P-GPS,,30.1
333200,2026-01-09 20:12:21,0.0,5,7.584,0.0,0.0,0.223694,11.6,4.3,-1.4,1024,1024,1024,1024,0,0,0,0,77,4.818,73.94,98.753284,P-GPS,,30.1
333300,2026-01-09 20:12:21,0.0,5,7.584,0.0,0.0,0.223694,11.6,4.1,-1.0,1024,1024,1024,1024,0,0,0,0,77,4.818,73.94,98.753284,P-GPS,,30.1
333400,2026-01-09 20:12:21,0.0,5,7.584,0.0,0.0,0.0,11.6,3.9,-1.3,1024,1024,1024,1024,0,0,0,0,77,4.818,73.94,98.753284,P-GPS,,30.1
333500,2026-01-09 20:12:21,0.0,5,7.584,0.0,0.0,0.0,11.6,3.5,-1.3,1024,1024,1024,1024,0,0,0,0,77,4.818,73.94,98.753284,P-GPS,,30.1
333600,2026-01-09 20:12:21,0.0,5,7.584,0.0,0.0,0.0,11.5,3.6,-1.3,1024,1024,1024,1024,0,0,0,0,77,4.818,73.94,98.753284,P-GPS,,30.1
333700,2026-01-09 20:12:21,0.0,5,7.584,0.0,0.0,0.0,11.5,3.8,-1.3,1024,1024,1024,1024,0,0,0,0,77,4.818,73.94,98.753284,P-GPS,,30.1
333800,2026-01-09 20:12:21,0.0,5,7.584,0.0,0.0,0.0,11.4,4.1,-1.3,1024,1024,1024,1024,0,0,0,0,77,4.818,73.94,98.753284,P-GPS,,30.1
333900,2026-01-09 20:12:21,0.0,5,7.584,0.0,0.0,0.0,11.5,4.1,-1.5,1024,1024,1024,1024,0,0,0,0,77,4.818,73.94,98.4252,P-GPS,,30.0
334000,2026-01-09 20:12:22,0.0,5,7.584,0.0,0.0,0.0,11.5,4.2,-1.4,1024,1024,1024,1024,0,0,0,0,77,4.818,73.94,98.4252,P-GPS,,30.0
334100,2026-01-09 20:12:22,0.0,5,7.584,0.0,0.0,0.0,11.6,4.6,-1.3,1024,1024,1024,1024,0,0,0,0,77,4.818,73.94,98.4252,P-GPS,,30.0
334200,2026-01-09 20:12:22,0.0,5,7.592,0.0,0.0,0.0,11.6,4.8,-1.2,1024,1024,1024,1024,0,0,0,0,77,4.746,73.94,98.4252,P-GPS,,30.0
334300,2026-01-09 20:12:22,0.0,5,7.592,0.0,0.0,0.0,11.6,4.8,-1.0,1024,1024,1024,1024,0,0,0,0,77,4.746,73.94,98.4252,P-GPS,,30.0
334400,2026-01-09 20:12:22,0.0,5,7.592,0.0,0.0,0.0,11.6,4.6,-0.9,1024,1024,1024,1024,0,0,0,0,77,4.746,73.94,98.4252,P-GPS,,30.0
334500,2026-01-09 20:12:22,0.0,5,7.592,0.0,0.0,0.0,11.5,4.8,-1.0,1024,1024,1024,1024,0,0,0,0,77,4.746,73.94,98.4252,P-GPS,,30.0
334600,2026-01-09 20:12:22,0.0,5,7.592,0.0,0.0,0.0,11.5,4.8,-0.5,1024,1024,1024,1024,0,0,0,0,77,4.746,73.94,98.4252,P-GPS,,30.0
334700,2026-01-09 20:12:22,0.0,5,7.592,0.0,0.0,0.0,11.6,4.5,-0.4,1024,1024,1024,1024,0,0,0,0,77,4.746,73.94,98.097116,P-GPS,,29.9
334800,2026-01-09 20:12:22,0.0,5,7.592,0.0,0.0,0.0,11.6,4.3,-0.8,1024,1024,1024,1024,0,0,0,0,77,4.746,73.94,98.097116,P-GPS,,29.9
334900,2026-01-09 20:12:22,0.0,5,7.592,0.0,0.0,0.0,11.7,4.2,-0.9,1024,1024,1024,1024,0,0,0,0,77,4.746,73.94,98.097116,P-GPS,,29.9
335000,2026-01-09 20:12:23,0.0,5,7.592,0.0,0.0,0.0,11.8,3.9,-1.4,1024,1024,1024,1024,0,0,0,0,77,4.746,73.94,98.097116,P-GPS,,29.9
335100,2026-01-09 20:12:23,0.0,5,7.592,0.0,0.0,0.0,11.7,4.1,-1.7,1024,1024,1024,1024,0,0,0,0,77,4.746,73.94,98.097116,P-GPS,,29.9
335200,2026-01-09 20:12:23,0.0,5,7.592,0.0,0.0,0.0,11.7,4.3,-1.6,1024,1024,1024,1024,0,0,0,0,77,4.746,73.94,98.097116,P-GPS,,29.9
335300,2026-01-09 20:12:23,0.0,5,7.592,0.0,0.0,0.0,11.7,4.5,-1.6,1024,1024,1024,1024,0,0,0,0,77,4.746,73.94,98.097116,P-GPS,,29.9
335400,2026-01-09 20:12:23,0.0,5,7.592,0.0,0.0,0.0,11.7,4.7,-1.8,1024,1024,1024,1024,0,0,0,0,77,4.746,73.94,98.097116,P-GPS,,29.9
335500,2026-01-09 20:12:23,0.0,5,7.592,0.0,0.0,0.0,11.8,4.9,-1.8,1024,1024,1024,1024,0,0,0,0,77,4.746,73.94,98.097116,P-GPS,,29.9
335600,2026-01-09 20:12:23,0.0,5,7.592,0.0,0.0,0.0,11.8,4.9,-1.8,1024,1024,1024,1024,0,0,0,0,77,4.746,73.94,98.097116,P-GPS,,29.9
335700,2026-01-09 20:12:23,0.0,5,7.592,0.0,0.0,0.0,11.7,5.0,-1.8,1024,1024,1024,1024,0,0,0,0,77,4.746,73.94,98.097116,P-GPS,,29.9
335800,2026-01-09 20:12:23,0.0,5,7.592,0.0,0.0,0.0,11.6,5.0,-1.7,1024,1024,1024,1024,0,0,0,0,77,4.746,73.94,98.097116,P-GPS,,29.9
335900,2026-01-09 20:12:23,0.0,5,7.592,0.0,0.0,0.0,11.6,5.0,-1.3,1024,1024,1024,1024,0,0,0,0,77,4.746,73.94,98.097116,P-GPS,,29.9
336000,2026-01-09 20:12:24,0.0,5,7.592,0.0,0.0,0.0,11.5,5.1,-1.4,1024,1024,1024,1024,0,0,0,0,77,4.746,73.94,98.097116,P-GPS,,29.9
336100,2026-01-09 20:12:24,0.0,5,7.592,0.0,0.0,0.0,11.5,5.3,-1.4,1024,1024,1024,1024,0,0,0,0,77,4.746,73.94,98.097116,P-GPS,,29.9
336200,2026-01-09 20:12:24,0.0,5,7.592,0.0,0.0,0.0,11.6,5.3,-1.1,1024,1024,1024,1024,0,0,0,0,77,4.746,73.94,98.097116,P-GPS,,29.9
336300,2026-01-09 20:12:24,0.0,5,7.592,0.0,0.0,0.0,11.6,5.4,-0.8,1024,1024,1024,1024,0,0,0,0,76,4.746,73.94,98.097116,P-GPS,,29.9
336400,2026-01-09 20:12:24,0.0,5,7.592,0.0,0.0,0.0,11.6,5.3,-0.5,1024,1024,1024,1024,0,0,0,0,76,4.746,73.94,98.097116,P-GPS,,29.9
336500,2026-01-09 20:12:24,0.0,5,7.592,0.0,0.0,0.0,11.6,5.1,-0.3,1024,1024,1024,1024,0,0,0,0,76,4.698,73.94,98.097116,P-GPS,,29.9
336600,2026-01-09 20:12:24,0.0,5,7.592,0.0,0.0,0.0,11.6,5.3,-0.1,1024,1024,1024,1024,0,0,0,0,76,4.698,73.94,98.097116,P-GPS,,29.9
336700,2026-01-09 20:12:24,0.0,5,7.592,0.0,0.0,0.0,11.6,5.7,-0.3,1024,1024,1024,1024,0,0,0,0,76,4.698,73.94,98.097116,P-GPS,,29.9
336800,2026-01-09 20:12:24,0.0,5,7.592,0.0,0.0,0.0,11.7,6.0,-0.3,1024,1024,1024,1024,0,0,0,0,76,4.698,73.94,97.769032,P-GPS,,29.8
336900,2026-01-09 20:12:24,0.0,5,7.592,0.0,0.0,0.0,11.6,6.1,-0.2,1024,1024,1024,1024,0,0,0,0,76,4.698,73.94,97.769032,P-GPS,,29.8
337000,2026-01-09 20:12:25,0.0,5,7.592,0.0,0.0,0.0,11.6,6.0,0.0,1024,1024,1024,1024,0,0,0,0,76,4.698,73.94,97.769032,P-GPS,,29.8
337100,2026-01-09 20:12:25,0.0,5,7.592,0.0,0.0,0.0,11.6,6.1,-0.4,1024,1024,1024,1024,0,0,0,0,76,4.698,73.94,97.769032,P-GPS,,29.8
337200,2026-01-09 20:12:25,0.0,5,7.592,0.0,0.0,0.0,11.6,6.0,-0.9,1024,1024,1024,1024,0,0,0,0,76,4.698,73.94,97.769032,P-GPS,,29.8
337300,2026-01-09 20:12:25,0.0,5,7.592,0.0,0.0,0.0,11.6,6.1,-0.6,1024,1024,1024,1024,0,0,0,0,76,4.698,73.94,97.769032,P-GPS,,29.8
337400,2026-01-09 20:12:25,0.0,5,7.592,0.0,0.0,0.0,11.6,5.9,-0.8,1024,1024,1024,1024,0,0,0,0,76,4.698,73.94,97.769032,P-GPS,,29.8
337500,2026-01-09 20:12:25,0.0,5,7.592,0.0,0.0,0.0,11.6,5.6,-0.9,1024,1024,1024,1024,0,0,0,0,76,4.698,73.94,97.769032,P-GPS,,29.8
337600,2026-01-09 20:12:25,0.0,5,7.592,0.0,0.0,0.0,11.6,5.6,-0.6,1024,1024,1024,1024,0,0,0,0,76,4.698,73.94,97.769032,P-GPS,,29.8
337700,2026-01-09 20:12:25,0.0,5,7.592,0.0,0.0,0.0,11.7,5.4,-0.6,1024,1024,1024,1024,0,0,0,0,76,4.698,73.94,97.769032,P-GPS,,29.8
337800,2026-01-09 20:12:25,0.0,5,7.592,0.0,0.0,0.0,11.7,5.4,-0.6,1024,1024,1024,1024,0,0,0,0,76,4.698,73.94,97.769032,P-GPS,,29.8
337900,2026-01-09 20:12:25,0.0,5,7.592,0.0,0.0,0.0,11.7,5.4,-0.6,1024,1024,1024,1024,0,0,0,0,76,4.698,73.94,97.769032,P-GPS,,29.8
338000,2026-01-09 20:12:25,0.0,5,7.592,0.0,0.0,0.0,11.7,5.5,-0.6,1024,1024,1024,1024,0,0,0,0,76,4.698,73.94,97.769032,P-GPS,,29.8
338100,2026-01-09 20:12:26,0.0,5,7.592,0.0,0.0,0.0,11.6,5.6,-0.4,1024,1024,1024,1024,0,0,0,0,76,4.698,73.94,97.769032,P-GPS,,29.8
338200,2026-01-09 20:12:26,0.0,5,7.592,0.0,0.0,0.0,11.6,5.4,-0.5,1024,1024,1024,1024,0,0,0,0,76,4.698,73.94,97.769032,P-GPS,,29.8
338300,2026-01-09 20:12:26,0.0,5,7.567,0.0,0.0,0.0,11.6,5.2,-0.5,1024,1024,1024,1024,0,0,0,0,76,5.056,73.94,97.769032,P-GPS,,29.8
338400,2026-01-09 20:12:26,0.0,5,7.567,0.0,0.0,0.0,11.6,5.2,-0.6,1024,1024,1024,1024,0,0,0,0,76,5.056,73.94,97.769032,P-GPS,,29.8
338500,2026-01-09 20:12:26,0.0,5,7.567,0.0,0.0,0.0,11.6,5.0,-0.6,1024,1024,1024,1024,0,0,0,0,76,5.056,73.94,97.769032,P-GPS,,29.8
338600,2026-01-09 20:12:26,0.0,5,7.567,0.0,0.0,0.0,11.7,4.9,-0.5,1024,1024,1024,1024,0,0,0,0,76,5.056,73.94,97.769032,P-GPS,,29.8
338700,2026-01-09 20:12:26,0.0,5,7.567,0.0,0.0,0.0,11.8,4.6,-0.8,1024,1024,1024,1024,0,0,0,0,76,5.056,73.94,97.769032,P-GPS,,29.8
338800,2026-01-09 20:12:26,0.0,5,7.567,0.0,0.0,0.0,11.7,5.2,-1.2,1024,1024,1024,1024,0,0,0,0,76,5.056,73.94,97.769032,P-GPS,,29.8
338900,2026-01-09 20:12:26,0.0,5,7.567,0.0,0.0,0.0,11.7,5.8,-1.5,1024,1024,1024,1024,0,0,0,0,76,5.056,73.94,97.769032,P-GPS,,29.8
339000,2026-01-09 20:12:27,0.0,5,7.567,0.0,0.0,0.0,11.7,5.6,-1.2,1024,1024,1024,1024,0,0,0,0,76,5.056,73.94,97.769032,P-GPS,,29.8
339100,2026-01-09 20:12:27,0.0,5,7.567,0.0,0.0,0.0,11.7,5.9,-0.9,1024,1024,1024,1024,0,0,0,0,76,5.056,73.94,97.769032,P-GPS,,29.8
339200,2026-01-09 20:12:27,0.0,5,7.567,0.0,0.0,0.0,11.7,5.8,-1.2,1024,1024,1024,1024,0,0,0,0,76,5.056,73.94,97.769032,P-GPS,,29.8
339300,2026-01-09 20:12:27,0.0,5,7.561,0.0,0.0,0.0,11.7,5.9,-1.5,1024,1024,1024,1024,0,0,0,0,76,5.2,73.94,97.769032,P-GPS,,29.8
339400,2026-01-09 20:12:27,0.0,5,7.561,0.0,0.0,0.0,11.7,5.9,-1.4,1024,1024,1024,1024,0,0,0,0,76,5.2,73.94,97.769032,P-GPS,,29.8
339500,2026-01-09 20:12:27,0.0,5,7.561,0.0,0.0,0.0,11.7,5.6,-1.1,1024,1024,1024,1024,0,0,0,0,76,5.2,73.94,97.769032,P-GPS,,29.8
339600,2026-01-09 20:12:27,0.0,5,7.561,0.0,0.0,0.0,11.7,5.0,-1.1,1024,1024,1024,1024,0,0,0,0,76,5.2,73.94,97.769032,P-GPS,,29.8
339700,2026-01-09 20:12:27,0.0,5,7.561,0.0,0.0,0.0,11.7,4.5,-0.9,1024,1024,1024,1024,0,0,0,0,76,5.2,73.94,97.769032,P-GPS,,29.8
339800,2026-01-09 20:12:27,0.0,5,7.561,0.0,0.0,0.0,11.7,4.4,-0.5,1024,1024,1024,1024,0,0,0,0,76,5.2,73.94,97.440948,P-GPS,,29.7
339900,2026-01-09 20:12:27,0.0,5,7.561,0.0,0.0,0.0,11.8,4.2,-0.8,1024,1024,1024,1024,0,0,0,0,76,5.2,73.94,97.440948,P-GPS,,29.7
340000,2026-01-09 20:12:27,0.0,5,7.561,0.0,0.0,0.0,11.7,4.3,-1.1,1024,1024,1024,1024,0,0,0,0,76,5.2,73.94,97.440948,P-GPS,,29.7
340100,2026-01-09 20:12:28,0.0,5,7.561,0.0,0.0,0.0,11.7,4.4,-1.2,1024,1024,1024,1024,0,0,0,0,76,5.2,73.94,97.440948,P-GPS,,29.7
340200,2026-01-09 20:12:28,0.0,5,7.561,0.0,0.0,0.0,11.7,4.7,-1.4,1024,1024,1024,1024,0,0,0,0,76,5.2,73.94,97.440948,P-GPS,,29.7
340300,2026-01-09 20:12:28,0.0,5,7.572,0.0,0.0,0.0,11.7,4.8,-1.5,1024,1024,1024,1024,0,0,0,0,76,5.013,74.12,97.440948,P-GPS,,29.7
340400,2026-01-09 20:12:28,0.0,5,7.572,0.0,0.0,0.0,11.7,4.7,-1.5,1024,1024,1024,1024,0,0,0,0,76,5.013,74.12,97.440948,P-GPS,,29.7
340500,2026-01-09 20:12:28,0.0,5,7.572,0.0,0.0,0.0,11.7,4.4,-1.6,1024,1024,1024,1024,0,0,0,0,76,5.013,74.12,97.440948,P-GPS,,29.7
340600,2026-01-09 20:12:28,0.0,5,7.572,0.0,0.0,0.0,11.7,4.3,-1.5,1024,1024,1024,1024,0,0,0,0,76,5.013,74.12,97.440948,P-GPS,,29.7
340700,2026-01-09 20:12:28,0.0,5,7.572,0.0,0.0,0.0,11.7,4.5,-1.5,1024,1024,1024,1024,0,0,0,0,76,5.013,74.12,97.440948,P-GPS,,29.7
340800,2026-01-09 20:12:28,0.0,5,7.572,0.0,0.0,0.0,11.7,4.5,-1.7,1024,1024,1024,1024,0,0,0,0,76,5.013,74.12,97.440948,P-GPS,,29.7
340900,2026-01-09 20:12:28,0.0,5,7.572,0.0,0.0,0.0,11.7,4.7,-1.7,1024,1024,1024,1024,0,0,0,0,76,5.013,74.12,97.440948,P-GPS,,29.7
341000,2026-01-09 20:12:29,0.0,5,7.572,0.0,0.0,0.0,11.6,4.9,-1.6,1024,1024,1024,1024,0,0,0,0,76,5.013,74.12,97.440948,P-GPS,,29.7
341100,2026-01-09 20:12:29,0.0,5,7.572,0.0,0.0,0.0,11.6,4.7,-1.4,1024,1024,1024,1024,0,0,0,0,76,5.013,74.12,97.440948,P-GPS,,29.7
341200,2026-01-09 20:12:29,0.0,5,7.572,0.0,0.0,0.0,11.7,4.7,-0.9,1024,1024,1024,1024,0,0,0,0,76,5.013,74.12,97.440948,P-GPS,,29.7
341300,2026-01-09 20:12:29,0.0,5,7.572,0.0,0.0,0.0,11.6,4.7,-1.0,1024,1024,1024,1024,0,0,0,0,76,5.013,74.12,97.440948,P-GPS,,29.7
341400,2026-01-09 20:12:29,0.0,5,7.583,0.0,0.0,0.0,11.7,4.7,-1.0,1024,1024,1024,1024,0,0,0,0,76,4.719,74.12,97.440948,P-GPS,,29.7
341500,2026-01-09 20:12:29,0.0,5,7.583,0.0,0.0,0.0,11.7,4.7,-1.1,1024,1024,1024,1024,0,0,0,0,76,4.719,74.12,97.440948,P-GPS,,29.7
341600,2026-01-09 20:12:29,0.0,5,7.583,0.0,0.0,0.0,11.7,4.6,-1.2,1024,1024,1024,1024,0,0,0,0,76,4.719,74.12,97.112864,P-GPS,,29.6
341700,2026-01-09 20:12:29,0.0,5,7.583,0.0,0.0,0.0,11.6,4.5,-1.1,1024,1024,1024,1024,0,0,0,0,76,4.719,74.12,97.112864,P-GPS,,29.6
341800,2026-01-09 20:12:29,0.0,5,7.583,0.0,0.0,0.0,11.7,4.4,-1.2,1024,1024,1024,1024,0,0,0,0,76,4.719,74.12,97.112864,P-GPS,,29.6
341900,2026-01-09 20:12:29,0.0,5,7.583,0.0,0.0,0.0,11.7,4.2,-1.4,1024,1024,1024,1024,0,0,0,0,76,4.719,74.12,97.112864,P-GPS,,29.6
342000,2026-01-09 20:12:29,0.0,5,7.583,0.0,0.0,0.0,11.6,4.3,-1.4,1024,1024,1024,1024,0,0,0,0,76,4.719,74.12,97.112864,P-GPS,,29.6
342100,2026-01-09 20:12:30,0.0,5,7.583,0.0,0.0,0.0,11.6,4.4,-1.2,1024,1024,1024,1024,0,0,0,0,76,4.719,74.12,97.112864,P-GPS,,29.6
342200,2026-01-09 20:12:30,0.0,5,7.583,0.0,0.0,0.0,11.5,4.6,-1.0,1024,1024,1024,1024,0,0,0,0,76,4.719,74.12,97.112864,P-GPS,,29.6
342300,2026-01-09 20:12:30,0.0,5,7.585,0.0,0.0,0.0,11.5,4.6,-0.9,1024,1024,1024,1024,0,0,0,0,76,4.721,74.12,97.112864,P-GPS,,29.6
342400,2026-01-09 20:12:30,0.0,5,7.585,0.0,0.0,0.0,11.5,4.2,-0.4,1024,1024,1024,1024,0,0,0,0,76,4.721,74.12,97.112864,P-GPS,,29.6
342500,2026-01-09 20:12:30,0.0,5,7.585,0.0,0.0,0.0,11.5,4.1,0.0,1024,1024,1024,1024,0,0,0,0,76,4.721,74.12,97.112864,P-GPS,,29.6
342600,2026-01-09 20:12:30,0.0,5,7.585,0.0,0.0,0.0,11.5,3.8,-0.3,1024,1024,1024,1024,0,0,0,0,76,4.721,74.12,97.112864,P-GPS,,29.6
342700,2026-01-09 20:12:30,0.0,5,7.585,0.0,0.0,0.0,11.5,3.5,-0.5,1024,1024,1024,1024,0,0,0,0,76,4.721,74.12,97.112864,P-GPS,,29.6
342800,2026-01-09 20:12:30,0.0,5,7.585,0.0,0.0,0.0,11.5,3.5,-0.5,1024,1024,1024,1024,0,0,0,0,76,4.721,74.12,97.112864,P-GPS,,29.6
342900,2026-01-09 20:12:30,0.0,5,7.585,0.0,0.0,0.0,11.6,3.4,-0.3,1024,1024,1024,1024,0,0,0,0,76,4.721,74.12,97.112864,P-GPS,,29.6
343000,2026-01-09 20:12:31,0.0,5,7.585,0.0,0.0,0.0,11.6,3.3,-0.3,1024,1024,1024,1024,0,0,0,0,76,4.721,74.12,96.78478,P-GPS,,29.5
343100,2026-01-09 20:12:31,0.0,5,7.585,0.0,0.0,0.0,11.6,3.1,-0.2,1024,1024,1024,1024,0,0,0,0,76,4.721,74.12,96.78478,P-GPS,,29.5
343200,2026-01-09 20:12:31,0.0,5,7.585,0.0,0.0,0.0,11.6,3.2,0.0,1024,1024,1024,1024,0,0,0,0,76,4.721,74.12,96.78478,P-GPS,,29.5
343300,2026-01-09 20:12:31,0.0,5,7.58,0.0,0.0,0.0,11.6,3.3,0.0,1024,1024,1024,1024,0,0,0,0,76,4.842,74.12,96.78478,P-GPS,,29.5
343400,2026-01-09 20:12:31,0.0,5,7.58,0.0,0.0,0.0,11.5,3.6,-0.1,1024,1024,1024,1024,0,0,0,0,76,4.842,74.12,96.78478,P-GPS,,29.5
343500,2026-01-09 20:12:31,0.0,5,7.58,0.0,0.0,0.0,11.5,3.6,0.0,1024,1024,1024,1024,0,0,0,0,76,4.842,74.12,96.78478,P-GPS,,29.5
343600,2026-01-09 20:12:31,0.0,5,7.58,0.0,0.0,0.0,11.6,3.7,0.1,1024,1024,1024,1024,0,0,0,0,76,4.842,74.12,96.78478,P-GPS,,29.5
343700,2026-01-09 20:12:31,0.0,5,7.58,0.0,0.0,0.0,11.6,3.5,0.2,1024,1024,1024,1024,0,0,0,0,76,4.842,74.12,96.78478,P-GPS,,29.5
343800,2026-01-09 20:12:31,0.0,5,7.58,0.0,0.0,0.0,11.6,3.5,0.4,1024,1024,1024,1024,0,0,0,0,76,4.842,74.12,96.78478,P-GPS,,29.5
343900,2026-01-09 20:12:32,0.0,5,7.58,0.0,0.0,0.0,11.6,3.4,0.5,1024,1024,1024,1024,0,0,0,0,76,4.842,74.12,96.78478,P-GPS,,29.5
344000,2026-01-09 20:12:32,0.0,5,7.58,0.0,0.0,0.0,11.7,3.2,0.2,1024,1024,1024,1024,0,0,0,0,76,4.842,74.12,96.78478,P-GPS,,29.5
344100,2026-01-09 20:12:32,0.0,5,7.58,0.0,0.0,0.0,11.8,3.1,-0.4,1024,1024,1024,1024,0,0,0,0,76,4.842,74.12,96.78478,P-GPS,,29.5
344200,2026-01-09 20:12:32,0.0,5,7.576,0.0,0.0,0.0,11.8,3.2,-0.5,1024,1024,1024,1024,0,0,0,0,76,4.85,74.12,96.78478,P-GPS,,29.5
344300,2026-01-09 20:12:32,0.0,5,7.576,0.0,0.0,0.0,11.8,3.3,-0.7,1024,1024,1024,1024,0,0,0,0,76,4.85,74.12,96.78478,P-GPS,,29.5
344400,2026-01-09 20:12:32,0.0,5,7.576,0.0,0.0,0.0,11.7,3.5,-0.7,1024,1024,1024,1024,0,0,0,0,76,4.85,74.12,96.78478,P-GPS,,29.5
344500,2026-01-09 20:12:32,0.0,5,7.576,0.0,0.0,0.0,11.7,3.7,-0.9,1024,1024,1024,1024,0,0,0,0,76,4.85,74.12,96.78478,P-GPS,,29.5
344600,2026-01-09 20:12:32,0.0,5,7.576,0.0,0.0,0.0,11.7,3.7,-1.1,1024,1024,1024,1024,0,0,0,0,76,4.85,74.12,96.78478,P-GPS,,29.5
344700,2026-01-09 20:12:32,0.0,5,7.576,0.0,0.0,0.0,11.6,3.7,-1.2,1024,1024,1024,1024,0,0,0,0,76,4.85,74.12,96.78478,P-GPS,,29.5
344800,2026-01-09 20:12:32,0.0,5,7.576,0.0,0.0,0.0,11.7,3.7,-1.1,1024,1024,1024,1024,0,0,0,0,76,4.85,74.12,96.78478,P-GPS,,29.5
344900,2026-01-09 20:12:32,0.0,5,7.576,0.0,0.0,0.0,11.7,3.8,-1.1,1024,1024,1024,1024,0,0,0,0,76,4.85,74.12,96.78478,P-GPS,,29.5
345000,2026-01-09 20:12:32,0.0,5,7.576,0.0,0.0,0.0,11.7,4.1,-1.1,1024,1024,1024,1024,0,0,0,0,76,4.85,74.12,96.78478,P-GPS,,29.5
345100,2026-01-09 20:12:33,0.0,5,7.576,0.0,0.0,0.0,11.7,4.3,-1.3,1024,1024,1024,1024,0,0,0,0,76,4.85,74.12,96.78478,P-GPS,,29.5
345200,2026-01-09 20:12:33,0.0,5,7.576,0.0,0.0,0.0,11.7,4.5,-1.3,1024,1024,1024,1024,0,0,0,0,76,4.85,74.12,96.78478,P-GPS,,29.5
345300,2026-01-09 20:12:33,0.0,5,7.576,0.0,0.0,0.0,11.7,4.3,-1.3,1024,1024,1024,1024,0,0,0,0,76,4.85,74.12,96.78478,P-GPS,,29.5
345400,2026-01-09 20:12:33,0.0,5,7.576,0.0,0.0,0.0,11.7,4.2,-1.4,1024,1024,1024,1024,0,0,0,0,76,4.85,74.12,96.78478,P-GPS,,29.5
345500,2026-01-09 20:12:33,0.0,5,7.576,0.0,0.0,0.0,11.7,4.0,-1.6,1024,1024,1024,1024,0,0,0,0,76,4.85,74.12,97.112864,P-GPS,,29.6
345600,2026-01-09 20:12:33,0.0,5,7.576,0.0,0.0,0.0,11.7,4.3,-1.8,1024,1024,1024,1024,0,0,0,0,76,4.85,74.12,97.112864,P-GPS,,29.6
345700,2026-01-09 20:12:33,0.0,5,7.576,0.0,0.0,0.0,11.7,4.4,-1.8,1024,1024,1024,1024,0,0,0,0,76,4.85,74.12,97.112864,P-GPS,,29.6
345800,2026-01-09 20:12:33,0.0,5,7.576,0.0,0.0,0.0,11.7,4.4,-1.7,1024,1024,1024,1024,0,0,0,0,76,4.85,74.12,97.112864,P-GPS,,29.6
345900,2026-01-09 20:12:33,0.0,5,7.576,0.0,0.0,0.0,11.7,4.8,-1.4,1024,1024,1024,1024,0,0,0,0,76,4.85,74.12,97.112864,P-GPS,,29.6
346000,2026-01-09 20:12:34,0.0,5,7.576,0.0,0.0,0.0,11.7,4.9,-1.5,1024,1024,1024,1024,0,0,0,0,76,4.85,74.12,97.112864,P-GPS,,29.6
346100,2026-01-09 20:12:34,0.0,5,7.576,0.0,0.0,0.0,11.7,5.1,-1.7,1024,1024,1024,1024,0,0,0,0,76,4.85,74.12,97.112864,P-GPS,,29.6
346200,2026-01-09 20:12:34,0.0,5,7.576,0.0,0.0,0.0,11.7,5.0,-1.5,1024,1024,1024,1024,0,0,0,0,76,4.85,74.12,97.112864,P-GPS,,29.6
346300,2026-01-09 20:12:34,0.0,5,7.576,0.0,0.0,0.0,11.6,4.9,-1.4,1024,1024,1024,1024,0,0,0,0,76,4.85,74.12,97.112864,P-GPS,,29.6
346400,2026-01-09 20:12:34,0.0,5,7.588,0.0,0.0,0.0,11.7,4.9,-1.3,1024,1024,1024,1024,0,0,0,0,76,4.666,74.12,97.112864,P-GPS,,29.6
346500,2026-01-09 20:12:34,0.0,5,7.588,0.0,0.0,0.0,11.6,4.9,-1.5,1024,1024,1024,1024,0,0,0,0,76,4.666,74.12,97.112864,P-GPS,,29.6
346600,2026-01-09 20:12:34,0.0,5,7.588,0.0,0.0,0.0,11.6,4.5,-1.6,1024,1024,1024,1024,0,0,0,0,76,4.666,74.12,97.112864,P-GPS,,29.6
346700,2026-01-09 20:12:34,0.0,5,7.588,0.0,0.0,0.0,11.6,4.5,-1.3,1024,1024,1024,1024,0,0,0,0,76,4.666,74.12,97.112864,P-GPS,,29.6
346800,2026-01-09 20:12:34,0.0,5,7.588,0.0,0.0,0.0,11.6,4.3,-1.2,1024,1024,1024,1024,0,0,0,0,76,4.666,74.12,97.112864,P-GPS,,29.6
346900,2026-01-09 20:12:34,0.0,5,7.588,0.0,0.0,0.0,11.6,3.9,-1.3,1024,1024,1024,1024,0,0,0,0,76,4.666,74.12,97.112864,P-GPS,,29.6
347000,2026-01-09 20:12:34,0.0,5,7.588,0.0,0.0,0.0,11.6,4.1,-0.9,1024,1024,1024,1024,0,0,0,0,76,4.666,74.12,97.112864,P-GPS,,29.6
347100,2026-01-09 20:12:35,0.0,5,7.588,0.0,0.0,0.0,11.6,4.0,-0.9,1024,1024,1024,1024,0,0,0,0,76,4.666,74.12,97.112864,P-GPS,,29.6
347200,2026-01-09 20:12:35,0.0,5,7.588,0.0,0.0,0.0,11.7,3.6,-1.3,1024,1024,1024,1024,0,0,0,0,76,4.666,74.12,97.112864,P-GPS,,29.6
347300,2026-01-09 20:12:35,0.0,5,7.588,0.0,0.0,0.0,11.7,3.8,-1.0,1024,1024,1024,1024,0,0,0,0,76,4.666,74.12,97.112864,P-GPS,,29.6
347400,2026-01-09 20:12:35,0.0,5,7.588,0.0,0.0,0.0,11.6,4.0,-1.0,1024,1024,1024,1024,0,0,0,0,76,4.666,74.12,97.112864,P-GPS,,29.6
347500,2026-01-09 20:12:35,0.0,5,7.577,0.0,0.0,0.0,11.7,4.2,-0.9,1024,1024,1024,1024,0,0,0,0,76,4.996,74.12,97.112864,P-GPS,,29.6
347600,2026-01-09 20:12:35,0.0,5,7.577,0.0,0.0,0.0,11.8,4.0,-1.2,1024,1024,1024,1024,0,0,0,0,76,4.996,74.12,97.112864,P-GPS,,29.6
347700,2026-01-09 20:12:35,0.0,5,7.577,0.0,0.0,0.0,11.9,3.7,-1.5,1024,1024,1024,1024,0,0,0,0,76,4.996,74.12,97.112864,P-GPS,,29.6
347800,2026-01-09 20:12:35,0.0,5,7.577,0.0,0.0,0.0,11.8,3.9,-1.7,1024,1024,1024,1024,0,0,0,0,76,4.996,74.12,97.440948,P-GPS,,29.7
347900,2026-01-09 20:12:35,0.0,5,7.577,0.0,0.0,0.0,11.8,4.0,-1.5,1024,1024,1024,1024,0,0,0,0,76,4.996,74.12,97.440948,P-GPS,,29.7
348000,2026-01-09 20:12:36,0.0,5,7.577,0.0,0.0,0.0,11.9,4.2,-1.4,1024,1024,1024,1024,0,0,0,0,76,4.996,74.12,97.440948,P-GPS,,29.7
348100,2026-01-09 20:12:36,0.0,5,7.577,0.0,0.0,0.0,12.0,4.2,-1.4,1024,1024,1024,1024,0,0,0,0,76,4.996,74.12,97.440948,P-GPS,,29.7
348200,2026-01-09 20:12:36,0.0,5,7.577,0.0,0.0,0.0,12.0,4.2,-1.3,1024,1024,1024,1024,0,0,0,0,76,4.996,74.12,97.440948,P-GPS,,29.7
348300,2026-01-09 20:12:36,0.0,5,7.577,0.0,0.0,0.0,12.0,4.6,-1.4,1024,1024,1024,1024,0,0,0,0,76,4.996,74.12,97.440948,P-GPS,,29.7
348400,2026-01-09 20:12:36,0.0,5,7.577,0.0,0.0,0.0,11.8,5.2,-1.4,1024,1024,1024,1024,0,0,0,0,76,4.996,74.12,97.440948,P-GPS,,29.7
348500,2026-01-09 20:12:36,0.0,5,7.577,0.0,0.0,0.0,11.8,5.4,-1.4,1024,1024,1416,1024,0,0,59,0,76,4.996,74.12,97.440948,P-GPS,,29.7
348600,2026-01-09 20:12:36,0.0,5,7.597,0.0,0.0,0.0,11.7,5.5,-1.4,1024,1024,1684,1024,0,0,100,0,76,4.557,74.3,97.440948,P-GPS,,29.7
348700,2026-01-09 20:12:36,0.0,5,7.597,0.0,0.0,0.0,11.8,5.2,-1.5,1024,1024,1684,1024,0,0,100,0,76,4.557,74.3,97.440948,P-GPS,,29.7
348800,2026-01-09 20:12:36,0.0,5,7.597,0.0,0.0,-0.223694,11.7,5.3,-2.1,1024,1024,1684,1024,0,0,100,0,76,4.557,74.3,97.769032,P-GPS,,29.8
348900,2026-01-09 20:12:36,0.0,5,7.597,0.0,0.0,-1.11847,11.6,5.3,-2.1,1024,1024,1684,1024,0,0,100,0,76,4.557,74.3,97.769032,P-GPS,,29.8
349000,2026-01-09 20:12:36,0.0,5,7.597,0.0,0.0,-1.789552,11.6,5.6,-1.8,1024,1024,1684,1024,0,0,100,0,76,4.557,74.3,98.097116,P-GPS,,29.9
349100,2026-01-09 20:12:37,0.0,5,7.597,0.0,0.0,-2.684328,11.7,5.6,-2.0,1024,1024,1684,1024,0,0,100,0,76,4.557,74.3,98.4252,P-GPS,,30.0
349200,2026-01-09 20:12:37,0.0,5,7.597,0.0,0.0,-3.35541,11.6,5.3,-2.0,1024,1024,1684,1024,0,0,100,0,76,4.557,74.3,99.081368,P-GPS,,30.2
349300,2026-01-09 20:12:37,0.0,5,7.597,0.0,0.0,-3.802798,11.7,5.0,-1.9,1024,1024,1684,1024,0,0,100,0,76,4.557,74.3,99.409452,P-GPS,,30.3
349400,2026-01-09 20:12:37,0.0,5,7.597,0.0,0.0,-4.026492,11.7,4.3,-1.6,1024,1024,1684,1024,0,0,100,0,76,4.557,74.3,100.06562,P-GPS,,30.5
349500,2026-01-09 20:12:37,0.0,5,7.597,0.0,0.0,-4.250186,11.7,3.5,-1.4,1024,1024,1684,1024,0,0,100,0,76,4.557,74.3,100.721788,P-GPS,,30.7
349600,2026-01-09 20:12:37,0.0,5,7.597,0.0,0.0,-4.250186,11.7,3.6,-1.1,1024,1024,1684,1024,0,0,100,0,76,4.557,74.3,101.377956,P-GPS,,30.9
349700,2026-01-09 20:12:37,0.0,5,7.481,0.0,0.0,-4.250186,11.7,3.3,-0.9,1024,1024,1684,1024,0,0,100,0,76,6.535,74.3,101.70604,P-GPS,,31.0
349800,2026-01-09 20:12:37,0.0,5,7.481,0.0,0.0,-4.47388,11.7,3.0,-0.6,1024,1024,1684,1024,0,0,100,0,76,6.535,74.3,102.362208,P-GPS,,31.2
350000,2026-01-09 20:12:38,0.0,5,7.481,0.0,0.0,-4.47388,11.6,4.2,-0.7,1024,1024,1684,1024,0,0,100,0,76,6.535,74.3,103.674544,P-GPS,,31.6
350100,2026-01-09 20:12:38,0.0,5,7.481,0.0,0.0,-4.250186,11.6,4.9,-0.8,1024,1024,1684,1024,0,0,100,0,76,6.535,74.3,104.330712,P-GPS,,31.8
393100,2026-01-09 20:13:21,0.223694,5,7.505,0.0,0.223694,3.802798,226.4,-4.1,0.6,1024,1024,364,1684,0,0,-100,100,73,5.049,74.84,104.658796,P-GPS,,31.9
393200,2026-01-09 20:13:21,0.223694,5,7.505,0.0,0.223694,4.026492,239.1,-3.2,-1.5,1024,1024,364,1684,0,0,-100,100,73,5.049,74.84,104.002628,P-GPS,,31.7
393300,2026-01-09 20:13:21,0.0,5,7.505,0.0,0.0,4.026492,252.3,-4.6,-0.6,1024,1024,364,1684,0,0,-100,100,73,5.049,74.84,103.34646,P-GPS,,31.5
393400,2026-01-09 20:13:21,0.0,5,7.505,-0.223694,0.0,4.026492,265.1,-3.7,-1.3,1024,1024,364,1684,0,0,-100,100,73,5.049,74.84,102.690292,P-GPS,,31.3
393500,2026-01-09 20:13:21,0.223694,5,7.505,-0.223694,0.0,4.026492,278.0,-1.9,-2.9,1024,1024,364,1684,0,0,-100,100,73,5.049,74.84,102.362208,P-GPS,,31.2
393600,2026-01-09 20:13:21,0.223694,5,7.505,-0.223694,0.0,4.026492,290.9,-2.6,-2.2,1024,1024,364,1684,0,0,-100,100,73,5.049,74.84,102.034124,P-GPS,,31.1
393700,2026-01-09 20:13:21,0.223694,5,7.505,-0.223694,0.0,3.802798,303.6,-0.6,-2.0,1024,1024,364,1684,0,0,-100,100,73,5.049,74.84,101.377956,P-GPS,,30.9
393800,2026-01-09 20:13:21,0.3131716,5,7.505,-0.223694,-0.223694,4.026492,316.2,1.0,-0.9,1024,1024,364,1684,0,0,-100,100,73,5.049,74.84,101.049872,P-GPS,,30.8
393900,2026-01-09 20:13:21,0.0,5,7.533,0.0,0.0,4.026492,329.0,-0.7,-0.3,1024,1024,364,1684,0,0,-100,100,73,4.875,74.84,100.721788,P-GPS,,30.7
394000,2026-01-09 20:13:22,0.223694,5,7.533,-0.223694,0.0,4.026492,341.9,-0.1,-0.5,1024,1024,364,1684,0,0,-100,100,73,4.875,74.84,100.393704,P-GPS,,30.6
394100,2026-01-09 20:13:22,0.0,5,7.533,0.0,0.0,3.802798,355.0,-1.4,-0.6,1024,1024,364,1684,0,0,-100,100,73,4.875,74.84,99.737536,P-GPS,,30.4
394200,2026-01-09 20:13:22,0.223694,5,7.533,0.0,-0.223694,3.802798,8.6,-2.7,0.3,1024,1024,364,1684,0,0,-100,100,73,4.875,74.84,99.409452,P-GPS,,30.3
394300,2026-01-09 20:13:22,0.0,5,7.533,0.0,0.0,3.802798,21.7,-1.8,1.0,1024,1024,364,1684,0,0,-100,100,73,4.875,74.84,98.753284,P-GPS,,30.1
394400,2026-01-09 20:13:22,0.0,5,7.533,0.0,0.0,3.579104,35.1,-1.3,0.8,1024,1024,364,1684,0,0,-100,100,73,4.875,74.84,98.097116,P-GPS,,29.9
394500,2026-01-09 20:13:22,0.0,5,7.533,0.0,0.0,3.802798,48.3,-1.5,0.5,1024,1024,364,1684,0,0,-100,100,73,4.875,74.84,97.440948,P-GPS,,29.7
394600,2026-01-09 20:13:22,0.0,5,7.533,0.0,0.223694,3.802798,61.4,0.0,0.0,1024,1024,364,1684,0,0,-100,100,73,4.875,74.84,96.78478,P-GPS,,29.5
394700,2026-01-09 20:13:22,0.3131716,5,7.533,0.223694,0.223694,3.802798,74.3,3.1,-0.6,1024,1024,364,1684,0,0,-100,100,73,4.875,74.84,96.128612,P-GPS,,29.3
394800,2026-01-09 20:13:22,0.3131716,5,7.533,0.223694,0.223694,4.026492,87.1,3.2,1.3,1024,1024,364,1684,0,0,-100,100,73,4.875,74.84,95.472444,P-GPS,,29.1
394900,2026-01-09 20:13:22,0.4921268,5,7.533,0.447388,0.223694,4.250186,100.0,2.1,3.5,1024,1024,364,1684,0,0,-100,100,73,4.875,74.84,94.816276,P-GPS,,28.9
395000,2026-01-09 20:13:22,0.447388,5,7.547,0.447388,0.0,4.026492,113.1,0.9,4.1,1024,1024,364,1274,0,0,-100,38,73,4.779,75.02,94.160108,P-GPS,,28.7
395100,2026-01-09 20:13:23,0.223694,5,7.547,0.223694,0.0,4.026492,125.7,0.8,3.3,1024,1024,364,1178,0,0,-100,23,73,4.779,75.02,93.50394,P-GPS,,28.5
395200,2026-01-09 20:13:23,0.223694,5,7.547,0.223694,0.0,4.250186,132.9,1.1,4.5,1024,1024,364,1126,0,0,-100,15,73,4.779,75.02,93.175856,P-GPS,,28.4
395300,2026-01-09 20:13:23,0.223694,5,7.547,0.223694,0.0,4.250186,134.2,-0.2,2.5,1024,1024,364,1030,0,0,-100,1,73,4.779,75.02,92.519688,P-GPS,,28.2
395400,2026-01-09 20:13:23,0.3131716,5,7.547,0.223694,0.223694,4.026492,134.7,-1.1,4.1,1024,1024,364,1024,0,0,-100,0,73,4.779,75.02,92.191604,P-GPS,,28.1
