time(millisecond),timestamp,speed(mph),gpslevel,voltage(v),xSpeed(mph),ySpeed(mph),zSpeed(mph),compass_heading(degrees),pitch(degrees),roll(degrees),rc_elevator,rc_aileron,rc_throttle,rc_rudder,rc_elevator(percent),rc_aileron(percent),rc_throttle(percent),rc_rudder(percent),battery_percent,current(A),battery_temperature(f),ascent(feet),flycState,message,height_above_takeoff(meters)
45800,2026-01-09 20:07:16,0.0,5,7.69,0.0,0.0,0.0,5.9,4.7,-0.3,1024,1024,1024,1024,0,0,0,0,95,5.857,64.04,100.721788,P-GPS,,30.7
45900,2026-01-09 20:07:16,0.0,5,7.822,0.0,0.0,0.0,5.9,4.8,-0.6,1024,1024,1024,1024,0,0,0,0,95,4.253,64.04,100.721788,P-GPS,,30.7
46000,2026-01-09 20:07:16,0.0,5,7.822,0.0,0.0,0.0,5.9,5.1,-0.8,1024,1024,1024,1024,0,0,0,0,95,4.253,64.04,101.049872,P-GPS,,30.8
46100,2026-01-09 20:07:17,0.0,5,7.822,0.0,0.0,0.0,5.8,5.1,-0.8,1024,1024,1024,1024,0,0,0,0,95,4.253,64.04,101.049872,P-GPS,,30.8
46200,2026-01-09 20:07:17,0.0,5,7.822,0.0,0.0,0.0,5.8,5.1,-1.1,1024,1024,1024,1024,0,0,0,0,95,4.253,64.04,101.049872,P-GPS,,30.8
46300,2026-01-09 20:07:17,0.0,5,7.822,0.0,0.0,0.0,5.8,5.0,-1.5,1024,1024,1024,1024,0,0,0,0,95,4.253,64.04,101.049872,P-GPS,,30.8
46400,2026-01-09 20:07:17,0.0,5,7.822,0.0,0.0,0.0,5.8,5.1,-1.7,1024,1024,1024,1024,0,0,0,0,95,4.253,64.04,101.049872,P-GPS,,30.8
46500,2026-01-09 20:07:17,0.0,5,7.822,0.0,0.0,0.0,5.8,4.7,-1.4,1024,1024,1024,1024,0,0,0,0,95,4.253,64.04,101.049872,P-GPS,,30.8
46600,2026-01-09 20:07:17,0.0,5,7.822,0.0,0.0,0.0,5.8,4.8,-1.0,1024,1024,1024,1024,0,0,0,0,95,4.253,64.04,101.049872,P-GPS,,30.8
46700,2026-01-09 20:07:17,0.0,5,7.822,0.0,0.0,0.0,5.9,4.5,-0.9,1024,1024,1024,1024,0,0,0,0,95,4.253,64.04,101.049872,P-GPS,,30.8
46800,2026-01-09 20:07:17,0.0,5,7.822,0.0,0.0,0.0,5.9,4.9,-0.7,1024,1024,1024,1024,0,0,0,0,95,4.253,64.04,101.049872,P-GPS,,30.8
46900,2026-01-09 20:07:17,0.0,5,7.822,0.0,0.0,0.0,5.9,4.7,-0.5,1024,1024,1024,1024,0,0,0,0,95,4.253,64.04,101.049872,P-GPS,,30.8
47000,2026-01-09 20:07:18,0.0,5,7.779,0.0,0.0,0.0,5.9,4.9,-0.4,1024,1024,1024,1024,0,0,0,0,95,4.55,64.04,101.049872,P-GPS,,30.8
47100,2026-01-09 20:07:18,0.0,5,7.779,0.0,0.0,0.0,5.9,4.9,-0.1,1024,1024,1024,1024,0,0,0,0,95,4.55,64.04,101.049872,P-GPS,,30.8
47200,2026-01-09 20:07:18,0.0,5,7.779,0.0,0.0,0.0,6.0,5.1,0.2,1024,1024,1024,1024,0,0,0,0,95,4.55,64.04,101.049872,P-GPS,,30.8
47300,2026-01-09 20:07:18,0.0,5,7.779,0.0,0.0,0.0,6.0,5.1,0.3,1024,1024,1024,1024,0,0,0,0,95,4.55,64.04,101.049872,P-GPS,,30.8
47400,2026-01-09 20:07:18,0.0,5,7.779,0.0,0.0,0.0,6.0,5.0,0.4,1024,1024,1024,1024,0,0,0,0,95,4.55,64.04,101.049872,P-GPS,,30.8
47500,2026-01-09 20:07:18,0.0,5,7.779,0.0,0.0,0.0,6.0,5.0,0.5,1024,1024,1024,1024,0,0,0,0,95,4.55,64.04,101.049872,P-GPS,,30.8
47600,2026-01-09 20:07:18,0.0,5,7.779,0.0,0.0,0.0,6.0,4.8,0.5,1024,1024,1024,1024,0,0,0,0,95,4.55,64.04,101.049872,P-GPS,,30.8
47700,2026-01-09 20:07:18,0.0,5,7.779,0.0,0.0,0.0,6.0,4.5,0.6,1024,1024,1024,1024,0,0,0,0,95,4.55,64.04,100.721788,P-GPS,,30.7
48100,2026-01-09 20:07:19,0.0,5,7.782,0.0,0.0,0.0,6.0,3.3,0.8,1024,1024,1024,1024,0,0,0,0,95,4.465,64.22,100.721788,P-GPS,,30.7
48200,2026-01-09 20:07:19,0.0,5,7.782,0.0,0.0,0.0,5.9,3.5,0.8,1024,1024,1024,1024,0,0,0,0,95,4.465,64.22,100.721788,P-GPS,,30.7
48300,2026-01-09 20:07:19,0.0,5,7.782,0.0,0.0,0.0,5.9,3.5,0.9,1024,1024,1024,1024,0,0,0,0,95,4.465,64.22,100.721788,P-GPS,,30.7
48400,2026-01-09 20:07:19,0.0,5,7.782,0.0,0.0,0.0,6.0,3.6,1.1,1024,1024,1024,1024,0,0,0,0,95,4.465,64.22,100.721788,P-GPS,,30.7
48500,2026-01-09 20:07:19,0.0,5,7.782,0.0,0.0,0.0,6.0,4.0,1.5,1024,1024,1024,1024,0,0,0,0,95,4.465,64.22,100.393704,P-GPS,,30.6
48600,2026-01-09 20:07:19,0.0,5,7.782,0.0,0.0,0.0,6.0,4.0,1.3,1024,1024,1024,1024,0,0,0,0,95,4.465,64.22,100.393704,P-GPS,,30.6
48700,2026-01-09 20:07:19,0.0,5,7.782,0.0,0.0,0.0,6.0,4.1,1.2,1024,1024,1024,1024,0,0,0,0,95,4.465,64.22,100.393704,P-GPS,,30.6
48800,2026-01-09 20:07:19,0.0,5,7.782,0.0,0.0,0.0,5.9,3.9,1.0,1024,1024,1024,1024,0,0,0,0,95,4.465,64.22,100.393704,P-GPS,,30.6
48900,2026-01-09 20:07:19,0.0,5,7.782,0.0,0.0,0.0,5.9,3.6,0.6,1024,1024,1024,1024,0,0,0,0,95,4.465,64.22,100.393704,P-GPS,,30.6
49000,2026-01-09 20:07:20,0.0,5,7.782,0.0,0.0,0.0,5.9,3.5,0.3,1024,1024,1024,1024,0,0,0,0,95,4.465,64.22,100.393704,P-GPS,,30.6
49100,2026-01-09 20:07:20,0.0,5,7.782,0.0,0.0,0.0,5.9,3.4,0.3,1024,1024,1024,1024,0,0,0,0,95,4.465,64.22,100.06562,P-GPS,,30.5
49200,2026-01-09 20:07:20,0.0,5,7.773,0.0,0.0,0.0,5.9,3.4,0.1,1024,1024,1024,1024,0,0,0,0,94,4.55,64.22,100.06562,P-GPS,,30.5
49300,2026-01-09 20:07:20,0.0,5,7.773,0.0,0.0,0.0,5.8,3.2,-0.2,1024,1024,1024,1024,0,0,0,0,94,4.55,64.22,100.06562,P-GPS,,30.5
49400,2026-01-09 20:07:20,0.0,5,7.773,0.0,0.0,0.0,5.8,3.2,-0.2,1024,1024,1024,1024,0,0,0,0,94,4.55,64.22,100.06562,P-GPS,,30.5
49500,2026-01-09 20:07:20,0.0,5,7.773,0.0,0.0,0.0,5.8,3.0,0.0,1024,1024,1024,1024,0,0,0,0,94,4.55,64.22,100.06562,P-GPS,,30.5
49600,2026-01-09 20:07:20,0.0,5,7.773,0.0,0.0,0.0,5.8,2.9,0.0,1024,1024,1024,1024,0,0,0,0,94,4.55,64.22,100.06562,P-GPS,,30.5
49700,2026-01-09 20:07:20,0.0,5,7.773,0.0,0.0,0.0,5.9,2.8,0.1,1024,1024,1024,1024,0,0,0,0,94,4.55,64.22,100.06562,P-GPS,,30.5
49800,2026-01-09 20:07:20,0.0,5,7.773,0.0,0.0,0.0,5.9,3.1,0.0,1024,1024,1024,1024,0,0,0,0,94,4.55,64.22,100.06562,P-GPS,,30.5
49900,2026-01-09 20:07:20,0.0,5,7.773,0.0,0.0,0.0,5.9,3.4,0.1,1024,1024,1024,1024,0,0,0,0,94,4.55,64.22,100.06562,P-GPS,,30.5
50000,2026-01-09 20:07:20,0.0,5,7.773,0.0,0.0,0.0,5.9,3.7,-0.2,1024,1024,1024,1024,0,0,0,0,94,4.55,64.22,100.06562,P-GPS,,30.5
50100,2026-01-09 20:07:21,0.0,5,7.773,0.0,0.0,0.0,6.0,3.7,-0.1,1024,1024,1024,1024,0,0,0,0,94,4.55,64.22,100.06562,P-GPS,,30.5
50200,2026-01-09 20:07:21,0.0,5,7.773,0.0,0.0,0.0,5.9,3.8,-0.3,1024,1024,1024,1024,0,0,0,0,94,4.55,64.22,100.06562,P-GPS,,30.5
50300,2026-01-09 20:07:21,0.0,5,7.773,0.0,0.0,0.0,5.9,3.7,0.0,1024,1024,1024,1024,0,0,0,0,94,4.55,64.22,100.06562,P-GPS,,30.5
50400,2026-01-09 20:07:21,0.0,5,7.773,0.0,0.0,0.0,5.9,3.6,-0.2,1024,1024,1024,1024,0,0,0,0,94,4.55,64.22,100.06562,P-GPS,,30.5
50500,2026-01-09 20:07:21,0.0,5,7.773,0.0,0.0,0.0,5.9,3.8,-0.3,1024,1024,1024,1024,0,0,0,0,94,4.55,64.22,100.06562,P-GPS,,30.5
50600,2026-01-09 20:07:21,0.0,5,7.773,0.0,0.0,0.0,5.9,4.1,-0.6,1024,1024,1024,1024,0,0,0,0,94,4.55,64.22,99.737536,P-GPS,,30.4
50700,2026-01-09 20:07:21,0.0,5,7.773,0.0,0.0,0.0,5.9,4.0,-0.8,1024,1024,1024,1024,0,0,0,0,94,4.55,64.22,99.737536,P-GPS,,30.4
50800,2026-01-09 20:07:21,0.0,5,7.773,0.0,0.0,0.0,5.8,4.1,-0.7,1024,1024,1024,1024,0,0,0,0,94,4.55,64.22,99.737536,P-GPS,,30.4
50900,2026-01-09 20:07:21,0.0,5,7.773,0.0,0.0,0.0,5.9,4.2,-0.4,1024,1024,1024,1024,0,0,0,0,94,4.55,64.22,99.737536,P-GPS,,30.4
51000,2026-01-09 20:07:22,0.0,5,7.773,0.0,0.0,0.0,5.9,4.4,-0.2,1024,1024,1024,1024,0,0,0,0,94,4.55,64.22,99.737536,P-GPS,,30.4
51100,2026-01-09 20:07:22,0.0,5,7.773,0.0,0.0,0.0,5.9,4.5,-0.1,1024,1024,1024,1024,0,0,0,0,94,4.55,64.22,99.737536,P-GPS,,30.4
51200,2026-01-09 20:07:22,0.0,5,7.773,0.0,0.0,0.0,5.9,4.5,-0.1,1024,1024,1024,1024,0,0,0,0,94,4.55,64.22,99.737536,P-GPS,,30.4
51300,2026-01-09 20:07:22,0.0,5,7.773,0.0,0.0,0.0,5.9,4.6,0.0,1024,1024,1024,1024,0,0,0,0,94,4.55,64.22,99.737536,P-GPS,,30.4
51400,2026-01-09 20:07:22,0.0,5,7.773,0.0,0.0,0.0,5.9,4.9,0.0,1024,1024,1024,1024,0,0,0,0,94,4.55,64.22,99.737536,P-GPS,,30.4
51500,2026-01-09 20:07:22,0.0,5,7.784,0.0,0.0,0.0,5.9,5.0,0.2,1024,1024,1024,1024,0,0,0,0,94,4.449,64.4,99.737536,P-GPS,,30.4
51600,2026-01-09 20:07:22,0.0,5,7.784,0.0,0.0,0.0,5.9,4.6,0.0,1024,1024,1024,1024,0,0,0,0,94,4.449,64.4,99.737536,P-GPS,,30.4
51700,2026-01-09 20:07:22,0.0,5,7.784,0.0,0.0,0.0,5.9,4.5,0.0,1024,1024,1024,1024,0,0,0,0,94,4.449,64.4,99.737536,P-GPS,Gimbal stuck. SD card speed low SD card speed low. Normal use may be affected. Replace SD card (Code: 10028). Gimbal stuck. Make sure gimbal cover is removed and manually check whether gimbal can rotate freely (Code: 40002). SD card speed low. Normal use may be affected. Replace SD,30.4
51800,2026-01-09 20:07:22,0.0,5,7.784,0.0,0.0,0.0,5.9,4.2,0.0,1024,1024,1024,1024,0,0,0,0,94,4.449,64.4,99.737536,P-GPS,,30.4
51900,2026-01-09 20:07:22,0.0,5,7.784,0.0,0.0,0.0,6.0,4.3,0.1,1024,1024,1024,1024,0,0,0,0,94,4.449,64.4,99.737536,P-GPS,,30.4
52000,2026-01-09 20:07:23,0.0,5,7.784,0.0,0.0,0.0,5.8,4.6,0.1,1024,1024,1024,1024,0,0,0,0,94,4.449,64.4,99.737536,P-GPS,Gimbal stuck. SD card speed low SD card speed low. Normal use may be affected. Replace SD card (Code: 10028). Gimbal stuck. Make sure gimbal cover is removed and manually check whether gimbal can rotate freely (Code: 40002). SD card speed low. Normal use may be affected. Replace SD,30.4
52100,2026-01-09 20:07:23,0.0,5,7.784,0.0,0.0,0.0,5.8,4.5,0.6,1024,1024,1024,1024,0,0,0,0,94,4.449,64.4,99.737536,P-GPS,,30.4
52200,2026-01-09 20:07:23,0.0,5,7.784,0.0,0.0,0.0,5.8,4.4,0.9,1024,1024,1024,1024,0,0,0,0,94,4.449,64.4,99.737536,P-GPS,,30.4
52300,2026-01-09 20:07:23,0.0,5,7.784,0.0,0.0,0.0,5.8,4.8,1.4,1024,1024,1024,1024,0,0,0,0,94,4.449,64.4,99.737536,P-GPS,,30.4
52400,2026-01-09 20:07:23,0.0,5,7.784,0.0,0.0,0.0,5.8,4.6,1.4,1024,1024,1024,1024,0,0,0,0,94,4.449,64.4,99.737536,P-GPS,,30.4
52500,2026-01-09 20:07:23,0.0,5,7.784,0.0,0.0,0.0,5.9,4.3,1.6,1024,1024,1024,1024,0,0,0,0,94,4.449,64.4,99.737536,P-GPS,,30.4
52600,2026-01-09 20:07:23,0.0,5,7.776,0.0,0.0,0.0,5.9,4.2,1.3,1024,1024,1024,1024,0,0,0,0,94,4.618,64.58,99.737536,P-GPS,,30.4
52700,2026-01-09 20:07:23,0.0,5,7.776,0.0,0.0,0.0,5.9,4.4,1.3,1024,1024,1024,1024,0,0,0,0,94,4.618,64.58,99.737536,P-GPS,,30.4
52800,2026-01-09 20:07:23,0.0,5,7.776,0.0,0.0,0.0,5.9,4.7,1.2,1024,1024,1024,1024,0,0,0,0,94,4.618,64.58,99.737536,P-GPS,,30.4
52900,2026-01-09 20:07:23,0.0,5,7.776,0.0,0.0,0.0,6.0,4.8,1.3,1024,1024,1024,1024,0,0,0,0,94,4.618,64.58,99.737536,P-GPS,,30.4
53000,2026-01-09 20:07:23,0.0,5,7.776,0.0,0.0,0.0,6.0,4.6,0.9,1024,1024,1024,1024,0,0,0,0,94,4.618,64.58,99.737536,P-GPS,,30.4
53100,2026-01-09 20:07:24,0.0,5,7.776,0.0,0.0,0.0,6.0,4.7,1.0,1024,1024,1024,1024,0,0,0,0,94,4.618,64.58,99.737536,P-GPS,,30.4
53200,2026-01-09 20:07:24,0.0,5,7.776,0.0,0.0,0.0,6.0,4.2,0.7,1024,1024,1024,1024,0,0,0,0,94,4.618,64.58,99.737536,P-GPS,,30.4
53300,2026-01-09 20:07:24,0.0,5,7.776,0.0,0.0,0.0,6.0,4.2,0.5,1024,1024,1024,1024,0,0,0,0,94,4.618,64.58,99.737536,P-GPS,,30.4
53400,2026-01-09 20:07:24,0.0,5,7.776,0.0,0.0,0.0,6.0,4.2,0.2,1024,1024,1024,1024,0,0,0,0,94,4.618,64.58,99.737536,P-GPS,,30.4
53500,2026-01-09 20:07:24,0.0,5,7.776,0.0,0.0,0.0,6.0,4.6,0.2,1024,1024,1024,1024,0,0,0,0,94,4.618,64.58,99.737536,P-GPS,,30.4
53600,2026-01-09 20:07:24,0.0,5,7.776,0.0,0.0,0.0,6.0,4.4,0.0,1024,1024,1024,1024,0,0,0,0,94,4.618,64.58,99.409452,P-GPS,,30.3
53700,2026-01-09 20:07:24,0.0,5,7.781,0.0,0.0,0.0,5.9,4.5,0.0,1024,1024,1024,1024,0,0,0,0,94,4.504,64.58,99.409452,P-GPS,,30.3
53800,2026-01-09 20:07:24,0.0,5,7.781,0.0,0.0,0.0,5.9,4.3,-0.2,1024,1024,1024,1024,0,0,0,0,94,4.504,64.58,99.409452,P-GPS,,30.3
53900,2026-01-09 20:07:24,0.0,5,7.781,0.0,0.0,0.0,5.9,4.3,0.0,1024,1024,1024,1024,0,0,0,0,94,4.504,64.58,99.409452,P-GPS,,30.3
54000,2026-01-09 20:07:25,0.223694,5,7.781,-0.223694,0.0,0.0,5.9,3.8,0.0,1024,1024,1024,1024,0,0,0,0,94,4.504,64.58,99.409452,P-GPS,,30.3
54100,2026-01-09 20:07:25,0.223694,5,7.781,-0.223694,0.0,0.0,5.9,4.0,0.0,1024,1024,1024,1024,0,0,0,0,94,4.504,64.58,99.409452,P-GPS,,30.3
54200,2026-01-09 20:07:25,0.223694,5,7.781,-0.223694,0.0,0.0,5.9,3.7,0.1,1024,1024,1024,1024,0,0,0,0,94,4.504,64.58,99.409452,P-GPS,,30.3
54300,2026-01-09 20:07:25,0.0,5,7.781,0.0,0.0,0.0,5.9,3.8,0.2,1024,1024,1024,1024,0,0,0,0,94,4.504,64.58,99.409452,P-GPS,,30.3
54400,2026-01-09 20:07:25,0.0,5,7.781,0.0,0.0,0.0,5.9,3.7,0.3,1024,1024,1024,1024,0,0,0,0,94,4.504,64.58,99.409452,P-GPS,,30.3
54500,2026-01-09 20:07:25,0.0,5,7.781,0.0,0.0,0.0,5.9,4.3,0.5,1024,1024,1024,1024,0,0,0,0,94,4.504,64.58,99.409452,P-GPS,,30.3
54600,2026-01-09 20:07:25,0.0,5,7.781,0.0,0.0,0.0,5.9,4.4,0.2,1024,1024,1024,1024,0,0,0,0,94,4.504,64.58,99.409452,P-GPS,,30.3
54700,2026-01-09 20:07:25,0.0,5,7.781,0.0,0.0,0.0,5.9,4.6,0.6,1024,1024,1024,1024,0,0,0,0,94,4.504,64.58,99.409452,P-GPS,,30.3
54800,2026-01-09 20:07:25,0.0,5,7.777,0.0,0.0,0.0,6.0,4.0,0.4,1024,1024,1024,1024,0,0,0,0,94,4.566,64.58,99.409452,P-GPS,,30.3
54900,2026-01-09 20:07:25,0.0,5,7.777,0.0,0.0,0.0,6.0,4.1,0.1,1024,1024,1024,1024,0,0,0,0,94,4.566,64.58,99.409452,P-GPS,,30.3
55000,2026-01-09 20:07:25,0.0,5,7.777,0.0,0.0,0.0,6.0,4.1,-0.1,1024,1024,1024,1024,0,0,0,0,94,4.566,64.58,99.409452,P-GPS,,30.3
55100,2026-01-09 20:07:26,0.0,5,7.777,0.0,0.0,0.0,6.0,4.3,-0.2,1024,1024,1024,1024,0,0,0,0,94,4.566,64.58,99.409452,P-GPS,,30.3
55200,2026-01-09 20:07:26,0.0,5,7.777,0.0,0.0,0.0,6.0,4.2,-0.3,1024,1024,1024,1024,0,0,0,0,94,4.566,64.58,99.409452,P-GPS,,30.3
55300,2026-01-09 20:07:26,0.0,5,7.777,0.0,0.0,0.0,6.0,4.4,-0.4,1024,1024,1024,1024,0,0,0,0,94,4.566,64.58,99.409452,P-GPS,,30.3
55400,2026-01-09 20:07:26,0.223694,5,7.777,-0.223694,0.0,0.0,6.0,3.9,-0.4,1024,1024,1024,1024,0,0,0,0,94,4.566,64.58,99.409452,P-GPS,,30.3
55500,2026-01-09 20:07:26,0.223694,5,7.777,-0.223694,0.0,0.0,6.0,3.8,-0.3,1024,1024,1024,1024,0,0,0,0,94,4.566,64.58,99.409452,P-GPS,,30.3
55600,2026-01-09 20:07:26,0.0,5,7.777,0.0,0.0,0.0,6.0,3.5,-0.3,1024,1024,1024,1024,0,0,0,0,94,4.566,64.58,99.409452,P-GPS,,30.3
55700,2026-01-09 20:07:26,0.0,5,7.777,0.0,0.0,0.0,6.0,3.8,-0.1,1024,1024,1024,1024,0,0,0,0,94,4.566,64.58,99.409452,P-GPS,,30.3
55800,2026-01-09 20:07:26,0.0,5,7.777,0.0,0.0,0.0,6.0,3.9,-0.4,1024,1024,1024,1024,0,0,0,0,94,4.566,64.58,99.409452,P-GPS,,30.3
55900,2026-01-09 20:07:26,0.0,5,7.777,0.0,0.0,0.0,6.0,4.2,-0.4,1024,1024,1024,1024,0,0,0,0,94,4.566,64.58,99.409452,P-GPS,,30.3
56000,2026-01-09 20:07:27,0.0,5,7.78,0.0,0.0,0.0,6.0,4.1,-0.5,1024,1024,1024,1024,0,0,0,0,94,4.518,64.76,99.409452,P-GPS,,30.3
56100,2026-01-09 20:07:27,0.0,5,7.78,0.0,0.0,0.0,6.0,4.5,-0.4,1024,1024,1024,1024,0,0,0,0,94,4.518,64.76,99.409452,P-GPS,,30.3
56200,2026-01-09 20:07:27,0.0,5,7.78,0.0,0.0,0.0,6.0,4.3,-0.4,1024,1024,1024,1024,0,0,0,0,94,4.518,64.76,99.409452,P-GPS,,30.3
56300,2026-01-09 20:07:27,0.0,5,7.78,0.0,0.0,0.0,6.0,4.2,-0.3,1024,1024,1024,1024,0,0,0,0,94,4.518,64.76,99.409452,P-GPS,,30.3
56400,2026-01-09 20:07:27,0.0,5,7.78,0.0,0.0,0.0,6.1,4.3,-0.5,1024,1024,1024,1024,0,0,0,0,94,4.518,64.76,99.409452,P-GPS,,30.3
56500,2026-01-09 20:07:27,0.0,5,7.78,0.0,0.0,0.0,6.0,4.6,-0.8,1024,1024,1024,1024,0,0,0,0,94,4.518,64.76,99.409452,P-GPS,,30.3
56600,2026-01-09 20:07:27,0.0,5,7.78,0.0,0.0,0.0,5.9,4.6,-1.0,1024,1024,1024,1024,0,0,0,0,94,4.518,64.76,99.409452,P-GPS,,30.3
56700,2026-01-09 20:07:27,0.0,5,7.78,0.0,0.0,0.0,5.9,5.1,-0.6,1024,1024,1024,1024,0,0,0,0,94,4.518,64.76,99.409452,P-GPS,,30.3
56800,2026-01-09 20:07:27,0.0,5,7.78,0.0,0.0,0.0,5.9,5.4,-0.5,1024,1024,1024,1024,0,0,0,0,94,4.518,64.76,99.409452,P-GPS,,30.3
56900,2026-01-09 20:07:27,0.0,5,7.78,0.0,0.0,0.0,6.0,5.5,-0.1,1024,1024,1024,1024,0,0,0,0,94,4.518,64.76,99.409452,P-GPS,,30.3
57000,2026-01-09 20:07:28,0.0,5,7.78,0.0,0.0,0.0,6.0,5.6,-0.5,1024,1024,1024,1024,0,0,0,0,94,4.518,64.76,99.409452,P-GPS,,30.3
57100,2026-01-09 20:07:28,0.0,5,7.769,0.0,0.0,0.0,6.0,5.9,-0.5,1024,1024,1024,1024,0,0,0,0,94,4.59,64.76,99.409452,P-GPS,,30.3
57200,2026-01-09 20:07:28,0.0,5,7.769,0.0,0.0,0.0,6.0,5.8,-0.8,1024,1024,1024,1024,0,0,0,0,94,4.59,64.76,99.409452,P-GPS,,30.3
57300,2026-01-09 20:07:28,0.0,5,7.769,0.0,0.0,0.0,6.0,6.1,-0.8,1024,1024,1024,1024,0,0,0,0,94,4.59,64.76,99.409452,P-GPS,,30.3
57400,2026-01-09 20:07:28,0.0,5,7.769,0.0,0.0,0.0,5.9,6.1,-1.1,1024,1024,1024,1024,0,0,0,0,94,4.59,64.76,99.409452,P-GPS,,30.3
57500,2026-01-09 20:07:28,0.0,5,7.769,0.0,0.0,0.0,5.9,5.9,-1.0,1024,1024,1024,1024,0,0,0,0,94,4.59,64.76,99.409452,P-GPS,,30.3
57600,2026-01-09 20:07:28,0.0,5,7.769,0.0,0.0,0.0,6.0,5.4,-0.8,1024,1024,1024,1024,0,0,0,0,94,4.59,64.76,99.409452,P-GPS,,30.3
57700,2026-01-09 20:07:28,0.0,5,7.769,0.0,0.0,0.0,6.0,5.6,-0.7,1024,1024,1024,1024,0,0,0,0,94,4.59,64.76,99.409452,P-GPS,,30.3
57800,2026-01-09 20:07:28,0.0,5,7.769,0.0,0.0,0.0,6.0,5.2,-0.8,1024,1024,1024,1024,0,0,0,0,94,4.59,64.76,99.409452,P-GPS,,30.3
57900,2026-01-09 20:07:28,0.223694,5,7.769,-0.223694,0.0,0.0,6.0,5.3,-0.8,1024,1024,1024,1024,0,0,0,0,94,4.59,64.76,99.409452,P-GPS,,30.3
58000,2026-01-09 20:07:29,0.0,5,7.769,0.0,0.0,0.0,5.9,5.1,-0.7,1024,1024,1024,1024,0,0,0,0,94,4.59,64.76,99.409452,P-GPS,,30.3
58100,2026-01-09 20:07:29,0.0,5,7.769,0.0,0.0,0.0,5.9,5.3,-0.6,1024,1024,1024,1024,0,0,0,0,94,4.59,64.76,99.409452,P-GPS,,30.3
58200,2026-01-09 20:07:29,0.0,5,7.764,0.0,0.0,0.0,5.9,5.5,-0.7,1024,1024,1024,1024,0,0,0,0,94,4.82,64.76,99.409452,P-GPS,,30.3
58300,2026-01-09 20:07:29,0.0,5,7.764,0.0,0.0,0.0,5.9,5.8,-0.3,1024,1024,1024,1024,0,0,0,0,94,4.82,64.76,99.409452,P-GPS,,30.3
58400,2026-01-09 20:07:29,0.0,5,7.764,0.0,0.0,0.0,5.9,5.4,-0.6,1024,1024,1024,1024,0,0,0,0,94,4.82,64.76,99.409452,P-GPS,,30.3
58500,2026-01-09 20:07:29,0.0,5,7.764,0.0,0.0,0.0,5.9,5.6,-0.5,1024,1024,1024,1024,0,0,0,0,94,4.82,64.76,99.409452,P-GPS,,30.3
58600,2026-01-09 20:07:29,0.0,5,7.764,0.0,0.0,0.0,6.0,5.3,-0.4,1024,1024,1024,1024,0,0,0,0,94,4.82,64.76,99.409452,P-GPS,,30.3
58700,2026-01-09 20:07:29,0.0,5,7.764,0.0,0.0,0.0,5.9,5.4,-0.3,1024,1024,1024,1024,0,0,0,0,94,4.82,64.76,99.409452,P-GPS,,30.3
58800,2026-01-09 20:07:29,0.223694,5,7.764,-0.223694,0.0,0.0,6.0,4.9,-0.4,1024,1024,1024,1024,0,0,0,0,94,4.82,64.76,99.409452,P-GPS,,30.3
58900,2026-01-09 20:07:29,0.223694,5,7.764,-0.223694,0.0,0.0,5.9,5.1,-0.4,1024,1024,1024,1024,0,0,0,0,94,4.82,64.76,99.409452,P-GPS,,30.3
59000,2026-01-09 20:07:30,0.0,5,7.764,0.0,0.0,0.0,5.9,4.7,-0.6,1024,1024,1024,1024,0,0,0,0,94,4.82,64.76,99.409452,P-GPS,,30.3
59100,2026-01-09 20:07:30,0.0,5,7.764,0.0,0.0,0.0,5.9,4.6,-0.4,1024,1024,1024,1024,0,0,0,0,94,4.82,64.76,99.409452,P-GPS,,30.3
59200,2026-01-09 20:07:30,0.0,5,7.764,0.0,0.0,0.0,5.9,4.6,-0.5,1024,1024,1024,1024,0,0,0,0,94,4.82,64.76,99.409452,P-GPS,,30.3
59300,2026-01-09 20:07:30,0.0,5,7.764,0.0,0.0,0.0,5.9,4.6,-0.2,1024,1024,1024,1024,0,0,0,0,94,4.82,64.76,99.409452,P-GPS,,30.3
59400,2026-01-09 20:07:30,0.0,5,7.764,0.0,0.0,0.0,5.8,4.7,-0.2,1024,1024,1024,1024,0,0,0,0,94,4.82,64.76,99.409452,P-GPS,,30.3
59500,2026-01-09 20:07:30,0.0,5,7.764,0.0,0.0,0.0,5.8,4.7,-0.1,1024,1024,1024,1024,0,0,0,0,94,4.82,64.76,99.409452,P-GPS,,30.3
59600,2026-01-09 20:07:30,0.0,5,7.764,0.0,0.0,0.0,5.8,4.6,0.1,1024,1024,1024,1024,0,0,0,0,94,4.82,64.76,99.409452,P-GPS,,30.3
59700,2026-01-09 20:07:30,0.0,5,7.764,0.0,0.0,0.0,5.8,5.0,0.2,1024,1024,1024,1024,0,0,0,0,94,4.82,64.76,99.409452,P-GPS,,30.3
59800,2026-01-09 20:07:30,0.0,5,7.764,0.0,0.0,0.0,5.8,5.1,0.2,1024,1024,1024,1024,0,0,0,0,94,4.82,64.76,99.409452,P-GPS,,30.3
59900,2026-01-09 20:07:30,0.0,5,7.764,0.0,0.0,0.0,5.9,5.0,0.0,1024,1024,1024,1024,0,0,0,0,94,4.82,64.76,99.409452,P-GPS,,30.3
60000,2026-01-09 20:07:30,0.0,5,7.764,0.0,0.0,0.0,5.9,4.8,-0.1,1024,1024,1024,1024,0,0,0,0,94,4.82,64.76,99.409452,P-GPS,,30.3
60100,2026-01-09 20:07:31,0.0,5,7.764,0.0,0.0,0.0,5.9,4.9,-0.1,1024,1024,1024,1024,0,0,0,0,94,4.82,64.76,99.409452,P-GPS,,30.3
60200,2026-01-09 20:07:31,0.0,5,7.764,0.0,0.0,0.0,5.9,4.9,-0.3,1024,1024,1024,1024,0,0,0,0,94,4.82,64.76,99.409452,P-GPS,,30.3
60300,2026-01-09 20:07:31,0.0,5,7.764,0.0,0.0,0.0,5.9,4.9,-0.4,1024,1024,1024,1024,0,0,0,0,94,4.82,64.76,99.409452,P-GPS,,30.3
60400,2026-01-09 20:07:31,0.0,5,7.77,0.0,0.0,0.0,5.9,4.7,-0.3,1024,1024,1024,1024,0,0,0,0,94,4.792,64.76,99.409452,P-GPS,,30.3
60500,2026-01-09 20:07:31,0.0,5,7.77,0.0,0.0,0.0,5.8,5.0,-0.4,1024,1024,1024,1024,0,0,0,0,94,4.792,64.76,99.409452,P-GPS,,30.3
60600,2026-01-09 20:07:31,0.0,5,7.77,0.0,0.0,0.0,5.8,5.2,-0.2,1024,1024,1024,1024,0,0,0,0,94,4.792,64.76,99.409452,P-GPS,,30.3
60700,2026-01-09 20:07:31,0.0,5,7.77,0.0,0.0,0.0,5.9,5.3,0.0,1024,1024,1024,1024,0,0,0,0,94,4.792,64.76,99.409452,P-GPS,,30.3
60800,2026-01-09 20:07:31,0.0,5,7.77,0.0,0.0,0.0,5.9,5.1,-0.1,1024,1024,1024,1024,0,0,0,0,94,4.792,64.76,99.409452,P-GPS,,30.3
60900,2026-01-09 20:07:31,0.0,5,7.77,0.0,0.0,0.0,5.9,5.1,-0.2,1024,1024,1024,1024,0,0,0,0,94,4.792,64.76,99.409452,P-GPS,,30.3
61000,2026-01-09 20:07:32,0.0,5,7.77,0.0,0.0,0.0,5.9,4.9,-0.5,1024,1024,1024,1024,0,0,0,0,94,4.792,64.76,99.409452,P-GPS,,30.3
61100,2026-01-09 20:07:32,0.0,5,7.77,0.0,0.0,0.0,5.9,4.9,-0.5,1024,1024,1024,1024,0,0,0,0,94,4.792,64.76,99.737536,P-GPS,,30.4
61200,2026-01-09 20:07:32,0.0,5,7.77,0.0,0.0,0.0,5.9,4.6,-0.6,1024,1024,1024,1024,0,0,0,0,94,4.792,64.76,99.737536,P-GPS,,30.4
61300,2026-01-09 20:07:32,0.0,5,7.77,0.0,0.0,0.0,5.9,4.7,-0.5,1024,1024,1024,1024,0,0,0,0,94,4.792,64.76,99.737536,P-GPS,,30.4
61400,2026-01-09 20:07:32,0.0,5,7.77,0.0,0.0,0.0,5.8,4.7,-0.2,1024,1024,1024,1024,0,0,0,0,94,4.792,64.76,99.737536,P-GPS,,30.4
61500,2026-01-09 20:07:32,0.0,5,7.758,0.0,0.0,0.0,5.9,4.9,0.0,1024,1024,1024,1024,0,0,0,0,94,4.825,64.94,99.737536,P-GPS,,30.4
61600,2026-01-09 20:07:32,0.0,5,7.758,0.0,0.0,0.0,5.9,4.7,0.2,1024,1024,1024,1024,0,0,0,0,94,4.825,64.94,99.737536,P-GPS,,30.4
61700,2026-01-09 20:07:32,0.0,5,7.758,0.0,0.0,0.0,5.9,5.1,0.4,1024,1024,1024,1024,0,0,0,0,94,4.825,64.94,99.737536,P-GPS,,30.4
61800,2026-01-09 20:07:32,0.0,5,7.758,0.0,0.0,0.0,5.9,5.3,0.5,1024,1024,1024,1024,0,0,0,0,94,4.825,64.94,99.737536,P-GPS,,30.4
61900,2026-01-09 20:07:32,0.0,5,7.758,0.0,0.0,0.0,5.8,5.9,0.5,1024,1024,1024,1024,0,0,0,0,94,4.825,64.94,99.737536,P-GPS,,30.4
62000,2026-01-09 20:07:32,0.0,5,7.758,0.0,0.0,0.0,5.9,5.9,0.4,1024,1024,1024,1024,0,0,0,0,94,4.825,64.94,99.737536,P-GPS,,30.4
62100,2026-01-09 20:07:33,0.0,5,7.758,0.0,0.0,0.0,5.9,6.3,0.6,1024,1024,1024,1024,0,0,0,0,94,4.825,64.94,100.06562,P-GPS,,30.5
62200,2026-01-09 20:07:33,0.0,5,7.758,0.0,0.0,0.0,5.9,6.7,0.4,1024,1024,1024,1024,0,0,0,0,94,4.825,64.94,100.06562,P-GPS,,30.5
62300,2026-01-09 20:07:33,0.0,5,7.758,0.0,0.0,0.0,5.8,7.1,0.2,1024,1024,1024,1024,0,0,0,0,94,4.825,64.94,100.06562,P-GPS,,30.5
62400,2026-01-09 20:07:33,0.0,5,7.758,0.0,0.0,0.0,5.8,6.9,0.0,1024,1024,1024,1024,0,0,0,0,94,4.825,64.94,100.06562,P-GPS,,30.5
62500,2026-01-09 20:07:33,0.0,5,7.758,0.0,0.0,0.0,5.8,6.9,0.0,1024,1024,1024,1024,0,0,0,0,94,4.825,64.94,100.06562,P-GPS,,30.5
62600,2026-01-09 20:07:33,0.0,5,7.75,0.0,0.0,0.0,5.9,6.6,0.1,1024,1024,1024,1024,0,0,0,0,94,4.907,64.94,100.06562,P-GPS,,30.5
62700,2026-01-09 20:07:33,0.0,5,7.75,0.0,0.0,0.0,5.9,6.4,-0.1,1024,1024,1024,1024,0,0,0,0,94,4.907,64.94,100.06562,P-GPS,,30.5
62800,2026-01-09 20:07:33,0.0,5,7.75,0.0,0.0,0.0,6.0,6.2,-0.2,1024,1024,1024,1024,0,0,0,0,94,4.907,64.94,100.06562,P-GPS,,30.5
62900,2026-01-09 20:07:33,0.0,5,7.75,0.0,0.0,0.0,6.0,6.5,-0.1,1024,1024,1024,1024,0,0,0,0,94,4.907,64.94,100.06562,P-GPS,,30.5
63000,2026-01-09 20:07:33,0.0,5,7.75,0.0,0.0,0.0,6.0,6.5,-0.3,1024,1024,1024,1024,0,0,0,0,94,4.907,64.94,100.393704,P-GPS,,30.6
63100,2026-01-09 20:07:34,0.0,5,7.75,0.0,0.0,0.0,5.9,6.7,0.0,1024,1024,1024,1024,0,0,0,0,94,4.907,64.94,100.393704,P-GPS,,30.6
63200,2026-01-09 20:07:34,0.0,5,7.75,0.0,0.0,0.0,5.9,6.3,-0.1,1024,1024,1024,1024,0,0,0,0,94,4.907,64.94,100.393704,P-GPS,,30.6
63300,2026-01-09 20:07:34,0.0,5,7.75,0.0,0.0,0.0,5.9,6.1,0.0,1024,1024,1024,1024,0,0,0,0,94,4.907,64.94,100.393704,P-GPS,,30.6
63400,2026-01-09 20:07:34,0.0,5,7.75,0.0,0.0,0.0,5.9,6.1,0.0,1024,1024,1024,1024,0,0,0,0,94,4.907,64.94,100.393704,P-GPS,,30.6
63500,2026-01-09 20:07:34,0.0,5,7.75,0.0,0.0,0.0,5.9,6.0,0.1,1024,1024,1024,1024,0,0,0,0,94,4.907,64.94,100.393704,P-GPS,,30.6
63600,2026-01-09 20:07:34,0.0,5,7.75,0.0,0.0,0.0,5.9,6.1,0.3,1024,1024,1024,1024,0,0,0,0,94,4.907,64.94,100.393704,P-GPS,,30.6
63700,2026-01-09 20:07:34,0.0,5,7.753,0.0,0.0,0.0,5.9,5.7,0.6,1024,1024,1024,1024,0,0,0,0,94,4.868,64.94,100.393704,P-GPS,,30.6
63800,2026-01-09 20:07:34,0.0,5,7.753,0.0,0.0,0.0,5.9,5.4,0.8,1024,1024,1024,1024,0,0,0,0,94,4.868,64.94,100.393704,P-GPS,,30.6
63900,2026-01-09 20:07:34,0.0,5,7.753,0.0,0.0,0.0,6.0,5.4,0.6,1024,1024,1024,1024,0,0,0,0,94,4.868,64.94,100.393704,P-GPS,,30.6
64000,2026-01-09 20:07:35,0.0,5,7.753,0.0,0.0,0.0,6.0,5.3,0.8,1024,1024,1024,1024,0,0,0,0,94,4.868,64.94,100.393704,P-GPS,,30.6
64100,2026-01-09 20:07:35,0.0,5,7.753,0.0,0.0,0.0,5.9,5.6,0.7,1024,1024,1024,1024,0,0,0,0,94,4.868,64.94,100.393704,P-GPS,,30.6
64200,2026-01-09 20:07:35,0.0,5,7.753,0.0,0.0,0.0,5.9,6.0,1.0,1024,1024,1024,1024,0,0,0,0,94,4.868,64.94,100.393704,P-GPS,,30.6
64300,2026-01-09 20:07:35,0.0,5,7.753,0.0,0.0,0.0,5.9,5.9,1.1,1024,1024,1024,1024,0,0,0,0,94,4.868,64.94,100.393704,P-GPS,,30.6
64400,2026-01-09 20:07:35,0.0,5,7.753,0.0,0.0,0.0,5.9,5.4,1.3,1024,1024,1024,1024,0,0,0,0,94,4.868,64.94,100.06562,P-GPS,,30.5
64500,2026-01-09 20:07:35,0.0,5,7.753,0.0,0.0,0.0,5.9,5.2,1.1,1024,1024,1024,1024,0,0,0,0,94,4.868,64.94,100.06562,P-GPS,,30.5
64600,2026-01-09 20:07:35,0.0,5,7.753,0.0,0.0,0.0,5.9,4.9,0.9,1024,1024,1024,1024,0,0,0,0,94,4.868,64.94,100.06562,P-GPS,,30.5
64700,2026-01-09 20:07:35,0.0,5,7.753,0.0,0.0,0.0,5.9,5.0,1.0,1024,1024,1024,1024,0,0,0,0,94,4.868,64.94,100.06562,P-GPS,,30.5
64800,2026-01-09 20:07:35,0.0,5,7.753,0.0,0.0,0.0,5.9,5.2,1.1,1024,1024,1024,1024,0,0,0,0,94,4.868,64.94,100.06562,P-GPS,,30.5
64900,2026-01-09 20:07:35,0.0,5,7.771,0.0,0.0,0.0,5.9,5.1,0.9,1024,1024,1024,1024,0,0,0,0,93,4.57,64.94,100.06562,P-GPS,,30.5
65000,2026-01-09 20:07:35,0.0,5,7.771,0.0,0.0,0.0,5.9,5.0,1.3,1024,1024,1024,1024,0,0,0,0,93,4.57,64.94,100.06562,P-GPS,,30.5
65100,2026-01-09 20:07:36,0.0,5,7.771,0.0,0.0,0.0,5.9,4.9,1.2,1024,1024,1024,1024,0,0,0,0,93,4.57,64.94,100.06562,P-GPS,,30.5
65200,2026-01-09 20:07:36,0.0,5,7.771,0.0,0.0,0.0,5.9,5.5,0.7,1024,1024,1024,1024,0,0,0,0,93,4.57,64.94,100.06562,P-GPS,,30.5
65300,2026-01-09 20:07:36,0.0,5,7.771,0.0,0.0,0.0,5.9,5.6,0.6,1024,1024,1024,1024,0,0,0,0,93,4.57,64.94,100.06562,P-GPS,,30.5
65400,2026-01-09 20:07:36,0.0,5,7.771,0.0,0.0,0.0,6.0,5.7,0.6,1024,1024,1024,1024,0,0,0,0,93,4.57,64.94,100.06562,P-GPS,,30.5
65500,2026-01-09 20:07:36,0.0,5,7.771,0.0,0.0,0.0,5.9,5.4,0.6,1024,1024,1024,1024,0,0,0,0,93,4.57,64.94,100.06562,P-GPS,,30.5
65600,2026-01-09 20:07:36,0.0,5,7.771,0.0,0.0,0.0,6.0,5.2,0.3,1024,1024,1024,1024,0,0,0,0,93,4.57,64.94,100.06562,P-GPS,,30.5
65700,2026-01-09 20:07:36,0.0,5,7.771,0.0,0.0,0.0,6.0,5.3,-0.6,1024,1024,1024,1024,0,0,0,0,93,4.57,64.94,100.06562,P-GPS,,30.5
65800,2026-01-09 20:07:36,0.0,5,7.771,0.0,0.0,0.0,5.9,5.4,-0.9,1024,1024,1024,1024,0,0,0,0,93,4.57,64.94,100.06562,P-GPS,,30.5
65900,2026-01-09 20:07:36,0.0,5,7.771,0.0,0.0,0.0,6.0,5.4,-1.0,1024,1024,1024,1024,0,0,0,0,93,4.57,64.94,100.06562,P-GPS,,30.5
66000,2026-01-09 20:07:36,0.0,5,7.762,0.0,0.0,0.0,6.0,5.6,-1.2,1024,1024,1024,1024,0,0,0,0,93,4.8,64.94,100.06562,P-GPS,,30.5
66100,2026-01-09 20:07:37,0.0,5,7.762,0.0,0.0,0.0,5.9,5.6,-1.3,1024,1024,1024,1024,0,0,0,0,93,4.8,64.94,100.06562,P-GPS,,30.5
66200,2026-01-09 20:07:37,0.0,5,7.762,0.0,0.0,0.0,5.9,5.4,-0.8,1024,1024,1024,1024,0,0,0,0,93,4.8,64.94,100.06562,P-GPS,,30.5
66300,2026-01-09 20:07:37,0.0,5,7.762,0.0,0.0,0.0,6.0,5.1,-0.5,1024,1024,1024,1024,0,0,0,0,93,4.8,64.94,100.06562,P-GPS,,30.5
66400,2026-01-09 20:07:37,0.0,5,7.762,0.0,0.0,0.0,6.0,4.8,-0.7,1024,1024,1024,1024,0,0,0,0,93,4.8,64.94,100.06562,P-GPS,,30.5
66500,2026-01-09 20:07:37,0.0,5,7.762,0.0,0.0,0.0,5.9,4.5,-1.0,1024,1024,1024,1024,0,0,0,0,93,4.8,64.94,100.06562,P-GPS,,30.5
66600,2026-01-09 20:07:37,0.0,5,7.762,0.0,0.0,0.0,5.9,4.8,-0.7,1024,1024,1024,1024,0,0,0,0,93,4.8,64.94,100.06562,P-GPS,,30.5
66700,2026-01-09 20:07:37,0.0,5,7.762,0.0,0.0,0.0,5.9,5.3,-0.9,1024,1024,1024,1024,0,0,0,0,93,4.8,64.94,100.06562,P-GPS,,30.5
66800,2026-01-09 20:07:37,0.0,5,7.762,0.0,0.0,0.0,5.9,5.8,-0.9,1024,1024,1024,1024,0,0,0,0,93,4.8,64.94,100.06562,P-GPS,,30.5
66900,2026-01-09 20:07:37,0.0,5,7.762,0.0,0.0,0.0,5.9,6.0,-0.6,1024,1024,1024,1024,0,0,0,0,93,4.8,64.94,100.06562,P-GPS,,30.5
67000,2026-01-09 20:07:38,0.0,5,7.762,0.0,0.0,0.0,6.0,6.2,0.0,1024,1024,1024,1024,0,0,0,0,93,4.8,64.94,100.06562,P-GPS,,30.5
67100,2026-01-09 20:07:38,0.0,5,7.781,0.0,0.0,0.0,5.9,6.2,0.6,1024,1024,1024,1024,0,0,0,0,93,4.514,65.12,100.06562,P-GPS,,30.5
67200,2026-01-09 20:07:38,0.0,5,7.781,0.0,0.0,0.0,5.9,6.2,1.0,1024,1024,1024,1024,0,0,0,0,93,4.514,65.12,100.06562,P-GPS,,30.5
67300,2026-01-09 20:07:38,0.0,5,7.781,0.0,0.0,0.0,5.9,6.0,1.2,1024,1024,1024,1024,0,0,0,0,93,4.514,65.12,100.06562,P-GPS,,30.5
67400,2026-01-09 20:07:38,0.0,5,7.781,0.0,0.0,0.0,5.9,6.1,1.4,1024,1024,1024,1024,0,0,0,0,93,4.514,65.12,100.06562,P-GPS,,30.5
67500,2026-01-09 20:07:38,0.0,5,7.781,0.0,0.0,0.0,5.9,6.3,1.1,1024,1024,1024,1024,0,0,0,0,93,4.514,65.12,100.06562,P-GPS,,30.5
67600,2026-01-09 20:07:38,0.0,5,7.781,0.0,0.0,0.0,5.8,6.9,1.1,1024,1024,1024,1024,0,0,0,0,93,4.514,65.12,100.06562,P-GPS,,30.5
67700,2026-01-09 20:07:38,0.0,5,7.781,0.0,0.0,0.0,5.8,6.3,1.0,1024,1024,1024,1024,0,0,0,0,93,4.514,65.12,100.06562,P-GPS,,30.5
67800,2026-01-09 20:07:38,0.0,5,7.781,0.0,0.0,0.0,5.8,6.3,1.1,1024,1024,1024,1024,0,0,0,0,93,4.514,65.12,100.06562,P-GPS,,30.5
67900,2026-01-09 20:07:38,0.0,5,7.781,0.0,0.0,0.0,5.8,6.3,1.4,1024,1024,1024,1024,0,0,0,0,93,4.514,65.12,100.06562,P-GPS,,30.5
68000,2026-01-09 20:07:38,0.0,5,7.781,0.0,0.0,0.0,5.9,6.6,1.6,1024,1024,1024,1024,0,0,0,0,93,4.514,65.12,100.06562,P-GPS,,30.5
68100,2026-01-09 20:07:39,0.0,5,7.781,0.0,0.0,0.0,5.9,6.9,1.5,1024,1024,1024,1024,0,0,0,0,93,4.514,65.12,100.06562,P-GPS,,30.5
68200,2026-01-09 20:07:39,0.0,5,7.772,0.0,0.0,0.0,5.9,6.9,1.5,1024,1024,1024,1024,0,0,0,0,93,4.531,65.12,100.06562,P-GPS,,30.5
68300,2026-01-09 20:07:39,0.0,5,7.772,0.0,0.0,0.0,5.8,6.9,1.6,1024,1024,1024,1024,0,0,0,0,93,4.531,65.12,100.393704,P-GPS,,30.6
68400,2026-01-09 20:07:39,0.0,5,7.772,0.0,0.0,0.0,5.9,6.4,2.4,1024,1024,1024,1024,0,0,0,0,93,4.531,65.12,100.393704,P-GPS,,30.6
68500,2026-01-09 20:07:39,0.0,5,7.772,0.0,0.0,0.0,5.9,6.3,2.3,1024,1024,1024,1024,0,0,0,0,93,4.531,65.12,100.393704,P-GPS,,30.6
68600,2026-01-09 20:07:39,0.0,5,7.772,0.0,0.0,0.0,5.9,6.2,2.0,1024,1024,1024,1024,0,0,0,0,93,4.531,65.12,100.393704,P-GPS,,30.6
68700,2026-01-09 20:07:39,0.0,5,7.772,0.0,0.0,0.0,5.9,6.0,1.8,1024,1024,1024,1024,0,0,0,0,93,4.531,65.12,100.393704,P-GPS,,30.6
68800,2026-01-09 20:07:39,0.0,5,7.772,0.0,0.0,0.0,6.0,5.8,1.9,1024,1024,1024,1024,0,0,0,0,93,4.531,65.12,100.06562,P-GPS,,30.5
68900,2026-01-09 20:07:39,0.0,5,7.772,0.0,0.0,0.0,6.0,5.4,1.8,1024,1024,1024,1024,0,0,0,0,93,4.531,65.12,100.06562,P-GPS,,30.5
69000,2026-01-09 20:07:40,0.0,5,7.772,0.0,0.0,0.0,5.9,5.5,1.7,1024,1024,1024,1024,0,0,0,0,93,4.531,65.12,100.06562,P-GPS,,30.5
69100,2026-01-09 20:07:40,0.0,5,7.772,0.0,0.0,0.0,5.9,5.5,1.4,1024,1024,1024,1024,0,0,0,0,93,4.531,65.12,100.06562,P-GPS,,30.5
69200,2026-01-09 20:07:40,0.0,5,7.772,0.0,0.0,0.0,5.9,5.3,1.2,1024,1024,1024,1024,0,0,0,0,93,4.531,65.12,100.06562,P-GPS,,30.5
69300,2026-01-09 20:07:40,0.0,5,7.772,0.0,0.0,0.0,5.8,5.3,1.0,1024,1024,1024,1024,0,0,0,0,93,4.531,65.12,100.06562,P-GPS,,30.5
69400,2026-01-09 20:07:40,0.0,5,7.772,0.0,0.0,0.0,5.9,5.1,1.6,1024,1024,1024,1024,0,0,0,0,93,4.531,65.12,100.06562,P-GPS,,30.5
69500,2026-01-09 20:07:40,0.0,5,7.772,0.0,0.0,0.0,5.9,5.0,1.8,1024,1024,1024,1024,0,0,0,0,93,4.531,65.12,100.06562,P-GPS,,30.5
69600,2026-01-09 20:07:40,0.0,5,7.772,0.0,0.0,0.0,5.9,4.9,2.0,1024,1024,1319,1024,0,0,45,0,93,4.531,65.12,100.06562,P-GPS,,30.5
69700,2026-01-09 20:07:40,0.0,5,7.772,0.0,0.0,0.0,5.9,4.4,2.4,1024,1024,1684,1024,0,0,100,0,93,4.531,65.12,100.06562,P-GPS,,30.5
69800,2026-01-09 20:07:40,0.0,5,7.772,0.0,0.0,0.0,5.9,4.5,2.3,1024,1024,1684,1024,0,0,100,0,93,4.531,65.12,100.06562,P-GPS,,30.5
