time(millisecond),timestamp,speed(mph),gpslevel,voltage(v),xSpeed(mph),ySpeed(mph),zSpeed(mph),compass_heading(degrees),pitch(degrees),roll(degrees),rc_elevator,rc_aileron,rc_throttle,rc_rudder,rc_elevator(percent),rc_aileron(percent),rc_throttle(percent),rc_rudder(percent),battery_percent,current(A),battery_temperature(f),ascent(feet),flycState,message,height_above_takeoff(meters)
81700,2026-01-09 12:38:06,0.0,5,7.609,0.0,0.0,-4.250186,25.4,-3.1,-8.4,1024,1024,1684,1024,0,0,100,0,93,6.958,65.12,157.808404,P-GPS,,48.1
81800,2026-01-09 12:38:07,0.0,5,7.635,0.0,0.0,-4.47388,25.3,-3.0,-8.2,1024,1024,1684,1024,0,0,100,0,93,6.439,65.48,158.464572,P-GPS,,48.3
81900,2026-01-09 12:38:07,0.0,5,7.635,0.0,0.0,-4.47388,25.3,-3.2,-8.2,1024,1024,1684,1024,0,0,100,0,93,6.439,65.48,159.12074,P-GPS,,48.5
82000,2026-01-09 12:38:07,0.0,5,7.635,0.0,0.0,-4.47388,25.1,-2.6,-8.5,1024,1024,1684,1024,0,0,100,0,93,6.439,65.48,159.776908,P-GPS,,48.7
82100,2026-01-09 12:38:07,0.0,5,7.635,0.0,0.0,-4.47388,24.8,-2.1,-8.5,1024,1024,1684,1024,0,0,100,0,93,6.439,65.48,160.433076,P-GPS,,48.9
82200,2026-01-09 12:38:07,0.0,5,7.635,0.0,0.0,-4.47388,25.2,-2.9,-7.6,1024,1024,1684,1024,0,0,100,0,93,6.439,65.48,161.089244,P-GPS,,49.1
82300,2026-01-09 12:38:07,0.0,5,7.635,0.0,0.0,-4.47388,25.0,-2.7,-8.1,1024,1024,1684,1024,0,0,100,0,93,6.439,65.48,161.745412,P-GPS,,49.3
82400,2026-01-09 12:38:07,0.0,5,7.635,0.0,0.0,-4.250186,24.9,-2.7,-8.0,1024,1024,1684,1024,0,0,100,0,93,6.439,65.48,162.40158,P-GPS,,49.5
82500,2026-01-09 12:38:07,0.0,5,7.635,0.0,0.0,-4.250186,24.9,-2.1,-7.6,1024,1024,1684,1024,0,0,100,0,93,6.439,65.48,163.057748,P-GPS,,49.7
82600,2026-01-09 12:38:07,0.0,5,7.635,0.0,0.0,-4.47388,24.8,-0.9,-7.1,1024,1024,1024,1024,0,0,0,0,93,6.439,65.48,163.713916,P-GPS,,49.9
82700,2026-01-09 12:38:07,0.0,5,7.635,0.0,0.0,-4.47388,24.7,-1.9,-7.2,1024,1024,1024,1024,0,0,0,0,93,6.439,65.48,164.370084,P-GPS,,50.1
82800,2026-01-09 12:38:07,0.0,5,7.635,0.0,0.0,-4.026492,25.0,-2.9,-8.1,1024,1024,1024,1024,0,0,0,0,93,6.439,65.48,165.026252,P-GPS,,50.3
82900,2026-01-09 12:38:08,0.0,5,7.655,0.0,0.0,-3.35541,25.2,-3.4,-8.8,1024,1024,1024,1024,0,0,0,0,93,5.828,65.48,165.68242,P-GPS,,50.5
83000,2026-01-09 12:38:08,0.0,5,7.655,0.0,0.0,-2.684328,25.3,-3.7,-9.4,1024,1024,1024,1024,0,0,0,0,93,5.828,65.48,166.010504,P-GPS,,50.6
83100,2026-01-09 12:38:08,0.0,5,7.655,0.0,0.0,-1.789552,25.1,-3.7,-10.3,1024,1024,1024,1024,0,0,0,0,93,5.828,65.48,166.338588,P-GPS,,50.7
83200,2026-01-09 12:38:08,0.0,5,7.655,0.0,0.0,-1.11847,25.3,-3.6,-10.3,1024,1024,1024,1024,0,0,0,0,93,5.828,65.48,166.666672,P-GPS,,50.8
83300,2026-01-09 12:38:08,0.0,5,7.655,0.0,0.0,-0.447388,25.4,-3.8,-9.8,1024,1024,1024,1024,0,0,0,0,93,5.828,65.48,166.666672,P-GPS,,50.8
83400,2026-01-09 12:38:08,0.0,5,7.655,0.0,0.0,-0.223694,25.5,-3.4,-9.5,1024,1024,1024,1024,0,0,0,0,93,5.828,65.48,166.666672,P-GPS,,50.8
83500,2026-01-09 12:38:08,0.0,5,7.655,0.0,0.0,-0.223694,25.4,-3.4,-9.5,1024,1024,1024,1024,0,0,0,0,93,5.828,65.48,166.994756,P-GPS,,50.9
83600,2026-01-09 12:38:08,0.0,5,7.655,0.0,0.0,0.0,25.4,-3.2,-9.4,1024,1024,1024,1024,0,0,0,0,93,5.828,65.48,166.994756,P-GPS,,50.9
83700,2026-01-09 12:38:08,0.0,5,7.655,0.0,0.0,0.0,25.5,-3.7,-9.1,1024,1024,1024,1024,0,0,0,0,93,5.828,65.48,166.994756,P-GPS,,50.9
83800,2026-01-09 12:38:09,0.0,5,7.655,0.0,0.0,0.0,25.4,-3.6,-9.2,1024,1024,1024,1024,0,0,0,0,93,5.828,65.48,166.994756,P-GPS,,50.9
83900,2026-01-09 12:38:09,0.0,5,7.655,0.0,0.0,0.0,25.3,-4.0,-9.1,1024,1024,1024,1024,0,0,0,0,93,5.828,65.48,166.994756,P-GPS,,50.9
84000,2026-01-09 12:38:09,0.0,5,7.734,0.0,0.0,0.0,25.1,-3.4,-8.7,1024,1024,1024,1024,0,0,0,0,93,4.574,65.48,166.994756,P-GPS,,50.9
84100,2026-01-09 12:38:09,0.0,5,7.734,0.0,0.0,0.0,24.9,-3.0,-8.3,1024,1024,1024,1024,0,0,0,0,93,4.574,65.48,166.994756,P-GPS,,50.9
84200,2026-01-09 12:38:09,0.0,5,7.734,0.0,0.0,0.0,25.1,-3.3,-8.0,1024,1024,1024,1024,0,0,0,0,93,4.574,65.48,166.994756,P-GPS,,50.9
84300,2026-01-09 12:38:09,0.0,5,7.734,0.0,0.0,0.0,25.3,-3.4,-8.0,1024,1024,1024,1024,0,0,0,0,93,4.574,65.48,166.994756,P-GPS,,50.9
84400,2026-01-09 12:38:09,0.0,5,7.734,0.0,0.0,0.0,25.4,-3.9,-7.9,1024,1024,1024,1024,0,0,0,0,93,4.574,65.48,166.994756,P-GPS,,50.9
84500,2026-01-09 12:38:09,0.0,5,7.734,0.0,0.0,0.0,25.5,-3.7,-7.8,1024,1024,1024,1024,0,0,0,0,93,4.574,65.48,167.32284,P-GPS,,51.0
84600,2026-01-09 12:38:09,0.0,5,7.734,0.0,0.0,0.0,25.6,-3.4,-8.2,1024,1024,1024,1024,0,0,0,0,93,4.574,65.48,167.32284,P-GPS,,51.0
84700,2026-01-09 12:38:09,0.0,5,7.734,0.0,0.0,0.0,25.4,-2.8,-8.7,1024,1024,1024,1024,0,0,0,0,93,4.574,65.48,167.32284,P-GPS,,51.0
84800,2026-01-09 12:38:09,0.0,5,7.734,0.0,0.0,0.0,25.5,-3.3,-8.8,1024,1024,1024,1024,0,0,0,0,93,4.574,65.48,167.650924,P-GPS,,51.1
84900,2026-01-09 12:38:10,0.0,5,7.734,0.0,0.0,0.0,25.4,-2.9,-9.5,1024,1024,1024,1024,0,0,0,0,93,4.574,65.48,167.650924,P-GPS,,51.1
85000,2026-01-09 12:38:10,0.0,5,7.734,0.0,0.0,0.0,25.4,-2.6,-9.5,1024,1024,1024,1024,0,0,0,0,93,4.574,65.48,167.650924,P-GPS,,51.1
85100,2026-01-09 12:38:10,0.0,5,7.748,0.0,0.0,0.0,25.3,-2.3,-9.3,1024,1024,1024,1024,0,0,0,0,93,4.729,65.66,167.650924,P-GPS,,51.1
85200,2026-01-09 12:38:10,0.0,5,7.748,0.0,0.0,0.0,25.2,-2.3,-9.4,1024,1024,1024,1024,0,0,0,0,93,4.729,65.66,167.650924,P-GPS,,51.1
85300,2026-01-09 12:38:10,0.0,5,7.748,0.0,0.0,0.0,25.3,-2.6,-9.0,1024,1024,1024,1024,0,0,0,0,93,4.729,65.66,167.650924,P-GPS,,51.1
85400,2026-01-09 12:38:10,0.0,5,7.748,0.0,0.0,0.0,25.4,-2.7,-9.3,1024,1024,1024,1024,0,0,0,0,93,4.729,65.66,167.650924,P-GPS,,51.1
85500,2026-01-09 12:38:10,0.0,5,7.748,0.0,0.0,0.223694,25.2,-2.5,-9.2,1024,1024,1024,1024,0,0,0,0,93,4.729,65.66,167.650924,P-GPS,,51.1
85600,2026-01-09 12:38:10,0.0,5,7.748,0.0,0.0,0.223694,25.3,-2.4,-9.3,1024,1024,1024,1024,0,0,0,0,93,4.729,65.66,167.650924,P-GPS,,51.1
85700,2026-01-09 12:38:10,0.0,5,7.748,0.0,0.0,0.0,25.3,-2.3,-9.1,1024,1024,1024,1024,0,0,0,0,93,4.729,65.66,167.650924,P-GPS,,51.1
85800,2026-01-09 12:38:10,0.0,5,7.748,0.0,0.0,0.0,25.4,-2.1,-9.2,1024,1024,1024,1024,0,0,0,0,93,4.729,65.66,167.650924,P-GPS,,51.1
85900,2026-01-09 12:38:11,0.0,5,7.748,0.0,0.0,0.0,25.8,-3.7,-8.9,1024,1024,1024,1024,0,0,0,0,93,4.729,65.66,167.650924,P-GPS,,51.1
86000,2026-01-09 12:38:11,0.0,5,7.748,0.0,0.0,0.0,25.7,-3.4,-8.9,1024,1024,1024,1024,0,0,0,0,93,4.729,65.66,167.979008,P-GPS,,51.2
86100,2026-01-09 12:38:11,0.0,5,7.748,0.0,0.0,0.0,25.9,-4.5,-9.1,1024,1024,1024,1024,0,0,0,0,93,4.729,65.66,167.979008,P-GPS,,51.2
86200,2026-01-09 12:38:11,0.0,5,7.748,0.0,0.0,0.0,26.0,-5.3,-8.0,1024,1024,1024,1024,0,0,0,0,93,4.729,65.66,168.307092,P-GPS,,51.3
86300,2026-01-09 12:38:11,0.0,5,7.772,0.0,0.0,0.0,25.6,-4.3,-8.1,1024,1024,1024,1024,0,0,0,0,93,4.515,65.66,168.307092,P-GPS,,51.3
86400,2026-01-09 12:38:11,0.0,5,7.772,0.0,0.0,0.0,25.5,-4.4,-8.4,1024,1024,1024,1024,0,0,0,0,93,4.515,65.66,168.307092,P-GPS,,51.3
86500,2026-01-09 12:38:11,0.223694,5,7.772,0.0,-0.223694,0.0,25.4,-4.1,-7.9,1024,1024,1024,1024,0,0,0,0,93,4.515,65.66,168.307092,P-GPS,,51.3
86600,2026-01-09 12:38:11,0.223694,5,7.772,0.0,-0.223694,0.223694,25.6,-4.9,-6.6,1024,1024,1024,1024,0,0,0,0,93,4.515,65.66,167.979008,P-GPS,,51.2
86700,2026-01-09 12:38:11,0.0,5,7.772,0.0,0.0,0.223694,25.4,-5.4,-5.9,1024,1024,1024,1024,0,0,0,0,93,4.515,65.66,167.979008,P-GPS,,51.2
86800,2026-01-09 12:38:11,0.0,5,7.772,0.0,0.0,0.223694,25.4,-5.4,-5.3,1024,1024,1024,1024,0,0,0,0,93,4.515,65.66,167.979008,P-GPS,,51.2
86900,2026-01-09 12:38:12,0.0,5,7.772,0.0,0.0,0.223694,25.1,-4.6,-6.2,1024,1024,1024,1024,0,0,0,0,93,4.515,65.66,167.979008,P-GPS,,51.2
87000,2026-01-09 12:38:12,0.0,5,7.772,0.0,0.0,0.223694,25.0,-3.3,-6.9,1024,1024,1024,1024,0,0,0,0,93,4.515,65.66,167.650924,P-GPS,,51.1
87100,2026-01-09 12:38:12,0.0,5,7.772,0.0,0.0,0.223694,25.0,-2.5,-7.4,1024,1024,1024,1024,0,0,0,0,93,4.515,65.66,167.650924,P-GPS,,51.1
87200,2026-01-09 12:38:12,0.0,5,7.772,0.0,0.0,0.223694,24.8,-2.0,-8.2,1024,1024,1024,1024,0,0,0,0,93,4.515,65.66,167.650924,P-GPS,,51.1
87300,2026-01-09 12:38:12,0.0,5,7.772,0.0,0.0,0.223694,24.3,-3.1,-8.3,1024,1024,1024,1024,0,0,0,0,93,4.515,65.66,167.650924,P-GPS,,51.1
87400,2026-01-09 12:38:12,0.0,5,7.739,0.0,0.0,0.223694,24.6,-3.2,-8.1,1024,1024,1024,1024,0,0,0,0,93,4.662,65.66,167.650924,P-GPS,,51.1
87500,2026-01-09 12:38:12,0.223694,5,7.739,0.0,-0.223694,0.0,25.0,-4.5,-6.8,1024,1024,1024,1024,0,0,0,0,93,4.662,65.66,167.650924,P-GPS,,51.1
87600,2026-01-09 12:38:12,0.223694,5,7.739,0.0,-0.223694,0.0,25.1,-5.3,-5.8,1024,1024,1024,1024,0,0,0,0,93,4.662,65.66,167.650924,P-GPS,,51.1
87700,2026-01-09 12:38:12,0.223694,5,7.739,0.0,-0.223694,0.0,25.0,-5.4,-4.6,1024,1024,1024,1024,0,0,0,0,93,4.662,65.66,167.650924,P-GPS,,51.1
87800,2026-01-09 12:38:12,0.223694,5,7.739,0.0,-0.223694,0.0,25.0,-5.8,-4.5,1024,1024,1024,1024,0,0,0,0,93,4.662,65.66,167.650924,P-GPS,,51.1
87900,2026-01-09 12:38:13,0.223694,5,7.739,0.0,-0.223694,0.0,24.6,-5.9,-3.9,1024,1024,1024,1024,0,0,0,0,93,4.662,65.66,167.650924,P-GPS,,51.1
88000,2026-01-09 12:38:13,0.223694,5,7.739,0.0,-0.223694,0.0,25.0,-6.5,-4.2,1024,1024,1024,1024,0,0,0,0,93,4.662,65.66,167.650924,P-GPS,,51.1
88100,2026-01-09 12:38:13,0.223694,5,7.739,0.0,-0.223694,0.0,25.3,-7.4,-4.3,1024,1024,1024,1024,0,0,0,0,93,4.662,65.66,167.650924,P-GPS,,51.1
88200,2026-01-09 12:38:13,0.0,5,7.739,0.0,0.0,0.0,25.4,-7.8,-4.3,1024,1024,1024,1024,0,0,0,0,93,4.662,65.66,167.979008,P-GPS,,51.2
88300,2026-01-09 12:38:13,0.0,5,7.739,0.0,0.0,0.0,25.4,-7.6,-4.9,1024,1024,1024,1024,0,0,0,0,93,4.662,65.66,167.979008,P-GPS,,51.2
88400,2026-01-09 12:38:13,0.0,5,7.739,0.0,0.0,0.0,25.4,-7.3,-5.3,1024,1024,1024,1024,0,0,0,0,93,4.662,65.66,167.979008,P-GPS,,51.2
88500,2026-01-09 12:38:13,0.0,5,7.752,0.0,0.0,0.0,25.4,-6.8,-5.5,1024,1024,1024,1024,0,0,0,0,93,4.913,65.66,167.979008,P-GPS,,51.2
88600,2026-01-09 12:38:13,0.0,5,7.752,0.0,0.0,0.0,25.4,-6.5,-5.8,1024,1024,1024,1024,0,0,0,0,93,4.913,65.66,167.979008,P-GPS,,51.2
88700,2026-01-09 12:38:13,0.0,5,7.752,0.0,0.0,0.0,25.3,-6.1,-6.0,1024,1024,1024,1024,0,0,0,0,93,4.913,65.66,167.979008,P-GPS,,51.2
88800,2026-01-09 12:38:14,0.0,5,7.752,0.0,0.0,0.223694,25.4,-5.9,-6.2,1024,1024,1024,1024,0,0,0,0,93,4.913,65.66,167.979008,P-GPS,,51.2
88900,2026-01-09 12:38:14,0.0,5,7.752,0.0,0.0,0.223694,25.5,-6.2,-6.0,1024,1024,1024,1024,0,0,0,0,93,4.913,65.66,167.979008,P-GPS,,51.2
89000,2026-01-09 12:38:14,0.0,5,7.752,0.0,0.0,0.223694,25.7,-6.0,-5.6,1024,1024,1024,1024,0,0,0,0,93,4.913,65.66,167.979008,P-GPS,,51.2
89100,2026-01-09 12:38:14,0.0,5,7.752,0.0,0.0,0.0,25.7,-5.9,-6.1,1024,1024,1024,1024,0,0,0,0,93,4.913,65.66,167.979008,P-GPS,,51.2
89200,2026-01-09 12:38:14,0.223694,5,7.752,0.0,0.223694,0.0,25.6,-5.0,-6.8,1024,1024,1024,1024,0,0,0,0,93,4.913,65.66,168.307092,P-GPS,,51.3
89300,2026-01-09 12:38:14,0.223694,5,7.752,0.0,0.223694,0.0,25.5,-4.5,-7.1,1024,1024,1024,1024,0,0,0,0,93,4.913,65.66,168.307092,P-GPS,,51.3
89400,2026-01-09 12:38:14,0.223694,5,7.752,0.0,0.223694,0.0,25.4,-3.6,-7.6,1024,1024,1024,1024,0,0,0,0,93,4.913,65.66,168.307092,P-GPS,,51.3
89500,2026-01-09 12:38:14,0.223694,5,7.752,0.0,0.223694,0.0,25.4,-3.4,-7.4,1024,1024,1024,1024,0,0,0,0,93,4.913,65.66,168.307092,P-GPS,,51.3
89600,2026-01-09 12:38:14,0.0,5,7.752,0.0,0.0,0.0,25.3,-2.6,-7.5,1024,1024,1024,1024,0,0,0,0,93,4.913,65.66,167.979008,P-GPS,,51.2
89700,2026-01-09 12:38:14,0.0,5,7.752,0.0,0.0,0.0,25.3,-2.8,-7.3,1024,1024,1024,1024,0,0,0,0,93,4.913,65.66,167.979008,P-GPS,,51.2
89800,2026-01-09 12:38:14,0.0,5,7.752,0.0,0.0,0.223694,25.2,-3.1,-7.1,1024,1024,1024,1024,0,0,0,0,93,4.913,65.66,167.979008,P-GPS,,51.2
89900,2026-01-09 12:38:15,0.0,5,7.752,0.0,0.0,0.223694,25.2,-3.2,-7.0,1024,1024,1024,1024,0,0,0,0,93,4.913,65.66,167.979008,P-GPS,,51.2
90000,2026-01-09 12:38:15,0.0,5,7.752,0.0,0.0,0.223694,25.1,-3.1,-7.3,1024,1024,1024,1024,0,0,0,0,93,4.913,65.66,167.979008,P-GPS,,51.2
90100,2026-01-09 12:38:15,0.0,5,7.752,0.0,0.0,0.223694,25.1,-3.8,-7.1,1024,1024,1024,1024,0,0,0,0,93,4.913,65.66,167.650924,P-GPS,,51.1
90200,2026-01-09 12:38:15,0.223694,5,7.752,0.0,0.223694,0.223694,25.1,-3.5,-7.6,1024,1024,1024,1024,0,0,0,0,93,4.913,65.66,167.650924,P-GPS,,51.1
90300,2026-01-09 12:38:15,0.223694,5,7.752,0.0,0.223694,0.223694,24.9,-2.6,-8.6,1024,1024,1024,1024,0,0,0,0,93,4.913,65.66,167.650924,P-GPS,,51.1
90400,2026-01-09 12:38:15,0.223694,5,7.752,0.0,0.223694,0.223694,24.9,-2.2,-8.7,1024,1024,1024,1024,0,0,0,0,93,4.913,65.66,167.32284,P-GPS,,51.0
90500,2026-01-09 12:38:15,0.0,5,7.752,0.0,0.0,0.223694,24.7,-2.0,-8.6,1024,1024,1024,1024,0,0,0,0,93,4.913,65.66,167.32284,P-GPS,,51.0
90600,2026-01-09 12:38:15,0.0,5,7.752,0.0,0.0,0.0,24.7,-2.1,-8.4,1024,1024,1024,1024,0,0,0,0,93,4.913,65.66,167.32284,P-GPS,,51.0
90700,2026-01-09 12:38:15,0.0,5,7.742,0.0,0.0,0.0,24.8,-2.4,-8.3,1024,1024,1024,1024,0,0,0,0,93,4.804,65.84,166.994756,P-GPS,,50.9
90800,2026-01-09 12:38:15,0.0,5,7.742,0.0,0.0,0.0,24.8,-2.3,-8.5,1024,1024,1024,1024,0,0,0,0,93,4.804,65.84,166.994756,P-GPS,,50.9
90900,2026-01-09 12:38:16,0.0,5,7.742,0.0,0.0,0.0,24.7,-2.0,-8.6,1024,1024,1024,1024,0,0,0,0,93,4.804,65.84,166.666672,P-GPS,,50.8
91000,2026-01-09 12:38:16,0.0,5,7.742,0.0,0.0,0.0,24.8,-2.7,-8.5,1024,1024,1024,1024,0,0,0,0,93,4.804,65.84,166.666672,P-GPS,,50.8
91100,2026-01-09 12:38:16,0.0,5,7.742,0.0,0.0,0.0,24.6,-2.5,-8.4,1024,1024,1024,1024,0,0,0,0,93,4.804,65.84,166.666672,P-GPS,,50.8
91200,2026-01-09 12:38:16,0.0,5,7.742,0.0,0.0,0.0,24.7,-2.3,-8.1,1024,1024,1024,1024,0,0,0,0,93,4.804,65.84,166.338588,P-GPS,,50.7
91300,2026-01-09 12:38:16,0.0,5,7.742,0.0,0.0,0.0,24.8,-2.3,-8.0,1024,1024,1024,1024,0,0,0,0,93,4.804,65.84,166.338588,P-GPS,,50.7
91400,2026-01-09 12:38:16,0.0,5,7.742,0.0,0.0,0.0,24.9,-2.1,-8.2,1024,1024,1024,1024,0,0,0,0,93,4.804,65.84,166.338588,P-GPS,,50.7
91500,2026-01-09 12:38:16,0.0,5,7.742,0.0,0.0,0.0,25.0,-2.7,-8.5,1024,1024,1024,1024,0,0,0,0,93,4.804,65.84,166.338588,P-GPS,,50.7
91600,2026-01-09 12:38:16,0.0,5,7.742,0.0,0.0,0.0,25.2,-3.0,-8.6,1024,1024,1024,1024,0,0,0,0,93,4.804,65.84,166.338588,P-GPS,,50.7
91700,2026-01-09 12:38:16,0.0,5,7.742,0.0,0.0,0.0,25.3,-3.1,-8.8,1024,1024,1024,1024,0,0,0,0,93,4.804,65.84,166.338588,P-GPS,,50.7
91800,2026-01-09 12:38:16,0.0,5,7.732,0.0,0.0,0.0,25.3,-3.1,-9.3,1024,1024,1024,1024,0,0,0,0,92,5.049,65.84,166.338588,P-GPS,,50.7
91900,2026-01-09 12:38:17,0.0,5,7.732,0.0,0.0,0.0,25.2,-2.9,-9.9,1024,1024,1024,1024,0,0,0,0,92,5.049,65.84,166.338588,P-GPS,,50.7
92000,2026-01-09 12:38:17,0.0,5,7.732,0.0,0.0,0.0,25.1,-2.9,-9.7,1024,1024,1024,1024,0,0,0,0,92,5.049,65.84,166.338588,P-GPS,,50.7
92100,2026-01-09 12:38:17,0.0,5,7.732,0.0,0.0,0.0,25.2,-3.4,-8.8,1024,1024,1024,1024,0,0,0,0,92,5.049,65.84,166.338588,P-GPS,,50.7
92200,2026-01-09 12:38:17,0.0,5,7.732,0.0,0.0,0.0,25.1,-3.4,-9.1,1024,1024,1024,1024,0,0,0,0,92,5.049,65.84,166.338588,P-GPS,,50.7
92300,2026-01-09 12:38:17,0.0,5,7.732,0.0,0.0,0.0,25.3,-3.6,-9.0,1024,1024,1024,1024,0,0,0,0,92,5.049,65.84,166.338588,P-GPS,,50.7
92400,2026-01-09 12:38:17,0.0,5,7.732,0.0,0.0,0.0,25.3,-3.6,-8.5,1024,1024,1024,1024,0,0,0,0,92,5.049,65.84,166.338588,P-GPS,,50.7
92500,2026-01-09 12:38:17,0.0,5,7.732,0.0,0.0,0.0,25.4,-3.2,-8.3,1024,1024,1024,1024,0,0,0,0,92,5.049,65.84,166.338588,P-GPS,,50.7
92600,2026-01-09 12:38:17,0.0,5,7.732,0.0,0.0,0.0,25.5,-3.6,-9.0,1024,1024,1024,1024,0,0,0,0,92,5.049,65.84,166.338588,P-GPS,,50.7
92700,2026-01-09 12:38:17,0.0,5,7.732,0.0,0.0,0.0,25.5,-3.2,-9.6,1024,1024,1024,1024,0,0,0,0,92,5.049,65.84,166.338588,P-GPS,,50.7
92800,2026-01-09 12:38:17,0.0,5,7.732,0.0,0.0,0.0,25.4,-2.5,-10.3,1024,1024,1024,1024,0,0,0,0,92,5.049,65.84,166.338588,P-GPS,,50.7
92900,2026-01-09 12:38:18,0.0,5,7.766,0.0,0.0,0.0,25.3,-2.0,-10.3,1024,1024,1024,1024,0,0,0,0,92,4.759,65.84,166.338588,P-GPS,,50.7
93000,2026-01-09 12:38:18,0.0,5,7.766,0.0,0.0,0.0,25.3,-1.9,-10.2,1024,1024,1024,1024,0,0,0,0,92,4.759,65.84,166.338588,P-GPS,,50.7
93100,2026-01-09 12:38:18,0.0,5,7.766,0.0,0.0,0.0,25.3,-2.3,-10.1,1024,1024,1024,1024,0,0,0,0,92,4.759,65.84,166.338588,P-GPS,,50.7
93200,2026-01-09 12:38:18,0.0,5,7.766,0.0,0.0,0.0,25.3,-2.5,-10.1,1024,1024,1024,1024,0,0,0,0,92,4.759,65.84,166.338588,P-GPS,,50.7
93300,2026-01-09 12:38:18,0.0,5,7.766,0.0,0.0,0.0,25.3,-2.7,-10.1,1024,1024,1024,1024,0,0,0,0,92,4.759,65.84,166.338588,P-GPS,,50.7
93400,2026-01-09 12:38:18,0.0,5,7.766,0.0,0.0,0.0,25.2,-2.7,-9.7,1024,1024,1024,1024,0,0,0,0,92,4.759,65.84,166.338588,P-GPS,,50.7
93500,2026-01-09 12:38:18,0.0,5,7.766,0.0,0.0,0.0,25.3,-3.0,-9.2,1024,1024,1024,1024,0,0,0,0,92,4.759,65.84,166.338588,P-GPS,,50.7
93600,2026-01-09 12:38:18,0.0,5,7.766,0.0,0.0,0.0,25.4,-3.2,-9.0,1024,1024,1024,1024,0,0,0,0,92,4.759,65.84,166.338588,P-GPS,,50.7
93700,2026-01-09 12:38:18,0.0,5,7.766,0.0,0.0,0.0,25.3,-3.5,-8.9,1024,1024,1024,1024,0,0,0,0,92,4.759,65.84,166.010504,P-GPS,,50.6
93800,2026-01-09 12:38:19,0.0,5,7.766,0.0,0.0,0.0,25.3,-3.2,-8.4,1024,1024,1024,1024,0,0,0,0,92,4.759,65.84,166.010504,P-GPS,,50.6
93900,2026-01-09 12:38:19,0.0,5,7.766,0.0,0.0,0.0,25.3,-3.1,-8.1,1024,1024,1024,1024,0,0,0,0,92,4.759,65.84,166.010504,P-GPS,,50.6
94000,2026-01-09 12:38:19,0.0,5,7.762,0.0,0.0,0.0,25.3,-3.3,-7.9,1024,1024,1024,1024,0,0,0,0,92,4.56,66.02,166.010504,P-GPS,,50.6
94100,2026-01-09 12:38:19,0.0,5,7.762,0.0,0.0,0.0,25.3,-3.2,-8.2,1024,1024,1024,1024,0,0,0,0,92,4.56,66.02,166.010504,P-GPS,,50.6
94200,2026-01-09 12:38:19,0.0,5,7.762,0.0,0.0,0.0,25.2,-3.3,-8.3,1024,1024,1024,1024,0,0,0,0,92,4.56,66.02,166.010504,P-GPS,,50.6
94300,2026-01-09 12:38:19,0.0,5,7.762,0.0,0.0,0.0,25.1,-4.0,-8.6,1024,1024,1024,1024,0,0,0,0,92,4.56,66.02,166.010504,P-GPS,,50.6
94400,2026-01-09 12:38:19,0.223694,5,7.762,0.0,-0.223694,0.0,25.1,-3.8,-7.5,1024,1024,1024,1024,0,0,0,0,92,4.56,66.02,166.010504,P-GPS,,50.6
94500,2026-01-09 12:38:19,0.223694,5,7.762,0.0,-0.223694,0.0,25.0,-4.0,-6.7,1024,1024,1024,1024,0,0,0,0,92,4.56,66.02,165.68242,P-GPS,,50.5
94600,2026-01-09 12:38:19,0.223694,5,7.762,0.0,-0.223694,0.0,24.9,-4.2,-5.8,1024,1024,1024,1024,0,0,0,0,92,4.56,66.02,165.68242,P-GPS,,50.5
94700,2026-01-09 12:38:19,0.223694,5,7.762,0.0,-0.223694,0.0,24.7,-4.0,-5.7,1024,1024,1024,1024,0,0,0,0,92,4.56,66.02,165.68242,P-GPS,,50.5
94800,2026-01-09 12:38:19,0.223694,5,7.762,0.0,-0.223694,0.0,24.7,-3.9,-5.8,1024,1024,1024,1024,0,0,0,0,92,4.56,66.02,165.354336,P-GPS,,50.4
94900,2026-01-09 12:38:20,0.0,5,7.762,0.0,0.0,0.0,24.8,-4.2,-5.7,1024,1024,1024,1024,0,0,0,0,92,4.56,66.02,165.354336,P-GPS,,50.4
95000,2026-01-09 12:38:20,0.0,5,7.762,0.0,0.0,0.0,24.8,-3.7,-5.6,1024,1024,1024,1024,0,0,0,0,92,4.56,66.02,165.354336,P-GPS,,50.4
95100,2026-01-09 12:38:20,0.0,5,7.73,0.0,0.0,0.0,25.1,-4.0,-5.5,1024,1024,1024,1024,0,0,0,0,92,5.003,66.02,165.354336,P-GPS,,50.4
95200,2026-01-09 12:38:20,0.0,5,7.73,0.0,0.0,0.0,25.2,-5.0,-5.7,1024,1024,1024,1024,0,0,0,0,92,5.003,66.02,165.354336,P-GPS,,50.4
95300,2026-01-09 12:38:20,0.0,5,7.73,0.0,0.0,0.0,25.1,-4.4,-6.0,1024,1024,1024,1024,0,0,0,0,92,5.003,66.02,165.354336,P-GPS,,50.4
95400,2026-01-09 12:38:20,0.0,5,7.73,0.0,0.0,0.0,25.2,-3.9,-6.3,1024,1024,1024,1024,0,0,0,0,92,5.003,66.02,165.354336,P-GPS,,50.4
95500,2026-01-09 12:38:20,0.0,5,7.73,0.0,0.0,0.0,25.2,-3.9,-6.5,1024,1024,1024,1024,0,0,0,0,92,5.003,66.02,165.354336,P-GPS,,50.4
95600,2026-01-09 12:38:20,0.0,5,7.73,0.0,0.0,0.0,25.2,-4.0,-6.6,1024,1024,1024,1024,0,0,0,0,92,5.003,66.02,165.68242,P-GPS,,50.5
95700,2026-01-09 12:38:20,0.0,5,7.73,0.0,0.0,0.0,25.2,-3.8,-6.8,1024,1024,1024,1024,0,0,0,0,92,5.003,66.02,165.68242,P-GPS,,50.5
95800,2026-01-09 12:38:21,0.0,5,7.73,0.0,0.0,0.0,25.2,-4.0,-6.9,1024,1024,1024,1024,0,0,0,0,92,5.003,66.02,165.68242,P-GPS,,50.5
95900,2026-01-09 12:38:21,0.0,5,7.73,0.0,0.0,0.0,25.2,-4.0,-7.7,1024,1024,1024,1024,0,0,0,0,92,5.003,66.02,165.68242,P-GPS,,50.5
96000,2026-01-09 12:38:21,0.0,5,7.73,0.0,0.0,0.0,25.1,-3.7,-7.9,1024,1024,1024,1024,0,0,0,0,92,5.003,66.02,166.010504,P-GPS,,50.6
96100,2026-01-09 12:38:21,0.0,5,7.73,0.0,0.0,0.0,25.1,-3.5,-7.9,1024,1024,1024,1024,0,0,0,0,92,5.003,66.02,166.010504,P-GPS,,50.6
96200,2026-01-09 12:38:21,0.0,5,7.742,0.0,0.0,0.0,24.9,-3.0,-8.3,1024,1024,1024,1024,0,0,0,0,92,5.032,66.02,165.68242,P-GPS,,50.5
96300,2026-01-09 12:38:21,0.0,5,7.742,0.0,0.0,0.0,25.2,-3.4,-8.1,1024,1024,1024,1024,0,0,0,0,92,5.032,66.02,166.010504,P-GPS,,50.6
96400,2026-01-09 12:38:21,0.0,5,7.742,0.0,0.0,0.0,25.3,-3.7,-8.2,1024,1024,1024,1024,0,0,0,0,92,5.032,66.02,166.010504,P-GPS,,50.6
96500,2026-01-09 12:38:21,0.0,5,7.742,0.0,0.0,0.0,25.2,-3.5,-8.5,1024,1024,1024,1024,0,0,0,0,92,5.032,66.02,166.010504,P-GPS,,50.6
96600,2026-01-09 12:38:21,0.0,5,7.742,0.0,0.0,0.0,25.3,-4.1,-8.3,1024,1024,1024,1024,0,0,0,0,92,5.032,66.02,166.010504,P-GPS,,50.6
96700,2026-01-09 12:38:21,0.0,5,7.742,0.0,0.0,0.0,25.4,-4.2,-8.5,1024,1024,1024,1024,0,0,0,0,92,5.032,66.02,166.010504,P-GPS,,50.6
96800,2026-01-09 12:38:21,0.0,5,7.742,0.0,0.0,0.0,25.4,-4.4,-8.9,1024,1024,1024,1024,0,0,0,0,92,5.032,66.02,166.338588,P-GPS,,50.7
96900,2026-01-09 12:38:22,0.0,5,7.742,0.0,0.0,0.0,25.4,-4.0,-9.0,1024,1024,1024,1024,0,0,0,0,92,5.032,66.02,166.338588,P-GPS,,50.7
97000,2026-01-09 12:38:22,0.0,5,7.742,0.0,0.0,0.0,25.5,-4.2,-8.9,1024,1024,1024,1024,0,0,0,0,92,5.032,66.02,166.338588,P-GPS,,50.7
97100,2026-01-09 12:38:22,0.0,5,7.742,0.0,0.0,0.0,25.5,-4.1,-9.2,1024,1024,1024,1024,0,0,0,0,92,5.032,66.02,166.338588,P-GPS,,50.7
97200,2026-01-09 12:38:22,0.0,5,7.742,0.0,0.0,0.0,25.6,-4.2,-9.6,1024,1024,1024,1024,0,0,0,0,92,5.032,66.02,166.338588,P-GPS,,50.7
97300,2026-01-09 12:38:22,0.0,5,7.742,0.0,0.0,0.0,25.6,-4.6,-9.6,1024,1024,1024,1024,0,0,0,0,92,5.032,66.02,166.666672,P-GPS,,50.8
97400,2026-01-09 12:38:22,0.0,5,7.734,0.0,0.0,0.0,25.7,-4.8,-9.3,1024,1024,1024,1024,0,0,0,0,92,5.132,66.02,166.666672,P-GPS,,50.8
97500,2026-01-09 12:38:22,0.0,5,7.734,0.0,0.0,0.0,25.7,-5.1,-9.8,1024,1024,1024,1024,0,0,0,0,92,5.132,66.02,166.666672,P-GPS,,50.8
97600,2026-01-09 12:38:22,0.0,5,7.734,0.0,0.0,0.0,25.7,-4.8,-10.3,1024,1024,1024,1024,0,0,0,0,92,5.132,66.02,166.666672,P-GPS,,50.8
97700,2026-01-09 12:38:22,0.0,5,7.734,0.0,0.0,0.0,25.7,-4.9,-10.0,1024,1024,1024,1024,0,0,0,0,92,5.132,66.02,166.666672,P-GPS,,50.8
97800,2026-01-09 12:38:22,0.0,5,7.734,0.0,0.0,0.0,25.6,-4.7,-10.1,1024,1024,1024,1024,0,0,0,0,92,5.132,66.02,166.666672,P-GPS,,50.8
97900,2026-01-09 12:38:23,0.0,5,7.734,0.0,0.0,0.0,25.6,-4.8,-9.5,1024,1024,1024,1024,0,0,0,0,92,5.132,66.02,166.666672,P-GPS,,50.8
98000,2026-01-09 12:38:23,0.0,5,7.734,0.0,0.0,0.0,25.5,-5.0,-9.3,1024,1024,1024,1024,0,0,0,0,92,5.132,66.02,166.666672,P-GPS,,50.8
98100,2026-01-09 12:38:23,0.0,5,7.734,0.0,0.0,0.0,25.4,-5.0,-8.8,1024,1024,1024,1024,0,0,0,0,92,5.132,66.02,166.666672,P-GPS,,50.8
98200,2026-01-09 12:38:23,0.0,5,7.734,0.0,0.0,0.0,25.4,-4.7,-8.5,1024,1024,1024,1024,0,0,0,0,92,5.132,66.02,166.666672,P-GPS,,50.8
98300,2026-01-09 12:38:23,0.0,5,7.734,0.0,0.0,0.0,25.5,-5.1,-8.3,1024,1024,1024,1024,0,0,0,0,92,5.132,66.02,166.666672,P-GPS,,50.8
98400,2026-01-09 12:38:23,0.0,5,7.734,0.0,0.0,0.0,25.4,-5.1,-8.4,1024,1024,1024,1024,0,0,0,0,92,5.132,66.02,166.338588,P-GPS,,50.7
98500,2026-01-09 12:38:23,0.0,5,7.724,0.0,0.0,0.0,25.4,-5.0,-8.3,1024,1024,1024,1024,0,0,0,0,92,5.051,66.2,166.338588,P-GPS,,50.7
98600,2026-01-09 12:38:23,0.0,5,7.724,0.0,0.0,0.0,25.4,-5.2,-8.2,1024,1024,1024,1024,0,0,0,0,92,5.051,66.2,166.338588,P-GPS,,50.7
98700,2026-01-09 12:38:23,0.0,5,7.724,0.0,0.0,0.0,25.5,-5.0,-7.8,1024,1024,1024,1024,0,0,0,0,92,5.051,66.2,166.338588,P-GPS,,50.7
98800,2026-01-09 12:38:23,0.0,5,7.724,0.0,0.0,0.0,25.4,-5.1,-7.4,1024,1024,1024,1024,0,0,0,0,92,5.051,66.2,166.338588,P-GPS,,50.7
98900,2026-01-09 12:38:24,0.0,5,7.724,0.0,0.0,0.0,25.4,-5.1,-7.3,1024,1024,1024,1024,0,0,0,0,92,5.051,66.2,166.338588,P-GPS,,50.7
99000,2026-01-09 12:38:24,0.0,5,7.724,0.0,0.0,0.0,25.3,-4.7,-7.3,1024,1024,1024,1024,0,0,0,0,92,5.051,66.2,166.338588,P-GPS,,50.7
99100,2026-01-09 12:38:24,0.0,5,7.724,0.0,0.0,0.0,25.3,-4.4,-7.7,1024,1024,1024,1024,0,0,0,0,92,5.051,66.2,166.338588,P-GPS,,50.7
99200,2026-01-09 12:38:24,0.0,5,7.724,0.0,0.0,0.0,25.3,-4.5,-7.3,1024,1024,1024,1024,0,0,0,0,92,5.051,66.2,166.338588,P-GPS,,50.7
99300,2026-01-09 12:38:24,0.0,5,7.724,0.0,0.0,0.0,25.5,-5.3,-6.7,1024,1024,1024,1024,0,0,0,0,92,5.051,66.2,166.338588,P-GPS,,50.7
99400,2026-01-09 12:38:24,0.0,5,7.724,0.0,0.0,0.0,25.5,-5.4,-6.1,1024,1024,1024,1024,0,0,0,0,92,5.051,66.2,166.338588,P-GPS,,50.7
99500,2026-01-09 12:38:24,0.0,5,7.724,0.0,0.0,0.0,25.5,-5.4,-6.1,1024,1024,1024,1024,0,0,0,0,92,5.051,66.2,166.338588,P-GPS,,50.7
99600,2026-01-09 12:38:24,0.0,5,7.724,0.0,0.0,0.0,25.7,-6.3,-6.2,1024,1024,1024,1024,0,0,0,0,92,5.051,66.2,166.338588,P-GPS,,50.7
99700,2026-01-09 12:38:24,0.0,5,7.724,0.0,0.0,0.0,25.5,-6.3,-6.3,1024,1024,1024,1024,0,0,0,0,92,5.051,66.2,166.338588,P-GPS,,50.7
99800,2026-01-09 12:38:24,0.0,5,7.724,0.0,0.0,0.0,25.2,-5.6,-6.6,1024,1024,1024,1024,0,0,0,0,92,5.051,66.2,166.338588,P-GPS,,50.7
99900,2026-01-09 12:38:25,0.0,5,7.724,0.0,0.0,0.0,25.5,-5.6,-6.7,1024,1024,1024,1024,0,0,0,0,92,5.051,66.2,166.338588,P-GPS,,50.7
100000,2026-01-09 12:38:25,0.0,5,7.724,0.0,0.0,0.0,25.9,-6.5,-6.5,1024,1024,1024,1024,0,0,0,0,92,5.051,66.2,166.338588,P-GPS,,50.7
100100,2026-01-09 12:38:25,0.0,5,7.724,0.0,0.0,0.0,25.8,-5.9,-7.2,1024,1024,1024,1024,0,0,0,0,92,5.051,66.2,166.338588,P-GPS,,50.7
100200,2026-01-09 12:38:25,0.0,5,7.724,0.0,0.0,0.0,25.7,-5.8,-8.0,1024,1024,1024,1024,0,0,0,0,92,5.051,66.2,166.338588,P-GPS,,50.7
100300,2026-01-09 12:38:25,0.0,5,7.724,0.0,0.0,0.0,25.5,-6.7,-8.1,1024,1024,1024,1024,0,0,0,0,92,5.051,66.2,166.338588,P-GPS,,50.7
100400,2026-01-09 12:38:25,0.0,5,7.724,0.0,0.0,0.0,25.4,-6.9,-7.6,1024,1024,1024,1024,0,0,0,0,92,5.051,66.2,166.338588,P-GPS,,50.7
100500,2026-01-09 12:38:25,0.0,5,7.724,0.0,0.0,0.0,25.3,-6.2,-6.7,1024,1024,1024,1024,0,0,0,0,92,5.051,66.2,166.338588,P-GPS,,50.7
100600,2026-01-09 12:38:25,0.0,5,7.724,0.0,0.0,0.0,25.4,-5.9,-6.4,1024,1024,1024,1024,0,0,0,0,92,5.051,66.2,166.338588,P-GPS,,50.7
100700,2026-01-09 12:38:25,0.0,5,7.727,0.0,0.0,0.0,25.4,-5.6,-7.3,1024,1024,1024,1024,0,0,0,0,92,5.027,66.2,166.338588,P-GPS,,50.7
100800,2026-01-09 12:38:26,0.0,5,7.727,0.0,0.0,0.0,25.3,-5.8,-7.9,1024,1024,1024,1024,0,0,0,0,92,5.027,66.2,166.338588,P-GPS,,50.7
100900,2026-01-09 12:38:26,0.0,5,7.727,0.0,0.0,0.0,25.4,-6.0,-7.9,1024,1024,1024,1024,0,0,0,0,92,5.027,66.2,166.338588,P-GPS,,50.7
101000,2026-01-09 12:38:26,0.0,5,7.727,0.0,0.0,0.0,25.4,-6.1,-7.7,1024,1024,1024,1024,0,0,0,0,92,5.027,66.2,166.338588,P-GPS,,50.7
101100,2026-01-09 12:38:26,0.0,5,7.727,0.0,0.0,0.0,25.2,-5.8,-8.1,1024,1024,1024,1024,0,0,0,0,92,5.027,66.2,166.338588,P-GPS,,50.7
101200,2026-01-09 12:38:26,0.0,5,7.727,0.0,0.0,0.0,25.3,-5.7,-7.9,1024,1024,1024,1024,0,0,0,0,92,5.027,66.2,166.338588,P-GPS,,50.7
101300,2026-01-09 12:38:26,0.0,5,7.727,0.0,0.0,0.0,25.3,-5.2,-7.7,1024,1024,1024,1024,0,0,0,0,92,5.027,66.2,166.338588,P-GPS,,50.7
101400,2026-01-09 12:38:26,0.0,5,7.727,0.0,0.0,0.0,25.3,-4.8,-7.9,1024,1024,1024,1024,0,0,0,0,92,5.027,66.2,166.338588,P-GPS,,50.7
101500,2026-01-09 12:38:26,0.0,5,7.727,0.0,0.0,0.0,25.4,-4.8,-7.9,1024,1024,1024,1024,0,0,0,0,92,5.027,66.2,166.338588,P-GPS,,50.7
101600,2026-01-09 12:38:26,0.0,5,7.727,0.0,0.0,0.0,25.5,-5.0,-7.6,1024,1024,1024,1024,0,0,0,0,92,5.027,66.2,166.338588,P-GPS,,50.7
101700,2026-01-09 12:38:26,0.0,5,7.727,0.0,0.0,0.0,25.4,-4.9,-7.7,1024,1024,1024,1024,0,0,0,0,92,5.027,66.2,166.338588,P-GPS,,50.7
101800,2026-01-09 12:38:26,0.0,5,7.734,0.0,0.0,0.0,25.3,-4.7,-7.8,1024,1024,1024,1024,0,0,0,0,92,5.124,66.2,166.338588,P-GPS,,50.7
101900,2026-01-09 12:38:27,0.0,5,7.734,0.0,0.0,0.0,25.3,-4.7,-7.9,1024,1024,1024,1024,0,0,0,0,92,5.124,66.2,166.338588,P-GPS,,50.7
102000,2026-01-09 12:38:27,0.0,5,7.734,0.0,0.0,0.0,25.4,-4.9,-7.9,1024,1024,1024,1024,0,0,0,0,92,5.124,66.2,166.338588,P-GPS,,50.7
102100,2026-01-09 12:38:27,0.0,5,7.734,0.0,0.0,0.0,25.4,-5.0,-8.1,1024,1024,1024,1024,0,0,0,0,92,5.124,66.2,166.338588,P-GPS,,50.7
102200,2026-01-09 12:38:27,0.0,5,7.734,0.0,0.0,0.0,25.5,-5.2,-8.2,1024,1024,1024,1024,0,0,0,0,92,5.124,66.2,166.338588,P-GPS,,50.7
102300,2026-01-09 12:38:27,0.0,5,7.734,0.0,0.0,0.0,25.5,-5.0,-8.0,1024,1024,1024,1024,0,0,0,0,92,5.124,66.2,166.338588,P-GPS,,50.7
102400,2026-01-09 12:38:27,0.0,5,7.734,0.0,0.0,0.0,25.4,-5.7,-7.8,1024,1024,1024,1024,0,0,0,0,92,5.124,66.2,166.338588,P-GPS,,50.7
102500,2026-01-09 12:38:27,0.0,5,7.734,0.0,0.0,0.0,25.4,-5.7,-7.5,1024,1024,1024,1024,0,0,0,0,92,5.124,66.2,166.338588,P-GPS,,50.7
102600,2026-01-09 12:38:27,0.0,5,7.734,0.0,0.0,0.0,25.4,-5.6,-7.3,1024,1024,1024,1024,0,0,0,0,92,5.124,66.2,166.338588,P-GPS,,50.7
102700,2026-01-09 12:38:27,0.0,5,7.734,0.0,0.0,0.0,25.4,-5.9,-7.3,1024,1024,1024,1024,0,0,0,0,92,5.124,66.2,166.338588,P-GPS,,50.7
102800,2026-01-09 12:38:28,0.0,5,7.734,0.0,0.0,0.0,25.5,-6.8,-7.1,1024,1024,1024,1024,0,0,0,0,92,5.124,66.2,166.338588,P-GPS,,50.7
102900,2026-01-09 12:38:28,0.0,5,7.728,0.0,0.0,0.0,25.5,-6.3,-7.5,1024,1024,1024,1024,0,0,0,0,92,5.117,66.38,166.338588,P-GPS,,50.7
103000,2026-01-09 12:38:28,0.0,5,7.728,0.0,0.0,0.0,25.6,-5.7,-7.8,1024,1024,1024,1024,0,0,0,0,92,5.117,66.38,166.338588,P-GPS,,50.7
103100,2026-01-09 12:38:28,0.223694,5,7.728,0.0,0.223694,0.0,25.6,-5.5,-10.4,1024,1024,1024,1024,0,0,0,0,92,5.117,66.38,166.338588,P-GPS,,50.7
103200,2026-01-09 12:38:28,0.223694,5,7.728,0.0,0.223694,0.0,25.7,-5.7,-10.9,1024,1024,1024,1024,0,0,0,0,92,5.117,66.38,166.338588,P-GPS,,50.7
103300,2026-01-09 12:38:28,0.223694,5,7.728,0.0,0.223694,0.0,25.6,-5.7,-11.1,1024,1024,1024,1024,0,0,0,0,92,5.117,66.38,166.338588,P-GPS,,50.7
103400,2026-01-09 12:38:28,0.223694,5,7.728,0.0,0.223694,0.0,25.5,-5.2,-11.8,1024,1024,1024,1024,0,0,0,0,92,5.117,66.38,166.666672,P-GPS,,50.8
103500,2026-01-09 12:38:28,0.223694,5,7.728,0.0,0.223694,0.0,25.5,-5.2,-12.0,1024,1024,1024,1024,0,0,0,0,92,5.117,66.38,166.666672,P-GPS,,50.8
103600,2026-01-09 12:38:28,0.0,5,7.728,0.0,0.0,0.0,25.4,-5.0,-11.7,1024,1024,1024,1024,0,0,0,0,92,5.117,66.38,166.666672,P-GPS,,50.8
103700,2026-01-09 12:38:28,0.0,5,7.728,0.0,0.0,0.0,25.5,-5.3,-11.5,1024,1024,1024,1024,0,0,0,0,92,5.117,66.38,166.666672,P-GPS,,50.8
103800,2026-01-09 12:38:28,0.0,5,7.728,0.0,0.0,0.0,25.3,-4.9,-10.6,1024,1024,1024,1024,0,0,0,0,92,5.117,66.38,166.338588,P-GPS,,50.7
103900,2026-01-09 12:38:29,0.0,5,7.728,0.0,0.0,0.0,25.3,-4.8,-10.3,1024,1024,1024,1024,0,0,0,0,92,5.117,66.38,166.338588,P-GPS,,50.7
104000,2026-01-09 12:38:29,0.0,5,7.712,0.0,0.0,0.0,25.3,-4.7,-10.2,1024,1024,1024,1024,0,0,0,0,92,5.338,66.38,166.338588,P-GPS,,50.7
104100,2026-01-09 12:38:29,0.0,5,7.712,0.0,0.0,0.0,25.3,-4.7,-9.6,1024,1024,1024,1024,0,0,0,0,92,5.338,66.38,166.338588,P-GPS,,50.7
104200,2026-01-09 12:38:29,0.0,5,7.712,0.0,0.0,0.0,25.1,-4.1,-9.3,1024,1024,1024,1024,0,0,0,0,92,5.338,66.38,166.010504,P-GPS,,50.6
104300,2026-01-09 12:38:29,0.0,5,7.712,0.0,0.0,0.0,25.2,-4.4,-9.4,1024,1024,1024,1024,0,0,0,0,92,5.338,66.38,166.010504,P-GPS,,50.6
104400,2026-01-09 12:38:29,0.223694,5,7.712,0.223694,0.0,0.0,25.2,-3.8,-9.2,1024,1024,1024,1024,0,0,0,0,92,5.338,66.38,165.68242,P-GPS,,50.5
104500,2026-01-09 12:38:29,0.223694,5,7.712,0.223694,0.0,0.0,24.8,-2.5,-9.2,1024,1024,1024,1024,0,0,0,0,92,5.338,66.38,165.68242,P-GPS,,50.5
104600,2026-01-09 12:38:29,0.0,5,7.712,0.0,0.0,0.0,24.9,-2.5,-9.2,1024,1024,1024,1024,0,0,0,0,92,5.338,66.38,165.68242,P-GPS,,50.5
104700,2026-01-09 12:38:29,0.0,5,7.712,0.0,0.0,0.0,24.9,-2.8,-8.9,1024,1024,1024,1024,0,0,0,0,92,5.338,66.38,165.354336,P-GPS,,50.4
104800,2026-01-09 12:38:29,0.0,5,7.712,0.0,0.0,0.0,25.0,-3.1,-8.6,1024,1024,1024,1024,0,0,0,0,92,5.338,66.38,165.354336,P-GPS,,50.4
104900,2026-01-09 12:38:30,0.0,5,7.712,0.0,0.0,0.0,24.9,-2.7,-8.3,1024,1024,1024,1024,0,0,0,0,92,5.338,66.38,165.026252,P-GPS,,50.3
105000,2026-01-09 12:38:30,0.0,5,7.712,0.0,0.0,0.0,25.0,-3.0,-8.2,1024,1024,1024,1024,0,0,0,0,92,5.338,66.38,165.026252,P-GPS,,50.3
105100,2026-01-09 12:38:30,0.0,5,7.736,0.0,0.0,0.0,25.1,-2.9,-8.0,1024,1024,1024,1024,0,0,0,0,92,4.903,66.38,165.026252,P-GPS,,50.3
105200,2026-01-09 12:38:30,0.0,5,7.736,0.0,0.0,0.0,24.9,-2.3,-8.1,1024,1024,1024,1024,0,0,0,0,92,4.903,66.38,165.026252,P-GPS,,50.3
105300,2026-01-09 12:38:30,0.0,5,7.736,0.0,0.0,0.0,24.8,-2.2,-7.9,1024,1024,1024,1024,0,0,0,0,92,4.903,66.38,164.698168,P-GPS,,50.2
105400,2026-01-09 12:38:30,0.0,5,7.736,0.0,0.0,0.0,24.8,-2.1,-8.0,1024,1024,1024,1024,0,0,0,0,92,4.903,66.38,164.698168,P-GPS,,50.2
105500,2026-01-09 12:38:30,0.0,5,7.736,0.0,0.0,0.0,24.7,-2.4,-8.0,1024,1024,1024,1024,0,0,0,0,92,4.903,66.38,164.698168,P-GPS,,50.2
105600,2026-01-09 12:38:30,0.0,5,7.736,0.0,0.0,0.0,24.8,-2.9,-7.7,1024,1024,1024,1024,0,0,0,0,92,4.903,66.38,164.698168,P-GPS,,50.2
105700,2026-01-09 12:38:30,0.0,5,7.736,0.0,0.0,0.0,24.9,-3.1,-7.8,1024,1024,1024,1024,0,0,0,0,92,4.903,66.38,164.698168,P-GPS,,50.2
105800,2026-01-09 12:38:30,0.0,5,7.736,0.0,0.0,0.0,24.8,-2.7,-7.9,1024,1024,1024,1024,0,0,0,0,92,4.903,66.38,164.370084,P-GPS,,50.1
105900,2026-01-09 12:38:31,0.0,5,7.736,0.0,0.0,0.0,24.7,-3.1,-7.9,1024,1024,1024,1024,0,0,0,0,92,4.903,66.38,164.370084,P-GPS,,50.1
106000,2026-01-09 12:38:31,0.0,5,7.736,0.0,0.0,0.0,24.6,-2.8,-7.7,1024,1024,1024,1024,0,0,0,0,92,4.903,66.38,164.370084,P-GPS,,50.1
106100,2026-01-09 12:38:31,0.0,5,7.736,0.0,0.0,0.0,24.7,-2.9,-7.4,1024,1024,1024,1024,0,0,0,0,92,4.903,66.38,164.370084,P-GPS,,50.1
106200,2026-01-09 12:38:31,0.0,5,7.739,0.0,0.0,0.0,25.1,-3.7,-6.9,1024,1024,1024,1024,0,0,0,0,92,4.993,66.38,164.370084,P-GPS,,50.1
106300,2026-01-09 12:38:31,0.0,5,7.739,0.0,0.0,0.0,25.2,-3.6,-7.1,1024,1024,1024,1024,0,0,0,0,92,4.993,66.38,164.370084,P-GPS,,50.1
106400,2026-01-09 12:38:31,0.0,5,7.739,0.0,0.0,0.0,25.1,-3.4,-7.4,1024,1024,1024,1024,0,0,0,0,92,4.993,66.38,164.370084,P-GPS,,50.1
106500,2026-01-09 12:38:31,0.0,5,7.739,0.0,0.0,0.0,25.1,-3.7,-7.5,1024,1024,1024,1024,0,0,0,0,92,4.993,66.38,164.698168,P-GPS,,50.2
106600,2026-01-09 12:38:31,0.0,5,7.739,0.0,0.0,0.0,25.1,-3.5,-7.6,1024,1024,1024,1024,0,0,0,0,92,4.993,66.38,164.698168,P-GPS,,50.2
106700,2026-01-09 12:38:31,0.0,5,7.739,0.0,0.0,0.0,25.1,-3.7,-7.9,1024,1024,1024,1024,0,0,0,0,92,4.993,66.38,164.698168,P-GPS,,50.2
106800,2026-01-09 12:38:31,0.0,5,7.739,0.0,0.0,0.0,25.1,-3.5,-8.0,1024,1024,1024,1024,0,0,0,0,92,4.993,66.38,164.698168,P-GPS,,50.2
106900,2026-01-09 12:38:32,0.0,5,7.739,0.0,0.0,0.0,25.2,-3.5,-7.4,1024,1024,1024,1024,0,0,0,0,92,4.993,66.38,164.698168,P-GPS,,50.2
107000,2026-01-09 12:38:32,0.0,5,7.739,0.0,0.0,0.0,25.6,-4.4,-6.9,1024,1024,1024,1024,0,0,0,0,92,4.993,66.38,165.026252,P-GPS,,50.3
107100,2026-01-09 12:38:32,0.0,5,7.739,0.0,0.0,0.0,25.7,-5.0,-7.0,1024,1024,1024,1024,0,0,0,0,92,4.993,66.38,165.026252,P-GPS,,50.3
107200,2026-01-09 12:38:32,0.0,5,7.739,0.0,0.0,0.0,25.8,-5.2,-7.1,1024,1024,1024,1024,0,0,0,0,92,4.993,66.38,165.354336,P-GPS,,50.4
107300,2026-01-09 12:38:32,0.0,5,7.742,0.0,0.0,0.0,25.8,-5.8,-6.9,1024,1024,1024,1024,0,0,0,0,92,4.834,66.56,165.354336,P-GPS,,50.4
107400,2026-01-09 12:38:32,0.0,5,7.742,0.0,0.0,0.0,25.7,-5.5,-7.2,1024,1024,1024,1024,0,0,0,0,92,4.834,66.56,165.68242,P-GPS,,50.5
107500,2026-01-09 12:38:32,0.0,5,7.742,0.0,0.0,0.0,25.8,-5.4,-7.6,1024,1024,1024,1024,0,0,0,0,92,4.834,66.56,165.68242,P-GPS,,50.5
107600,2026-01-09 12:38:32,0.0,5,7.742,0.0,0.0,0.0,25.7,-4.9,-7.9,1024,1024,1024,1024,0,0,0,0,92,4.834,66.56,165.68242,P-GPS,,50.5
107700,2026-01-09 12:38:32,0.0,5,7.742,0.0,0.0,0.0,25.5,-5.1,-8.6,1024,1024,1024,1024,0,0,0,0,92,4.834,66.56,166.010504,P-GPS,,50.6
107800,2026-01-09 12:38:32,0.0,5,7.742,0.0,0.0,0.0,25.8,-5.1,-8.6,1024,1024,1024,1024,0,0,0,0,92,4.834,66.56,166.010504,P-GPS,,50.6
107900,2026-01-09 12:38:33,0.0,5,7.742,0.0,0.0,0.0,25.8,-4.9,-8.2,1024,1024,1024,1024,0,0,0,0,92,4.834,66.56,166.338588,P-GPS,,50.7
108000,2026-01-09 12:38:33,0.0,5,7.742,0.0,0.0,0.0,25.7,-4.8,-7.9,1024,1024,1024,1024,0,0,0,0,92,4.834,66.56,166.338588,P-GPS,,50.7
108100,2026-01-09 12:38:33,0.0,5,7.742,0.0,0.0,0.0,25.6,-4.2,-7.8,1024,1024,1024,1024,0,0,0,0,92,4.834,66.56,166.338588,P-GPS,,50.7
108200,2026-01-09 12:38:33,0.0,5,7.742,0.0,0.0,0.0,25.7,-4.5,-7.6,1024,1024,1024,1024,0,0,0,0,92,4.834,66.56,166.338588,P-GPS,,50.7
108300,2026-01-09 12:38:33,0.0,5,7.742,0.0,0.0,0.0,25.7,-4.5,-7.4,1024,1024,1024,1024,0,0,0,0,92,4.834,66.56,166.338588,P-GPS,,50.7
108400,2026-01-09 12:38:33,0.0,5,7.772,0.0,0.0,0.0,25.7,-4.3,-7.2,1024,1024,1024,1024,0,0,0,0,91,4.433,66.56,166.338588,P-GPS,,50.7
108500,2026-01-09 12:38:33,0.0,5,7.772,0.0,0.0,0.0,25.6,-4.3,-6.9,1024,1024,1024,1024,0,0,0,0,91,4.433,66.56,166.338588,P-GPS,,50.7
108600,2026-01-09 12:38:33,0.0,5,7.772,0.0,0.0,0.223694,25.6,-4.4,-6.5,1024,1024,1024,1024,0,0,0,0,91,4.433,66.56,166.338588,P-GPS,,50.7
108700,2026-01-09 12:38:33,0.0,5,7.772,0.0,0.0,0.0,25.6,-4.1,-6.5,1024,1024,1024,1024,0,0,0,0,91,4.433,66.56,166.338588,P-GPS,,50.7
108800,2026-01-09 12:38:33,0.0,5,7.772,0.0,0.0,0.0,25.6,-3.8,-6.5,1024,1024,1024,1024,0,0,0,0,91,4.433,66.56,166.338588,P-GPS,,50.7
108900,2026-01-09 12:38:34,0.0,5,7.772,0.0,0.0,0.0,25.7,-4.5,-6.5,1024,1024,1024,1024,0,0,0,0,91,4.433,66.56,166.666672,P-GPS,,50.8
109000,2026-01-09 12:38:34,0.0,5,7.772,0.0,0.0,0.0,25.6,-4.3,-6.3,1024,1024,1024,1024,0,0,0,0,91,4.433,66.56,166.666672,P-GPS,,50.8
109100,2026-01-09 12:38:34,0.0,5,7.772,0.0,0.0,0.0,25.5,-4.8,-6.3,1024,1024,1024,1024,0,0,0,0,91,4.433,66.56,166.666672,P-GPS,,50.8
109200,2026-01-09 12:38:34,0.0,5,7.772,0.0,0.0,0.0,25.5,-4.5,-6.3,1024,1024,1024,1024,0,0,0,0,91,4.433,66.56,166.666672,P-GPS,,50.8
109300,2026-01-09 12:38:34,0.0,5,7.772,0.0,0.0,0.0,25.4,-4.1,-6.3,1024,1024,1024,1024,0,0,0,0,91,4.433,66.56,166.666672,P-GPS,,50.8
109400,2026-01-09 12:38:34,0.0,5,7.772,0.0,0.0,0.0,25.3,-3.9,-6.3,1024,1024,636,1024,0,0,-59,0,91,4.433,66.56,166.666672,P-GPS,,50.8
109500,2026-01-09 12:38:34,0.0,5,7.78,0.0,0.0,0.0,25.2,-4.1,-6.1,1024,1024,364,1024,0,0,-100,0,91,4.411,66.56,166.666672,P-GPS,,50.8
109600,2026-01-09 12:38:34,0.0,5,7.78,0.0,0.0,0.0,25.2,-4.0,-6.1,1024,1024,364,1024,0,0,-100,0,91,4.411,66.56,166.666672,P-GPS,,50.8
109700,2026-01-09 12:38:34,0.0,5,7.78,0.0,0.0,0.223694,24.9,-4.6,-6.7,1024,1024,364,1024,0,0,-100,0,91,4.411,66.56,166.666672,P-GPS,,50.8
109800,2026-01-09 12:38:34,0.0,5,7.78,0.0,0.0,0.894776,24.8,-4.9,-6.7,1024,1024,364,1024,0,0,-100,0,91,4.411,66.56,166.338588,P-GPS,,50.7
109900,2026-01-09 12:38:35,0.0,5,7.78,0.0,0.0,1.789552,24.8,-5.2,-6.2,1024,1024,364,1024,0,0,-100,0,91,4.411,66.56,166.010504,P-GPS,,50.6
110000,2026-01-09 12:38:35,0.0,5,7.78,0.0,0.0,2.460634,24.5,-4.5,-6.0,1024,1024,364,1024,0,0,-100,0,91,4.411,66.56,165.68242,P-GPS,,50.5
110100,2026-01-09 12:38:35,0.0,5,7.78,0.0,0.0,3.131716,24.5,-3.5,-5.2,1024,1024,364,1024,0,0,-100,0,91,4.411,66.56,165.026252,P-GPS,,50.3
110200,2026-01-09 12:38:35,0.0,5,7.78,0.0,0.0,3.579104,24.4,-3.1,-4.7,1024,1024,364,1024,0,0,-100,0,91,4.411,66.56,164.370084,P-GPS,,50.1
110300,2026-01-09 12:38:35,0.0,5,7.78,0.0,0.0,3.802798,24.4,-3.3,-4.6,1024,1024,364,1024,0,0,-100,0,91,4.411,66.56,163.385832,P-GPS,,49.8
110400,2026-01-09 12:38:35,0.0,5,7.78,0.0,0.0,3.802798,24.5,-3.4,-4.5,1024,1024,364,1024,0,0,-100,0,91,4.411,66.56,162.729664,P-GPS,,49.6
110500,2026-01-09 12:38:35,0.0,5,7.78,0.0,0.0,4.026492,24.4,-3.1,-4.4,1024,1024,364,1024,0,0,-100,0,91,4.411,66.56,162.073496,P-GPS,,49.4
110600,2026-01-09 12:38:35,0.0,5,7.78,0.0,0.0,4.026492,24.4,-3.0,-4.4,1024,1024,364,1024,0,0,-100,0,91,4.411,66.56,161.417328,P-GPS,,49.2
110700,2026-01-09 12:38:35,0.0,5,7.78,0.0,0.0,4.026492,24.5,-3.8,-4.1,1024,1024,364,1024,0,0,-100,0,91,4.411,66.56,160.76116,P-GPS,,49.0
110800,2026-01-09 12:38:35,0.0,5,7.78,0.0,0.0,4.026492,24.6,-3.8,-4.4,1024,1024,364,1024,0,0,-100,0,91,4.411,66.56,160.104992,P-GPS,,48.8
110900,2026-01-09 12:38:36,0.0,5,7.78,0.0,0.0,4.026492,24.7,-3.9,-4.6,1024,1024,364,1024,0,0,-100,0,91,4.411,66.56,159.776908,P-GPS,,48.7
111000,2026-01-09 12:38:36,0.0,5,7.78,0.0,0.0,4.026492,24.8,-4.0,-5.1,1024,1024,364,1024,0,0,-100,0,91,4.411,66.56,159.12074,P-GPS,,48.5
111100,2026-01-09 12:38:36,0.0,5,7.78,0.0,0.0,4.026492,24.8,-4.0,-5.1,1024,1024,364,1024,0,0,-100,0,91,4.411,66.56,158.792656,P-GPS,,48.4
111200,2026-01-09 12:38:36,0.0,5,7.78,0.0,0.0,3.802798,24.9,-4.3,-5.3,1024,1024,364,1024,0,0,-100,0,91,4.411,66.56,158.464572,P-GPS,,48.3
111300,2026-01-09 12:38:36,0.0,5,7.78,0.0,0.0,3.802798,24.9,-4.3,-5.5,1024,1024,364,1024,0,0,-100,0,91,4.411,66.56,157.808404,P-GPS,,48.1
