time(millisecond),timestamp,altitude_above_seaLevel(feet),height_sonar(feet),speed(mph),distance(feet),mileage(feet),satellites,gpslevel,voltage(v),max_altitude(feet),max_ascent(feet),max_speed(mph),max_distance(feet), xSpeed(mph), ySpeed(mph), zSpeed(mph), compass_heading(degrees), pitch(degrees), roll(degrees),isPhoto,isVideo,rc_elevator,rc_aileron,rc_throttle,rc_rudder,rc_elevator(percent),rc_aileron(percent),rc_throttle(percent),rc_rudder(percent),gimbal_heading(degrees),gimbal_pitch(degrees),gimbal_roll(degrees),battery_percent,voltageCell1,voltageCell2,voltageCell3,voltageCell4,voltageCell5,voltageCell6,current(A),battery_temperature(f),altitude(feet),ascent(feet),flycStateRaw,flycState,message,height_above_takeoff(meters)
325700,2026-01-06 16:47:07,720.87142529886,0.328084,0.0,0.0,0.0,15,5,0.0,720.87142529886,0.0,0.0,0.0,0.0,0.0,0.0,105.1,-0.1,1.3,0,0,1024,1024,1024,1024,0,0,0,0,0,0,0,56,3.749,3.755,0,0,0,0,0.0,74.48,720.87142529886,0.0,41,Motors_Started,SD card speed low SD card speed low. Normal use may be affected. Replace SD card (Code: 10028). Gimbal stuck. Make sure gimbal cover is removed and manually check whether gimbal can rotate freely (Code: 40002),0.0
325800,2026-01-06 16:47:07,720.87142529886,0.328084,0.0,0.0125248035504,0.0125248035504,15,5,0.0,720.87142529886,0.0,0.0,0.0125248035504,0.0,0.0,0.0,105.1,-0.1,1.3,0,0,1024,1024,1024,1024,0,0,0,0,0,0,0,56,3.749,3.755,0,0,0,0,0.0,74.48,720.87142529886,0.0,41,Motors_Started,,0.0
325900,2026-01-06 16:47:07,720.87142529886,0.328084,0.0,0.0193485570496,0.0194617460296,15,5,0.0,720.87142529886,0.0,0.0,0.0193485570496,0.0,0.0,0.0,105.1,-0.1,1.3,0,0,1024,1024,1024,1024,0,0,0,0,0,0,0,56,3.749,3.755,0,0,0,0,0.0,74.48,720.87142529886,0.0,41,Motors_Started,,0.0
326000,2026-01-06 16:47:07,720.87142529886,0.328084,0.0,0.033881562764,0.034356300312,15,5,0.0,720.87142529886,0.0,0.0,0.033881562764,0.0,0.0,0.0,105.1,-0.1,1.3,0,0,1024,1024,1024,1024,0,0,0,0,0,0,0,56,3.749,3.755,0,0,0,0,0.0,74.48,720.87142529886,0.0,41,Motors_Started,Setting new Return-To-Home altitude to 500m (1640 ft). Data Recorder File Index is 25. Setting new Maximum Flight Altitude to 500m (1640 ft),0.0
326100,2026-01-06 16:47:07,720.87142529886,0.328084,0.0,214.527894004,0.050874673544,15,5,0.0,720.87142529886,0.0,0.0,214.527894004,0.0,0.0,0.0,105.1,-0.1,1.4,0,0,1024,1024,1024,1024,0,0,0,0,0,0,0,56,3.749,3.755,0,0,0,0,0.0,74.48,720.87142529886,0.0,41,Motors_Started,,0.0
326200,2026-01-06 16:47:08,720.87142529886,0.328084,0.0,214.505256208,0.073608598156,15,5,0.0,720.87142529886,0.0,0.0,214.527894004,0.0,0.0,0.0,105.1,-0.1,1.3,0,0,1024,1024,1024,1024,0,0,0,0,0,0,0,56,3.749,3.755,0,0,0,0,0.0,74.48,720.87142529886,0.0,41,Motors_Started,,0.0
326300,2026-01-06 16:47:08,720.87142529886,0.328084,0.0,214.487539672,0.093707680164,15,5,0.0,720.87142529886,0.0,0.0,214.527894004,0.0,0.0,0.0,105.1,0.0,1.2,0,0,1024,1024,1024,1024,0,0,0,0,0,0,0,56,3.749,3.755,0,0,0,0,0.0,74.48,720.87142529886,0.0,41,Motors_Started,,0.0
326400,2026-01-06 16:47:08,720.87142529886,0.328084,0.0,214.475400564,0.1072670638,16,5,0.0,720.87142529886,0.0,0.0,214.527894004,0.0,0.0,0.0,105.3,0.0,1.3,0,0,1024,1024,1024,1024,0,0,0,0,0,0,0,56,3.749,3.755,0,0,0,0,0.0,74.48,720.87142529886,0.0,41,Motors_Started,,0.0
326500,2026-01-06 16:47:08,720.87142529886,0.328084,0.0,214.468838884,0.11395669656,16,5,0.0,720.87142529886,0.0,0.0,214.527894004,0.0,0.0,0.0,105.4,-0.1,1.3,0,0,1024,1024,1024,1024,0,0,0,0,0,0,0,56,3.749,3.755,0,0,0,0,0.0,74.48,720.87142529886,0.0,41,Motors_Started,,0.0
326600,2026-01-06 16:47:08,720.87142529886,0.328084,0.0,214.498694528,0.145727694952,15,5,7.503,720.87142529886,0.0,0.0,214.527894004,0.0,0.0,0.0,105.4,-0.1,1.3,0,0,1024,1024,1024,1024,0,0,0,0,0,0,0,56,3.749,3.755,0,0,0,0,1.099,74.48,720.87142529886,0.0,41,Motors_Started,,0.0
326700,2026-01-06 16:47:08,720.87142529886,0.328084,0.0,214.472447808,0.172024939888,15,5,7.503,720.87142529886,0.0,0.0,214.527894004,0.0,0.0,0.0,105.4,-0.1,1.3,0,0,1024,1024,1024,1024,0,0,0,0,0,0,0,56,3.749,3.755,0,0,0,0,1.099,74.48,720.87142529886,0.0,41,Motors_Started,,0.0
326800,2026-01-06 16:47:08,720.87142529886,0.328084,0.0,214.454403188,0.190145347292,16,5,7.503,720.87142529886,0.0,0.0,214.527894004,0.0,0.0,0.0,105.4,-0.1,1.3,0,0,1024,1024,1024,1024,0,0,0,0,0,0,0,56,3.749,3.755,0,0,0,0,1.099,74.48,720.87142529886,0.0,11,AutoTakeoff,,0.0
326900,2026-01-06 16:47:08,720.87142529886,0.328084,0.0,214.4439045,0.200871725588,16,5,7.503,720.87142529886,0.0,0.0,214.527894004,0.0,0.0,0.0,105.4,-0.1,1.3,0,0,1024,1024,1024,1024,0,0,0,0,0,0,0,56,3.749,3.755,0,0,0,0,1.099,74.48,720.87142529886,0.0,11,AutoTakeoff,,0.0
327000,2026-01-06 16:47:08,720.87142529886,0.328084,0.0,214.451122348,0.210794954252,16,5,7.503,720.87142529886,0.0,0.0,214.527894004,0.0,0.0,0.0,105.4,-0.1,1.1,0,0,1024,1024,1024,1024,0,0,0,0,0,0,0,56,3.749,3.755,0,0,0,0,1.099,74.48,720.87142529886,0.0,11,AutoTakeoff,,0.0
327100,2026-01-06 16:47:08,720.87142529886,0.328084,0.0,214.439311324,0.226439639792,16,5,7.503,720.87142529886,0.0,0.0,214.527894004,0.0,0.0,0.0,105.4,-0.1,1.2,0,0,1024,1024,1024,1024,0,0,0,0,0,0,0,56,3.749,3.755,0,0,0,0,1.099,74.48,720.87142529886,0.0,11,AutoTakeoff,,0.0
327200,2026-01-06 16:47:09,720.87142529886,0.328084,0.0,214.424547544,0.2412483673,16,5,7.503,720.87142529886,0.0,0.0,214.527894004,0.0,0.0,0.0,105.5,-0.2,1.0,0,0,1024,1024,1024,1024,0,0,0,0,0,0,0,56,3.749,3.755,0,0,0,0,1.099,74.48,720.87142529886,0.0,11,AutoTakeoff,,0.0
327300,2026-01-06 16:47:09,720.87142529886,0.328084,0.0,214.405846756,0.2620406908,16,5,7.503,720.87142529886,0.0,0.0,214.527894004,0.0,0.0,0.0,105.6,-0.3,0.7,0,0,1024,1024,1024,1024,0,0,0,0,0,0,0,56,3.749,3.755,0,0,0,0,1.099,74.48,720.87142529886,0.0,11,AutoTakeoff,,0.0
327400,2026-01-06 16:47:09,720.87142529886,0.328084,0.0,214.422250956,0.27930283046,16,5,7.503,720.87142529886,0.0,0.0,214.527894004,0.0,0.0,0.0,105.5,-0.4,0.0,0,0,1024,1024,1024,1024,0,0,0,0,0,0,0,56,3.749,3.755,0,0,0,0,1.099,74.48,720.87142529886,0.0,11,AutoTakeoff,,0.0
327500,2026-01-06 16:47:09,720.87142529886,0.328084,0.0,214.410439932,0.292677502804,16,5,7.503,720.87142529886,0.0,0.0,214.527894004,0.0,0.0,0.0,105.3,-0.6,-0.7,0,0,1024,1024,1024,1024,0,0,0,0,0,0,0,56,3.749,3.755,0,0,0,0,1.099,74.48,720.87142529886,0.0,11,AutoTakeoff,,0.0
327600,2026-01-06 16:47:09,720.87142529886,0.328084,0.0,214.40125358,0.302329077916,16,5,7.503,720.87142529886,0.0,0.0,214.527894004,0.0,0.0,0.0,105.2,-0.4,-0.9,0,0,1024,1024,1024,1024,0,0,0,0,0,0,0,56,3.749,3.755,0,0,0,0,1.099,74.48,720.87142529886,0.0,11,AutoTakeoff,,0.0
327700,2026-01-06 16:47:09,720.87142529886,0.328084,0.0,214.39633232,0.320348435448,16,5,7.387,720.87142529886,0.0,0.0,214.527894004,0.0,0.0,0.0,105.3,0.8,-1.2,0,0,1024,1024,1024,1024,0,0,0,0,0,0,0,56,3.695,3.691,0,0,0,0,2.828,74.48,720.87142529886,0.0,11,AutoTakeoff,,0.0
327800,2026-01-06 16:47:09,720.87142529886,0.328084,0.0,214.419954368,0.3469324258,16,5,7.387,720.87142529886,0.0,0.0,214.527894004,0.0,0.0,-0.223694,106.2,1.0,-1.0,0,0,1024,1024,1024,1024,0,0,0,0,0,0,0,56,3.695,3.691,0,0,0,0,2.828,74.48,720.87142529886,0.0,11,AutoTakeoff,,0.0
327900,2026-01-06 16:47:09,720.87142529886,0.328084,0.223694,214.439967492,0.36828741336,16,5,7.387,720.87142529886,0.0,0.223694,214.527894004,0.0,0.223694,-0.447388,106.2,1.6,-0.3,0,0,1024,1024,1024,1024,0,0,0,0,0,0,0,56,3.695,3.691,0,0,0,0,2.828,74.48,720.87142529886,0.0,11,AutoTakeoff,,0.0
328000,2026-01-06 16:47:09,720.87142529886,0.328084,0.223694,214.467526548,0.39928150884,16,5,7.387,720.87142529886,0.0,0.223694,214.527894004,0.0,0.223694,-0.894776,106.3,2.1,0.4,0,0,1024,1024,1024,1024,0,0,0,0,0,0,0,56,3.695,3.691,0,0,0,0,2.828,74.48,720.87142529886,0.0,11,AutoTakeoff,Home Point updated. RTH altitude adjusted to 500 m (Code: 120852),0.0
328100,2026-01-06 16:47:09,720.87142529886,0.656168,0.223694,214.501647284,0.43860893792,16,5,7.387,720.87142529886,0.0,0.223694,214.527894004,0.0,0.223694,-1.342164,106.2,2.0,0.7,0,0,1024,1024,1024,1024,0,0,0,0,0,0,0,56,3.695,3.691,0,0,0,0,2.828,74.48,720.87142529886,0.0,11,AutoTakeoff,,0.0
328200,2026-01-06 16:47:10,721.19950929886,0.656168,0.223694,214.533799516,0.48178151148,16,5,7.387,721.19950929886,0.328084,0.223694,214.533799516,0.0,0.223694,-1.565858,106.2,2.6,0.3,0,0,1024,1024,1024,1024,0,0,0,0,0,0,0,56,3.695,3.691,0,0,0,0,2.828,74.48,721.19950929886,0.328084,11,AutoTakeoff,,0.1
328300,2026-01-06 16:47:10,721.52759329886,0.984252,0.223694,214.627303456,0.59638781436,16,5,7.387,721.52759329886,0.656168,0.223694,214.627303456,0.0,0.223694,-2.013246,106.0,2.3,0.2,0,0,1024,1024,1024,1024,0,0,0,0,0,0,0,56,3.695,3.691,0,0,0,0,2.828,74.48,721.52759329886,0.656168,11,AutoTakeoff,,0.2
328400,2026-01-06 16:47:10,721.85567729886,1.312336,0.223694,214.674547552,0.65459975848,16,5,7.387,721.85567729886,0.984252,0.223694,214.674547552,0.0,0.223694,-2.23694,106.0,2.6,0.7,0,0,1024,1024,1024,1024,0,0,0,0,0,0,0,56,3.695,3.691,0,0,0,0,2.828,74.48,721.85567729886,0.984252,11,AutoTakeoff,,0.3
328500,2026-01-06 16:47:10,722.18376129886,1.64042,0.223694,214.731962252,0.71539700452,16,5,7.387,722.18376129886,1.312336,0.223694,214.731962252,0.0,0.223694,-2.23694,105.9,2.6,0.5,0,0,1024,1024,1024,1024,0,0,0,0,0,0,0,56,3.695,3.691,0,0,0,0,2.828,74.48,722.18376129886,1.312336,11,AutoTakeoff,,0.4
328600,2026-01-06 16:47:10,722.51184529886,1.968504,0.223694,214.787408448,0.77250330556,16,5,7.387,722.51184529886,1.64042,0.223694,214.787408448,0.0,0.223694,-2.460634,105.9,3.2,1.0,0,0,1024,1024,1024,1024,0,0,0,0,0,0,0,56,3.695,3.691,0,0,0,0,2.828,74.48,722.51184529886,1.64042,11,AutoTakeoff,,0.5
328700,2026-01-06 16:47:10,722.83992929886,2.296588,0.223694,214.90486252,0.903461315,16,5,7.387,722.83992929886,1.968504,0.223694,214.90486252,0.0,0.223694,-2.23694,105.8,3.1,1.7,0,0,1024,1024,1024,1024,0,0,0,0,0,0,0,56,3.695,3.691,0,0,0,0,2.828,74.48,722.83992929886,1.968504,11,AutoTakeoff,,0.6
328800,2026-01-06 16:47:10,723.16801329886,2.624672,0.223694,214.953747036,0.95247378376,16,5,7.387,723.16801329886,2.296588,0.223694,214.953747036,0.0,0.223694,-2.23694,105.8,2.7,1.1,0,0,1024,1417,1024,1024,0,60,0,0,0,0,0,56,3.644,3.643,0,0,0,0,2.828,74.48,723.16801329886,2.296588,11,AutoTakeoff,,0.7
328900,2026-01-06 16:47:10,723.49609729886,2.952756,0.223694,215.00328772,1.0042159114,16,5,7.387,723.49609729886,2.624672,0.223694,215.00328772,0.0,0.223694,-2.013246,105.8,3.3,0.9,0,0,1024,1665,1024,1024,0,97,0,0,0,0,0,56,3.644,3.643,0,0,0,0,2.828,74.48,723.49609729886,2.624672,6,P-GPS,,0.8
329000,2026-01-06 16:47:10,723.82418129886,3.28084,0.223694,215.051516068,1.05292326204,16,5,7.387,723.82418129886,2.952756,0.223694,215.051516068,0.0,0.223694,-1.789552,105.9,3.6,0.6,0,0,1024,1673,1024,1024,0,98,0,0,0,0,0,56,3.644,3.643,0,0,0,0,2.828,74.48,723.82418129886,2.952756,6,P-GPS,,0.9
329100,2026-01-06 16:47:10,724.15226529886,3.608924,0.223694,215.152894024,1.1580709032,16,5,7.387,724.15226529886,3.28084,0.223694,215.152894024,0.0,0.223694,-1.342164,106.3,3.5,4.7,0,0,1024,1681,1024,1024,0,100,0,0,0,0,0,56,3.644,3.643,0,0,0,0,2.828,74.48,724.15226529886,3.28084,6,P-GPS,,1.0
329200,2026-01-06 16:47:11,724.15226529886,3.937008,0.4921268,215.168642056,1.21386814908,16,5,7.387,724.15226529886,3.28084,0.4921268,215.168642056,-0.447388,0.223694,-1.11847,106.7,3.8,11.2,0,0,1024,1681,1024,1024,0,100,0,0,0,0,0,56,3.644,3.643,0,0,0,0,2.828,74.48,724.15226529886,3.28084,6,P-GPS,,1.0
329300,2026-01-06 16:47:11,724.48034929886,3.937008,0.671082,215.120741792,1.30819229908,16,5,7.387,724.48034929886,3.608924,0.671082,215.168642056,-0.671082,0.0,-0.447388,106.9,4.2,15.4,0,0,1024,1317,1024,1024,0,44,0,0,0,0,0,56,3.644,3.643,0,0,0,0,2.828,74.48,724.48034929886,3.608924,6,P-GPS,,1.1
329400,2026-01-06 16:47:11,724.48034929886,4.265092,1.11847,215.031502944,1.44929138496,15,5,7.387,724.48034929886,3.608924,1.11847,215.168642056,-1.11847,0.0,-0.223694,106.9,4.9,17.1,0,0,1024,1024,1024,1024,0,0,0,0,0,0,0,56,3.644,3.643,0,0,0,0,2.828,74.48,724.48034929886,3.608924,6,P-GPS,,1.1
329500,2026-01-06 16:47:11,724.48034929886,4.265092,1.789552,214.899285092,1.67460307196,15,5,7.387,724.48034929886,3.608924,1.789552,215.168642056,-1.789552,0.0,0.0,106.8,5.2,17.5,0,0,1024,925,1024,1024,0,-15,0,0,0,0,0,56,3.644,3.643,0,0,0,0,2.828,74.48,724.48034929886,3.608924,6,P-GPS,,1.1
329600,2026-01-06 16:47:11,724.48034929886,4.265092,2.23694,214.687670912,1.94691935364,15,5,7.387,724.48034929886,3.608924,2.23694,215.168642056,-2.23694,0.0,0.0,106.3,5.2,5.7,0,0,1024,364,1024,1024,0,-100,0,0,0,0,0,56,3.644,3.643,0,0,0,0,2.828,74.48,724.48034929886,3.608924,6,P-GPS,,1.1
329700,2026-01-06 16:47:11,724.48034929886,4.265092,2.23694,214.427828384,2.27037736924,15,5,7.387,724.48034929886,3.608924,2.23694,215.168642056,-2.23694,0.0,0.0,105.6,4.6,-5.9,0,0,1024,364,1024,1024,0,-100,0,0,0,0,0,56,3.644,3.643,0,0,0,0,2.828,74.48,724.48034929886,3.608924,6,P-GPS,,1.1
329800,2026-01-06 16:47:11,724.48034929886,4.265092,1.789552,214.198169584,2.5610401082,16,5,7.387,724.48034929886,3.608924,2.23694,215.168642056,-1.789552,0.0,0.0,105.4,3.8,-8.1,0,0,1024,364,1024,1024,0,-100,0,0,0,0,0,56,3.644,3.643,0,0,0,0,2.828,74.48,724.48034929886,3.608924,6,P-GPS,,1.1
329900,2026-01-06 16:47:11,724.48034929886,4.265092,1.342164,214.0009911,2.82622056288,16,5,7.279,724.48034929886,3.608924,2.23694,215.168642056,-1.342164,0.0,0.0,105.2,4.2,-14.7,0,0,1024,677,1024,1024,0,-53,0,0,0,0,0,56,3.647,3.646,0,0,0,0,6.086,74.48,724.48034929886,3.608924,6,P-GPS,,1.1
330000,2026-01-06 16:47:11,724.48034929886,4.265092,0.4921268,213.888130204,3.08984918024,16,5,7.279,724.48034929886,3.608924,2.23694,215.168642056,-0.447388,0.223694,0.0,105.2,4.0,-16.9,0,0,1024,1024,1024,753,0,0,0,-41,0,0,0,56,3.647,3.646,0,0,0,0,6.086,74.48,724.48034929886,3.608924,6,P-GPS,,1.1
330100,2026-01-06 16:47:12,724.48034929886,4.265092,0.447388,213.876975348,3.25015430348,16,5,7.279,724.48034929886,3.608924,2.23694,215.168642056,0.0,0.447388,0.0,105.1,4.5,-16.5,0,0,1024,1024,1024,364,0,0,0,-100,0,0,0,56,3.647,3.646,0,0,0,0,6.086,74.48,724.48034929886,3.608924,6,P-GPS,,1.1
330200,2026-01-06 16:47:12,724.48034929886,4.265092,0.9395148,213.980977976,3.402723206,16,5,7.279,724.48034929886,3.608924,2.23694,215.168642056,0.671082,0.671082,0.0,105.0,5.4,-12.6,0,0,1024,1024,1024,364,0,0,0,-100,0,0,0,56,3.647,3.646,0,0,0,0,6.086,74.48,724.48034929886,3.608924,6,P-GPS,,1.1
330300,2026-01-06 16:47:12,724.48034929886,4.265092,1.4316416,214.203418928,3.6390749196,16,5,7.279,724.48034929886,3.608924,2.23694,215.168642056,1.11847,0.894776,0.0,105.4,5.7,1.4,0,0,1024,1024,1024,364,0,0,0,-100,0,0,0,56,3.647,3.646,0,0,0,0,6.086,74.48,724.48034929886,3.608924,6,P-GPS,,1.1
330400,2026-01-06 16:47:12,724.48034929886,4.265092,1.11847,214.527894004,4.0363846436,16,5,7.279,724.48034929886,3.608924,2.23694,215.168642056,0.894776,0.671082,0.0,94.7,6.4,6.1,0,0,1024,1024,1024,364,0,0,0,-100,0,0,0,56,3.647,3.646,0,0,0,0,6.086,74.48,724.48034929886,3.608924,6,P-GPS,,1.1
330500,2026-01-06 16:47:12,724.48034929886,4.265092,0.9395148,214.784455692,4.2931759904,16,5,7.279,724.48034929886,3.608924,2.23694,215.168642056,0.671082,0.671082,0.0,81.9,6.3,4.6,0,0,1024,1024,1024,364,0,0,0,-100,0,0,0,56,3.647,3.646,0,0,0,0,6.086,74.48,724.48034929886,3.608924,6,P-GPS,,1.1
330600,2026-01-06 16:47:12,724.48034929886,4.265092,0.6263432,215.01148982,4.5208990948,16,5,7.279,724.48034929886,3.608924,2.23694,215.168642056,0.447388,0.447388,0.0,69.0,6.2,1.8,0,0,1024,1024,1024,364,0,0,0,-100,0,0,0,56,3.647,3.646,0,0,0,0,6.086,74.48,724.48034929886,3.608924,6,P-GPS,,1.1
330700,2026-01-06 16:47:12,724.48034929886,4.265092,0.6263432,215.233274604,4.7495736428,16,5,7.279,724.48034929886,3.608924,2.23694,215.233274604,0.447388,0.447388,0.0,56.3,6.2,-0.1,0,0,1024,1024,1024,670,0,0,0,-54,0,0,0,56,3.647,3.646,0,0,0,0,6.086,74.48,724.48034929886,3.608924,6,P-GPS,,1.1
330800,2026-01-06 16:47:12,724.48034929886,4.265092,0.4921268,215.686686692,5.3588912476,16,5,7.279,724.48034929886,3.608924,2.23694,215.686686692,0.223694,0.447388,0.0,43.6,5.6,-1.3,0,0,1024,1024,1024,1024,0,0,0,0,0,0,0,56,3.647,3.646,0,0,0,0,6.086,74.48,724.48034929886,3.608924,6,P-GPS,,1.1
330900,2026-01-06 16:47:12,724.48034929886,4.265092,0.4921268,215.825794308,5.5119424336,16,5,7.279,724.48034929886,3.608924,2.23694,215.825794308,0.223694,0.447388,0.0,31.0,4.8,-2.6,0,0,1024,1024,1024,1024,0,0,0,0,0,0,0,56,3.647,3.646,0,0,0,0,6.086,74.48,724.48034929886,3.608924,6,P-GPS,,1.1
331000,2026-01-06 16:47:12,724.80843329886,4.265092,0.4921268,215.899941292,5.5947180268,16,5,7.279,724.80843329886,3.937008,2.23694,215.899941292,0.223694,0.223694,0.0,22.5,5.4,-4.4,0,0,1024,1024,1024,1024,0,0,0,0,0,0,0,56,3.647,3.646,0,0,0,0,6.086,74.48,724.80843329886,3.937008,6,P-GPS,,1.2
331100,2026-01-06 16:47:12,724.80843329886,4.265092,0.223694,215.888458352,5.6120080536,16,5,7.29,724.80843329886,3.937008,2.23694,215.899941292,0.0,0.223694,0.0,22.9,5.2,-3.4,0,0,1024,1024,1024,1024,0,0,0,0,0,0,0,56,3.646,3.627,0,0,0,0,5.388,74.48,724.80843329886,3.937008,6,P-GPS,,1.2
331200,2026-01-06 16:47:13,724.80843329886,4.265092,0.223694,215.52986254,5.9707679076,16,5,7.29,724.80843329886,3.937008,2.23694,215.899941292,0.0,0.223694,0.0,23.0,3.8,-2.7,0,0,1024,1024,1024,525,0,0,0,-76,0,0,0,56,3.646,3.627,0,0,0,0,5.388,74.48,724.80843329886,3.937008,6,P-GPS,,1.2
331300,2026-01-06 16:47:13,724.80843329886,4.265092,0.223694,215.513130256,5.9877626588,16,5,7.29,724.80843329886,3.937008,2.23694,215.899941292,0.0,0.223694,0.0,23.1,3.2,-3.0,0,0,1024,1024,1024,364,0,0,0,-100,0,0,0,56,3.646,3.627,0,0,0,0,5.388,74.48,724.80843329886,3.937008,6,P-GPS,,1.2
331400,2026-01-06 16:47:13,725.13651729886,4.265092,0.3131716,215.5101775,5.9948820816,16,5,7.29,725.13651729886,4.265092,2.23694,215.899941292,0.223694,0.223694,0.0,22.9,3.8,-3.9,0,0,1024,1024,1024,1024,0,0,0,0,0,0,0,56,3.646,3.627,0,0,0,0,5.388,74.48,725.13651729886,4.265092,6,P-GPS,,1.3
331500,2026-01-06 16:47:13,725.13651729886,4.265092,0.3131716,215.539048892,6.0252298516,16,5,7.29,725.13651729886,4.265092,2.23694,215.899941292,0.223694,0.223694,0.0,12.7,3.9,-4.2,0,0,1024,1024,1024,1024,0,0,0,0,0,0,0,56,3.646,3.627,0,0,0,0,5.388,74.48,725.13651729886,4.265092,6,P-GPS,,1.3
331600,2026-01-06 16:47:13,725.13651729886,4.265092,0.3131716,215.579731308,6.0666340524,16,5,7.29,725.13651729886,4.265092,2.23694,215.899941292,0.223694,0.223694,0.0,10.2,5.2,-5.8,0,0,1024,1024,1024,1024,0,0,0,0,0,0,0,56,3.646,3.627,0,0,0,0,5.388,74.48,725.13651729886,4.265092,6,P-GPS,,1.3
331700,2026-01-06 16:47:13,725.13651729886,4.265092,0.223694,215.696201128,6.1831366808,16,5,7.29,725.13651729886,4.265092,2.23694,215.899941292,0.0,0.223694,0.0,10.1,5.3,-5.7,0,0,1024,1024,1024,1024,0,0,0,0,0,0,0,56,3.646,3.627,0,0,0,0,5.388,74.48,725.13651729886,4.265092,6,P-GPS,,1.3
331800,2026-01-06 16:47:13,725.13651729886,4.265092,0.0,215.74475756,6.2324148976,16,5,7.29,725.13651729886,4.265092,2.23694,215.899941292,0.0,0.0,0.0,10.3,4.3,-4.7,0,0,1024,1024,1043,1024,0,0,3,0,0,0,0,56,3.646,3.627,0,0,0,0,5.388,74.48,725.13651729886,4.265092,6,P-GPS,,1.3
331900,2026-01-06 16:47:13,725.13651729886,4.265092,0.0,215.797579084,6.288878154,16,5,7.29,725.13651729886,4.265092,2.23694,215.899941292,0.0,0.0,0.0,10.4,3.7,-4.5,0,0,1024,1024,1217,1024,0,0,29,0,0,0,0,56,3.646,3.627,0,0,0,0,5.388,74.48,725.13651729886,4.265092,6,P-GPS,,1.3
332000,2026-01-06 16:47:13,725.13651729886,4.265092,0.0,215.846791684,6.3415028276,16,5,7.29,725.13651729886,4.265092,2.23694,215.899941292,0.0,0.0,0.0,10.3,3.9,-5.2,0,0,1024,1024,1388,1024,0,0,55,0,0,0,0,56,3.646,3.627,0,0,0,0,5.388,74.48,725.13651729886,4.265092,6,P-GPS,,1.3
332100,2026-01-06 16:47:13,725.13651729886,4.265092,0.0,216.014114524,6.517224618,16,5,7.29,725.13651729886,4.265092,2.23694,216.014114524,0.0,0.0,0.0,10.0,4.4,-5.1,0,0,1024,1024,1388,1024,0,0,55,0,0,0,0,56,3.646,3.627,0,0,0,0,5.388,74.48,725.13651729886,4.265092,6,P-GPS,,1.3
332200,2026-01-06 16:47:14,725.13651729886,4.265092,0.0,216.044298252,6.5566603148,16,5,7.277,725.13651729886,4.265092,2.23694,216.044298252,0.0,0.0,0.0,10.4,3.0,-4.7,0,0,1024,1024,1496,1024,0,0,72,0,0,0,0,56,3.638,3.638,0,0,0,0,5.644,74.48,725.13651729886,4.265092,6,P-GPS,,1.3
332300,2026-01-06 16:47:14,725.13651729886,4.265092,0.0,216.061686704,6.60351071,16,5,7.277,725.13651729886,4.265092,2.23694,216.061686704,0.0,0.0,-0.223694,10.5,3.6,-4.5,0,0,1024,1024,1511,1024,0,0,74,0,0,0,0,56,3.638,3.638,0,0,0,0,5.644,74.48,725.13651729886,4.265092,6,P-GPS,,1.3
332400,2026-01-06 16:47:14,725.13651729886,4.265092,0.0,216.062670956,6.6479332836,16,5,7.277,725.13651729886,4.265092,2.23694,216.062670956,0.0,0.0,-0.671082,10.2,3.8,-3.1,0,0,1024,1024,1507,1024,0,0,73,0,0,0,0,56,3.638,3.638,0,0,0,0,5.644,74.48,725.13651729886,4.265092,6,P-GPS,,1.3
332500,2026-01-06 16:47:14,725.46460129886,4.593176,0.0,216.033143396,6.7663059908,16,5,7.277,725.46460129886,4.593176,2.23694,216.062670956,0.0,0.0,-1.565858,10.4,2.7,-4.5,0,0,1024,1024,1508,1024,0,0,73,0,0,0,0,56,3.638,3.638,0,0,0,0,5.644,74.48,725.46460129886,4.593176,6,P-GPS,,1.4
332600,2026-01-06 16:47:14,725.79268529886,4.92126,0.0,216.003615836,6.81266426,16,5,7.277,725.79268529886,4.92126,2.23694,216.062670956,0.0,0.0,-2.013246,10.5,2.2,-4.9,0,0,1024,1024,1511,1024,0,0,74,0,0,0,0,56,3.638,3.638,0,0,0,0,5.644,74.48,725.79268529886,4.92126,6,P-GPS,,1.5
332700,2026-01-06 16:47:14,726.12076929886,5.249344,0.0,215.970807436,6.8647968076,16,5,7.277,726.12076929886,5.249344,2.23694,216.062670956,0.0,0.0,-2.460634,10.5,1.8,-4.7,0,0,1024,1024,1510,1024,0,0,74,0,0,0,0,56,3.638,3.638,0,0,0,0,5.644,74.48,726.12076929886,5.249344,6,P-GPS,,1.6
332800,2026-01-06 16:47:14,726.44885329886,5.577428,0.0,215.941279876,6.9143374916,16,5,7.277,726.44885329886,5.577428,2.23694,216.062670956,0.0,0.0,-2.684328,10.4,1.7,-4.8,0,0,1024,1024,1510,1024,0,0,74,0,0,0,0,56,3.638,3.638,0,0,0,0,5.644,74.48,726.44885329886,5.577428,6,P-GPS,,1.7
332900,2026-01-06 16:47:14,726.77693729886,6.233596,0.0,215.90879956,6.9712600656,16,5,7.277,726.77693729886,5.905512,2.23694,216.062670956,0.0,0.0,-2.684328,10.4,1.9,-4.5,0,0,1024,1024,1510,1024,0,0,74,0,0,0,0,56,3.638,3.638,0,0,0,0,5.644,74.48,726.77693729886,5.905512,6,P-GPS,,1.8
333000,2026-01-06 16:47:14,727.10502129886,6.56168,0.0,215.903550216,7.0314634796,16,5,7.277,727.10502129886,6.233596,2.23694,216.062670956,0.0,0.0,-2.684328,10.3,2.6,-4.2,0,0,1024,1024,1522,1024,0,0,75,0,0,0,0,56,3.638,3.638,0,0,0,0,5.644,74.48,727.10502129886,6.233596,6,P-GPS,,1.9
333100,2026-01-06 16:47:14,727.43310529886,6.889764,0.0,215.916017408,7.1048886788,16,5,7.277,727.43310529886,6.56168,2.23694,216.062670956,0.0,0.0,-2.684328,10.2,2.6,-4.0,0,0,1024,1024,1522,1024,0,0,75,0,0,0,0,56,3.638,3.638,0,0,0,0,5.644,74.48,727.43310529886,6.56168,6,P-GPS,,2.0
333200,2026-01-06 16:47:15,727.76118929886,7.217848,0.0,215.909455728,7.1705710956,16,5,7.277,727.76118929886,6.889764,2.23694,216.062670956,0.0,0.0,-2.684328,10.2,2.2,-4.0,0,0,1024,1024,1599,1024,0,0,87,0,0,0,0,56,3.638,3.638,0,0,0,0,5.644,74.48,727.76118929886,6.889764,6,P-GPS,,2.1
333300,2026-01-06 16:47:15,728.08927329886,7.874016,0.0,215.875334992,7.238681334,16,5,7.277,728.08927329886,7.217848,2.23694,216.062670956,0.0,0.0,-2.684328,10.2,2.2,-3.8,0,0,1024,1024,1637,1024,0,0,93,0,0,0,0,56,3.638,3.638,0,0,0,0,5.644,74.48,728.08927329886,7.217848,6,P-GPS,,2.2
333400,2026-01-06 16:47:15,728.74544129886,8.2021,0.0,215.917329744,7.3738847504,16,5,7.228,728.74544129886,7.874016,2.23694,216.062670956,0.0,0.0,-2.908022,10.3,4.0,-3.6,0,0,1024,1024,1637,1024,0,0,93,0,0,0,0,56,3.615,3.615,0,0,0,0,6.631,74.48,728.74544129886,7.874016,6,P-GPS,,2.4
333500,2026-01-06 16:47:15,729.07352529886,8.530184,0.0,215.932093524,7.463746958,16,5,7.228,729.07352529886,8.2021,2.23694,216.062670956,0.0,0.0,-3.131716,10.3,3.4,-3.4,0,0,1024,1024,1637,1024,0,0,93,0,0,0,0,56,3.615,3.615,0,0,0,0,6.631,74.48,729.07352529886,8.2021,6,P-GPS,,2.5
333600,2026-01-06 16:47:15,729.72969329886,9.186352,0.0,215.91043998,7.5180776684,16,5,7.228,729.72969329886,8.858268,2.23694,216.062670956,0.0,0.0,-3.579104,10.3,2.8,-3.7,0,0,1024,1024,1637,1024,0,0,93,0,0,0,0,56,3.615,3.615,0,0,0,0,6.631,74.48,729.72969329886,8.858268,6,P-GPS,,2.7
333700,2026-01-06 16:47:15,730.05777729886,9.514436,0.0,215.846135516,7.5831367256,16,5,7.228,730.05777729886,9.186352,2.23694,216.062670956,0.0,0.0,-3.802798,10.4,2.0,-3.7,0,0,1024,1024,1637,1024,0,0,93,0,0,0,0,56,3.615,3.615,0,0,0,0,6.631,74.48,730.05777729886,9.186352,6,P-GPS,,2.8
333800,2026-01-06 16:47:15,730.71394529886,10.170604,0.0,215.83169982,7.6237207164,16,5,7.228,730.71394529886,9.84252,2.23694,216.062670956,0.0,0.0,-4.026492,10.4,2.3,-3.6,0,0,1024,1024,1637,1024,0,0,93,0,0,0,0,56,3.615,3.615,0,0,0,0,6.631,74.48,730.71394529886,9.84252,6,P-GPS,,3.0
333900,2026-01-06 16:47:15,731.37011329886,10.826772,0.0,215.821201132,7.6477036568,16,5,7.228,731.37011329886,10.498688,2.23694,216.062670956,0.0,0.0,-4.026492,10.4,2.3,-4.0,0,0,1024,1024,1638,1024,0,0,93,0,0,0,0,56,3.615,3.615,0,0,0,0,6.631,74.48,731.37011329886,10.498688,6,P-GPS,,3.2
334000,2026-01-06 16:47:15,732.02628129886,11.154856,0.0,215.81201478,7.6676183556,16,5,7.228,732.02628129886,11.154856,2.23694,216.062670956,0.0,0.0,-4.026492,10.2,2.6,-4.2,0,0,1024,1024,1639,1024,0,0,93,0,0,0,0,56,3.615,3.615,0,0,0,0,6.631,74.48,732.02628129886,11.154856,6,P-GPS,,3.4
334100,2026-01-06 16:47:15,732.68244929886,11.811024,0.0,215.797907168,7.6887469652,16,5,7.228,732.68244929886,11.811024,2.23694,216.062670956,0.0,0.0,-4.026492,10.2,2.7,-4.0,0,0,1024,1024,1663,1024,0,0,97,0,0,0,0,56,3.615,3.615,0,0,0,0,6.631,74.48,732.68244929886,11.811024,6,P-GPS,,3.6
334200,2026-01-06 16:47:16,733.01053329886,12.467192,0.0,215.808405856,7.7003939472,16,5,7.228,733.01053329886,12.139108,2.23694,216.062670956,0.0,0.0,-4.026492,10.1,3.0,-3.9,0,0,1024,1024,1665,1024,0,0,97,0,0,0,0,56,3.615,3.615,0,0,0,0,6.631,74.48,733.01053329886,12.139108,6,P-GPS,,3.7
334300,2026-01-06 16:47:16,733.66670129886,12.795276,0.0,215.750006904,7.7594490672,16,5,7.228,733.66670129886,12.795276,2.23694,216.062670956,0.0,0.0,-4.026492,10.2,2.7,-3.6,0,0,1024,1024,1665,1024,0,0,97,0,0,0,0,56,3.615,3.615,0,0,0,0,6.631,74.48,733.66670129886,12.795276,6,P-GPS,,3.9
334400,2026-01-06 16:47:16,734.32286929886,13.451444,0.0,215.687999028,7.8218178356,16,5,7.228,734.32286929886,13.451444,2.23694,216.062670956,0.0,0.0,-4.026492,10.2,1.8,-3.7,0,0,1024,1024,1665,1024,0,0,97,0,0,0,0,56,3.615,3.615,0,0,0,0,6.631,74.48,734.32286929886,13.451444,6,P-GPS,,4.1
334500,2026-01-06 16:47:16,734.65095329886,14.107612,0.0,215.624678816,7.8860894912,16,5,7.216,734.65095329886,13.779528,2.23694,216.062670956,0.0,0.0,-4.026492,10.3,1.4,-3.3,0,0,1024,1024,1665,1024,0,0,97,0,0,0,0,56,3.61,3.606,0,0,0,0,6.349,74.48,734.65095329886,13.779528,6,P-GPS,,4.2
334600,2026-01-06 16:47:16,735.30712129886,14.76378,0.0,215.498366476,8.0156498628,16,5,7.216,735.30712129886,14.435696,2.23694,216.062670956,0.0,0.0,-4.250186,10.4,1.3,-3.2,0,0,1024,1024,1665,1024,0,0,97,0,0,0,0,56,3.61,3.606,0,0,0,0,6.349,74.48,735.30712129886,14.435696,6,P-GPS,,4.4
334700,2026-01-06 16:47:16,735.96328929886,15.091864,0.0,215.406502956,8.1073821492,16,5,7.216,735.96328929886,15.091864,2.23694,216.062670956,0.0,0.0,-4.250186,10.3,2.0,-3.3,0,0,1024,1024,1664,1024,0,0,97,0,0,0,0,56,3.61,3.606,0,0,0,0,6.349,74.48,735.96328929886,15.091864,6,P-GPS,,4.6
334800,2026-01-06 16:47:16,736.61945729886,15.748032,0.0,215.330715552,8.1831695532,16,5,7.216,736.61945729886,15.748032,2.23694,216.062670956,0.0,0.0,-4.250186,10.3,1.9,-3.2,0,0,1024,1024,1676,1024,0,0,99,0,0,0,0,56,3.61,3.606,0,0,0,0,6.349,74.48,736.61945729886,15.748032,6,P-GPS,,4.8
334900,2026-01-06 16:47:16,737.27562529886,16.4042,0.0,215.2641145,8.24967218,16,5,7.216,737.27562529886,16.4042,2.23694,216.062670956,0.0,0.0,-4.250186,10.3,2.1,-3.1,0,0,1024,1024,1684,1024,0,0,100,0,0,0,0,56,3.61,3.606,0,0,0,0,6.349,74.48,737.27562529886,16.4042,6,P-GPS,,5.0
335000,2026-01-06 16:47:16,737.60370929886,17.060368,0.0,215.23458694,8.2820868792,16,5,7.216,737.60370929886,16.732284,2.23694,216.062670956,0.0,0.0,-4.250186,10.4,2.2,-3.0,0,0,1024,1024,1684,1024,0,0,100,0,0,0,0,56,3.61,3.606,0,0,0,0,6.349,74.48,737.60370929886,16.732284,6,P-GPS,,5.1
335100,2026-01-06 16:47:16,738.25987729886,17.716536,0.0,215.417001644,8.4929792744,16,5,7.216,738.25987729886,17.388452,2.23694,216.062670956,0.0,0.0,-4.250186,10.4,2.7,-2.7,0,0,1024,1024,1684,1024,0,0,100,0,0,0,0,56,3.61,3.606,0,0,0,0,6.349,74.48,738.25987729886,17.388452,6,P-GPS,,5.3
335200,2026-01-06 16:47:17,738.91604529886,18.372704,0.0,215.420282484,8.5002627392,16,5,7.216,738.91604529886,18.04462,2.23694,216.062670956,0.0,0.0,-4.250186,10.4,2.3,-3.3,0,0,1024,1024,1684,1024,0,0,100,0,0,0,0,56,3.61,3.606,0,0,0,0,6.349,74.48,738.91604529886,18.04462,6,P-GPS,,5.5
335300,2026-01-06 16:47:17,739.57221329886,19.028872,0.0,215.41011188,8.5250658896,16,5,7.216,739.57221329886,18.700788,2.23694,216.062670956,0.0,0.0,-4.47388,10.4,2.5,-3.3,0,0,1024,1024,1684,1024,0,0,100,0,0,0,0,56,3.61,3.606,0,0,0,0,6.349,74.48,739.57221329886,18.700788,6,P-GPS,,5.7
335400,2026-01-06 16:47:17,740.22838129886,19.68504,0.0,215.390754924,8.5446853128,16,5,7.216,740.22838129886,19.356956,2.23694,216.062670956,0.0,0.0,-4.47388,10.4,2.3,-3.4,0,0,1024,1024,1684,1024,0,0,100,0,0,0,0,56,3.61,3.606,0,0,0,0,6.349,74.48,740.22838129886,19.356956,6,P-GPS,,5.9
335500,2026-01-06 16:47:17,740.88454929886,20.341208,0.0,215.370085632,8.6562010644,16,5,7.216,740.88454929886,20.013124,2.23694,216.062670956,0.0,0.0,-4.47388,10.5,2.4,-3.0,0,0,1024,1024,1684,1024,0,0,100,0,0,0,0,56,3.61,3.606,0,0,0,0,6.349,74.48,740.88454929886,20.013124,6,P-GPS,,6.1
335600,2026-01-06 16:47:17,741.54071729886,20.997376,0.0,215.335308728,8.7130252132,16,5,7.208,741.54071729886,20.669292,2.23694,216.062670956,0.0,0.0,-4.47388,10.5,2.5,-2.8,0,0,1024,1024,1684,1024,0,0,100,0,0,0,0,56,3.611,3.609,0,0,0,0,6.172,74.48,741.54071729886,20.669292,6,P-GPS,,6.3
335700,2026-01-06 16:47:17,742.19688529886,21.653544,0.0,215.298891404,8.774934664,16,5,7.208,742.19688529886,21.32546,2.23694,216.062670956,0.0,0.0,-4.47388,10.4,2.6,-3.4,0,0,1024,1024,1684,1024,0,0,100,0,0,0,0,56,3.611,3.609,0,0,0,0,6.172,74.48,742.19688529886,21.32546,6,P-GPS,,6.5
335800,2026-01-06 16:47:17,742.85305329886,22.637796,0.0,215.265426836,8.8109254788,16,5,7.208,742.85305329886,21.981628,2.23694,216.062670956,0.0,0.0,-4.250186,10.3,3.0,-4.3,0,0,1024,1024,1684,1024,0,0,100,0,0,0,0,56,3.611,3.609,0,0,0,0,6.172,74.48,742.85305329886,21.981628,6,P-GPS,,6.7
335900,2026-01-06 16:47:17,743.50922129886,23.293964,0.0,215.207027884,8.8708008088,16,5,7.208,743.50922129886,22.637796,2.23694,216.062670956,0.0,0.0,-4.250186,10.3,2.5,-4.5,0,0,1024,1024,1684,1024,0,0,100,0,0,0,0,56,3.611,3.609,0,0,0,0,6.172,74.48,743.50922129886,22.637796,6,P-GPS,,6.9
336000,2026-01-06 16:47:17,744.16538929886,23.950132,0.223694,215.17717224,8.9154202328,16,5,7.208,744.16538929886,23.293964,2.23694,216.062670956,-0.223694,0.0,-4.250186,10.2,2.7,-4.6,0,0,1024,1024,1684,1024,0,0,100,0,0,0,0,56,3.611,3.609,0,0,0,0,6.172,74.48,744.16538929886,23.293964,6,P-GPS,,7.1
336100,2026-01-06 16:47:18,744.82155729886,24.934384,0.223694,215.150269352,8.9621393944,16,5,7.208,744.82155729886,23.950132,2.23694,216.062670956,-0.223694,0.0,-4.250186,10.2,2.4,-4.8,0,0,1024,1024,1684,1024,0,0,100,0,0,0,0,56,3.611,3.609,0,0,0,0,6.172,74.48,744.82155729886,23.950132,6,P-GPS,,7.3
336200,2026-01-06 16:47:18,745.47772529886,25.590552,0.223694,215.114180112,9.0119425456,16,5,7.208,745.47772529886,24.6063,2.23694,216.062670956,-0.223694,0.0,-4.250186,10.2,2.3,-4.6,0,0,1024,1024,1684,1024,0,0,100,0,0,0,0,56,3.611,3.609,0,0,0,0,6.172,74.48,745.47772529886,24.6063,6,P-GPS,,7.5
336300,2026-01-06 16:47:18,746.13389329886,26.24672,0.223694,215.07054494,9.1038716824,16,5,7.208,746.13389329886,25.262468,2.23694,216.062670956,-0.223694,0.0,-4.250186,10.3,1.9,-4.2,0,0,1024,1024,1684,1024,0,0,100,0,0,0,0,56,3.611,3.609,0,0,0,0,6.172,74.48,746.13389329886,25.262468,6,P-GPS,,7.7
336400,2026-01-06 16:47:18,746.79006129886,26.902888,0.223694,215.023957012,9.1541013428,16,5,7.208,746.79006129886,25.918636,2.23694,216.062670956,-0.223694,0.0,-4.47388,10.4,1.8,-3.7,0,0,1024,1024,1684,1024,0,0,100,0,0,0,0,56,3.611,3.609,0,0,0,0,6.172,74.48,746.79006129886,25.918636,6,P-GPS,,7.9
336500,2026-01-06 16:47:18,747.44622929886,27.88714,0.0,214.982946512,9.1951446512,16,5,7.208,747.44622929886,26.574804,2.23694,216.062670956,0.0,0.0,-4.47388,10.3,1.4,-3.6,0,0,1024,1024,1684,1024,0,0,100,0,0,0,0,56,3.611,3.609,0,0,0,0,6.172,74.48,747.44622929886,26.574804,6,P-GPS,,8.1
336600,2026-01-06 16:47:18,748.10239729886,28.543308,0.0,214.941279844,9.2381564636,16,5,7.208,748.10239729886,27.230972,2.23694,216.062670956,0.0,0.0,-4.47388,10.3,1.3,-4.0,0,0,1024,1024,1684,1024,0,0,100,0,0,0,0,56,3.611,3.609,0,0,0,0,6.172,74.48,748.10239729886,27.230972,6,P-GPS,,8.3
336700,2026-01-06 16:47:18,748.75856529886,29.52756,0.0,214.891411076,9.2925527908,16,5,7.19,748.75856529886,27.88714,2.23694,216.062670956,0.0,0.0,-4.250186,10.3,1.6,-3.9,0,0,1024,1024,1684,1024,0,0,100,0,0,0,0,56,3.595,3.594,0,0,0,0,6.536,74.66,748.75856529886,27.88714,6,P-GPS,,8.5
336800,2026-01-06 16:47:18,749.41473329886,30.183728,0.0,214.818248344,9.3664373076,16,5,7.19,749.41473329886,28.543308,2.23694,216.062670956,0.0,0.0,-4.250186,10.3,1.4,-3.2,0,0,1024,1024,1684,1024,0,0,100,0,0,0,0,56,3.595,3.594,0,0,0,0,6.536,74.66,749.41473329886,28.543308,6,P-GPS,,8.7
336900,2026-01-06 16:47:18,750.07090129886,31.16798,0.0,214.747054116,9.43815647,16,5,7.19,750.07090129886,29.199476,2.23694,216.062670956,0.0,0.0,-4.47388,10.2,1.7,-2.8,0,0,1024,1024,1684,1024,0,0,100,0,0,0,0,56,3.595,3.594,0,0,0,0,6.536,74.66,750.07090129886,29.199476,6,P-GPS,,8.9
337000,2026-01-06 16:47:18,750.72706929886,31.824148,0.0,214.68832708,9.4966866556,16,5,7.19,750.72706929886,29.855644,2.23694,216.062670956,0.0,0.0,-4.47388,10.3,0.7,-3.0,0,0,1024,1024,1684,1024,0,0,100,0,0,0,0,56,3.595,3.594,0,0,0,0,6.536,74.66,750.72706929886,29.855644,6,P-GPS,,9.1
337100,2026-01-06 16:47:18,751.05515329886,32.480316,0.0,214.644691908,9.541010804,16,5,7.19,751.05515329886,30.183728,2.23694,216.062670956,0.0,0.0,-4.47388,10.3,0.3,-3.3,0,0,1024,1024,1684,1024,0,0,100,0,0,0,0,56,3.595,3.594,0,0,0,0,6.536,74.66,751.05515329886,30.183728,6,P-GPS,,9.2
337200,2026-01-06 16:47:19,751.71132129886,33.136484,0.0,214.600728652,9.5881892832,16,5,7.19,751.71132129886,30.839896,2.23694,216.062670956,0.0,0.0,-4.47388,10.3,0.6,-3.8,0,0,1024,1024,1684,1024,0,0,100,0,0,0,0,56,3.595,3.594,0,0,0,0,6.536,74.66,751.71132129886,30.839896,6,P-GPS,,9.4
337300,2026-01-06 16:47:19,752.36748929886,33.792652,0.0,214.582027864,9.6119097564,16,5,7.19,752.36748929886,31.496064,2.23694,216.062670956,0.0,0.0,-4.250186,10.3,0.9,-3.8,0,0,1024,1024,1684,1024,0,0,100,0,0,0,0,56,3.595,3.594,0,0,0,0,6.536,74.66,752.36748929886,31.496064,6,P-GPS,,9.6
337400,2026-01-06 16:47:19,753.02365729886,34.44882,0.0,214.56529558,9.6319556888,16,5,7.19,753.02365729886,32.152232,2.23694,216.062670956,0.0,0.0,-4.250186,10.3,1.1,-3.9,0,0,1024,1024,1684,1024,0,0,100,0,0,0,0,56,3.595,3.594,0,0,0,0,6.536,74.66,753.02365729886,32.152232,6,P-GPS,,9.8
337500,2026-01-06 16:47:19,753.67982529886,35.104988,0.0,214.544954372,9.6531827236,16,5,7.19,753.67982529886,32.8084,2.23694,216.062670956,0.0,0.0,-4.250186,10.3,1.5,-3.7,0,0,1024,1024,1669,1024,0,0,98,0,0,0,0,56,3.595,3.594,0,0,0,0,6.536,74.66,753.67982529886,32.8084,6,P-GPS,,10.0
337600,2026-01-06 16:47:19,754.33599329886,35.761156,0.0,214.518051484,9.7042654024,16,5,7.19,754.33599329886,33.464568,2.23694,216.062670956,0.0,0.0,-4.47388,10.4,1.6,-3.4,0,0,1024,1024,1669,1024,0,0,98,0,0,0,0,56,3.595,3.594,0,0,0,0,6.536,74.66,754.33599329886,33.464568,6,P-GPS,,10.2
337700,2026-01-06 16:47:19,754.99216129886,36.417324,0.0,214.48819584,9.7358927,16,5,7.19,754.99216129886,34.120736,2.23694,216.062670956,0.0,0.0,-4.47388,10.4,1.4,-3.5,0,0,1024,1024,1024,1024,0,0,0,0,0,0,0,56,3.595,3.594,0,0,0,0,6.536,74.66,754.99216129886,34.120736,6,P-GPS,,10.4
337800,2026-01-06 16:47:19,755.64832929886,37.073492,0.0,214.472119724,9.7523625168,16,5,7.19,755.64832929886,34.776904,2.23694,216.062670956,0.0,0.0,-4.47388,10.4,1.2,-3.8,0,0,1024,1024,1024,1024,0,0,0,0,0,0,0,56,3.595,3.594,0,0,0,0,6.536,74.66,755.64832929886,34.776904,6,P-GPS,,10.6
337900,2026-01-06 16:47:19,756.30449729886,37.72966,0.0,214.474088228,9.7559386324,16,5,7.181,756.30449729886,35.433072,2.23694,216.062670956,0.0,0.0,-4.250186,10.5,1.3,-4.1,0,0,1024,1024,1024,1024,0,0,0,0,0,0,0,56,3.597,3.597,0,0,0,0,6.442,74.66,756.30449729886,35.433072,6,P-GPS,,10.8
338000,2026-01-06 16:47:19,756.63258129886,38.385828,0.0,214.466214212,9.7675856144,16,5,7.181,756.63258129886,35.761156,2.23694,216.062670956,0.0,0.0,-3.802798,10.5,2.0,-4.2,0,0,1024,1024,1024,1024,0,0,0,0,0,0,0,56,3.597,3.597,0,0,0,0,6.442,74.66,756.63258129886,35.761156,6,P-GPS,,10.9
338100,2026-01-06 16:47:19,757.28874929886,38.713912,0.0,214.459980616,9.7749675044,16,5,7.181,757.28874929886,36.417324,2.23694,216.062670956,0.0,0.0,-3.131716,10.4,3.0,-4.3,0,0,1024,1024,1024,1024,0,0,0,0,0,0,0,56,3.597,3.597,0,0,0,0,6.442,74.66,757.28874929886,36.417324,6,P-GPS,,11.1
338200,2026-01-06 16:47:20,757.61683329886,39.041996,0.0,214.450138096,9.7863520192,16,5,7.181,757.61683329886,36.745408,2.23694,216.062670956,0.0,0.0,-2.23694,10.3,3.1,-4.3,0,0,1024,1024,1024,1024,0,0,0,0,0,0,0,56,3.597,3.597,0,0,0,0,6.442,74.66,757.61683329886,36.745408,6,P-GPS,,11.2
338300,2026-01-06 16:47:20,757.94491729886,39.041996,0.0,214.433077728,9.806758844,16,5,7.181,757.94491729886,37.073492,2.23694,216.062670956,0.0,0.0,-1.565858,10.3,3.2,-4.6,0,0,1024,1024,1024,1024,0,0,0,0,0,0,0,56,3.597,3.597,0,0,0,0,6.442,74.66,757.94491729886,37.073492,6,P-GPS,,11.3
338400,2026-01-06 16:47:20,757.94491729886,39.041996,0.0,214.433077728,9.809383516,16,5,7.181,757.94491729886,37.073492,2.23694,216.062670956,0.0,0.0,-0.894776,10.3,3.4,-4.6,0,0,1024,1024,1024,1024,0,0,0,0,0,0,0,56,3.597,3.597,0,0,0,0,6.442,74.66,757.94491729886,37.073492,6,P-GPS,,11.3
338500,2026-01-06 16:47:20,757.94491729886,39.041996,0.0,214.445216836,9.8666997908,16,5,7.181,757.94491729886,37.073492,2.23694,216.062670956,0.0,0.0,-0.447388,10.2,3.8,-4.4,0,0,1024,1024,1024,1024,0,0,0,0,0,0,0,56,3.597,3.597,0,0,0,0,6.442,74.66,757.94491729886,37.073492,6,P-GPS,,11.3
338600,2026-01-06 16:47:20,757.94491729886,39.041996,0.0,214.477697152,9.9016079284,16,5,7.181,757.94491729886,37.073492,2.23694,216.062670956,0.0,0.0,0.0,10.3,3.8,-4.5,0,0,1024,1024,1024,1024,0,0,0,0,0,0,0,56,3.597,3.597,0,0,0,0,6.442,74.66,757.94491729886,37.073492,6,P-GPS,,11.3
338700,2026-01-06 16:47:20,757.94491729886,39.041996,0.0,214.522316576,9.9485567488,16,5,7.181,757.94491729886,37.073492,2.23694,216.062670956,0.0,0.0,0.0,10.2,3.8,-4.7,0,0,1024,1024,1024,1024,0,0,0,0,0,0,0,56,3.597,3.597,0,0,0,0,6.442,74.66,757.94491729886,37.073492,6,P-GPS,,11.3
338800,2026-01-06 16:47:20,758.27300129886,39.041996,0.0,214.549219464,9.9792326028,16,5,7.181,758.27300129886,37.401576,2.23694,216.062670956,0.0,0.0,0.0,10.1,3.8,-5.0,0,0,1024,1024,1024,1024,0,0,0,0,0,0,0,56,3.597,3.597,0,0,0,0,6.442,74.66,758.27300129886,37.401576,6,P-GPS,,11.4
338900,2026-01-06 16:47:20,758.27300129886,39.041996,0.0,214.601712904,10.078412396,16,5,7.181,758.27300129886,37.401576,2.23694,216.062670956,0.0,0.0,0.0,10.1,4.0,-5.1,0,0,1024,1024,1024,1024,0,0,0,0,0,0,0,56,3.629,3.629,0,0,0,0,6.442,74.66,758.27300129886,37.401576,6,P-GPS,,11.4
339000,2026-01-06 16:47:20,758.27300129886,39.041996,0.0,214.583668284,10.100229982,16,5,7.181,758.27300129886,37.401576,2.23694,216.062670956,0.0,0.0,0.0,10.2,3.7,-5.1,0,0,1024,1024,1024,1024,0,0,0,0,0,0,0,56,3.629,3.629,0,0,0,0,6.442,74.66,758.27300129886,37.401576,6,P-GPS,,11.4
339100,2026-01-06 16:47:20,758.27300129886,39.041996,0.0,214.538064608,10.1467194848,16,5,7.181,758.27300129886,37.401576,2.23694,216.062670956,0.0,0.0,0.0,10.2,3.4,-4.8,0,0,1024,1024,1024,1024,0,0,0,0,0,0,0,56,3.629,3.629,0,0,0,0,6.442,74.66,758.27300129886,37.401576,6,P-GPS,,11.4
339200,2026-01-06 16:47:21,757.94491729886,39.041996,0.0,214.485899252,10.1995082004,16,5,7.181,758.27300129886,37.401576,2.23694,216.062670956,0.0,0.0,0.0,10.3,3.1,-4.6,0,0,1024,1024,1024,1024,0,0,0,0,0,0,0,56,3.629,3.629,0,0,0,0,6.442,74.66,757.94491729886,37.073492,6,P-GPS,,11.3
339300,2026-01-06 16:47:21,757.94491729886,39.041996,0.0,214.332684024,10.354823166,16,5,7.181,758.27300129886,37.401576,2.23694,216.062670956,0.0,0.0,0.0,10.4,2.7,-4.4,0,0,1024,1024,1024,1024,0,0,0,0,0,0,0,56,3.629,3.629,0,0,0,0,6.442,74.66,757.94491729886,37.073492,6,P-GPS,,11.3
339400,2026-01-06 16:47:21,757.94491729886,39.041996,0.0,214.2798625,10.4074150312,16,5,7.181,758.27300129886,37.401576,2.23694,216.062670956,0.0,0.0,0.0,10.4,2.4,-4.4,0,0,1024,1024,1024,1024,0,0,0,0,0,0,0,56,3.629,3.629,0,0,0,0,6.442,74.66,757.94491729886,37.073492,6,P-GPS,,11.3
339500,2026-01-06 16:47:21,757.94491729886,39.041996,0.0,214.243445176,10.444062014,16,5,7.181,758.27300129886,37.401576,2.23694,216.062670956,0.0,0.0,0.0,10.3,2.4,-4.3,0,0,1024,1024,1024,1024,0,0,0,0,0,0,0,56,3.629,3.629,0,0,0,0,6.442,74.66,757.94491729886,37.073492,6,P-GPS,,11.3
339600,2026-01-06 16:47:21,757.94491729886,39.041996,0.0,214.213261448,10.474409784,16,5,7.181,758.27300129886,37.401576,2.23694,216.062670956,0.0,0.0,0.0,10.3,2.6,-4.4,0,0,1024,1024,1024,1024,0,0,0,0,0,0,0,56,3.629,3.629,0,0,0,0,6.442,74.66,757.94491729886,37.073492,6,P-GPS,,11.3
339700,2026-01-06 16:47:21,757.94491729886,39.041996,0.0,214.208668272,10.4984255328,16,5,7.181,758.27300129886,37.401576,2.23694,216.062670956,0.0,0.0,0.0,10.2,2.3,-4.4,0,0,1024,1024,1024,1024,0,0,0,0,0,0,0,56,3.629,3.629,0,0,0,0,6.442,74.66,757.94491729886,37.073492,6,P-GPS,,11.3
339800,2026-01-06 16:47:21,757.94491729886,39.041996,0.0,214.18635856,10.521325796,16,5,7.181,758.27300129886,37.401576,2.23694,216.062670956,0.0,0.0,0.0,10.3,2.2,-4.5,0,0,1024,1024,1024,1024,0,0,0,0,0,0,0,56,3.629,3.629,0,0,0,0,6.442,74.66,757.94491729886,37.073492,6,P-GPS,,11.3
339900,2026-01-06 16:47:21,757.94491729886,39.041996,0.0,214.167001604,10.5404859016,16,5,7.181,758.27300129886,37.401576,2.23694,216.062670956,0.0,0.0,0.0,10.3,2.3,-4.6,0,0,1024,1024,1024,1024,0,0,0,0,0,0,0,56,3.629,3.629,0,0,0,0,6.442,74.66,757.94491729886,37.073492,6,P-GPS,,11.3
340000,2026-01-06 16:47:21,757.94491729886,39.041996,0.0,214.153222076,10.5595803904,16,5,7.181,758.27300129886,37.401576,2.23694,216.062670956,0.0,0.0,0.0,10.3,2.3,-4.8,0,0,1024,1024,1024,1024,0,0,0,0,0,0,0,55,3.629,3.629,0,0,0,0,6.442,74.66,757.94491729886,37.073492,6,P-GPS,,11.3
340100,2026-01-06 16:47:21,757.94491729886,39.041996,0.0,214.141411052,10.5914373468,16,5,7.242,758.27300129886,37.401576,2.23694,216.062670956,0.0,0.0,0.0,10.3,2.0,-4.9,0,0,1024,1024,1024,1024,0,0,0,0,0,0,0,55,3.622,3.621,0,0,0,0,5.128,74.66,757.94491729886,37.073492,6,P-GPS,,11.3
340200,2026-01-06 16:47:22,757.94491729886,39.041996,0.0,214.16011184,10.687664384,16,5,7.242,758.27300129886,37.401576,2.23694,216.062670956,0.0,0.0,0.0,10.2,1.5,-4.8,0,0,1024,1024,1024,1024,0,0,0,0,0,0,0,55,3.622,3.621,0,0,0,0,5.128,74.66,757.94491729886,37.073492,6,P-GPS,,11.3
340300,2026-01-06 16:47:22,757.94491729886,39.041996,0.0,214.152565908,10.7201447,16,5,7.242,758.27300129886,37.401576,2.23694,216.062670956,0.0,0.0,0.0,10.3,1.4,-4.7,0,0,1024,1024,1024,1024,0,0,0,0,0,0,0,55,3.622,3.621,0,0,0,0,5.128,74.66,757.94491729886,37.073492,6,P-GPS,,11.3
340400,2026-01-06 16:47:22,757.94491729886,39.041996,0.0,214.144363808,10.753609268,16,5,7.242,758.27300129886,37.401576,2.23694,216.062670956,0.0,0.0,0.0,10.3,1.5,-4.5,0,0,1024,1024,1024,1024,0,0,0,0,0,0,0,55,3.622,3.621,0,0,0,0,5.128,74.66,757.94491729886,37.073492,6,P-GPS,,11.3
340500,2026-01-06 16:47:22,757.94491729886,39.041996,0.0,214.133208952,10.7862208176,16,5,7.242,758.27300129886,37.401576,2.23694,216.062670956,0.0,0.0,0.0,10.3,0.8,-4.5,0,0,1024,1024,1024,1024,0,0,0,0,0,0,0,55,3.622,3.621,0,0,0,0,5.128,74.66,757.94491729886,37.073492,6,P-GPS,,11.3
340600,2026-01-06 16:47:22,757.94491729886,39.041996,0.0,214.144363808,10.86450166,16,5,7.242,758.27300129886,37.401576,2.23694,216.062670956,0.0,0.0,0.0,10.3,1.0,-4.6,0,0,1024,1024,1024,1024,0,0,0,0,0,0,0,55,3.622,3.621,0,0,0,0,5.128,74.66,757.94491729886,37.073492,6,P-GPS,,11.3
340700,2026-01-06 16:47:22,757.94491729886,39.041996,0.0,214.124678768,10.8900594036,16,5,7.242,758.27300129886,37.401576,2.23694,216.062670956,0.0,0.0,0.0,10.2,1.4,-4.9,0,0,1024,1024,1024,1024,0,0,0,0,0,0,0,55,3.622,3.621,0,0,0,0,5.128,74.66,757.94491729886,37.073492,6,P-GPS,,11.3
340800,2026-01-06 16:47:22,757.94491729886,39.041996,0.0,214.112211576,10.91125363,16,5,7.242,758.27300129886,37.401576,2.23694,216.062670956,0.0,0.0,0.0,10.2,1.4,-4.9,0,0,1024,1024,1024,1024,0,0,0,0,0,0,0,55,3.622,3.621,0,0,0,0,5.128,74.66,757.94491729886,37.073492,6,P-GPS,,11.3
340900,2026-01-06 16:47:22,757.94491729886,39.041996,0.0,214.107290316,10.9342851268,16,5,7.242,758.27300129886,37.401576,2.23694,216.062670956,0.0,0.0,0.0,10.3,1.3,-4.8,0,0,1024,1024,1024,1024,0,0,0,0,0,0,0,55,3.622,3.621,0,0,0,0,5.128,74.66,757.94491729886,37.073492,6,P-GPS,,11.3
341000,2026-01-06 16:47:22,757.94491729886,39.041996,0.0,214.085964856,10.9605318468,16,5,7.242,758.27300129886,37.401576,2.23694,216.062670956,0.0,0.0,0.0,10.3,1.7,-4.6,0,0,1024,1024,1024,1024,0,0,0,0,0,0,0,55,3.622,3.621,0,0,0,0,5.128,74.66,757.94491729886,37.073492,6,P-GPS,,11.3
341100,2026-01-06 16:47:23,757.94491729886,39.041996,0.0,214.092526536,10.990978042,16,5,7.242,758.27300129886,37.401576,2.23694,216.062670956,0.0,0.0,0.0,10.4,1.8,-4.5,0,0,1024,1024,1024,1024,0,0,0,0,0,0,0,55,3.622,3.621,0,0,0,0,5.128,74.66,757.94491729886,37.073492,6,P-GPS,,11.3
341200,2026-01-06 16:47:23,757.94491729886,39.041996,0.0,214.100400552,11.0227693816,16,5,7.235,758.27300129886,37.401576,2.23694,216.062670956,0.0,0.0,0.0,10.5,1.9,-4.5,0,0,1024,1024,1024,1024,0,0,0,0,0,0,0,55,3.618,3.618,0,0,0,0,5.209,74.66,757.94491729886,37.073492,6,P-GPS,,11.3
341300,2026-01-06 16:47:23,757.61683329886,39.041996,0.0,214.108930736,11.0616473356,16,5,7.235,758.27300129886,37.401576,2.23694,216.062670956,0.0,0.0,0.0,10.4,2.5,-4.2,0,0,1024,1024,1024,1024,0,0,0,0,0,0,0,55,3.618,3.618,0,0,0,0,5.209,74.66,757.61683329886,36.745408,6,P-GPS,,11.2
341400,2026-01-06 16:47:23,757.61683329886,39.041996,0.0,214.111227324,11.12942949,16,5,7.235,758.27300129886,37.401576,2.23694,216.062670956,0.0,0.0,0.0,10.3,3.2,-3.8,0,0,1024,1024,1024,1024,0,0,0,0,0,0,0,55,3.618,3.618,0,0,0,0,5.209,74.66,757.61683329886,36.745408,6,P-GPS,,11.2
341500,2026-01-06 16:47:23,757.61683329886,39.041996,0.0,214.123038348,11.1777562632,16,5,7.235,758.27300129886,37.401576,2.23694,216.062670956,0.0,0.0,0.0,10.5,2.6,-3.5,0,0,1024,1024,1024,1024,0,0,0,0,0,0,0,55,3.618,3.618,0,0,0,0,5.209,74.66,757.61683329886,36.745408,6,P-GPS,,11.2
341600,2026-01-06 16:47:23,757.61683329886,39.041996,0.0,214.136161708,11.2294294932,16,5,7.235,758.27300129886,37.401576,2.23694,216.062670956,0.0,0.0,0.0,10.5,2.6,-3.4,0,0,1024,1024,1024,1024,0,0,0,0,0,0,0,55,3.618,3.618,0,0,0,0,5.209,74.66,757.61683329886,36.745408,6,P-GPS,,11.2
341700,2026-01-06 16:47:23,757.61683329886,39.041996,0.0,214.154534412,11.2891079728,16,5,7.235,758.27300129886,37.401576,2.23694,216.062670956,0.0,0.0,0.0,10.3,3.2,-3.8,0,0,1024,1024,1024,1024,0,0,0,0,0,0,0,55,3.618,3.618,0,0,0,0,5.209,74.66,757.61683329886,36.745408,6,P-GPS,,11.2
341800,2026-01-06 16:47:23,757.61683329886,39.041996,0.0,214.168642024,11.3383205728,16,5,7.235,758.27300129886,37.401576,2.23694,216.062670956,0.0,0.0,0.0,10.2,3.5,-4.0,0,0,1024,1024,1024,1024,0,0,0,0,0,0,0,55,3.618,3.618,0,0,0,0,5.209,74.66,757.61683329886,36.745408,6,P-GPS,,11.2
341900,2026-01-06 16:47:23,757.61683329886,39.041996,0.0,214.164376932,11.4393376364,16,5,7.235,758.27300129886,37.401576,2.23694,216.062670956,0.0,0.0,0.0,10.3,3.3,-3.8,0,0,1024,1024,1024,1024,0,0,0,0,0,0,0,55,3.618,3.618,0,0,0,0,5.209,74.66,757.61683329886,36.745408,6,P-GPS,,11.2
342000,2026-01-06 16:47:23,757.61683329886,39.041996,0.0,214.16667352,11.468340262,16,5,7.235,758.27300129886,37.401576,2.23694,216.062670956,0.0,0.0,0.0,10.2,3.2,-3.7,0,0,1024,1024,1024,1024,0,0,0,0,0,0,0,55,3.618,3.618,0,0,0,0,5.209,74.66,757.61683329886,36.745408,6,P-GPS,,11.2
342100,2026-01-06 16:47:23,757.61683329886,39.041996,0.0,214.16831394,11.4830712336,16,5,7.235,758.27300129886,37.401576,2.23694,216.062670956,0.0,0.0,0.0,10.2,2.7,-3.6,0,0,1024,1024,1024,1024,0,0,0,0,0,0,0,55,3.618,3.618,0,0,0,0,5.209,74.66,757.61683329886,36.745408,6,P-GPS,,11.2
342200,2026-01-06 16:47:24,757.94491729886,39.041996,0.0,214.168970108,11.4853678216,16,5,7.235,758.27300129886,37.401576,2.23694,216.062670956,0.0,0.0,0.0,10.2,2.3,-4.2,0,0,1024,1024,1024,1024,0,0,0,0,0,0,0,55,3.618,3.618,0,0,0,0,5.209,74.66,757.94491729886,37.073492,6,P-GPS,,11.3
342300,2026-01-06 16:47:24,757.94491729886,39.041996,0.0,214.188655148,11.525262836,16,5,7.222,758.27300129886,37.401576,2.23694,216.062670956,0.0,0.0,0.0,10.2,1.7,-4.0,0,0,1024,1024,1024,1024,0,0,0,0,0,0,0,55,3.613,3.61,0,0,0,0,5.358,74.66,757.94491729886,37.073492,6,P-GPS,,11.3
342400,2026-01-06 16:47:24,757.94491729886,39.041996,0.0,214.193248324,11.5309386892,16,5,7.222,758.27300129886,37.401576,2.23694,216.062670956,0.0,0.0,0.0,10.1,2.1,-4.3,0,0,1024,1024,1024,1024,0,0,0,0,0,0,0,55,3.613,3.61,0,0,0,0,5.358,74.66,757.94491729886,37.073492,6,P-GPS,,11.3
342500,2026-01-06 16:47:24,757.94491729886,39.041996,0.0,214.198497668,11.5397641488,16,5,7.222,758.27300129886,37.401576,2.23694,216.062670956,0.0,0.0,0.0,10.2,2.3,-4.8,0,0,1024,1024,1024,1024,0,0,0,0,0,0,0,55,3.613,3.61,0,0,0,0,5.358,74.66,757.94491729886,37.073492,6,P-GPS,,11.3
342600,2026-01-06 16:47:24,757.94491729886,39.041996,0.0,214.208340188,11.5493442016,16,5,7.222,758.27300129886,37.401576,2.23694,216.062670956,0.0,0.0,0.0,10.3,2.3,-5.4,0,0,1024,1024,1024,1024,0,0,0,0,0,0,0,55,3.613,3.61,0,0,0,0,5.358,74.66,757.94491729886,37.073492,6,P-GPS,,11.3
342700,2026-01-06 16:47:24,757.94491729886,39.041996,0.0,214.243117092,11.5857615256,16,5,7.222,758.27300129886,37.401576,2.23694,216.062670956,0.0,0.0,0.0,10.4,2.7,-5.5,0,0,1024,1024,1024,1024,0,0,0,0,0,0,0,55,3.613,3.61,0,0,0,0,5.358,74.66,757.94491729886,37.073492,6,P-GPS,,11.3
342800,2026-01-06 16:47:24,757.94491729886,39.041996,0.0,214.266411056,11.610400634,16,5,7.222,758.27300129886,37.401576,2.23694,216.062670956,0.0,0.0,0.0,10.4,2.9,-4.8,0,0,1024,1024,1024,1024,0,0,0,0,0,0,0,55,3.613,3.61,0,0,0,0,5.358,74.66,757.94491729886,37.073492,6,P-GPS,,11.3
342900,2026-01-06 16:47:24,757.94491729886,39.041996,0.0,214.299219456,11.6506237324,16,5,7.222,758.27300129886,37.401576,2.23694,216.062670956,0.0,0.0,0.0,10.5,2.9,-3.9,0,0,1024,1024,1024,1024,0,0,0,0,0,0,0,55,3.613,3.61,0,0,0,0,5.358,74.66,757.94491729886,37.073492,6,P-GPS,,11.3
343000,2026-01-06 16:47:24,757.61683329886,39.041996,0.0,214.323497672,11.6833337072,16,5,7.222,758.27300129886,37.401576,2.23694,216.062670956,0.0,0.0,0.0,10.4,3.2,-4.1,0,0,1024,1024,1024,1024,0,0,0,0,0,0,0,55,3.613,3.61,0,0,0,0,5.358,74.66,757.61683329886,36.745408,6,P-GPS,,11.2
343100,2026-01-06 16:47:25,757.61683329886,39.041996,0.0,214.393379564,11.7801512956,16,5,7.222,758.27300129886,37.401576,2.23694,216.062670956,0.0,0.0,0.0,10.4,2.9,-4.1,0,0,1024,1024,1024,1024,0,0,0,0,0,0,0,55,3.613,3.61,0,0,0,0,5.358,74.66,757.61683329886,36.745408,6,P-GPS,,11.2
343200,2026-01-06 16:47:25,757.61683329886,39.041996,0.0,214.400597412,11.7994754432,16,5,7.222,758.27300129886,37.401576,2.23694,216.062670956,0.0,0.0,0.0,10.3,3.1,-4.1,0,0,1024,1024,1024,1024,0,0,0,0,0,0,0,55,3.613,3.61,0,0,0,0,5.358,74.66,757.61683329886,36.745408,6,P-GPS,,11.2
343300,2026-01-06 16:47:25,757.61683329886,39.041996,0.0,214.396988488,11.8137470972,16,5,7.222,758.27300129886,37.401576,2.23694,216.062670956,0.0,0.0,0.0,10.4,2.3,-3.8,0,0,1024,1024,1024,1024,0,0,0,0,0,0,0,55,3.613,3.61,0,0,0,0,5.358,74.66,757.61683329886,36.745408,6,P-GPS,,11.2
343400,2026-01-06 16:47:25,757.61683329886,39.041996,0.0,214.391082976,11.829232662,16,5,7.209,758.27300129886,37.401576,2.23694,216.062670956,0.0,0.0,0.0,10.4,1.5,-3.8,0,0,1024,1024,1024,1024,0,0,0,0,0,0,0,55,3.606,3.603,0,0,0,0,5.531,74.84,757.61683329886,36.745408,6,P-GPS,,11.2
343500,2026-01-06 16:47:25,757.61683329886,39.041996,0.0,214.38977064,11.8484583844,16,5,7.209,758.27300129886,37.401576,2.23694,216.062670956,0.0,0.0,0.0,10.3,1.7,-4.0,0,0,1024,1024,1024,1024,0,0,0,0,0,0,0,55,3.606,3.603,0,0,0,0,5.531,74.84,757.61683329886,36.745408,6,P-GPS,,11.2
343600,2026-01-06 16:47:25,757.61683329886,39.041996,0.0,214.381240456,11.8937667848,16,5,7.209,758.27300129886,37.401576,2.23694,216.062670956,0.0,0.0,0.0,10.2,1.7,-4.0,0,0,1024,1024,1024,1024,0,0,0,0,0,0,0,55,3.606,3.603,0,0,0,0,5.531,74.84,757.61683329886,36.745408,6,P-GPS,,11.2
343700,2026-01-06 16:47:25,757.61683329886,39.041996,0.0,214.361227332,11.9138127172,16,5,7.209,758.27300129886,37.401576,2.23694,216.062670956,0.0,0.0,0.0,10.3,1.7,-4.2,0,0,1024,1024,1024,1024,0,0,0,0,0,0,0,55,3.606,3.603,0,0,0,0,5.531,74.84,757.61683329886,36.745408,6,P-GPS,,11.2
343800,2026-01-06 16:47:25,757.61683329886,39.041996,0.0,214.346791636,11.9295607492,16,5,7.209,758.27300129886,37.401576,2.23694,216.062670956,0.0,0.0,0.0,10.4,1.5,-4.4,0,0,1024,1024,1024,1024,0,0,0,0,0,0,0,55,3.606,3.603,0,0,0,0,5.531,74.84,757.61683329886,36.745408,6,P-GPS,,11.2
343900,2026-01-06 16:47:25,757.61683329886,39.041996,0.0,214.338261452,11.939632928,16,5,7.209,758.27300129886,37.401576,2.23694,216.062670956,0.0,0.0,0.0,10.3,2.3,-4.6,0,0,1024,1024,1024,1024,0,0,0,0,0,0,0,55,3.606,3.603,0,0,0,0,5.531,74.84,757.61683329886,36.745408,6,P-GPS,,11.2
344000,2026-01-06 16:47:25,757.61683329886,39.041996,0.0,214.30118796,11.9779859476,16,5,7.209,758.27300129886,37.401576,2.23694,216.062670956,0.0,0.0,0.0,10.2,2.7,-4.6,0,0,1024,1024,1024,1024,0,0,0,0,0,0,0,55,3.606,3.603,0,0,0,0,5.531,74.84,757.61683329886,36.745408,6,P-GPS,,11.2
344100,2026-01-06 16:47:25,757.61683329886,39.041996,0.0,214.314967488,11.9968179692,16,5,7.209,758.27300129886,37.401576,2.23694,216.062670956,0.0,0.0,0.0,10.4,2.1,-4.7,0,0,1024,1024,1024,1024,0,0,0,0,0,0,0,55,3.606,3.603,0,0,0,0,5.531,74.84,757.61683329886,36.745408,6,P-GPS,,11.2
344200,2026-01-06 16:47:26,757.61683329886,39.041996,0.0,214.328418932,12.0122379172,16,5,7.209,758.27300129886,37.401576,2.23694,216.062670956,0.0,0.0,0.0,10.5,2.0,-4.7,0,0,1024,1024,1024,1024,0,0,0,0,0,0,0,55,3.606,3.603,0,0,0,0,5.531,74.84,757.61683329886,36.745408,6,P-GPS,,11.2
344300,2026-01-06 16:47:26,757.61683329886,39.041996,0.0,214.345807384,12.0296591776,16,5,7.209,758.27300129886,37.401576,2.23694,216.062670956,0.0,0.0,0.0,10.3,2.8,-5.0,0,0,1024,1024,1024,1024,0,0,0,0,0,0,0,55,3.606,3.603,0,0,0,0,5.531,74.84,757.61683329886,36.745408,6,P-GPS,,11.2
344400,2026-01-06 16:47:26,757.61683329886,39.041996,0.0,214.422250956,12.1167654796,16,5,7.209,758.27300129886,37.401576,2.23694,216.062670956,0.0,0.0,0.0,10.3,3.0,-5.1,0,0,1024,1024,1024,1024,0,0,0,0,0,0,0,55,3.606,3.603,0,0,0,0,5.531,74.84,757.61683329886,36.745408,6,P-GPS,,11.2
344500,2026-01-06 16:47:26,757.61683329886,39.041996,0.0,214.440951744,12.1388783412,16,5,7.209,758.27300129886,37.401576,2.23694,216.062670956,0.0,0.0,0.0,10.3,2.8,-4.9,0,0,1024,1024,1024,1024,0,0,0,0,0,0,0,55,3.606,3.603,0,0,0,0,5.531,74.84,757.61683329886,36.745408,6,P-GPS,,11.2
344600,2026-01-06 16:47:26,757.61683329886,39.041996,0.0,214.45538744,12.1585305728,16,5,7.221,758.27300129886,37.401576,2.23694,216.062670956,0.0,0.0,0.0,10.3,2.5,-4.8,0,0,1024,1024,1024,1024,0,0,0,0,0,0,0,55,3.611,3.609,0,0,0,0,5.233,74.84,757.61683329886,36.745408,6,P-GPS,,11.2
344700,2026-01-06 16:47:26,757.61683329886,39.041996,0.0,214.467854632,12.1793639068,16,5,7.221,758.27300129886,37.401576,2.23694,216.062670956,0.0,0.0,0.0,10.6,1.8,-4.5,0,0,1024,1024,1024,1024,0,0,0,0,0,0,0,55,3.611,3.609,0,0,0,0,5.233,74.84,757.61683329886,36.745408,6,P-GPS,,11.2
344800,2026-01-06 16:47:26,757.61683329886,39.041996,0.0,214.480977992,12.2470804444,16,5,7.221,758.27300129886,37.401576,2.23694,216.062670956,0.0,0.0,0.0,10.6,2.3,-4.4,0,0,1024,1024,1024,1024,0,0,0,0,0,0,0,55,3.611,3.609,0,0,0,0,5.233,74.84,757.61683329886,36.745408,6,P-GPS,,11.2
344900,2026-01-06 16:47:26,757.61683329886,39.041996,0.0,214.493773268,12.2829400256,16,5,7.221,758.27300129886,37.401576,2.23694,216.062670956,0.0,0.0,0.0,10.5,3.2,-4.4,0,0,1024,1024,1024,1024,0,0,0,0,0,0,0,55,3.611,3.609,0,0,0,0,5.233,74.84,757.61683329886,36.745408,6,P-GPS,,11.2
345000,2026-01-06 16:47:26,757.61683329886,39.041996,0.0,214.50460004,12.3150266408,16,5,7.221,758.27300129886,37.401576,2.23694,216.062670956,0.0,0.0,0.0,10.4,3.3,-4.9,0,0,1024,1024,1024,1024,0,0,0,0,0,0,0,55,3.611,3.609,0,0,0,0,5.233,74.84,757.61683329886,36.745408,6,P-GPS,,11.2
345100,2026-01-06 16:47:26,757.61683329886,39.041996,0.0,214.512145972,12.347605382,16,5,7.221,758.27300129886,37.401576,2.23694,216.062670956,0.0,0.0,0.0,10.3,2.9,-4.4,0,0,1024,1024,1024,1024,0,0,0,0,0,0,0,55,3.611,3.609,0,0,0,0,5.233,74.84,757.61683329886,36.745408,6,P-GPS,,11.2
345200,2026-01-06 16:47:27,757.61683329886,39.041996,0.0,214.513458308,12.3717523644,16,5,7.221,758.27300129886,37.401576,2.23694,216.062670956,0.0,0.0,0.0,10.2,3.2,-4.4,0,0,1024,1024,1024,1024,0,0,0,0,0,0,0,55,3.611,3.609,0,0,0,0,5.233,74.84,757.61683329886,36.745408,6,P-GPS,,11.2
345300,2026-01-06 16:47:27,757.61683329886,39.041996,0.0,214.470479304,12.4179794,16,5,7.221,758.27300129886,37.401576,2.23694,216.062670956,0.0,0.0,0.0,10.2,3.2,-4.3,0,0,1024,1024,1024,1024,0,0,0,0,0,0,0,55,3.611,3.609,0,0,0,0,5.233,74.84,757.61683329886,36.745408,6,P-GPS,,11.2
345400,2026-01-06 16:47:27,757.61683329886,39.041996,0.0,214.468838884,12.4310043348,16,5,7.221,758.27300129886,37.401576,2.23694,216.062670956,0.0,0.0,0.0,10.2,3.0,-4.4,0,0,1024,1024,1024,1024,0,0,0,0,0,0,0,55,3.611,3.609,0,0,0,0,5.233,74.84,757.61683329886,36.745408,6,P-GPS,,11.2
345500,2026-01-06 16:47:27,757.61683329886,39.041996,0.0,214.47835332,12.4519689024,16,5,7.221,758.27300129886,37.401576,2.23694,216.062670956,0.0,0.0,0.0,10.3,2.6,-4.5,0,0,1024,1024,1024,1024,0,0,0,0,0,0,0,55,3.611,3.609,0,0,0,0,5.233,74.84,757.61683329886,36.745408,6,P-GPS,,11.2
345600,2026-01-06 16:47:27,757.61683329886,39.041996,0.0,214.485571168,12.4669295328,16,5,7.221,758.27300129886,37.401576,2.23694,216.062670956,0.0,0.0,0.0,10.5,2.3,-4.8,0,0,1024,1024,1024,1024,0,0,0,0,0,0,0,55,3.611,3.609,0,0,0,0,5.233,74.84,757.61683329886,36.745408,6,P-GPS,,11.2
345700,2026-01-06 16:47:27,757.61683329886,39.041996,0.0,214.508208964,12.5011815024,16,5,7.219,758.27300129886,37.401576,2.23694,216.062670956,0.0,0.0,0.0,10.5,3.1,-4.9,0,0,1024,1024,1024,1024,0,0,0,0,0,0,0,55,3.609,3.61,0,0,0,0,5.311,74.84,757.61683329886,36.745408,6,P-GPS,,11.2
345800,2026-01-06 16:47:27,757.61683329886,39.041996,0.0,214.512145972,12.5145673296,16,5,7.219,758.27300129886,37.401576,2.23694,216.062670956,0.0,0.0,0.0,10.3,3.8,-5.1,0,0,1024,1024,1024,1024,0,0,0,0,0,0,0,55,3.609,3.61,0,0,0,0,5.311,74.84,757.61683329886,36.745408,6,P-GPS,,11.2
345900,2026-01-06 16:47:27,757.61683329886,39.041996,0.0,214.503943872,12.5296591936,16,5,7.219,758.27300129886,37.401576,2.23694,216.062670956,0.0,0.0,0.0,10.2,3.7,-5.0,0,0,1024,1024,1024,1024,0,0,0,0,0,0,0,55,3.609,3.61,0,0,0,0,5.311,74.84,757.61683329886,36.745408,6,P-GPS,,11.2
346000,2026-01-06 16:47:27,757.94491729886,39.041996,0.0,214.50460004,12.5391080128,16,5,7.219,758.27300129886,37.401576,2.23694,216.062670956,0.0,0.0,0.0,10.3,3.1,-5.0,0,0,1024,1024,1024,1024,0,0,0,0,0,0,0,55,3.609,3.61,0,0,0,0,5.311,74.84,757.94491729886,37.073492,6,P-GPS,,11.3
346100,2026-01-06 16:47:28,757.94491729886,39.041996,0.0,214.508537048,12.549048958,16,5,7.219,758.27300129886,37.401576,2.23694,216.062670956,0.0,0.0,0.0,10.5,3.4,-4.7,0,0,1024,1024,1024,1024,0,0,0,0,0,0,0,55,3.609,3.61,0,0,0,0,5.311,74.84,757.94491729886,37.073492,6,P-GPS,,11.3
346200,2026-01-06 16:47:28,757.94491729886,39.041996,0.0,214.52756592,12.5747379352,16,5,7.219,758.27300129886,37.401576,2.23694,216.062670956,0.0,0.0,0.0,10.5,3.5,-5.0,0,0,1024,1024,1024,1024,0,0,0,0,0,0,0,55,3.609,3.61,0,0,0,0,5.311,74.84,757.94491729886,37.073492,6,P-GPS,,11.3
