time(millisecond),timestamp,altitude_above_seaLevel(feet),height_sonar(feet),speed(mph),distance(feet),mileage(feet),satellites,gpslevel,voltage(v),max_altitude(feet),max_ascent(feet),max_speed(mph),max_distance(feet), xSpeed(mph), ySpeed(mph), zSpeed(mph), compass_heading(degrees), pitch(degrees), roll(degrees),isPhoto,isVideo,rc_elevator,rc_aileron,rc_throttle,rc_rudder,rc_elevator(percent),rc_aileron(percent),rc_throttle(percent),rc_rudder(percent),gimbal_heading(degrees),gimbal_pitch(degrees),gimbal_roll(degrees),battery_percent,voltageCell1,voltageCell2,voltageCell3,voltageCell4,voltageCell5,voltageCell6,current(A),battery_temperature(f),altitude(feet),ascent(feet),flycStateRaw,flycState,message,height_above_takeoff(meters)
140900,2026-01-09 20:08:57,720.8955548928,0.656168,0.0,0.0,0.0,16,5,0.0,720.8955548928,0.0,0.0,0.0,0.0,0.0,0.0,5.5,3.0,0.5,0,0,1024,1024,1024,1024,0,0,0,0,0,0,0,89,4.001,3.997,0,0,0,0,0.0,68.0,720.8955548928,0.0,41,Motors_Started,SD card speed low SD card speed low. Normal use may be affected. Replace SD card (Code: 10028). Gimbal stuck. Make sure gimbal cover is removed and manually check whether gimbal can rotate freely (Code: 40002),0.0
141000,2026-01-09 20:08:57,720.8955548928,0.656168,0.0,0.0192927499612,0.0192927499612,16,5,0.0,720.8955548928,0.0,0.0,0.0192927499612,0.0,0.0,0.0,5.5,2.9,0.5,0,0,1024,1024,1024,1024,0,0,0,0,0,0,0,89,4.001,3.997,0,0,0,0,0.0,68.0,720.8955548928,0.0,41,Motors_Started,,0.0
141100,2026-01-09 20:08:58,720.8955548928,0.328084,0.0,0.042154200824,0.048601707592,16,5,8.002,720.8955548928,0.0,0.0,0.042154200824,0.0,0.0,0.0,5.5,2.9,0.5,0,0,1024,1024,1024,1024,0,0,0,0,0,0,0,89,4.001,3.997,0,0,0,0,0.655,68.0,720.8955548928,0.0,41,Motors_Started,,0.0
141200,2026-01-09 20:08:58,720.8955548928,0.328084,0.0,0.06166502822,0.069502626896,16,5,8.002,720.8955548928,0.0,0.0,0.06166502822,0.0,0.0,0.0,5.5,2.9,0.5,0,0,1024,1024,1024,1024,0,0,0,0,0,0,0,89,4.001,3.997,0,0,0,0,0.655,68.0,720.8955548928,0.0,41,Motors_Started,,0.0
141300,2026-01-09 20:08:58,720.8955548928,0.328084,0.0,0.089954399204,0.100511158072,16,5,8.002,720.8955548928,0.0,0.0,0.089954399204,0.0,0.0,0.0,5.5,3.0,0.5,0,0,1024,1024,1024,1024,0,0,0,0,0,0,0,89,4.001,3.997,0,0,0,0,0.655,68.0,720.8955548928,0.0,41,Motors_Started,Setting new Return-To-Home altitude to 90m (295 ft). Data Recorder File Index is 32. Setting new Maximum Flight Altitude to 90m (295 ft),0.0
141400,2026-01-09 20:08:58,720.8955548928,0.328084,0.0,4.7058072372,0.138827432264,16,5,8.002,720.8955548928,0.0,0.0,4.7058072372,0.0,0.0,0.0,5.5,2.9,0.5,0,0,1024,1024,1024,1024,0,0,0,0,0,0,0,89,4.001,3.997,0,0,0,0,0.655,68.0,720.8955548928,0.0,41,Motors_Started,,0.0
141500,2026-01-09 20:08:58,720.8955548928,0.328084,0.0,4.7225723296,0.165850070924,16,5,8.002,720.8955548928,0.0,0.0,4.7225723296,0.0,0.0,0.0,5.5,3.0,0.6,0,0,1024,1024,1024,1024,0,0,0,0,0,0,0,89,4.001,3.997,0,0,0,0,0.655,68.0,720.8955548928,0.0,41,Motors_Started,,0.0
141600,2026-01-09 20:08:58,720.8955548928,0.328084,0.0,4.7589568452,0.212710308644,16,5,8.002,720.8955548928,0.0,0.0,4.7589568452,0.0,0.0,0.0,5.4,3.0,0.5,0,0,1024,1024,1024,1024,0,0,0,0,0,0,0,89,4.001,3.997,0,0,0,0,0.655,68.0,720.8955548928,0.0,41,Motors_Started,,0.0
141700,2026-01-09 20:08:58,720.8955548928,0.328084,0.0,4.7789371608,0.245053157448,16,5,8.002,720.8955548928,0.0,0.0,4.7789371608,0.0,0.0,0.0,5.5,2.9,0.6,0,0,1024,1024,1024,1024,0,0,0,0,0,0,0,89,4.001,3.997,0,0,0,0,0.655,68.0,720.8955548928,0.0,41,Motors_Started,,0.0
141800,2026-01-09 20:08:58,720.8955548928,0.328084,0.0,4.8009515972,0.283724746612,16,5,8.002,720.8955548928,0.0,0.0,4.8009515972,0.0,0.0,0.0,5.5,2.9,0.6,0,0,1024,1024,1024,1024,0,0,0,0,0,0,0,89,4.001,3.997,0,0,0,0,0.655,68.0,720.8955548928,0.0,41,Motors_Started,,0.0
141900,2026-01-09 20:08:58,720.8955548928,0.328084,0.0,4.8191930676,0.310340889196,16,5,8.002,720.8955548928,0.0,0.0,4.8191930676,0.0,0.0,0.0,5.5,3.0,0.6,0,0,1024,1024,1058,1024,0,0,5,0,0,0,0,89,4.001,3.997,0,0,0,0,0.655,68.0,720.8955548928,0.0,41,Motors_Started,,0.0
142000,2026-01-09 20:08:59,720.8955548928,0.328084,0.0,4.8417980552,0.33703413152,16,5,8.002,720.8955548928,0.0,0.0,4.8417980552,0.0,0.0,0.0,5.5,2.9,0.5,0,0,1024,1024,1570,1024,0,0,83,0,0,0,0,89,4.001,3.997,0,0,0,0,0.655,68.0,720.8955548928,0.0,11,AutoTakeoff,,0.0
142100,2026-01-09 20:08:59,720.8955548928,0.328084,0.0,4.8501641972,0.35502625808,16,5,8.002,720.8955548928,0.0,0.0,4.8501641972,0.0,0.0,0.0,5.5,2.9,0.5,0,0,1024,1024,1684,1024,0,0,100,0,0,0,0,89,4.001,3.997,0,0,0,0,0.655,68.0,720.8955548928,0.0,11,AutoTakeoff,,0.0
142200,2026-01-09 20:08:59,720.8955548928,0.328084,0.0,4.855315116,0.37388124556,16,5,7.994,720.8955548928,0.0,0.0,4.855315116,0.0,0.0,0.0,5.4,2.9,0.5,0,0,1024,1024,1684,1024,0,0,100,0,0,0,0,89,4.001,3.992,0,0,0,0,1.399,68.0,720.8955548928,0.0,11,AutoTakeoff,,0.0
142300,2026-01-09 20:08:59,720.8955548928,0.328084,0.0,4.8480316512,0.38704397564,16,5,7.994,720.8955548928,0.0,0.0,4.855315116,0.0,0.0,0.0,5.4,2.9,0.5,0,0,1024,1024,1684,1024,0,0,100,0,0,0,0,89,4.001,3.992,0,0,0,0,1.399,68.0,720.8955548928,0.0,11,AutoTakeoff,,0.0
142400,2026-01-09 20:08:59,720.8955548928,0.328084,0.0,4.7781825676,0.4572834792,16,5,7.994,720.8955548928,0.0,0.0,4.855315116,0.0,0.0,0.0,5.4,3.0,0.5,0,0,1024,1024,1684,1024,0,0,100,0,0,0,0,89,4.001,3.992,0,0,0,0,1.399,68.0,720.8955548928,0.0,11,AutoTakeoff,,0.0
142500,2026-01-09 20:08:59,720.8955548928,0.328084,0.0,4.781332174,0.48020998912,16,5,7.994,720.8955548928,0.0,0.0,4.855315116,0.0,0.0,0.0,5.5,2.9,0.6,0,0,1024,1024,1684,1024,0,0,100,0,0,0,0,89,4.001,3.992,0,0,0,0,1.399,68.0,720.8955548928,0.0,11,AutoTakeoff,,0.0
142600,2026-01-09 20:08:59,720.8955548928,0.328084,0.0,4.7935040904,0.51329726052,16,5,7.994,720.8955548928,0.0,0.0,4.855315116,0.0,0.0,0.0,5.6,2.9,0.4,0,0,1024,1024,1684,1024,0,0,100,0,0,0,0,89,4.001,3.992,0,0,0,0,1.399,68.0,720.8955548928,0.0,11,AutoTakeoff,,0.0
142700,2026-01-09 20:08:59,720.8955548928,0.328084,0.0,4.8035106524,0.54270671028,16,5,7.994,720.8955548928,0.0,0.0,4.855315116,0.0,0.0,-0.223694,5.7,1.4,-0.5,0,0,1024,1024,1684,1024,0,0,100,0,0,0,0,89,4.001,3.992,0,0,0,0,1.399,68.0,720.8955548928,0.0,11,AutoTakeoff,,0.0
142800,2026-01-09 20:08:59,720.8955548928,0.328084,0.0,4.8236878184,0.60105316884,16,5,7.994,720.8955548928,0.0,0.0,4.855315116,0.0,0.0,-0.447388,5.6,1.0,-2.1,0,0,1024,1024,1684,1024,0,0,100,0,0,0,0,89,4.001,3.992,0,0,0,0,1.399,68.0,720.8955548928,0.0,11,AutoTakeoff,,0.0
142900,2026-01-09 20:08:59,720.8955548928,0.656168,0.0,4.8379922808,0.61805120088,16,5,7.994,720.8955548928,0.0,0.0,4.855315116,0.0,0.0,-0.671082,5.6,1.0,-1.3,0,0,1024,1024,1684,1024,0,0,100,0,0,0,0,89,4.001,3.992,0,0,0,0,1.399,68.0,720.8955548928,0.0,11,AutoTakeoff,,0.0
143000,2026-01-09 20:08:59,720.8955548928,0.656168,0.223694,4.8595145912,0.64047574228,16,5,7.994,720.8955548928,0.0,0.223694,4.8595145912,0.0,-0.223694,-1.11847,5.6,1.3,1.4,0,0,1024,1024,1684,1024,0,0,100,0,0,0,0,89,4.001,3.992,0,0,0,0,1.399,68.0,720.8955548928,0.0,11,AutoTakeoff,,0.0
143100,2026-01-09 20:09:00,720.8955548928,0.656168,0.0,4.8832678728,0.66980645188,16,5,7.994,720.8955548928,0.0,0.223694,4.8832678728,0.0,0.0,-1.342164,5.7,1.4,1.7,0,0,1024,1024,1684,1024,0,0,100,0,0,0,0,89,4.001,3.992,0,0,0,0,1.399,68.0,720.8955548928,0.0,11,AutoTakeoff,,0.0
143200,2026-01-09 20:09:00,721.2236388928,0.984252,0.0,4.8983597368,0.69080710872,16,5,7.994,721.2236388928,0.328084,0.223694,4.8983597368,0.0,0.0,-1.789552,5.7,1.7,1.0,0,0,1024,1024,1684,1024,0,0,100,0,0,0,0,89,4.001,3.992,0,0,0,0,1.399,68.0,721.2236388928,0.328084,11,AutoTakeoff,,0.1
143300,2026-01-09 20:09:00,721.5517228928,1.312336,0.0,4.9055775848,0.708989524,16,5,7.994,721.5517228928,0.656168,0.223694,4.9055775848,0.0,0.0,-2.460634,5.8,1.6,0.3,0,0,1024,1024,1684,1024,0,0,100,0,0,0,0,89,3.874,3.865,0,0,0,0,1.399,68.0,721.5517228928,0.656168,11,AutoTakeoff,,0.2
143400,2026-01-09 20:09:00,721.8798068928,1.64042,0.0,4.8944227288,0.72029529864,16,5,7.994,721.8798068928,0.984252,0.223694,4.9055775848,0.0,0.0,-3.131716,5.8,2.1,0.0,0,0,1024,1024,1684,1024,0,0,100,0,0,0,0,89,3.874,3.865,0,0,0,0,1.399,68.0,721.8798068928,0.984252,11,AutoTakeoff,Home Point updated. RTH altitude adjusted to 90 m (Code: 120852),0.3
143500,2026-01-09 20:09:00,722.5359748928,1.968504,0.0,4.8841536996,0.74216209724,16,5,7.994,722.5359748928,1.64042,0.223694,4.9055775848,0.0,0.0,-3.579104,5.7,2.2,0.0,0,0,1024,1024,1684,1024,0,0,100,0,0,0,0,89,3.874,3.865,0,0,0,0,1.399,68.0,722.5359748928,1.64042,11,AutoTakeoff,,0.5
143600,2026-01-09 20:09:00,722.8640588928,2.624672,0.0,4.872703568,0.77531826628,16,5,7.994,722.8640588928,1.968504,0.223694,4.9055775848,0.0,0.0,-4.026492,5.7,2.2,0.0,0,0,1024,1024,1684,1024,0,0,100,0,0,0,0,89,3.874,3.865,0,0,0,0,1.399,68.0,722.8640588928,1.968504,11,AutoTakeoff,,0.6
143700,2026-01-09 20:09:00,723.5202268928,2.952756,0.0,4.8409778452,0.843257901,16,5,7.994,723.5202268928,2.624672,0.223694,4.9055775848,0.0,0.0,-4.250186,5.6,2.1,0.0,0,0,1024,1024,1684,1024,0,0,100,0,0,0,0,89,3.874,3.865,0,0,0,0,1.399,68.0,723.5202268928,2.624672,6,P-GPS,,0.8
143800,2026-01-09 20:09:00,724.1763948928,3.608924,0.0,4.7898951664,0.8973261442,15,5,7.994,724.1763948928,3.28084,0.223694,4.9055775848,0.0,0.0,-4.47388,5.6,2.7,0.0,0,0,1024,1024,1684,1024,0,0,100,0,0,0,0,89,3.874,3.865,0,0,0,0,1.399,68.0,724.1763948928,3.28084,6,P-GPS,,1.0
143900,2026-01-09 20:09:00,724.8325628928,4.265092,0.0,4.7437009392,0.94654858672,15,5,7.994,724.8325628928,3.937008,0.223694,4.9055775848,0.0,0.0,-4.47388,5.6,2.6,0.0,0,0,1024,1024,1684,1024,0,0,100,0,0,0,0,89,3.874,3.865,0,0,0,0,1.399,68.0,724.8325628928,3.937008,6,P-GPS,,1.2
144000,2026-01-09 20:09:00,725.4887308928,4.92126,0.0,4.6977035624,0.99593835208,15,5,7.994,725.4887308928,4.593176,0.223694,4.9055775848,0.0,0.0,-4.47388,5.6,2.8,0.0,0,0,1024,1024,1684,1024,0,0,100,0,0,0,0,89,3.874,3.865,0,0,0,0,1.399,68.0,725.4887308928,4.593176,6,P-GPS,,1.4
144100,2026-01-09 20:09:01,726.1448988928,5.577428,0.0,4.6234253448,1.07323822332,15,5,7.994,726.1448988928,5.249344,0.223694,4.9055775848,0.0,0.0,-4.47388,5.6,2.5,0.2,0,0,1024,1024,1684,1024,0,0,100,0,0,0,0,89,3.874,3.865,0,0,0,0,1.399,68.0,726.1448988928,5.249344,6,P-GPS,,1.6
144200,2026-01-09 20:09:01,726.8010668928,5.905512,0.0,4.5913059212,1.10876315884,16,5,7.994,726.8010668928,5.905512,0.223694,4.9055775848,0.0,0.0,-4.47388,5.6,2.7,0.1,0,0,1024,1024,1684,1024,0,0,100,0,0,0,0,89,3.874,3.865,0,0,0,0,1.399,68.0,726.8010668928,5.905512,6,P-GPS,,1.8
144300,2026-01-09 20:09:01,727.4572348928,6.56168,0.0,4.5759187816,1.12451119084,16,5,7.994,727.4572348928,6.56168,0.223694,4.9055775848,0.0,0.0,-4.47388,5.7,2.4,-0.1,0,0,1024,1024,1684,1024,0,0,100,0,0,0,0,89,3.874,3.865,0,0,0,0,1.399,68.0,727.4572348928,6.56168,6,P-GPS,,2.0
144400,2026-01-09 20:09:01,728.1134028928,7.217848,0.0,4.5661746868,1.13435043,16,5,7.739,728.1134028928,7.217848,0.223694,4.9055775848,0.0,0.0,-4.250186,5.7,3.0,0.0,0,0,1024,1024,1684,1024,0,0,100,0,0,0,0,89,3.87,3.867,0,0,0,0,4.586,68.18,728.1134028928,7.217848,6,P-GPS,,2.2
144500,2026-01-09 20:09:01,728.7695708928,7.874016,0.0,4.6476707524,1.22528219144,16,5,7.739,728.7695708928,7.874016,0.223694,4.9055775848,0.0,0.0,-4.250186,5.7,2.8,0.2,0,0,1024,1024,1684,1024,0,0,100,0,0,0,0,89,3.87,3.867,0,0,0,0,4.586,68.18,728.7695708928,7.874016,6,P-GPS,,2.4
144600,2026-01-09 20:09:01,729.4257388928,8.530184,0.0,4.6407809884,1.26118114272,16,5,7.739,729.4257388928,8.530184,0.223694,4.9055775848,0.0,0.0,-4.250186,5.6,2.7,0.4,0,0,1024,1024,1684,1024,0,0,100,0,0,0,0,89,3.87,3.867,0,0,0,0,4.586,68.18,729.4257388928,8.530184,6,P-GPS,,2.6
144700,2026-01-09 20:09:01,730.0819068928,8.858268,0.0,4.615157628,1.29531828292,16,5,7.739,730.0819068928,9.186352,0.223694,4.9055775848,0.0,0.0,-4.250186,5.5,2.7,0.0,0,0,1024,1024,1684,1024,0,0,100,0,0,0,0,89,3.87,3.867,0,0,0,0,4.586,68.18,730.0819068928,9.186352,6,P-GPS,,2.8
144800,2026-01-09 20:09:01,730.7380748928,9.514436,0.0,4.5780185192,1.33622379604,16,5,7.739,730.7380748928,9.84252,0.223694,4.9055775848,0.0,0.0,-4.250186,5.5,2.8,0.0,0,0,1024,1024,1684,1024,0,0,100,0,0,0,0,89,3.87,3.867,0,0,0,0,4.586,68.18,730.7380748928,9.84252,6,P-GPS,,3.0
144900,2026-01-09 20:09:01,731.3942428928,10.170604,0.0,4.5209647116,1.399770386,16,5,7.739,731.3942428928,10.498688,0.223694,4.9055775848,0.0,0.0,-4.250186,5.5,2.9,-0.1,0,0,1024,1024,1684,1024,0,0,100,0,0,0,0,89,3.87,3.867,0,0,0,0,4.586,68.18,731.3942428928,10.498688,6,P-GPS,,3.2
145000,2026-01-09 20:09:02,732.0504108928,10.826772,0.0,4.3720145756,1.56420936764,16,5,7.739,732.0504108928,11.154856,0.223694,4.9055775848,0.0,0.0,-4.250186,5.5,3.1,-0.3,0,0,1024,1024,1684,1024,0,0,100,0,0,0,0,89,3.87,3.867,0,0,0,0,4.586,68.18,732.0504108928,11.154856,6,P-GPS,,3.4
145100,2026-01-09 20:09:02,732.3784948928,11.48294,0.0,4.3247704796,1.6120079256,16,5,7.739,732.3784948928,11.48294,0.223694,4.9055775848,0.0,0.0,-4.250186,5.5,2.8,-0.3,0,0,1024,1024,1684,1024,0,0,100,0,0,0,0,89,3.87,3.867,0,0,0,0,4.586,68.18,732.3784948928,11.48294,6,P-GPS,,3.5
145200,2026-01-09 20:09:02,733.0346628928,11.811024,0.0,4.2860237592,1.65123692948,16,5,7.739,733.0346628928,12.139108,0.223694,4.9055775848,0.0,0.0,-4.250186,5.5,2.8,-0.6,0,0,1024,1024,1684,1024,0,0,100,0,0,0,0,89,3.87,3.867,0,0,0,0,4.586,68.18,733.0346628928,12.139108,6,P-GPS,,3.7
145300,2026-01-09 20:09:02,733.6908308928,12.467192,0.0,4.2496064352,1.70537078948,16,5,7.739,733.6908308928,12.795276,0.223694,4.9055775848,0.0,0.0,-4.250186,5.6,1.9,-1.5,0,0,1024,1024,1684,1024,0,0,100,0,0,0,0,89,3.87,3.867,0,0,0,0,4.586,68.18,733.6908308928,12.795276,6,P-GPS,,3.9
145400,2026-01-09 20:09:02,734.3469988928,13.12336,0.0,4.2022967224,1.91843181992,15,5,7.739,734.3469988928,13.451444,0.223694,4.9055775848,0.0,0.0,-4.250186,5.6,1.8,-2.0,0,0,1024,1024,1684,1024,0,0,100,0,0,0,0,89,3.87,3.867,0,0,0,0,4.586,68.18,734.3469988928,13.451444,6,P-GPS,,4.1
145500,2026-01-09 20:09:02,735.0031668928,13.779528,0.0,4.1645014456,1.961532215,15,5,7.739,735.0031668928,14.107612,0.223694,4.9055775848,0.0,0.0,-4.250186,5.5,2.6,-1.6,0,0,1024,1024,1684,1024,0,0,100,0,0,0,0,89,3.87,3.867,0,0,0,0,4.586,68.18,735.0031668928,14.107612,6,P-GPS,,4.3
145600,2026-01-09 20:09:02,735.9874188928,14.107612,0.0,4.1266733604,1.99935701936,16,5,7.709,735.9874188928,15.091864,0.223694,4.9055775848,0.0,0.0,-4.250186,5.6,2.6,-1.0,0,0,1024,1024,1684,1024,0,0,100,0,0,0,0,89,3.857,3.852,0,0,0,0,5.816,68.18,735.9874188928,15.091864,6,P-GPS,,4.6
145700,2026-01-09 20:09:02,736.6435868928,15.091864,0.0,4.103182546,2.0272474402,16,5,7.709,736.6435868928,15.748032,0.223694,4.9055775848,0.0,0.0,-4.250186,5.6,2.7,-0.6,0,0,1024,1024,1684,1024,0,0,100,0,0,0,0,89,3.857,3.852,0,0,0,0,5.816,68.18,736.6435868928,15.748032,6,P-GPS,,4.8
145800,2026-01-09 20:09:02,737.2997548928,15.748032,0.0,4.0762468496,2.06047578772,16,5,7.709,737.2997548928,16.4042,0.223694,4.9055775848,0.0,0.0,-4.250186,5.6,3.2,0.1,0,0,1024,1024,1684,1024,0,0,100,0,0,0,0,89,3.857,3.852,0,0,0,0,5.816,68.18,737.2997548928,16.4042,6,P-GPS,,5.0
145900,2026-01-09 20:09:02,737.9559228928,16.4042,0.0,4.0650591852,2.0826444236,16,5,7.709,737.9559228928,17.060368,0.223694,4.9055775848,0.0,0.0,-4.250186,5.6,3.2,0.0,0,0,1024,1024,1684,1024,0,0,100,0,0,0,0,89,3.857,3.852,0,0,0,0,5.816,68.18,737.9559228928,17.060368,6,P-GPS,,5.2
146000,2026-01-09 20:09:02,738.6120908928,17.060368,0.0,4.058070996,2.10004599896,16,5,7.709,738.6120908928,17.716536,0.223694,4.9055775848,0.0,0.0,-4.250186,5.6,3.0,0.0,0,0,1024,1024,1684,1024,0,0,100,0,0,0,0,89,3.857,3.852,0,0,0,0,5.816,68.18,738.6120908928,17.716536,6,P-GPS,,5.4
146100,2026-01-09 20:09:03,739.2682588928,18.04462,0.0,4.0462927804,2.15148957016,16,5,7.709,739.2682588928,18.372704,0.223694,4.9055775848,0.0,0.0,-4.250186,5.5,3.0,0.1,0,0,1024,1024,1684,1024,0,0,100,0,0,0,0,89,3.857,3.852,0,0,0,0,5.816,68.18,739.2682588928,18.372704,6,P-GPS,,5.6
146200,2026-01-09 20:09:03,739.9244268928,18.700788,0.223694,4.0288387116,2.34528878896,16,5,7.709,739.9244268928,19.028872,0.223694,4.9055775848,0.223694,0.0,-4.250186,5.5,3.1,0.1,0,0,1024,1024,1684,1024,0,0,100,0,0,0,0,89,3.857,3.852,0,0,0,0,5.816,68.18,739.9244268928,19.028872,6,P-GPS,,5.8
146300,2026-01-09 20:09:03,740.5805948928,19.68504,0.223694,4.0094161388,2.42048236092,16,5,7.709,740.5805948928,19.68504,0.223694,4.9055775848,0.223694,0.0,-4.250186,5.5,4.0,0.1,0,0,1024,1024,1684,1024,0,0,100,0,0,0,0,89,3.857,3.852,0,0,0,0,5.816,68.18,740.5805948928,19.68504,6,P-GPS,,6.0
146400,2026-01-09 20:09:03,741.2367628928,20.341208,0.3131716,3.990485692,2.49227698264,16,5,7.709,741.2367628928,20.341208,0.3131716,4.9055775848,0.223694,-0.223694,-4.250186,5.5,4.2,0.1,0,0,1024,1024,1684,1024,0,0,100,0,0,0,0,89,3.857,3.852,0,0,0,0,5.816,68.18,741.2367628928,20.341208,6,P-GPS,,6.2
146500,2026-01-09 20:09:03,741.8929308928,21.32546,0.223694,3.9859581328,2.5738681926,16,5,7.709,741.8929308928,20.997376,0.3131716,4.9055775848,0.0,-0.223694,-4.250186,5.5,4.0,0.8,0,0,1024,1024,1684,1024,0,0,100,0,0,0,0,89,3.857,3.852,0,0,0,0,5.816,68.18,741.8929308928,20.997376,6,P-GPS,,6.4
146600,2026-01-09 20:09:03,742.5490988928,21.981628,0.0,3.9915027524,2.65771662048,15,5,7.709,742.5490988928,21.653544,0.3131716,4.9055775848,0.0,0.0,-4.47388,5.5,3.8,0.6,0,0,1024,1024,1684,1024,0,0,100,0,0,0,0,89,3.857,3.852,0,0,0,0,5.816,68.18,742.5490988928,21.653544,6,P-GPS,,6.6
146700,2026-01-09 20:09:03,743.2052668928,22.96588,0.0,3.9601051136,2.86008539336,15,5,7.701,743.2052668928,22.309712,0.3131716,4.9055775848,0.0,0.0,-4.47388,5.5,4.6,-0.5,0,0,1024,1024,1684,1024,0,0,100,0,0,0,0,89,3.85,3.847,0,0,0,0,5.89,68.18,743.2052668928,22.309712,6,P-GPS,,6.8
146800,2026-01-09 20:09:03,743.8614348928,23.950132,0.0,3.9268045876,2.89723434468,15,5,7.701,743.8614348928,22.96588,0.3131716,4.9055775848,0.0,0.0,-4.250186,5.4,3.9,-0.8,0,0,1024,1024,1684,1024,0,0,100,0,0,0,0,89,3.85,3.847,0,0,0,0,5.89,68.18,743.8614348928,22.96588,6,P-GPS,,7.0
146900,2026-01-09 20:09:03,744.5176028928,24.6063,0.0,3.9054135108,2.9564797534,15,5,7.701,744.5176028928,23.622048,0.3131716,4.9055775848,0.0,0.0,-4.250186,5.5,2.7,-1.3,0,0,1024,1024,1684,1024,0,0,100,0,0,0,0,89,3.85,3.847,0,0,0,0,5.89,68.18,744.5176028928,23.622048,6,P-GPS,,7.2
147000,2026-01-09 20:09:04,745.1737708928,25.590552,0.223694,3.8937665288,3.02984917832,15,5,7.701,745.1737708928,24.278216,0.3131716,4.9055775848,-0.223694,0.0,-4.250186,5.4,2.3,-1.1,0,0,1024,1024,1684,1024,0,0,100,0,0,0,0,89,3.85,3.847,0,0,0,0,5.89,68.18,745.1737708928,24.278216,6,P-GPS,,7.4
147100,2026-01-09 20:09:04,745.8299388928,26.24672,0.223694,3.8637468428,3.27764774268,15,5,7.701,745.8299388928,24.934384,0.3131716,4.9055775848,-0.223694,0.0,-4.47388,5.3,0.4,-1.1,0,0,1024,1024,1684,1024,0,0,100,0,0,0,0,89,3.85,3.847,0,0,0,0,5.89,68.18,745.8299388928,24.934384,6,P-GPS,,7.6
147200,2026-01-09 20:09:04,746.4861068928,27.230972,0.223694,3.9375985512,3.3903872476,16,5,7.701,746.4861068928,25.590552,0.3131716,4.9055775848,-0.223694,0.0,-4.47388,5.3,0.5,-0.8,0,0,1024,1024,1684,1024,0,0,100,0,0,0,0,89,3.85,3.847,0,0,0,0,5.89,68.18,746.4861068928,25.590552,6,P-GPS,,7.8
147300,2026-01-09 20:09:04,747.1422748928,27.88714,0.223694,3.9946523588,3.46046599,16,5,7.701,747.1422748928,26.24672,0.3131716,4.9055775848,-0.223694,0.0,-4.47388,5.3,0.5,-0.6,0,0,1024,1024,1684,1024,0,0,100,0,0,0,0,89,3.85,3.847,0,0,0,0,5.89,68.18,747.1422748928,26.24672,6,P-GPS,,8.0
147400,2026-01-09 20:09:04,748.1265268928,28.543308,0.223694,4.04199488,3.5109581176,15,5,7.701,748.1265268928,27.230972,0.3131716,4.9055775848,0.0,-0.223694,-4.47388,5.2,1.1,-0.1,0,0,1024,1024,1684,1024,0,0,100,0,0,0,0,89,3.85,3.847,0,0,0,0,5.89,68.18,748.1265268928,27.230972,6,P-GPS,,8.3
147500,2026-01-09 20:09:04,748.7826948928,29.199476,0.223694,4.1191274284,3.7021326644,15,5,7.701,748.7826948928,27.88714,0.3131716,4.9055775848,0.0,-0.223694,-4.47388,5.3,3.4,1.6,0,0,1024,1024,1684,1024,0,0,100,0,0,0,0,89,3.85,3.847,0,0,0,0,5.89,68.18,748.7826948928,27.88714,6,P-GPS,,8.5
147600,2026-01-09 20:09:04,749.4388628928,29.199476,0.223694,4.1201116804,3.7902232184,16,5,7.701,749.4388628928,28.543308,0.3131716,4.9055775848,0.0,0.0,-4.47388,5.3,3.2,1.4,0,0,1024,1024,1684,1024,0,0,100,0,0,0,0,89,3.85,3.847,0,0,0,0,5.89,68.18,749.4388628928,28.543308,6,P-GPS,,8.7
147700,2026-01-09 20:09:04,750.0950308928,32.480316,0.223694,4.1500001328,3.8227691512,16,5,7.701,750.0950308928,29.199476,0.3131716,4.9055775848,-0.223694,0.0,-4.47388,5.3,1.6,0.8,0,0,1024,1024,1684,1024,0,0,100,0,0,0,0,89,3.85,3.847,0,0,0,0,5.89,68.18,750.0950308928,29.199476,6,P-GPS,,8.9
147800,2026-01-09 20:09:04,750.7511988928,32.8084,0.223694,4.192585436,3.8733268956,16,5,7.685,750.7511988928,29.855644,0.3131716,4.9055775848,0.0,0.0,-4.47388,5.3,1.7,0.4,0,0,1024,1024,1684,1024,0,0,100,0,0,0,0,88,3.844,3.842,0,0,0,0,5.985,68.18,750.7511988928,29.855644,6,P-GPS,,9.1
147900,2026-01-09 20:09:04,751.4073668928,33.464568,0.0,4.0885171912,3.9884515712,16,5,7.685,751.4073668928,30.511812,0.3131716,4.9055775848,0.0,0.0,-4.47388,5.2,3.2,0.0,0,0,1024,1024,1684,1024,0,0,100,0,0,0,0,88,3.844,3.842,0,0,0,0,5.985,68.18,751.4073668928,30.511812,6,P-GPS,,9.3
148000,2026-01-09 20:09:04,752.0635348928,34.120736,0.223694,4.02641089,4.0656497364,16,5,7.685,752.0635348928,31.16798,0.3131716,4.9055775848,-0.223694,0.0,-4.47388,5.2,2.8,-0.7,0,0,1024,1024,1024,1024,0,0,0,0,0,0,0,88,3.844,3.842,0,0,0,0,5.985,68.18,752.0635348928,31.16798,6,P-GPS,,9.5
148100,2026-01-09 20:09:05,752.7197028928,34.776904,0.223694,4.0376641712,4.0915683724,16,5,7.685,752.7197028928,31.824148,0.3131716,4.9055775848,-0.223694,0.0,-4.47388,5.2,1.3,-0.6,0,0,1024,1024,1024,1024,0,0,0,0,0,0,0,88,3.844,3.842,0,0,0,0,5.985,68.18,752.7197028928,31.824148,6,P-GPS,,9.7
148200,2026-01-09 20:09:05,753.0477868928,35.433072,0.223694,4.085794094,4.1658137816,16,5,7.685,753.0477868928,32.152232,0.3131716,4.9055775848,-0.223694,0.0,-4.250186,5.3,0.8,-0.4,0,0,1024,1024,1024,1024,0,0,0,0,0,0,0,88,3.844,3.842,0,0,0,0,5.985,68.18,753.0477868928,32.152232,6,P-GPS,,9.8
148300,2026-01-09 20:09:05,753.7039548928,36.08924,0.223694,4.1185696856,4.2329069596,16,5,7.685,753.7039548928,32.8084,0.3131716,4.9055775848,-0.223694,0.0,-3.579104,5.3,1.0,-0.7,0,0,1024,1024,1024,1024,0,0,0,0,0,0,0,88,3.844,3.842,0,0,0,0,5.985,68.18,753.7039548928,32.8084,6,P-GPS,,10.0
148400,2026-01-09 20:09:05,754.0320388928,36.417324,0.223694,4.3076444948,4.5531169436,16,5,7.685,754.0320388928,33.136484,0.3131716,4.9055775848,-0.223694,0.0,-2.684328,5.4,-1.1,-0.9,0,0,1024,1024,1024,1024,0,0,0,0,0,0,0,88,3.844,3.842,0,0,0,0,5.985,68.18,754.0320388928,33.136484,6,P-GPS,,10.1
148500,2026-01-09 20:09:05,754.3601228928,36.745408,0.0,4.3454397716,4.6049542156,16,5,7.685,754.3601228928,33.464568,0.3131716,4.9055775848,0.0,0.0,-2.013246,5.4,-0.7,-1.1,0,0,1024,1024,1024,1024,0,0,0,0,0,0,0,88,3.844,3.842,0,0,0,0,5.985,68.18,754.3601228928,33.464568,6,P-GPS,,10.2
148600,2026-01-09 20:09:05,754.6882068928,37.073492,0.0,4.3851379356,4.6503610412,16,5,7.685,754.6882068928,33.792652,0.3131716,4.9055775848,0.0,0.0,-1.11847,5.4,-0.2,-1.2,0,0,1024,1024,1024,1024,0,0,0,0,0,0,0,88,3.844,3.842,0,0,0,0,5.985,68.18,754.6882068928,33.792652,6,P-GPS,,10.3
148700,2026-01-09 20:09:05,754.6882068928,37.073492,0.0,4.427985706,4.6950132736,16,5,7.685,754.6882068928,33.792652,0.3131716,4.9055775848,0.0,0.0,-0.447388,5.4,-0.1,-1.2,0,0,1024,1024,1024,1024,0,0,0,0,0,0,0,88,3.844,3.842,0,0,0,0,5.985,68.18,754.6882068928,33.792652,6,P-GPS,,10.3
148800,2026-01-09 20:09:05,754.6882068928,37.073492,0.0,4.5724738996,4.8398295512,16,5,7.685,754.6882068928,33.792652,0.3131716,4.9055775848,0.0,0.0,-0.223694,5.4,0.0,-1.1,0,0,1024,1024,1024,1024,0,0,0,0,0,0,0,88,3.844,3.842,0,0,0,0,5.985,68.18,754.6882068928,33.792652,6,P-GPS,,10.3
148900,2026-01-09 20:09:05,755.0162908928,37.073492,0.0,4.596784924,4.8694883448,16,5,7.822,755.0162908928,34.120736,0.3131716,4.9055775848,0.0,0.0,0.0,5.4,0.4,-1.2,0,0,1024,1024,1024,1024,0,0,0,0,0,0,0,88,3.893,3.888,0,0,0,0,4.438,68.36,755.0162908928,34.120736,6,P-GPS,,10.4
149000,2026-01-09 20:09:05,755.0162908928,37.073492,0.0,4.6109909612,4.903707506,16,5,7.822,755.0162908928,34.120736,0.3131716,4.9055775848,0.0,0.0,0.0,5.5,0.7,-0.9,0,0,1024,1024,1024,1024,0,0,0,0,0,0,0,88,3.893,3.888,0,0,0,0,4.438,68.36,755.0162908928,34.120736,6,P-GPS,,10.4
149100,2026-01-09 20:09:06,755.0162908928,37.073492,0.0,4.5998361052,4.9830054088,16,5,7.822,755.0162908928,34.120736,0.3131716,4.9055775848,0.0,0.0,0.0,5.5,1.2,-0.7,0,0,1024,1024,1024,1024,0,0,0,0,0,0,0,88,3.893,3.888,0,0,0,0,4.438,68.36,755.0162908928,34.120736,6,P-GPS,,10.4
149200,2026-01-09 20:09:06,755.0162908928,37.073492,0.0,4.53904214,5.2465880944,16,5,7.822,755.0162908928,34.120736,0.3131716,4.9055775848,0.0,0.0,0.0,5.5,1.8,-0.9,0,0,1024,1024,1024,1024,0,0,0,0,0,0,0,88,3.893,3.888,0,0,0,0,4.438,68.36,755.0162908928,34.120736,6,P-GPS,,10.4
149300,2026-01-09 20:09:06,755.0162908928,37.073492,0.0,4.5253282288,5.323326942,16,5,7.822,755.0162908928,34.120736,0.3131716,4.9055775848,0.0,0.0,0.0,5.5,2.0,-1.4,0,0,1024,1024,1024,1024,0,0,0,0,0,0,0,88,3.893,3.888,0,0,0,0,4.438,68.36,755.0162908928,34.120736,6,P-GPS,,10.4
149400,2026-01-09 20:09:06,755.0162908928,37.073492,0.0,4.51771668,5.3870080464,16,5,7.822,755.0162908928,34.120736,0.3131716,4.9055775848,0.0,0.0,0.0,5.5,2.4,-1.2,0,0,1024,1024,1024,1024,0,0,0,0,0,0,0,88,3.893,3.888,0,0,0,0,4.438,68.36,755.0162908928,34.120736,6,P-GPS,,10.4
149500,2026-01-09 20:09:06,755.0162908928,37.073492,0.0,4.530183872,5.42814978,16,5,7.822,755.0162908928,34.120736,0.3131716,4.9055775848,0.0,0.0,0.0,5.6,2.5,-1.1,0,0,1024,1024,1024,1024,0,0,0,0,0,0,0,88,3.893,3.888,0,0,0,0,4.438,68.36,755.0162908928,34.120736,6,P-GPS,,10.4
149600,2026-01-09 20:09:06,755.0162908928,37.073492,0.0,4.5624345292,5.460466054,16,5,7.822,755.0162908928,34.120736,0.3131716,4.9055775848,0.0,0.0,0.0,5.5,2.4,-1.2,0,0,1024,1024,1024,1024,0,0,0,0,0,0,0,88,3.893,3.888,0,0,0,0,4.438,68.36,755.0162908928,34.120736,6,P-GPS,,10.4
149700,2026-01-09 20:09:06,755.0162908928,37.073492,0.0,4.5946851864,5.4934056876,16,5,7.822,755.0162908928,34.120736,0.3131716,4.9055775848,0.0,0.0,0.0,5.5,2.1,-1.2,0,0,1024,1024,1024,1024,0,0,0,0,0,0,0,88,3.893,3.888,0,0,0,0,4.438,68.36,755.0162908928,34.120736,6,P-GPS,,10.4
149800,2026-01-09 20:09:06,755.0162908928,37.073492,0.0,4.6334975236,5.5322836416,16,5,7.822,755.0162908928,34.120736,0.3131716,4.9055775848,0.0,0.0,0.0,5.5,1.9,-1.0,0,0,1024,1024,1024,1024,0,0,0,0,0,0,0,88,3.893,3.888,0,0,0,0,4.438,68.36,755.0162908928,34.120736,6,P-GPS,,10.4
149900,2026-01-09 20:09:06,755.0162908928,37.073492,0.0,4.6651576296,5.5665684196,16,5,7.822,755.0162908928,34.120736,0.3131716,4.9055775848,0.0,0.0,0.0,5.5,1.7,-0.8,0,0,1024,1024,1024,1024,0,0,0,0,0,0,0,88,3.893,3.888,0,0,0,0,4.438,68.36,755.0162908928,34.120736,6,P-GPS,,10.4
150000,2026-01-09 20:09:07,755.3443748928,37.073492,0.0,4.6956694416,5.6017390244,16,5,7.748,755.3443748928,34.44882,0.3131716,4.9055775848,0.0,0.0,0.0,5.5,1.5,-0.7,0,0,1024,1024,1024,1024,0,0,0,0,0,0,0,88,3.875,3.872,0,0,0,0,4.843,68.36,755.3443748928,34.44882,6,P-GPS,,10.5
150100,2026-01-09 20:09:07,755.3443748928,37.073492,0.0,4.7503610444,5.7770343056,16,5,7.748,755.3443748928,34.44882,0.3131716,4.9055775848,0.0,0.0,0.0,5.5,1.0,-0.6,0,0,1024,1024,1024,1024,0,0,0,0,0,0,0,88,3.875,3.872,0,0,0,0,4.843,68.36,755.3443748928,34.44882,6,P-GPS,,10.5
150200,2026-01-09 20:09:07,755.3443748928,37.073492,0.0,4.8004594712,5.8364175096,16,5,7.748,755.3443748928,34.44882,0.3131716,4.9055775848,0.0,0.0,0.0,5.6,1.4,-0.3,0,0,1024,1024,1024,1024,0,0,0,0,0,0,0,88,3.875,3.872,0,0,0,0,4.843,68.36,755.3443748928,34.44882,6,P-GPS,,10.5
150300,2026-01-09 20:09:07,755.3443748928,37.073492,0.0,4.8364830944,5.8788715792,16,5,7.748,755.3443748928,34.44882,0.3131716,4.9055775848,0.0,0.0,0.0,5.6,1.4,0.0,0,0,1024,1024,1024,1024,0,0,0,0,0,0,0,88,3.875,3.872,0,0,0,0,4.843,68.36,755.3443748928,34.44882,6,P-GPS,,10.5
150400,2026-01-09 20:09:07,755.3443748928,37.073492,0.0,4.8654201032,5.9135828664,16,5,7.748,755.3443748928,34.44882,0.3131716,4.9055775848,0.0,0.0,0.0,5.6,1.5,0.0,0,0,1024,1024,1024,1024,0,0,0,0,0,0,0,88,3.875,3.872,0,0,0,0,4.843,68.36,755.3443748928,34.44882,6,P-GPS,,10.5
150500,2026-01-09 20:09:07,755.3443748928,37.073492,0.0,4.9061353276,6.0298230276,16,5,7.748,755.3443748928,34.44882,0.3131716,4.9061353276,0.0,0.0,0.0,5.6,1.2,0.2,0,0,1024,1024,1024,1024,0,0,0,0,0,0,0,88,3.875,3.872,0,0,0,0,4.843,68.36,755.3443748928,34.44882,6,P-GPS,,10.5
150600,2026-01-09 20:09:07,755.3443748928,37.073492,0.0,4.913550026,6.0458335268,16,5,7.748,755.3443748928,34.44882,0.3131716,4.913550026,0.0,0.0,0.0,5.6,1.3,0.1,0,0,1024,1024,1024,1024,0,0,0,0,0,0,0,88,3.875,3.872,0,0,0,0,4.843,68.36,755.3443748928,34.44882,6,P-GPS,,10.5
150700,2026-01-09 20:09:07,755.3443748928,37.073492,0.0,4.9281825724,6.0677167296,16,5,7.748,755.3443748928,34.44882,0.3131716,4.9281825724,0.0,0.0,0.0,5.5,1.2,0.1,0,0,1024,1024,1024,1024,0,0,0,0,0,0,0,88,3.875,3.872,0,0,0,0,4.843,68.36,755.3443748928,34.44882,6,P-GPS,,10.5
150800,2026-01-09 20:09:07,755.3443748928,37.073492,0.0,4.946030342,6.093996258,16,5,7.748,755.3443748928,34.44882,0.3131716,4.946030342,0.0,0.0,0.0,5.5,1.4,0.0,0,0,1024,1024,1024,1024,0,0,0,0,0,0,0,88,3.875,3.872,0,0,0,0,4.843,68.36,755.3443748928,34.44882,6,P-GPS,,10.5
150900,2026-01-09 20:09:07,755.3443748928,37.073492,0.0,4.9704069832,6.1485566272,16,5,7.748,755.3443748928,34.44882,0.3131716,4.9704069832,0.0,0.0,0.0,5.5,1.0,0.0,0,0,1024,1024,1024,1024,0,0,0,0,0,0,0,88,3.875,3.872,0,0,0,0,4.843,68.36,755.3443748928,34.44882,6,P-GPS,,10.5
151000,2026-01-09 20:09:07,755.3443748928,37.073492,0.0,4.9851051464,6.1828085968,16,5,7.748,755.3443748928,34.44882,0.3131716,4.9851051464,0.0,0.0,0.0,5.6,1.0,0.0,0,0,1024,1024,1024,1024,0,0,0,0,0,0,0,88,3.875,3.872,0,0,0,0,4.843,68.36,755.3443748928,34.44882,6,P-GPS,,10.5
151100,2026-01-09 20:09:08,755.3443748928,37.073492,0.0,4.9986550156,6.2133860256,16,5,7.748,755.3443748928,34.44882,0.3131716,4.9986550156,0.0,0.0,0.0,5.6,0.8,-0.1,0,0,1024,1024,1024,1024,0,0,0,0,0,0,0,88,3.874,3.873,0,0,0,0,4.816,68.36,755.3443748928,34.44882,6,P-GPS,,10.5
151200,2026-01-09 20:09:08,755.3443748928,37.073492,0.0,5.0103019976,6.2433072864,16,5,7.748,755.3443748928,34.44882,0.3131716,5.0103019976,0.0,0.0,0.0,5.5,0.9,-0.2,0,0,1024,1024,1024,1024,0,0,0,0,0,0,0,88,3.874,3.873,0,0,0,0,4.816,68.36,755.3443748928,34.44882,6,P-GPS,,10.5
151300,2026-01-09 20:09:08,755.3443748928,37.073492,0.0,5.0243439928,6.2626970508,16,5,7.748,755.3443748928,34.44882,0.3131716,5.0243439928,0.0,0.0,0.0,5.6,0.7,-0.4,0,0,1024,1024,1024,1024,0,0,0,0,0,0,0,88,3.874,3.873,0,0,0,0,4.816,68.36,755.3443748928,34.44882,6,P-GPS,,10.5
151400,2026-01-09 20:09:08,755.3443748928,37.073492,0.0,5.0157810004,6.2806432456,16,5,7.748,755.3443748928,34.44882,0.3131716,5.0243439928,0.0,0.0,0.0,5.5,0.7,-0.5,0,0,1024,1024,1024,1024,0,0,0,0,0,0,0,88,3.874,3.873,0,0,0,0,4.816,68.36,755.3443748928,34.44882,6,P-GPS,,10.5
151500,2026-01-09 20:09:08,755.3443748928,37.073492,0.0,5.0138781132,6.2973099128,16,5,7.748,755.3443748928,34.44882,0.3131716,5.0243439928,0.0,0.0,0.0,5.5,0.7,-0.6,0,0,1024,1024,1024,1024,0,0,0,0,0,0,0,88,3.874,3.873,0,0,0,0,4.816,68.36,755.3443748928,34.44882,6,P-GPS,,10.5
151600,2026-01-09 20:09:08,755.3443748928,37.073492,0.0,5.0136484544,6.3142390472,16,5,7.748,755.3443748928,34.44882,0.3131716,5.0243439928,0.0,0.0,0.0,5.6,0.9,-0.5,0,0,1024,1024,1024,1024,0,0,0,0,0,0,0,88,3.874,3.873,0,0,0,0,4.816,68.36,755.3443748928,34.44882,6,P-GPS,,10.5
151700,2026-01-09 20:09:08,755.3443748928,37.073492,0.0,5.002788874,6.325131436,16,5,7.748,755.3443748928,34.44882,0.3131716,5.0243439928,0.0,0.0,0.0,5.6,0.9,-0.5,0,0,1024,1024,1024,1024,0,0,0,0,0,0,0,88,3.874,3.873,0,0,0,0,4.816,68.36,755.3443748928,34.44882,6,P-GPS,,10.5
151800,2026-01-09 20:09:08,755.3443748928,37.073492,0.0,4.9917652516,6.3724083404,16,5,7.748,755.3443748928,34.44882,0.3131716,5.0243439928,0.0,0.0,0.0,5.5,1.1,-0.4,0,0,1024,1024,1024,1024,0,0,0,0,0,0,0,88,3.874,3.873,0,0,0,0,4.816,68.36,755.3443748928,34.44882,6,P-GPS,,10.5
151900,2026-01-09 20:09:08,755.3443748928,37.073492,0.0,4.9673229936,6.3985238268,16,5,7.748,755.3443748928,34.44882,0.3131716,5.0243439928,0.0,0.0,0.0,5.5,1.2,-0.5,0,0,1024,1024,1024,1024,0,0,0,0,0,0,0,88,3.874,3.873,0,0,0,0,4.816,68.36,755.3443748928,34.44882,6,P-GPS,,10.5
152000,2026-01-09 20:09:09,755.3443748928,37.073492,0.0,4.938320368,6.4289372136,16,5,7.748,755.3443748928,34.44882,0.3131716,5.0243439928,0.0,0.0,0.0,5.5,1.4,-0.5,0,0,1024,1024,1024,1024,0,0,0,0,0,0,0,88,3.874,3.873,0,0,0,0,4.816,68.36,755.3443748928,34.44882,6,P-GPS,,10.5
152100,2026-01-09 20:09:09,755.3443748928,37.073492,0.0,4.9191930708,6.4514109676,16,5,7.748,755.3443748928,34.44882,0.3131716,5.0243439928,0.0,0.0,0.0,5.5,1.5,-0.5,0,0,1024,1024,1024,1024,0,0,0,0,0,0,0,88,3.874,3.873,0,0,0,0,4.816,68.36,755.3443748928,34.44882,6,P-GPS,,10.5
152200,2026-01-09 20:09:09,755.3443748928,37.073492,0.0,4.9040027816,6.4956694992,16,5,7.746,755.3443748928,34.44882,0.3131716,5.0243439928,0.0,0.0,0.0,5.5,1.5,-0.5,0,0,1024,1024,1024,1024,0,0,0,0,0,0,0,88,3.875,3.873,0,0,0,0,4.79,68.54,755.3443748928,34.44882,6,P-GPS,,10.5
152300,2026-01-09 20:09:09,755.3443748928,37.073492,0.0,4.8801510748,6.5324149072,16,5,7.746,755.3443748928,34.44882,0.3131716,5.0243439928,0.0,0.0,0.0,5.5,1.6,-0.4,0,0,1024,1024,1024,1024,0,0,0,0,0,0,0,88,3.875,3.873,0,0,0,0,4.79,68.54,755.3443748928,34.44882,6,P-GPS,,10.5
152400,2026-01-09 20:09:09,755.3443748928,37.073492,0.0,4.8501970056,6.579396536,16,5,7.746,755.3443748928,34.44882,0.3131716,5.0243439928,0.0,0.0,0.0,5.5,1.7,-0.4,0,0,1024,1024,1024,1024,0,0,0,0,0,0,0,88,3.875,3.873,0,0,0,0,4.79,68.54,755.3443748928,34.44882,6,P-GPS,,10.5
152500,2026-01-09 20:09:09,755.3443748928,37.073492,0.0,4.8290355876,6.6145671408,16,5,7.746,755.3443748928,34.44882,0.3131716,5.0243439928,0.0,0.0,0.0,5.6,1.7,-0.5,0,0,1024,1024,1024,1024,0,0,0,0,0,0,0,88,3.875,3.873,0,0,0,0,4.79,68.54,755.3443748928,34.44882,6,P-GPS,,10.5
152600,2026-01-09 20:09:09,755.3443748928,37.073492,0.0,4.80725081,6.6926183244,16,5,7.746,755.3443748928,34.44882,0.3131716,5.0243439928,0.0,0.0,0.0,5.5,1.7,-0.4,0,0,1024,1024,1024,1024,0,0,0,0,0,0,0,88,3.875,3.873,0,0,0,0,4.79,68.54,755.3443748928,34.44882,6,P-GPS,,10.5
152700,2026-01-09 20:09:09,755.3443748928,37.073492,0.0,4.7870080272,6.7258532336,16,5,7.746,755.3443748928,34.44882,0.3131716,5.0243439928,0.0,0.0,0.0,5.5,1.6,-0.3,0,0,1024,1024,1024,1024,0,0,0,0,0,0,0,88,3.875,3.873,0,0,0,0,4.79,68.54,755.3443748928,34.44882,6,P-GPS,,10.5
152800,2026-01-09 20:09:09,755.3443748928,37.073492,0.0,4.7638452968,6.7622377492,16,5,7.746,755.3443748928,34.44882,0.3131716,5.0243439928,0.0,0.0,0.0,5.5,1.7,-0.3,0,0,1024,1024,1024,1024,0,0,0,0,0,0,0,88,3.875,3.873,0,0,0,0,4.79,68.54,755.3443748928,34.44882,6,P-GPS,,10.5
152900,2026-01-09 20:09:09,755.3443748928,37.073492,0.0,4.7489174748,6.7845146528,16,5,7.746,755.3443748928,34.44882,0.3131716,5.0243439928,0.0,0.0,0.0,5.5,1.8,-0.5,0,0,1024,1024,1024,1024,0,0,0,0,0,0,0,88,3.875,3.873,0,0,0,0,4.79,68.54,755.3443748928,34.44882,6,P-GPS,,10.5
153000,2026-01-09 20:09:09,755.3443748928,37.073492,0.0,4.7450460836,6.7980317136,16,5,7.746,755.3443748928,34.44882,0.3131716,5.0243439928,0.0,0.0,0.0,5.5,1.9,-0.5,0,0,1024,1024,1024,1024,0,0,0,0,0,0,0,88,3.875,3.873,0,0,0,0,4.79,68.54,755.3443748928,34.44882,6,P-GPS,,10.5
153100,2026-01-09 20:09:10,755.3443748928,37.073492,0.0,4.7374345348,6.82004615,16,5,7.746,755.3443748928,34.44882,0.3131716,5.0243439928,0.0,0.0,0.0,5.5,1.6,-0.5,0,0,1024,1024,1024,1024,0,0,0,0,0,0,0,88,3.875,3.873,0,0,0,0,4.79,68.54,755.3443748928,34.44882,6,P-GPS,,10.5
153200,2026-01-09 20:09:10,755.3443748928,37.073492,0.0,4.7306760044,6.8476380144,16,5,7.746,755.3443748928,34.44882,0.3131716,5.0243439928,0.0,0.0,0.0,5.6,1.4,-0.6,0,0,1024,1024,1024,1024,0,0,0,0,0,0,0,88,3.875,3.873,0,0,0,0,4.79,68.54,755.3443748928,34.44882,6,P-GPS,,10.5
153300,2026-01-09 20:09:10,755.3443748928,37.073492,0.0,4.7187665552,6.8628283036,16,5,7.742,755.3443748928,34.44882,0.3131716,5.0243439928,0.0,0.0,0.0,5.6,1.4,-0.8,0,0,1024,1024,1024,1024,0,0,0,0,0,0,0,88,3.872,3.871,0,0,0,0,4.818,68.54,755.3443748928,34.44882,6,P-GPS,,10.5
153400,2026-01-09 20:09:10,755.3443748928,37.073492,0.0,4.703412224,6.8783466768,16,5,7.742,755.3443748928,34.44882,0.3131716,5.0243439928,0.0,0.0,0.0,5.6,1.4,-0.8,0,0,1024,1024,1024,1024,0,0,0,0,0,0,0,88,3.872,3.871,0,0,0,0,4.818,68.54,755.3443748928,34.44882,6,P-GPS,,10.5
153500,2026-01-09 20:09:10,755.3443748928,37.073492,0.0,4.7004922764,6.8846130812,16,5,7.742,755.3443748928,34.44882,0.3131716,5.0243439928,0.0,0.0,0.0,5.6,1.5,-0.8,0,0,1024,1024,1024,1024,0,0,0,0,0,0,0,88,3.872,3.871,0,0,0,0,4.818,68.54,755.3443748928,34.44882,6,P-GPS,,10.5
153600,2026-01-09 20:09:10,755.3443748928,37.073492,0.0,4.7010828276,6.9001970712,16,5,7.742,755.3443748928,34.44882,0.3131716,5.0243439928,0.0,0.0,0.0,5.5,1.6,-0.7,0,0,1024,1024,1024,1024,0,0,0,0,0,0,0,88,3.872,3.871,0,0,0,0,4.818,68.54,755.3443748928,34.44882,6,P-GPS,,10.5
153700,2026-01-09 20:09:10,755.3443748928,37.073492,0.0,4.6908794152,6.9129267304,16,5,7.742,755.3443748928,34.44882,0.3131716,5.0243439928,0.0,0.0,0.0,5.5,1.8,-0.8,0,0,1024,1024,1024,1024,0,0,0,0,0,0,0,88,3.872,3.871,0,0,0,0,4.818,68.54,755.3443748928,34.44882,6,P-GPS,,10.5
153800,2026-01-09 20:09:10,755.3443748928,37.073492,0.0,4.6759515932,6.9284122952,16,5,7.742,755.3443748928,34.44882,0.3131716,5.0243439928,0.0,0.0,0.0,5.5,1.7,-0.8,0,0,1024,1024,1024,1024,0,0,0,0,0,0,0,88,3.872,3.871,0,0,0,0,4.818,68.54,755.3443748928,34.44882,6,P-GPS,,10.5
153900,2026-01-09 20:09:10,755.3443748928,37.073492,0.0,4.6658137976,6.9386813244,16,5,7.742,755.3443748928,34.44882,0.3131716,5.0243439928,0.0,0.0,0.0,5.5,1.8,-0.8,0,0,1024,1024,1024,1024,0,0,0,0,0,0,0,88,3.872,3.871,0,0,0,0,4.818,68.54,755.3443748928,34.44882,6,P-GPS,,10.5
154000,2026-01-09 20:09:11,755.3443748928,37.073492,0.0,4.65633217,6.9528545532,16,5,7.742,755.3443748928,34.44882,0.3131716,5.0243439928,0.0,0.0,0.0,5.5,1.7,-0.6,0,0,1024,1024,1024,1024,0,0,0,0,0,0,0,88,3.872,3.871,0,0,0,0,4.818,68.54,755.3443748928,34.44882,6,P-GPS,,10.5
154100,2026-01-09 20:09:11,755.3443748928,37.073492,0.0,4.6493111724,6.9661091468,16,5,7.742,755.3443748928,34.44882,0.3131716,5.0243439928,0.0,0.0,0.0,5.6,1.7,-0.6,0,0,1024,1024,1024,1024,0,0,0,0,0,0,0,88,3.872,3.871,0,0,0,0,4.818,68.54,755.3443748928,34.44882,6,P-GPS,,10.5
154200,2026-01-09 20:09:11,755.3443748928,37.073492,0.0,4.6428479176,6.9793965488,16,5,7.742,755.3443748928,34.44882,0.3131716,5.0243439928,0.0,0.0,0.0,5.6,1.7,-0.6,0,0,1024,1024,1024,1024,0,0,0,0,0,0,0,88,3.872,3.871,0,0,0,0,4.818,68.54,755.3443748928,34.44882,6,P-GPS,,10.5
154300,2026-01-09 20:09:11,755.3443748928,37.073492,0.0,4.651246868,7.0208991748,16,5,7.742,755.3443748928,34.44882,0.3131716,5.0243439928,0.0,0.0,0.0,5.6,1.7,-0.7,0,0,1024,1024,1024,1024,0,0,0,0,0,0,0,88,3.871,3.87,0,0,0,0,4.818,68.54,755.3443748928,34.44882,6,P-GPS,,10.5
154400,2026-01-09 20:09:11,755.3443748928,37.073492,0.0,4.6555447684,7.0410763408,16,5,7.742,755.3443748928,34.44882,0.3131716,5.0243439928,0.0,0.0,0.0,5.6,1.8,-0.8,0,0,1024,1024,1024,1024,0,0,0,0,0,0,0,88,3.871,3.87,0,0,0,0,4.818,68.54,755.3443748928,34.44882,6,P-GPS,,10.5
154500,2026-01-09 20:09:11,755.3443748928,37.073492,0.0,4.65387154,7.0566603308,16,5,7.742,755.3443748928,34.44882,0.3131716,5.0243439928,0.0,0.0,0.0,5.5,1.5,-0.9,0,0,1024,1024,1024,1024,0,0,0,0,0,0,0,88,3.871,3.87,0,0,0,0,4.818,68.54,755.3443748928,34.44882,6,P-GPS,,10.5
154600,2026-01-09 20:09:11,755.3443748928,37.073492,0.0,4.6495408312,7.0721130872,16,5,7.742,755.3443748928,34.44882,0.3131716,5.0243439928,0.0,0.0,0.0,5.5,1.3,-1.1,0,0,1024,1024,1024,1024,0,0,0,0,0,0,0,88,3.871,3.87,0,0,0,0,4.818,68.54,755.3443748928,34.44882,6,P-GPS,,10.5
154700,2026-01-09 20:09:11,755.3443748928,37.073492,0.0,4.6419948992,7.1096130884,16,5,7.742,755.3443748928,34.44882,0.3131716,5.0243439928,0.0,0.0,0.0,5.5,1.3,-0.9,0,0,1024,1024,1024,1024,0,0,0,0,0,0,0,88,3.871,3.87,0,0,0,0,4.818,68.54,755.3443748928,34.44882,6,P-GPS,,10.5
154800,2026-01-09 20:09:11,755.6724588928,37.073492,0.0,4.6426838756,7.1353020656,16,5,7.742,755.6724588928,34.776904,0.3131716,5.0243439928,0.0,0.0,0.0,5.5,1.3,-0.8,0,0,1024,1024,1024,1024,0,0,0,0,0,0,0,88,3.871,3.87,0,0,0,0,4.818,68.54,755.6724588928,34.776904,6,P-GPS,,10.6
154900,2026-01-09 20:09:11,755.6724588928,37.073492,0.0,4.6372048728,7.1591865808,16,5,7.742,755.6724588928,34.776904,0.3131716,5.0243439928,0.0,0.0,0.0,5.6,1.6,-0.5,0,0,1024,1024,1024,1024,0,0,0,0,0,0,0,88,3.871,3.87,0,0,0,0,4.818,68.54,755.6724588928,34.776904,6,P-GPS,,10.6
155000,2026-01-09 20:09:11,755.6724588928,37.073492,0.0,4.6279857124,7.1832679464,16,5,7.742,755.6724588928,34.776904,0.3131716,5.0243439928,0.0,0.0,0.0,5.6,1.8,-0.7,0,0,1024,1024,1024,1024,0,0,0,0,0,0,0,88,3.871,3.87,0,0,0,0,4.818,68.54,755.6724588928,34.776904,6,P-GPS,,10.6
155100,2026-01-09 20:09:12,755.6724588928,37.073492,0.0,4.622867602,7.207677396,16,5,7.742,755.6724588928,34.776904,0.3131716,5.0243439928,0.0,0.0,0.0,5.5,1.9,-1.0,0,0,1024,1024,1024,1024,0,0,0,0,0,0,0,88,3.871,3.87,0,0,0,0,4.818,68.54,755.6724588928,34.776904,6,P-GPS,,10.6
155200,2026-01-09 20:09:12,755.6724588928,37.073492,0.0,4.60793978,7.250984484,16,5,7.742,755.6724588928,34.776904,0.3131716,5.0243439928,0.0,0.0,0.0,5.5,1.5,-0.9,0,0,1024,1024,1024,1024,0,0,0,0,0,0,0,88,3.871,3.87,0,0,0,0,4.818,68.54,755.6724588928,34.776904,6,P-GPS,,10.6
155300,2026-01-09 20:09:12,755.6724588928,37.073492,0.0,4.6063321684,7.2756564008,16,5,7.742,755.6724588928,34.776904,0.3131716,5.0243439928,0.0,0.0,0.0,5.6,1.7,-0.4,0,0,1024,1024,1024,1024,0,0,0,0,0,0,0,88,3.871,3.87,0,0,0,0,4.818,68.54,755.6724588928,34.776904,6,P-GPS,,10.6
155400,2026-01-09 20:09:12,755.6724588928,37.073492,0.0,4.604002772,7.3003939344,16,5,7.742,755.6724588928,34.776904,0.3131716,5.0243439928,0.0,0.0,0.0,5.6,2.1,-0.6,0,0,1024,1024,1024,1024,0,0,0,0,0,0,0,88,3.871,3.87,0,0,0,0,4.818,68.54,755.6724588928,34.776904,6,P-GPS,,10.6
155500,2026-01-09 20:09:12,755.6724588928,37.073492,0.0,4.6019358428,7.3206039088,16,5,7.747,755.6724588928,34.776904,0.3131716,5.0243439928,0.0,0.0,0.0,5.6,1.9,-0.8,0,0,1024,1024,1024,1024,0,0,0,0,0,0,0,88,3.875,3.872,0,0,0,0,4.829,68.54,755.6724588928,34.776904,6,P-GPS,,10.6
155600,2026-01-09 20:09:12,755.6724588928,37.073492,0.0,4.6079725884,7.343012046,16,5,7.747,755.6724588928,34.776904,0.3131716,5.0243439928,0.0,0.0,0.0,5.5,1.6,-1.0,0,0,1024,1024,1024,1024,0,0,0,0,0,0,0,88,3.875,3.872,0,0,0,0,4.829,68.54,755.6724588928,34.776904,6,P-GPS,,10.6
155700,2026-01-09 20:09:12,755.6724588928,37.073492,0.0,4.6066602524,7.3617784508,16,5,7.747,755.6724588928,34.776904,0.3131716,5.0243439928,0.0,0.0,0.0,5.5,1.8,-0.9,0,0,1024,1024,1024,1024,0,0,0,0,0,0,0,88,3.875,3.872,0,0,0,0,4.829,68.54,755.6724588928,34.776904,6,P-GPS,,10.6
155800,2026-01-09 20:09:12,755.6724588928,37.073492,0.0,4.6053807248,7.38189,16,5,7.747,755.6724588928,34.776904,0.3131716,5.0243439928,0.0,0.0,0.0,5.5,1.9,-1.1,0,0,1024,1024,1024,1024,0,0,0,0,0,0,0,88,3.875,3.872,0,0,0,0,4.829,68.54,755.6724588928,34.776904,6,P-GPS,,10.6
155900,2026-01-09 20:09:12,755.6724588928,37.073492,0.0,4.597933218,7.3977364572,16,5,7.747,755.6724588928,34.776904,0.3131716,5.0243439928,0.0,0.0,0.0,5.5,1.9,-1.0,0,0,1024,1024,1024,1024,0,0,0,0,0,0,0,88,3.875,3.872,0,0,0,0,4.829,68.54,755.6724588928,34.776904,6,P-GPS,,10.6
156000,2026-01-09 20:09:13,755.6724588928,37.073492,0.0,4.5769686504,7.4188322584,16,5,7.747,755.6724588928,34.776904,0.3131716,5.0243439928,0.0,0.0,0.0,5.5,1.7,-1.0,0,0,1024,1024,1024,1024,0,0,0,0,0,0,0,88,3.875,3.872,0,0,0,0,4.829,68.54,755.6724588928,34.776904,6,P-GPS,,10.6
156100,2026-01-09 20:09:13,755.6724588928,37.073492,0.0,4.5732941096,7.4347771408,16,5,7.747,755.6724588928,34.776904,0.3131716,5.0243439928,0.0,0.0,0.0,5.5,1.7,-0.9,0,0,1024,1024,1024,1024,0,0,0,0,0,0,0,88,3.875,3.872,0,0,0,0,4.829,68.54,755.6724588928,34.776904,6,P-GPS,,10.6
156200,2026-01-09 20:09:13,755.6724588928,37.073492,0.0,4.573162876,7.453412312,16,5,7.747,755.6724588928,34.776904,0.3131716,5.0243439928,0.0,0.0,0.0,5.5,1.6,-0.8,0,0,1024,1024,1024,1024,0,0,0,0,0,0,0,88,3.875,3.872,0,0,0,0,4.829,68.54,755.6724588928,34.776904,6,P-GPS,,10.6
156300,2026-01-09 20:09:13,755.6724588928,37.073492,0.0,4.5760172068,7.4583663804,16,5,7.747,755.6724588928,34.776904,0.3131716,5.0243439928,0.0,0.0,0.0,5.5,1.6,-1.0,0,0,1024,1024,1024,1024,0,0,0,0,0,0,0,88,3.875,3.872,0,0,0,0,4.829,68.54,755.6724588928,34.776904,6,P-GPS,,10.6
156400,2026-01-09 20:09:13,755.6724588928,37.073492,0.0,4.5908466036,7.4865159876,16,5,7.747,755.6724588928,34.776904,0.3131716,5.0243439928,0.0,0.0,0.0,5.6,1.4,-1.1,0,0,1024,1024,1024,1024,0,0,0,0,0,0,0,88,3.875,3.872,0,0,0,0,4.829,68.54,755.6724588928,34.776904,6,P-GPS,,10.6
156500,2026-01-09 20:09:13,755.6724588928,37.073492,0.0,4.5880578896,7.4917325232,16,5,7.747,755.6724588928,34.776904,0.3131716,5.0243439928,0.0,0.0,0.0,5.5,1.1,-1.4,0,0,1024,1024,1024,1024,0,0,0,0,0,0,0,88,3.875,3.872,0,0,0,0,4.829,68.54,755.6724588928,34.776904,6,P-GPS,,10.6
156600,2026-01-09 20:09:13,755.6724588928,37.073492,0.0,4.5814962096,7.5042981404,15,5,7.741,755.6724588928,34.776904,0.3131716,5.0243439928,0.0,0.0,0.0,5.5,1.3,-1.3,0,0,1024,1024,1024,1024,0,0,0,0,0,0,0,88,3.871,3.87,0,0,0,0,4.828,68.54,755.6724588928,34.776904,6,P-GPS,,10.6
156700,2026-01-09 20:09:13,755.6724588928,37.073492,0.0,4.5870408292,7.5170934164,15,5,7.741,755.6724588928,34.776904,0.3131716,5.0243439928,0.0,0.0,0.0,5.5,1.5,-0.9,0,0,1024,1024,1024,1024,0,0,0,0,0,0,0,88,3.871,3.87,0,0,0,0,4.828,68.54,755.6724588928,34.776904,6,P-GPS,,10.6
156800,2026-01-09 20:09:13,755.6724588928,37.073492,0.0,4.5990158952,7.5340225508,15,5,7.741,755.6724588928,34.776904,0.3131716,5.0243439928,0.0,0.0,0.0,5.6,1.3,-0.9,0,0,1024,1024,1024,1024,0,0,0,0,0,0,0,88,3.871,3.87,0,0,0,0,4.828,68.54,755.6724588928,34.776904,6,P-GPS,,10.6
156900,2026-01-09 20:09:13,755.6724588928,37.073492,0.0,4.6137140584,7.5493440736,15,5,7.741,755.6724588928,34.776904,0.3131716,5.0243439928,0.0,0.0,0.0,5.5,1.6,-1.1,0,0,1024,1024,1024,1024,0,0,0,0,0,0,0,88,3.871,3.87,0,0,0,0,4.828,68.54,755.6724588928,34.776904,6,P-GPS,,10.6
157000,2026-01-09 20:09:13,755.6724588928,37.073492,0.0,4.6180447672,7.5558729452,15,5,7.741,755.6724588928,34.776904,0.3131716,5.0243439928,0.0,0.0,0.0,5.5,1.7,-1.3,0,0,1024,1024,1024,1024,0,0,0,0,0,0,0,88,3.871,3.87,0,0,0,0,4.828,68.54,755.6724588928,34.776904,6,P-GPS,,10.6
157100,2026-01-09 20:09:14,755.6724588928,37.073492,0.0,4.6196523788,7.5583007668,15,5,7.741,755.6724588928,34.776904,0.3131716,5.0243439928,0.0,0.0,0.0,5.5,1.3,-1.3,0,0,1024,1024,1024,1024,0,0,0,0,0,0,0,88,3.871,3.87,0,0,0,0,4.828,68.54,755.6724588928,34.776904,6,P-GPS,,10.6
157200,2026-01-09 20:09:14,755.6724588928,37.073492,0.0,4.6204397804,7.560859822,15,5,7.741,755.6724588928,34.776904,0.3131716,5.0243439928,0.0,0.0,0.0,5.5,1.2,-1.2,0,0,1024,1024,1024,1024,0,0,0,0,0,0,0,88,3.871,3.87,0,0,0,0,4.828,68.54,755.6724588928,34.776904,6,P-GPS,,10.6
157300,2026-01-09 20:09:14,755.6724588928,37.073492,0.0,4.6186681268,7.5732285888,15,5,7.741,755.6724588928,34.776904,0.3131716,5.0243439928,0.0,0.0,0.0,5.6,1.3,-0.9,0,0,1024,1024,1024,1024,0,0,0,0,0,0,0,88,3.871,3.87,0,0,0,0,4.828,68.54,755.6724588928,34.776904,6,P-GPS,,10.6
157400,2026-01-09 20:09:14,755.6724588928,37.073492,0.0,4.6166668144,7.5986879072,15,5,7.741,755.6724588928,34.776904,0.3131716,5.0243439928,0.0,0.0,0.0,5.5,1.7,-1.0,0,0,1024,1024,1024,1024,0,0,0,0,0,0,0,88,3.871,3.87,0,0,0,0,4.828,68.54,755.6724588928,34.776904,6,P-GPS,,10.6
157500,2026-01-09 20:09:14,755.6724588928,37.073492,0.0,4.621719308,7.61811048,15,5,7.741,755.6724588928,34.776904,0.3131716,5.0243439928,0.0,0.0,0.0,5.6,1.4,-1.1,0,0,1024,1024,1024,1024,0,0,0,0,0,0,0,88,3.871,3.87,0,0,0,0,4.828,68.54,755.6724588928,34.776904,6,P-GPS,,10.6
157600,2026-01-09 20:09:14,755.6724588928,37.073492,0.0,4.6303151088,7.6363847588,15,5,7.741,755.6724588928,34.776904,0.3131716,5.0243439928,0.0,0.0,0.0,5.5,1.3,-1.2,0,0,1024,1024,1024,1024,0,0,0,0,0,0,0,88,3.871,3.87,0,0,0,0,4.828,68.54,755.6724588928,34.776904,6,P-GPS,,10.6
157700,2026-01-09 20:09:14,755.6724588928,37.073492,0.0,4.6394030356,7.6972771492,15,5,7.736,755.6724588928,34.776904,0.3131716,5.0243439928,0.0,0.0,0.0,5.5,1.6,-1.1,0,0,1024,1024,1024,1024,0,0,0,0,0,0,0,88,3.867,3.868,0,0,0,0,4.823,68.72,755.6724588928,34.776904,6,P-GPS,,10.6
157800,2026-01-09 20:09:14,755.6724588928,37.073492,0.0,4.641076264,7.724081612,15,5,7.736,755.6724588928,34.776904,0.3131716,5.0243439928,0.0,0.0,0.0,5.6,1.7,-1.1,0,0,1024,1024,1024,1024,0,0,0,0,0,0,0,88,3.867,3.868,0,0,0,0,4.823,68.72,755.6724588928,34.776904,6,P-GPS,,10.6
157900,2026-01-09 20:09:14,755.6724588928,37.073492,0.0,4.6409450304,7.7347771504,15,5,7.736,755.6724588928,34.776904,0.3131716,5.0243439928,0.0,0.0,0.0,5.5,2.0,-1.2,0,0,1024,1024,1024,1024,0,0,0,0,0,0,0,88,3.867,3.868,0,0,0,0,4.823,68.72,755.6724588928,34.776904,6,P-GPS,,10.6
158000,2026-01-09 20:09:14,755.6724588928,37.073492,0.0,4.6416340068,7.7385501164,15,5,7.736,755.6724588928,34.776904,0.3131716,5.0243439928,0.0,0.0,0.0,5.6,2.0,-1.2,0,0,1024,1024,1024,1024,0,0,0,0,0,0,0,88,3.867,3.868,0,0,0,0,4.823,68.72,755.6724588928,34.776904,6,P-GPS,,10.6
158100,2026-01-09 20:09:15,755.6724588928,37.073492,0.0,4.6590224588,7.7839897504,15,5,7.736,755.6724588928,34.776904,0.3131716,5.0243439928,0.0,0.0,0.0,5.6,2.0,-1.1,0,0,1024,1024,1024,1024,0,0,0,0,0,0,0,88,3.867,3.868,0,0,0,0,4.823,68.72,755.6724588928,34.776904,6,P-GPS,,10.6
158200,2026-01-09 20:09:15,755.6724588928,37.073492,0.0,4.6750985748,7.800361142,15,5,7.736,755.6724588928,34.776904,0.3131716,5.0243439928,0.0,0.0,0.0,5.5,1.8,-1.1,0,0,1024,1024,1024,1024,0,0,0,0,0,0,0,88,3.867,3.868,0,0,0,0,4.823,68.72,755.6724588928,34.776904,6,P-GPS,,10.6
158300,2026-01-09 20:09:15,755.6724588928,37.073492,0.0,4.6806431944,7.8115488064,15,5,7.736,755.6724588928,34.776904,0.3131716,5.0243439928,0.0,0.0,0.0,5.6,1.8,-0.9,0,0,1024,1024,1024,1024,0,0,0,0,0,0,0,88,3.867,3.868,0,0,0,0,4.823,68.72,755.6724588928,34.776904,6,P-GPS,,10.6
158400,2026-01-09 20:09:15,755.6724588928,37.073492,0.0,4.6805775776,7.8256564184,15,5,7.736,755.6724588928,34.776904,0.3131716,5.0243439928,0.0,0.0,0.0,5.6,1.8,-0.8,0,0,1024,1024,1024,1024,0,0,0,0,0,0,0,88,3.867,3.868,0,0,0,0,4.823,68.72,755.6724588928,34.776904,6,P-GPS,,10.6
158500,2026-01-09 20:09:15,755.6724588928,37.073492,0.0,4.6880907012,7.8394359464,15,5,7.736,755.6724588928,34.776904,0.3131716,5.0243439928,0.0,0.0,0.0,5.6,1.8,-0.8,0,0,1024,1024,1024,1024,0,0,0,0,0,0,0,88,3.867,3.868,0,0,0,0,4.823,68.72,755.6724588928,34.776904,6,P-GPS,,10.6
158600,2026-01-09 20:09:15,755.6724588928,37.073492,0.0,4.6895342708,7.8514766292,15,5,7.736,755.6724588928,34.776904,0.3131716,5.0243439928,0.0,0.0,0.0,5.6,1.9,-0.9,0,0,1024,1024,1024,1024,0,0,0,0,0,0,0,88,3.867,3.868,0,0,0,0,4.823,68.72,755.6724588928,34.776904,6,P-GPS,,10.6
158700,2026-01-09 20:09:15,755.6724588928,37.073492,0.0,4.708497526,7.8757876536,15,5,7.736,755.6724588928,34.776904,0.3131716,5.0243439928,0.0,0.0,0.0,5.6,1.8,-1.0,0,0,1024,1024,1024,1024,0,0,0,0,0,0,0,88,3.867,3.868,0,0,0,0,4.823,68.72,755.6724588928,34.776904,6,P-GPS,,10.6
158800,2026-01-09 20:09:15,755.6724588928,37.073492,0.0,4.7316930648,7.905840148,15,5,7.741,755.6724588928,34.776904,0.3131716,5.0243439928,0.0,0.0,0.0,5.6,1.9,-0.9,0,0,1024,1024,1024,1024,0,0,0,0,0,0,0,88,3.871,3.87,0,0,0,0,4.732,68.72,755.6724588928,34.776904,6,P-GPS,,10.6
158900,2026-01-09 20:09:15,755.6724588928,37.073492,0.0,4.7474082884,7.9268047156,15,5,7.741,755.6724588928,34.776904,0.3131716,5.0243439928,0.0,0.0,0.0,5.6,2.2,-0.9,0,0,1024,1024,1024,1024,0,0,0,0,0,0,0,88,3.871,3.87,0,0,0,0,4.732,68.72,755.6724588928,34.776904,6,P-GPS,,10.6
159000,2026-01-09 20:09:16,755.6724588928,37.073492,0.0,4.7892389984,7.9710632472,15,5,7.741,755.6724588928,34.776904,0.3131716,5.0243439928,0.0,0.0,0.0,5.6,2.2,-0.9,0,0,1024,1024,1024,1024,0,0,0,0,0,0,0,88,3.871,3.87,0,0,0,0,4.732,68.72,755.6724588928,34.776904,6,P-GPS,,10.6
159100,2026-01-09 20:09:16,755.6724588928,37.073492,0.0,4.8001641956,7.9853677096,15,5,7.741,755.6724588928,34.776904,0.3131716,5.0243439928,0.0,0.0,0.0,5.6,2.4,-0.8,0,0,1024,1024,1024,1024,0,0,0,0,0,0,0,88,3.871,3.87,0,0,0,0,4.732,68.72,755.6724588928,34.776904,6,P-GPS,,10.6
159200,2026-01-09 20:09:16,755.6724588928,37.073492,0.0,4.8107285004,7.998523878,15,5,7.741,755.6724588928,34.776904,0.3131716,5.0243439928,0.0,0.0,0.0,5.6,2.3,-0.9,0,0,1024,1024,1024,1024,0,0,0,0,0,0,0,88,3.871,3.87,0,0,0,0,4.732,68.72,755.6724588928,34.776904,6,P-GPS,,10.6
159300,2026-01-09 20:09:16,755.6724588928,37.073492,0.0,4.8145342748,8.0023624608,15,5,7.741,755.6724588928,34.776904,0.3131716,5.0243439928,0.0,0.0,0.0,5.6,2.3,-0.9,0,0,1024,1024,1024,1024,0,0,0,0,0,0,0,88,3.871,3.87,0,0,0,0,4.732,68.72,755.6724588928,34.776904,6,P-GPS,,10.6
159400,2026-01-09 20:09:16,755.6724588928,37.073492,0.0,4.7946523844,8.04297926,15,5,7.741,755.6724588928,34.776904,0.3131716,5.0243439928,0.0,0.0,0.0,5.6,2.1,-0.7,0,0,1024,1024,1024,1024,0,0,0,0,0,0,0,88,3.871,3.87,0,0,0,0,4.732,68.72,755.6724588928,34.776904,6,P-GPS,,10.6
159500,2026-01-09 20:09:16,755.6724588928,37.073492,0.0,4.8016405736,8.0501642996,15,5,7.741,755.6724588928,34.776904,0.3131716,5.0243439928,0.0,0.0,0.0,5.5,2.2,-0.6,0,0,1024,1024,1024,1024,0,0,0,0,0,0,0,88,3.871,3.87,0,0,0,0,4.732,68.72,755.6724588928,34.776904,6,P-GPS,,10.6
159600,2026-01-09 20:09:16,755.6724588928,37.073492,0.0,4.8115815188,8.0601052448,15,5,7.741,755.6724588928,34.776904,0.3131716,5.0243439928,0.0,0.0,0.0,5.5,2.2,-0.7,0,0,1024,1024,1024,1024,0,0,0,0,0,0,0,88,3.871,3.87,0,0,0,0,4.732,68.72,755.6724588928,34.776904,6,P-GPS,,10.6
159700,2026-01-09 20:09:16,755.6724588928,37.073492,0.0,4.8229332252,8.071522568,15,5,7.741,755.6724588928,34.776904,0.3131716,5.0243439928,0.0,0.0,0.0,5.6,2.1,-0.7,0,0,1024,1024,1024,1024,0,0,0,0,0,0,0,88,3.871,3.87,0,0,0,0,4.732,68.72,755.6724588928,34.776904,6,P-GPS,,10.6
159800,2026-01-09 20:09:16,755.6724588928,37.073492,0.0,4.8429791576,8.0924543272,15,5,7.741,755.6724588928,34.776904,0.3131716,5.0243439928,0.0,0.0,0.0,5.5,1.9,-0.8,0,0,1024,1024,1024,1024,0,0,0,0,0,0,0,88,3.871,3.87,0,0,0,0,4.732,68.72,755.6724588928,34.776904,6,P-GPS,,10.6
159900,2026-01-09 20:09:16,755.6724588928,37.073492,0.0,4.8604332264,8.1106301808,15,5,7.742,755.6724588928,34.776904,0.3131716,5.0243439928,0.0,0.0,0.0,5.5,1.8,-0.6,0,0,1024,1024,1024,1024,0,0,0,0,0,0,0,88,3.871,3.869,0,0,0,0,4.723,68.72,755.6724588928,34.776904,6,P-GPS,,10.6
160000,2026-01-09 20:09:16,755.6724588928,37.073492,0.0,4.8793964816,8.1311354308,15,5,7.742,755.6724588928,34.776904,0.3131716,5.0243439928,0.0,0.0,0.0,5.5,1.9,-0.7,0,0,1024,1024,1024,1024,0,0,0,0,0,0,0,88,3.871,3.869,0,0,0,0,4.723,68.72,755.6724588928,34.776904,6,P-GPS,,10.6
160100,2026-01-09 20:09:17,755.6724588928,37.073492,0.0,4.8974411016,8.1511485548,15,5,7.742,755.6724588928,34.776904,0.3131716,5.0243439928,0.0,0.0,0.0,5.5,2.1,-0.6,0,0,1024,1024,1024,1024,0,0,0,0,0,0,0,88,3.871,3.869,0,0,0,0,4.723,68.72,755.6724588928,34.776904,6,P-GPS,,10.6
160200,2026-01-09 20:09:17,755.6724588928,37.073492,0.0,4.91551853,8.1716866132,15,5,7.742,755.6724588928,34.776904,0.3131716,5.0243439928,0.0,0.0,0.0,5.5,2.1,-0.7,0,0,1024,1024,1024,1024,0,0,0,0,0,0,0,88,3.871,3.869,0,0,0,0,4.723,68.72,755.6724588928,34.776904,6,P-GPS,,10.6
160300,2026-01-09 20:09:17,755.6724588928,37.073492,0.0,4.9592521272,8.2364175864,15,5,7.742,755.6724588928,34.776904,0.3131716,5.0243439928,0.0,0.0,0.0,5.5,2.1,-0.7,0,0,1024,1024,1024,1024,0,0,0,0,0,0,0,88,3.871,3.869,0,0,0,0,4.723,68.72,755.6724588928,34.776904,6,P-GPS,,10.6
160400,2026-01-09 20:09:17,755.6724588928,37.073492,0.0,4.964403046,8.253609188,15,5,7.742,755.6724588928,34.776904,0.3131716,5.0243439928,0.0,0.0,0.0,5.6,2.1,-0.8,0,0,1024,1024,1024,1024,0,0,0,0,0,0,0,88,3.871,3.869,0,0,0,0,4.723,68.72,755.6724588928,34.776904,6,P-GPS,,10.6
160500,2026-01-09 20:09:17,755.6724588928,37.073492,0.0,4.9665027836,8.271325724,15,5,7.742,755.6724588928,34.776904,0.3131716,5.0243439928,0.0,0.0,0.0,5.5,2.1,-0.8,0,0,1024,1024,1024,1024,0,0,0,0,0,0,0,88,3.871,3.869,0,0,0,0,4.723,68.72,755.6724588928,34.776904,6,P-GPS,,10.6
160600,2026-01-09 20:09:17,755.6724588928,37.073492,0.0,4.9668964844,8.2898296616,15,5,7.742,755.6724588928,34.776904,0.3131716,5.0243439928,0.0,0.0,0.0,5.5,2.2,-0.9,0,0,1024,1024,1024,1024,0,0,0,0,0,0,0,88,3.871,3.869,0,0,0,0,4.723,68.72,755.6724588928,34.776904,6,P-GPS,,10.6
160700,2026-01-09 20:09:17,755.6724588928,37.073492,0.0,4.9457678748,8.3538060416,15,5,7.742,755.6724588928,34.776904,0.3131716,5.0243439928,0.0,0.0,0.0,5.5,2.3,-1.0,0,0,1024,1024,1024,1024,0,0,0,0,0,0,0,88,3.871,3.869,0,0,0,0,4.723,68.72,755.6724588928,34.776904,6,P-GPS,,10.6
160800,2026-01-09 20:09:17,755.6724588928,37.073492,0.0,4.9367455648,8.3824149664,15,5,7.742,755.6724588928,34.776904,0.3131716,5.0243439928,0.0,0.0,0.0,5.5,2.3,-1.1,0,0,1024,1024,1024,1024,0,0,0,0,0,0,0,88,3.871,3.869,0,0,0,0,4.723,68.72,755.6724588928,34.776904,6,P-GPS,,10.6
160900,2026-01-09 20:09:17,755.6724588928,37.073492,0.0,4.9282481892,8.4102036812,15,5,7.742,755.6724588928,34.776904,0.3131716,5.0243439928,0.0,0.0,0.0,5.5,2.3,-1.1,0,0,1024,1024,1024,1024,0,0,0,0,0,0,0,88,3.871,3.869,0,0,0,0,4.723,68.72,755.6724588928,34.776904,6,P-GPS,,10.6
161000,2026-01-09 20:09:18,755.6724588928,37.073492,0.0,4.9201445144,8.4383860968,15,5,7.744,755.6724588928,34.776904,0.3131716,5.0243439928,0.0,0.0,0.0,5.5,2.2,-1.1,0,0,1024,1024,1024,1024,0,0,0,0,0,0,0,87,3.873,3.871,0,0,0,0,4.68,68.72,755.6724588928,34.776904,6,P-GPS,,10.6
161100,2026-01-09 20:09:18,755.6724588928,37.073492,0.0,4.8881891328,8.5179792752,15,5,7.744,755.6724588928,34.776904,0.3131716,5.0243439928,0.0,0.0,0.0,5.5,2.2,-1.2,0,0,1024,1024,1024,1024,0,0,0,0,0,0,0,87,3.873,3.871,0,0,0,0,4.68,68.72,755.6724588928,34.776904,6,P-GPS,,10.6
161200,2026-01-09 20:09:18,755.6724588928,37.073492,0.0,4.883366298,8.541995024,15,5,7.744,755.6724588928,34.776904,0.3131716,5.0243439928,0.0,0.0,0.0,5.5,2.5,-1.2,0,0,1024,1024,1024,1024,0,0,0,0,0,0,0,87,3.873,3.871,0,0,0,0,4.68,68.72,755.6724588928,34.776904,6,P-GPS,,10.6
161300,2026-01-09 20:09:18,755.6724588928,37.073492,0.0,4.8657809956,8.5665028988,15,5,7.744,755.6724588928,34.776904,0.3131716,5.0243439928,0.0,0.0,0.0,5.5,2.5,-1.3,0,0,1024,1024,1024,1024,0,0,0,0,0,0,0,87,3.873,3.871,0,0,0,0,4.68,68.72,755.6724588928,34.776904,6,P-GPS,,10.6
161400,2026-01-09 20:09:18,755.6724588928,37.073492,0.0,4.8434712836,8.5934385952,15,5,7.744,755.6724588928,34.776904,0.3131716,5.0243439928,0.0,0.0,0.0,5.6,2.3,-1.5,0,0,1024,1024,1024,1024,0,0,0,0,0,0,0,87,3.873,3.871,0,0,0,0,4.68,68.72,755.6724588928,34.776904,6,P-GPS,,10.6
161500,2026-01-09 20:09:18,756.0005428928,37.073492,0.0,4.7645670816,8.672408414,15,5,7.744,756.0005428928,35.104988,0.3131716,5.0243439928,0.0,0.0,0.0,5.6,2.5,-1.3,0,0,1024,1024,1024,1024,0,0,0,0,0,0,0,87,3.873,3.871,0,0,0,0,4.68,68.72,756.0005428928,35.104988,6,P-GPS,,10.7
161600,2026-01-09 20:09:18,756.0005428928,37.073492,0.0,4.7376641936,8.7007220632,15,5,7.744,756.0005428928,35.104988,0.3131716,5.0243439928,0.0,0.0,0.0,5.7,2.9,-1.3,0,0,1024,1024,1024,1024,0,0,0,0,0,0,0,87,3.873,3.871,0,0,0,0,4.68,68.72,756.0005428928,35.104988,6,P-GPS,,10.7
161700,2026-01-09 20:09:18,756.0005428928,37.073492,0.0,4.7195211484,8.7191931924,15,5,7.744,756.0005428928,35.104988,0.3131716,5.0243439928,0.0,0.0,0.0,5.7,2.7,-1.2,0,0,1024,1024,1024,1024,0,0,0,0,0,0,0,87,3.873,3.871,0,0,0,0,4.68,68.72,756.0005428928,35.104988,6,P-GPS,,10.7
161800,2026-01-09 20:09:18,756.0005428928,37.073492,0.0,4.7046589432,8.734088206,15,5,7.744,756.0005428928,35.104988,0.3131716,5.0243439928,0.0,0.0,0.0,5.7,2.8,-1.3,0,0,1024,1024,1024,1024,0,0,0,0,0,0,0,87,3.873,3.871,0,0,0,0,4.68,68.72,756.0005428928,35.104988,6,P-GPS,,10.7
161900,2026-01-09 20:09:18,756.0005428928,37.073492,0.0,4.6944555308,8.7442916184,15,5,7.744,756.0005428928,35.104988,0.3131716,5.0243439928,0.0,0.0,0.0,5.6,2.9,-1.2,0,0,1024,1024,1024,1024,0,0,0,0,0,0,0,87,3.873,3.871,0,0,0,0,4.68,68.72,756.0005428928,35.104988,6,P-GPS,,10.7
