time(millisecond),timestamp,altitude_above_seaLevel(feet),height_sonar(feet),speed(mph),distance(feet),mileage(feet),satellites,gpslevel,voltage(v),max_altitude(feet),max_ascent(feet),max_speed(mph),max_distance(feet), xSpeed(mph), ySpeed(mph), zSpeed(mph), compass_heading(degrees), pitch(degrees), roll(degrees),isPhoto,isVideo,rc_elevator,rc_aileron,rc_throttle,rc_rudder,rc_elevator(percent),rc_aileron(percent),rc_throttle(percent),rc_rudder(percent),gimbal_heading(degrees),gimbal_pitch(degrees),gimbal_roll(degrees),battery_percent,voltageCell1,voltageCell2,voltageCell3,voltageCell4,voltageCell5,voltageCell6,current(A),battery_temperature(f),altitude(feet),ascent(feet),flycStateRaw,flycState,message,height_above_takeoff(meters)
422800,2026-01-09 12:44:32,720.66432030535,0.328084,0.0,0.0,0.0,18,5,0.0,720.66432030535,0.0,0.0,0.0,0.0,0.0,0.0,31.7,2.4,0.0,0,0,1024,1024,1024,1024,0,0,0,0,0,0,0,71,3.878,3.875,0,0,0,0,0.0,75.74,720.66432030535,0.0,41,Motors_Started,SD card speed low SD card speed low. Normal use may be affected. Replace SD card (Code: 10028). Gimbal stuck. Make sure gimbal cover is removed and manually check whether gimbal can rotate freely (Code: 40002),0.0
422900,2026-01-09 12:44:32,720.66432030535,0.328084,0.0,0.0093278874376,0.0093278874376,18,5,0.0,720.66432030535,0.0,0.0,0.0093278874376,0.0,0.0,0.0,31.7,2.4,0.0,0,0,1024,1024,1024,1024,0,0,0,0,0,0,0,71,3.878,3.875,0,0,0,0,0.0,75.74,720.66432030535,0.0,41,Motors_Started,,0.0
423000,2026-01-09 12:44:32,720.66432030535,0.328084,0.0,0.0280294956476,0.0281194562804,18,5,0.0,720.66432030535,0.0,0.0,0.0280294956476,0.0,0.0,0.0,31.7,2.4,0.0,0,0,1024,1024,1024,1024,0,0,0,0,0,0,0,71,3.878,3.875,0,0,0,0,0.0,75.74,720.66432030535,0.0,41,Motors_Started,,0.0
423100,2026-01-09 12:44:32,720.66432030535,0.328084,0.0,0.04257546068,0.04357447646,18,5,0.0,720.66432030535,0.0,0.0,0.04257546068,0.0,0.0,0.0,31.7,2.4,0.0,0,0,1024,1024,1024,1024,0,0,0,0,0,0,0,71,3.878,3.875,0,0,0,0,0.0,75.74,720.66432030535,0.0,41,Motors_Started,,0.0
423200,2026-01-09 12:44:32,720.66432030535,0.328084,0.0,0.056100395496,0.059322836544,18,5,0.0,720.66432030535,0.0,0.0,0.056100395496,0.0,0.0,0.0,31.7,2.4,0.0,0,0,1024,1024,1024,1024,0,0,0,0,0,0,0,71,3.878,3.875,0,0,0,0,0.0,75.74,720.66432030535,0.0,41,Motors_Started,,0.0
423300,2026-01-09 12:44:32,720.66432030535,0.328084,0.0,0.080947837236,0.099774609492,18,5,0.0,720.66432030535,0.0,0.0,0.080947837236,0.0,0.0,0.0,31.7,2.4,0.0,0,0,1024,1024,1024,1024,0,0,0,0,0,0,0,71,3.878,3.875,0,0,0,0,0.0,75.74,720.66432030535,0.0,41,Motors_Started,Setting new Return-To-Home altitude to 90m (295 ft). Data Recorder File Index is 31. Setting new Maximum Flight Altitude to 90m (295 ft),0.0
423400,2026-01-09 12:44:32,720.66432030535,0.328084,0.0,1.27541342664,0.116420279316,18,5,0.0,720.66432030535,0.0,0.0,1.27541342664,0.0,0.0,0.0,31.6,2.4,0.0,0,0,1024,1024,1024,1024,0,0,0,0,0,0,0,71,3.878,3.875,0,0,0,0,0.0,75.74,720.66432030535,0.0,41,Motors_Started,,0.0
423500,2026-01-09 12:44:33,720.66432030535,0.328084,0.0,1.2865978102,0.127994754752,18,5,0.0,720.66432030535,0.0,0.0,1.2865978102,0.0,0.0,0.0,31.5,2.4,0.0,0,0,1024,1024,1024,1024,0,0,0,0,0,0,0,71,3.878,3.875,0,0,0,0,0.0,75.74,720.66432030535,0.0,41,Motors_Started,,0.0
423600,2026-01-09 12:44:33,720.66432030535,0.328084,0.0,1.3023622464,0.144747051876,18,5,0.0,720.66432030535,0.0,0.0,1.3023622464,0.0,0.0,0.0,31.6,2.4,0.0,0,0,1024,1024,1024,1024,0,0,0,0,0,0,0,71,3.878,3.875,0,0,0,0,0.0,75.74,720.66432030535,0.0,41,Motors_Started,,0.0
423700,2026-01-09 12:44:33,720.66432030535,0.328084,0.0,1.31375660372,0.156251317336,18,5,0.0,720.66432030535,0.0,0.0,1.31375660372,0.0,0.0,0.0,31.6,2.4,0.0,0,0,1024,1024,1024,1024,0,0,0,0,0,0,0,71,3.878,3.875,0,0,0,0,0.0,75.74,720.66432030535,0.0,41,Motors_Started,,0.0
423800,2026-01-09 12:44:33,720.66432030535,0.328084,0.0,1.3270013548,0.172597446468,18,5,0.0,720.66432030535,0.0,0.0,1.3270013548,0.0,0.0,0.0,31.5,2.4,0.0,0,0,1024,1024,1024,1024,0,0,0,0,0,0,0,71,3.878,3.875,0,0,0,0,0.0,75.74,720.66432030535,0.0,41,Motors_Started,,0.0
423900,2026-01-09 12:44:33,720.66432030535,0.328084,0.0,1.33299216864,0.185028221144,18,5,0.0,720.66432030535,0.0,0.0,1.33299216864,0.0,0.0,0.0,31.5,2.4,0.0,0,0,1024,1024,1024,1024,0,0,0,0,0,0,0,71,3.878,3.875,0,0,0,0,0.0,75.74,720.66432030535,0.0,11,AutoTakeoff,,0.0
424000,2026-01-09 12:44:33,720.66432030535,0.328084,0.0,1.33842852052,0.199849415844,17,5,0.0,720.66432030535,0.0,0.0,1.33842852052,0.0,0.0,0.0,31.5,2.4,0.0,0,0,1024,1024,1024,1024,0,0,0,0,0,0,0,71,3.878,3.875,0,0,0,0,0.0,75.74,720.66432030535,0.0,11,AutoTakeoff,,0.0
424100,2026-01-09 12:44:33,720.66432030535,0.328084,0.0,1.35218836348,0.216562342888,17,5,7.724,720.66432030535,0.0,0.0,1.35218836348,0.0,0.0,0.0,31.4,2.4,0.0,0,0,1024,1024,1024,1024,0,0,0,0,0,0,0,71,3.86,3.865,0,0,0,0,1.075,75.74,720.66432030535,0.0,11,AutoTakeoff,,0.0
424200,2026-01-09 12:44:33,720.66432030535,0.328084,0.0,1.3882546376,0.255888131548,17,5,7.724,720.66432030535,0.0,0.0,1.3882546376,0.0,0.0,0.0,31.5,2.4,0.0,0,0,1024,1024,1024,1024,0,0,0,0,0,0,0,71,3.86,3.865,0,0,0,0,1.075,75.74,720.66432030535,0.0,11,AutoTakeoff,,0.0
424300,2026-01-09 12:44:33,720.66432030535,0.328084,0.0,1.39979663272,0.267779864212,17,5,7.724,720.66432030535,0.0,0.0,1.39979663272,0.0,0.0,0.0,31.9,2.4,0.0,0,0,1024,1024,1024,1024,0,0,0,0,0,0,0,71,3.86,3.865,0,0,0,0,1.075,75.74,720.66432030535,0.0,11,AutoTakeoff,,0.0
424400,2026-01-09 12:44:34,720.66432030535,0.328084,0.0,1.4023786538,0.2713336701,17,5,7.724,720.66432030535,0.0,0.0,1.4023786538,0.0,0.0,0.0,32.9,2.3,0.0,0,0,1024,1024,1024,1024,0,0,0,0,0,0,0,71,3.86,3.865,0,0,0,0,1.075,75.74,720.66432030535,0.0,11,AutoTakeoff,,0.0
424500,2026-01-09 12:44:34,720.66432030535,0.328084,0.0,1.39966211828,0.284293644268,17,5,7.724,720.66432030535,0.0,0.0,1.4023786538,0.0,0.0,0.0,34.1,2.4,0.1,0,0,1024,1024,1024,1024,0,0,0,0,0,0,0,71,3.86,3.865,0,0,0,0,1.075,75.74,720.66432030535,0.0,11,AutoTakeoff,,0.0
424600,2026-01-09 12:44:34,720.66432030535,0.328084,0.0,1.36689965004,0.323939642912,17,5,7.724,720.66432030535,0.0,0.0,1.4023786538,0.0,0.0,0.0,35.5,2.3,1.0,0,0,1024,1024,1024,1024,0,0,0,0,0,0,0,71,3.86,3.865,0,0,0,0,1.075,75.74,720.66432030535,0.0,11,AutoTakeoff,,0.0
424700,2026-01-09 12:44:34,720.66432030535,0.328084,0.223694,1.35975726136,0.36650591724,17,5,7.724,720.66432030535,0.0,0.223694,1.4023786538,-0.223694,0.0,0.0,37.6,1.5,1.5,0,0,1024,1024,1024,1024,0,0,0,0,0,0,0,71,3.86,3.865,0,0,0,0,1.075,75.74,720.66432030535,0.0,11,AutoTakeoff,,0.0
424800,2026-01-09 12:44:34,720.66432030535,0.328084,0.4921268,1.3527231404,0.43246720544,17,5,7.724,720.66432030535,0.0,0.4921268,1.4023786538,-0.447388,0.223694,-0.223694,38.7,1.9,0.7,0,0,1024,1024,1024,1024,0,0,0,0,0,0,0,71,3.86,3.865,0,0,0,0,1.075,75.74,720.66432030535,0.0,11,AutoTakeoff,,0.0
424900,2026-01-09 12:44:34,720.66432030535,0.328084,0.4921268,1.33276250984,0.5271653712,17,5,7.724,720.66432030535,0.0,0.4921268,1.4023786538,-0.447388,0.223694,-0.671082,38.6,1.3,-2.8,0,0,1024,1024,1024,1024,0,0,0,0,0,0,0,71,3.86,3.865,0,0,0,0,1.075,75.74,720.66432030535,0.0,11,AutoTakeoff,,0.0
425000,2026-01-09 12:44:34,720.66432030535,0.656168,0.4921268,1.30325463488,0.66049542796,17,5,7.724,720.66432030535,0.0,0.4921268,1.4023786538,-0.447388,0.223694,-0.894776,38.6,0.2,-2.7,0,0,1024,1024,1024,1024,0,0,0,0,0,0,0,71,3.86,3.865,0,0,0,0,1.075,75.74,720.66432030535,0.0,11,AutoTakeoff,,0.0
425100,2026-01-09 12:44:34,720.66432030535,0.656168,0.4921268,1.30695214156,0.76431104808,17,5,7.62,720.66432030535,0.0,0.4921268,1.4023786538,-0.447388,0.223694,-1.342164,38.6,-0.2,-2.9,0,0,1024,1024,1024,1024,0,0,0,0,0,0,0,71,3.813,3.807,0,0,0,0,2.844,75.74,720.66432030535,0.0,11,AutoTakeoff,,0.0
425200,2026-01-09 12:44:34,720.99240430535,0.656168,0.4921268,1.3366798328,0.87535763956,18,5,7.62,720.99240430535,0.328084,0.4921268,1.4023786538,-0.447388,0.223694,-1.565858,38.6,-0.6,-3.6,0,0,1024,1024,1024,1024,0,0,0,0,0,0,0,71,3.813,3.807,0,0,0,0,2.844,75.74,720.99240430535,0.328084,11,AutoTakeoff,,0.1
425300,2026-01-09 12:44:34,720.99240430535,0.984252,0.4921268,1.37174545072,0.98282811544,18,5,7.62,720.99240430535,0.328084,0.4921268,1.4023786538,-0.447388,0.223694,-1.789552,38.6,-0.4,-4.3,0,0,1024,1024,1024,1024,0,0,0,0,0,0,0,71,3.813,3.807,0,0,0,0,2.844,75.74,720.99240430535,0.328084,11,AutoTakeoff,,0.1
425400,2026-01-09 12:44:34,721.32048830535,1.312336,0.3131716,1.41415030772,1.09327103236,18,5,7.62,721.32048830535,0.656168,0.4921268,1.41415030772,-0.223694,0.223694,-2.013246,38.5,-0.2,-4.4,0,0,1024,1024,1156,1024,0,0,20,0,0,0,0,71,3.813,3.807,0,0,0,0,2.844,75.74,721.32048830535,0.656168,11,AutoTakeoff,Home Point updated. RTH altitude adjusted to 90 m (Code: 120852),0.2
425500,2026-01-09 12:44:35,721.64857230535,1.64042,0.3131716,1.50256238404,1.22179793936,18,5,7.62,721.64857230535,0.984252,0.4921268,1.50256238404,-0.223694,0.223694,-2.013246,38.4,0.1,-4.5,0,0,1024,1024,1572,1024,0,0,83,0,0,0,0,71,3.813,3.807,0,0,0,0,2.844,75.74,721.64857230535,0.984252,11,AutoTakeoff,,0.3
425600,2026-01-09 12:44:35,722.30474030535,1.968504,0.3131716,1.54595805472,1.30703088172,18,5,7.62,722.30474030535,1.64042,0.4921268,1.54595805472,-0.223694,0.223694,-2.23694,38.4,0.0,-4.4,0,0,1024,1024,1684,1024,0,0,100,0,0,0,0,71,3.813,3.807,0,0,0,0,2.844,75.74,722.30474030535,1.64042,11,AutoTakeoff,,0.5
425700,2026-01-09 12:44:35,722.63282430535,2.296588,0.3131716,1.57364178264,1.38079400744,18,5,7.62,722.63282430535,1.968504,0.4921268,1.57364178264,-0.223694,0.223694,-2.23694,38.6,-0.2,-4.1,0,0,1024,1024,1684,1024,0,0,100,0,0,0,0,71,3.813,3.807,0,0,0,0,2.844,75.74,722.63282430535,1.968504,11,AutoTakeoff,,0.6
425800,2026-01-09 12:44:35,722.96090830535,2.624672,0.223694,1.59161422416,1.4539370544,19,5,7.62,722.96090830535,2.296588,0.4921268,1.59161422416,0.0,0.223694,-2.460634,38.7,0.5,-3.6,0,0,1024,1024,1684,1024,0,0,100,0,0,0,0,71,3.813,3.807,0,0,0,0,2.844,75.74,722.96090830535,2.296588,11,AutoTakeoff,,0.7
425900,2026-01-09 12:44:35,723.28899230535,2.952756,0.223694,1.62479992076,1.50109584856,19,5,7.62,723.28899230535,2.624672,0.4921268,1.62479992076,0.0,0.223694,-3.131716,38.7,1.0,-3.4,0,0,1024,1024,1684,1024,0,0,100,0,0,0,0,71,3.813,3.807,0,0,0,0,2.844,75.74,723.28899230535,2.624672,6,P-GPS,,0.8
426000,2026-01-09 12:44:35,723.94516030535,3.608924,0.223694,1.6848917862,1.5722769532,19,5,7.62,723.94516030535,3.28084,0.4921268,1.6848917862,0.0,0.223694,-3.579104,38.6,0.7,-4.5,0,0,1024,1024,1684,1024,0,0,100,0,0,0,0,71,3.813,3.807,0,0,0,0,2.844,75.74,723.94516030535,3.28084,6,P-GPS,,1.0
426100,2026-01-09 12:44:35,724.60132830535,4.265092,0.223694,1.72612866416,1.61748036672,19,5,7.525,724.60132830535,3.937008,0.4921268,1.72612866416,0.0,0.223694,-4.026492,38.6,0.9,-5.0,0,0,1024,1024,1684,1024,0,0,100,0,0,0,0,71,3.736,3.734,0,0,0,0,6.044,75.74,724.60132830535,3.937008,6,P-GPS,,1.2
426200,2026-01-09 12:44:35,725.25749630535,5.249344,0.0,1.7516732844,1.64303482948,19,5,7.525,725.25749630535,4.593176,0.4921268,1.7516732844,0.0,0.0,-4.250186,38.6,0.4,-4.9,0,0,1024,1024,1684,1024,0,0,100,0,0,0,0,71,3.736,3.734,0,0,0,0,6.044,75.74,725.25749630535,4.593176,6,P-GPS,,1.4
426300,2026-01-09 12:44:35,725.91366430535,5.905512,0.0,1.74539375664,1.66893378044,19,5,7.525,725.91366430535,5.249344,0.4921268,1.7516732844,0.0,0.0,-4.47388,38.5,0.7,-4.6,0,0,1024,1024,1684,1024,0,0,100,0,0,0,0,71,3.736,3.734,0,0,0,0,6.044,75.74,725.91366430535,5.249344,6,P-GPS,,1.6
426400,2026-01-09 12:44:35,726.56983230535,6.56168,0.0,1.74334651248,1.70270018572,19,5,7.525,726.56983230535,5.905512,0.4921268,1.7516732844,0.0,0.0,-4.250186,38.5,0.2,-4.1,0,0,1024,1024,1684,1024,0,0,100,0,0,0,0,71,3.736,3.734,0,0,0,0,6.044,75.74,726.56983230535,5.905512,6,P-GPS,,1.8
426500,2026-01-09 12:44:36,727.22600030535,7.217848,0.0,1.743028271,1.71448824384,19,5,7.525,727.22600030535,6.56168,0.4921268,1.7516732844,0.0,0.0,-4.47388,38.4,1.0,-3.9,0,0,1024,1024,1684,1024,0,0,100,0,0,0,0,71,3.736,3.734,0,0,0,0,6.044,75.74,727.22600030535,6.56168,6,P-GPS,,2.0
426600,2026-01-09 12:44:36,727.88216830535,7.874016,0.0,1.74235241796,1.71852367704,19,5,7.525,727.88216830535,7.217848,0.4921268,1.7516732844,0.0,0.0,-4.47388,38.5,0.3,-3.1,0,0,1024,1024,1684,1024,0,0,100,0,0,0,0,71,3.736,3.734,0,0,0,0,6.044,75.74,727.88216830535,7.217848,6,P-GPS,,2.2
426700,2026-01-09 12:44:36,728.53833630535,8.530184,0.0,1.72701121012,1.81481961188,19,5,7.525,728.53833630535,7.874016,0.4921268,1.7516732844,0.0,0.0,-4.47388,38.4,0.3,-3.0,0,0,1024,1024,1684,1024,0,0,100,0,0,0,0,71,3.736,3.734,0,0,0,0,6.044,75.74,728.53833630535,7.874016,6,P-GPS,,2.4
426800,2026-01-09 12:44:36,729.19450430535,9.186352,0.0,1.70186029068,1.84456698816,19,5,7.525,729.19450430535,8.530184,0.4921268,1.7516732844,0.0,0.0,-4.47388,38.5,0.9,-2.7,0,0,1024,1024,1684,1024,0,0,100,0,0,0,0,71,3.736,3.734,0,0,0,0,6.044,75.74,729.19450430535,8.530184,6,P-GPS,,2.6
426900,2026-01-09 12:44:36,729.85067230535,9.84252,0.0,1.70007551372,1.85202105664,19,5,7.525,729.85067230535,9.186352,0.4921268,1.7516732844,0.0,0.0,-4.47388,38.5,1.0,-3.0,0,0,1024,1024,1684,1024,0,0,100,0,0,0,0,71,3.736,3.734,0,0,0,0,6.044,75.74,729.85067230535,9.186352,6,P-GPS,,2.8
427000,2026-01-09 12:44:36,730.50684030535,10.498688,0.0,1.7188484802,1.87091869504,19,5,7.504,730.50684030535,9.84252,0.4921268,1.7516732844,0.0,0.0,-4.47388,38.5,0.4,-3.2,0,0,1024,1024,1684,1024,0,0,100,0,0,0,0,71,3.754,3.75,0,0,0,0,6.067,75.74,730.50684030535,9.84252,6,P-GPS,,3.0
427100,2026-01-09 12:44:36,731.16300830535,11.154856,0.223694,1.74917328432,1.91367460192,19,5,7.504,731.16300830535,10.498688,0.4921268,1.7516732844,-0.223694,0.0,-4.47388,38.5,0.0,-3.8,0,0,1024,1024,1684,1024,0,0,100,0,0,0,0,71,3.754,3.75,0,0,0,0,6.067,75.74,731.16300830535,10.498688,6,P-GPS,,3.2
427200,2026-01-09 12:44:36,731.81917630535,11.811024,0.0,1.97222119172,2.15229993764,19,5,7.504,731.81917630535,11.154856,0.4921268,1.97222119172,0.0,0.0,-4.47388,38.4,0.4,-4.4,0,0,1024,1024,1684,1024,0,0,100,0,0,0,0,71,3.754,3.75,0,0,0,0,6.067,75.74,731.81917630535,11.154856,6,P-GPS,,3.4
427300,2026-01-09 12:44:36,732.47534430535,12.467192,0.0,1.98741476176,2.19021004384,19,5,7.504,732.47534430535,11.811024,0.4921268,1.98741476176,0.0,0.0,-4.47388,38.4,0.2,-4.0,0,0,1024,1024,1684,1024,0,0,100,0,0,0,0,71,3.754,3.75,0,0,0,0,6.067,75.74,732.47534430535,11.811024,6,P-GPS,,3.6
427400,2026-01-09 12:44:36,733.13151230535,13.12336,0.3131716,1.97064310768,2.21529206564,19,5,7.504,733.13151230535,12.467192,0.4921268,1.98741476176,-0.223694,-0.223694,-4.47388,38.3,-0.3,-4.0,0,0,1024,1024,1684,1024,0,0,100,0,0,0,0,71,3.754,3.75,0,0,0,0,6.067,75.74,733.13151230535,12.467192,6,P-GPS,,3.8
427500,2026-01-09 12:44:37,733.78768030535,14.107612,0.3131716,1.92883536356,2.28580059808,19,5,7.504,733.78768030535,13.12336,0.4921268,1.98741476176,-0.223694,-0.223694,-4.47388,38.7,-2.1,-3.7,0,0,1024,1024,1684,1024,0,0,100,0,0,0,0,71,3.754,3.75,0,0,0,0,6.067,75.74,733.78768030535,13.12336,6,P-GPS,,4.0
427600,2026-01-09 12:44:37,734.44384830535,14.76378,0.223694,1.83509520308,2.46685703432,19,5,7.504,734.44384830535,13.779528,0.4921268,1.98741476176,0.0,-0.223694,-4.47388,38.7,-2.6,-2.3,0,0,1024,1024,1684,1024,0,0,100,0,0,0,0,71,3.754,3.75,0,0,0,0,6.067,75.74,734.44384830535,13.779528,6,P-GPS,,4.2
427700,2026-01-09 12:44:37,735.10001630535,15.419948,0.223694,1.79937341716,2.53592855884,19,5,7.504,735.10001630535,14.435696,0.4921268,1.98741476176,0.0,-0.223694,-4.47388,38.6,-1.7,-2.9,0,0,1024,1024,1684,1024,0,0,100,0,0,0,0,71,3.754,3.75,0,0,0,0,6.067,75.74,735.10001630535,14.435696,6,P-GPS,,4.4
427800,2026-01-09 12:44:37,735.75618430535,16.076116,0.223694,1.7760499256,2.57551517428,19,5,7.504,735.75618430535,15.091864,0.4921268,1.98741476176,0.0,-0.223694,-4.250186,38.6,-2.5,-2.6,0,0,1024,1024,1684,1024,0,0,100,0,0,0,0,71,3.754,3.75,0,0,0,0,6.067,75.74,735.75618430535,15.091864,6,P-GPS,,4.6
427900,2026-01-09 12:44:37,736.41235230535,17.060368,0.223694,1.75163063348,2.60878617272,19,5,7.504,736.41235230535,15.748032,0.4921268,1.98741476176,0.0,-0.223694,-4.250186,38.4,-2.7,-1.8,0,0,1024,1024,1684,1024,0,0,100,0,0,0,0,71,3.754,3.75,0,0,0,0,6.067,75.74,736.41235230535,15.748032,6,P-GPS,,4.8
428000,2026-01-09 12:44:37,737.06852030535,17.716536,0.3131716,1.72240162992,2.63805126552,19,5,7.504,737.06852030535,16.4042,0.4921268,1.98741476176,-0.223694,-0.223694,-4.47388,38.5,-3.2,-2.0,0,0,1024,1024,1684,1024,0,0,100,0,0,0,0,71,3.754,3.75,0,0,0,0,6.067,75.74,737.06852030535,16.4042,6,P-GPS,,5.0
428100,2026-01-09 12:44:37,737.72468830535,18.700788,0.3131716,1.67698168096,2.70652567716,19,5,7.504,737.72468830535,17.060368,0.4921268,1.98741476176,-0.223694,-0.223694,-4.47388,38.6,-4.2,-2.4,0,0,1024,1024,1684,1024,0,0,100,0,0,0,0,71,3.75,3.747,0,0,0,0,6.067,75.74,737.72468830535,17.060368,6,P-GPS,,5.2
428200,2026-01-09 12:44:37,738.38085630535,19.356956,0.3131716,1.61754270268,2.80737541792,19,5,7.504,738.38085630535,17.716536,0.4921268,1.98741476176,-0.223694,-0.223694,-4.250186,38.5,-4.2,-2.6,0,0,1024,1024,1684,1024,0,0,100,0,0,0,0,71,3.75,3.747,0,0,0,0,6.067,75.74,738.38085630535,17.716536,6,P-GPS,,5.4
428300,2026-01-09 12:44:37,739.03702430535,20.341208,0.223694,1.57450464356,2.88889116856,19,5,7.504,739.03702430535,18.372704,0.4921268,1.98741476176,-0.223694,0.0,-4.250186,38.6,-3.9,-2.6,0,0,1024,1024,1684,1024,0,0,100,0,0,0,0,71,3.75,3.747,0,0,0,0,6.067,75.74,739.03702430535,18.372704,6,P-GPS,,5.6
428400,2026-01-09 12:44:37,740.02127630535,20.997376,0.223694,1.42968836596,3.10891086064,19,5,7.504,740.02127630535,19.356956,0.4921268,1.98741476176,-0.223694,0.0,-4.47388,38.5,-3.7,-3.6,0,0,1024,1024,1684,1024,0,0,100,0,0,0,0,71,3.75,3.747,0,0,0,0,6.067,75.74,740.02127630535,19.356956,6,P-GPS,,5.9
428500,2026-01-09 12:44:38,740.67744430535,21.981628,0.0,1.41831697452,3.15897647904,19,5,7.504,740.67744430535,20.013124,0.4921268,1.98741476176,0.0,0.0,-4.250186,38.7,-4.3,-3.8,0,0,1024,1024,1684,1024,0,0,100,0,0,0,0,71,3.75,3.747,0,0,0,0,6.067,75.74,740.67744430535,20.013124,6,P-GPS,,6.1
428600,2026-01-09 12:44:38,741.33361230535,22.637796,0.3131716,1.41804794564,3.1987041706,19,5,7.504,741.33361230535,20.669292,0.4921268,1.98741476176,-0.223694,0.223694,-4.250186,38.6,-3.2,-4.9,0,0,1024,1024,1684,1024,0,0,100,0,0,0,0,71,3.75,3.747,0,0,0,0,6.067,75.74,741.33361230535,20.669292,6,P-GPS,,6.3
428700,2026-01-09 12:44:38,741.98978030535,23.622048,0.0,1.45603351116,3.2420932796,19,5,7.504,741.98978030535,21.32546,0.4921268,1.98741476176,0.0,0.0,-4.250186,38.5,-2.6,-5.5,0,0,1024,1024,1684,1024,0,0,100,0,0,0,0,71,3.75,3.747,0,0,0,0,6.067,75.74,741.98978030535,21.32546,6,P-GPS,,6.5
428800,2026-01-09 12:44:38,742.64594830535,24.278216,0.0,1.526738894,3.3129594236,19,5,7.504,742.64594830535,21.981628,0.4921268,1.98741476176,0.0,0.0,-4.250186,38.5,-2.8,-5.2,0,0,1024,1024,1684,1024,0,0,100,0,0,0,0,71,3.75,3.747,0,0,0,0,6.067,75.74,742.64594830535,21.981628,6,P-GPS,,6.7
428900,2026-01-09 12:44:38,743.30211630535,24.934384,0.0,1.66868115576,3.4558071972,19,5,7.504,743.30211630535,22.637796,0.4921268,1.98741476176,0.0,0.0,-4.250186,38.6,-3.5,-5.3,0,0,1024,1024,1684,1024,0,0,100,0,0,0,0,71,3.75,3.747,0,0,0,0,6.067,75.74,743.30211630535,22.637796,6,P-GPS,,6.9
429000,2026-01-09 12:44:38,743.95828430535,25.262468,0.0,1.69902564492,3.5000329204,19,5,7.504,743.95828430535,23.293964,0.4921268,1.98741476176,0.0,0.0,-4.250186,38.8,-3.5,-5.0,0,0,1024,1024,1684,1024,0,0,100,0,0,0,0,71,3.75,3.747,0,0,0,0,6.067,75.74,743.95828430535,23.293964,6,P-GPS,,7.1
429100,2026-01-09 12:44:38,744.94253630535,28.871392,0.0,1.71460635408,3.5235565432,19,5,7.504,744.94253630535,24.278216,0.4921268,1.98741476176,0.0,0.0,-4.250186,39.0,-3.2,-5.0,0,0,1024,1024,1684,1024,0,0,100,0,0,0,0,71,3.75,3.747,0,0,0,0,6.067,75.74,744.94253630535,24.278216,6,P-GPS,,7.4
429200,2026-01-09 12:44:38,745.59870430535,29.52756,0.0,1.72434716804,3.5378281972,19,5,7.497,745.59870430535,24.934384,0.4921268,1.98741476176,0.0,0.0,-4.250186,38.8,-2.0,-5.2,0,0,1024,1024,1684,1024,0,0,100,0,0,0,0,71,3.741,3.736,0,0,0,0,5.767,75.74,745.59870430535,24.934384,6,P-GPS,,7.6
429300,2026-01-09 12:44:38,746.25487230535,30.183728,0.0,1.6879265632,3.579560482,19,5,7.497,746.25487230535,25.590552,0.4921268,1.98741476176,0.0,0.0,-4.250186,38.6,-1.4,-5.0,0,0,1024,1024,1684,1024,0,0,100,0,0,0,0,71,3.741,3.736,0,0,0,0,5.767,75.74,746.25487230535,25.590552,6,P-GPS,,7.8
429400,2026-01-09 12:44:39,747.23912430535,31.16798,0.0,1.60108600924,3.6742783328,19,5,7.497,747.23912430535,26.574804,0.4921268,1.98741476176,0.0,0.0,-4.250186,38.5,-2.2,-6.0,0,0,1024,1024,1684,1024,0,0,100,0,0,0,0,71,3.741,3.736,0,0,0,0,5.767,75.74,747.23912430535,26.574804,6,P-GPS,,8.1
429500,2026-01-09 12:44:39,747.89529230535,31.824148,0.0,1.54775595504,3.7456694112,19,5,7.497,747.89529230535,27.230972,0.4921268,1.98741476176,0.0,0.0,-4.250186,38.6,-3.7,-5.9,0,0,1024,1024,1684,1024,0,0,100,0,0,0,0,71,3.741,3.736,0,0,0,0,5.767,75.74,747.89529230535,27.230972,6,P-GPS,,8.3
429600,2026-01-09 12:44:39,748.55146030535,32.152232,0.0,1.52726710924,3.7980316176,19,5,7.497,748.55146030535,27.88714,0.4921268,1.98741476176,0.0,0.0,-4.250186,38.5,-4.3,-4.7,0,0,1024,1024,1684,1024,0,0,100,0,0,0,0,71,3.741,3.736,0,0,0,0,5.767,75.74,748.55146030535,27.88714,6,P-GPS,,8.5
429700,2026-01-09 12:44:39,749.20762830535,32.480316,0.0,1.498933775,3.902723222,19,5,7.497,749.20762830535,28.543308,0.4921268,1.98741476176,0.0,0.0,-4.47388,38.4,-4.4,-4.4,0,0,1024,1024,1684,1024,0,0,100,0,0,0,0,71,3.741,3.736,0,0,0,0,5.767,75.74,749.20762830535,28.543308,6,P-GPS,,8.7
429800,2026-01-09 12:44:39,749.86379630535,33.136484,0.0,1.47548233068,3.9404200736,19,5,7.497,749.86379630535,29.199476,0.4921268,1.98741476176,0.0,0.0,-4.47388,38.4,-3.6,-4.5,0,0,1024,1024,1684,1024,0,0,100,0,0,0,0,71,3.741,3.736,0,0,0,0,5.767,75.74,749.86379630535,29.199476,6,P-GPS,,8.9
429900,2026-01-09 12:44:39,750.84804830535,33.464568,0.0,1.44671592556,3.97719829,19,5,7.497,750.84804830535,30.183728,0.4921268,1.98741476176,0.0,0.0,-4.47388,38.7,-4.5,-4.8,0,0,1024,1024,1684,1024,0,0,100,0,0,0,0,71,3.741,3.736,0,0,0,0,5.767,75.74,750.84804830535,30.183728,6,P-GPS,,9.2
430000,2026-01-09 12:44:39,751.50421630535,33.792652,0.0,1.40902563564,4.0182744068,19,5,7.497,751.50421630535,30.839896,0.4921268,1.98741476176,0.0,0.0,-4.47388,38.6,-4.4,-3.9,0,0,1024,1024,1684,1024,0,0,100,0,0,0,0,71,3.741,3.736,0,0,0,0,5.767,75.74,751.50421630535,30.839896,6,P-GPS,,9.4
430100,2026-01-09 12:44:39,751.83230030535,34.120736,0.0,1.33916014784,4.0884843828,19,5,7.497,751.83230030535,31.16798,0.4921268,1.98741476176,0.0,0.0,-4.250186,38.4,-3.2,-3.6,0,0,1024,1024,1684,1024,0,0,100,0,0,0,0,71,3.741,3.736,0,0,0,0,5.767,75.74,751.83230030535,31.16798,6,P-GPS,,9.5
430200,2026-01-09 12:44:39,752.48846830535,34.776904,0.0,1.30413718084,4.1238846464,19,5,7.497,752.48846830535,31.824148,0.4921268,1.98741476176,0.0,0.0,-4.47388,38.5,-3.1,-3.4,0,0,1024,1024,1684,1024,0,0,100,0,0,0,0,71,3.741,3.736,0,0,0,0,5.767,75.74,752.48846830535,31.824148,6,P-GPS,,9.7
430300,2026-01-09 12:44:39,753.14463630535,35.433072,0.0,1.28711290208,4.1421589252,19,5,7.45,753.14463630535,32.480316,0.4921268,1.98741476176,0.0,0.0,-4.47388,38.7,-4.0,-3.7,0,0,1024,1024,1684,1024,0,0,100,0,0,0,0,71,3.725,3.725,0,0,0,0,6.536,75.74,753.14463630535,32.480316,6,P-GPS,,9.9
430400,2026-01-09 12:44:39,753.80080430535,36.08924,0.0,1.2911089652,4.15764449,19,5,7.45,753.80080430535,33.136484,0.4921268,1.98741476176,0.0,0.0,-4.250186,38.8,-2.5,-3.6,0,0,1024,1024,1684,1024,0,0,100,0,0,0,0,71,3.725,3.725,0,0,0,0,6.536,75.74,753.80080430535,33.136484,6,P-GPS,,10.1
430500,2026-01-09 12:44:40,754.45697230535,36.745408,0.223694,1.30847773216,4.1927166696,19,5,7.45,754.45697230535,33.792652,0.4921268,1.98741476176,0.0,0.223694,-4.250186,38.8,-0.9,-4.6,0,0,1024,1024,1684,1024,0,0,100,0,0,0,0,71,3.725,3.725,0,0,0,0,6.536,75.74,754.45697230535,33.792652,6,P-GPS,,10.3
430600,2026-01-09 12:44:40,755.11314030535,37.401576,0.223694,1.3741470256,4.2930775652,19,5,7.45,755.11314030535,34.44882,0.4921268,1.98741476176,0.0,0.223694,-4.250186,38.6,-0.7,-5.9,0,0,1024,1024,1684,1024,0,0,100,0,0,0,0,71,3.725,3.725,0,0,0,0,6.536,75.74,755.11314030535,34.44882,6,P-GPS,,10.5
430700,2026-01-09 12:44:40,755.76930830535,38.057744,0.223694,1.39664702632,4.326771792,19,5,7.45,755.76930830535,35.104988,0.4921268,1.98741476176,0.0,0.223694,-4.250186,38.7,-0.7,-5.9,0,0,1024,1024,1684,1024,0,0,100,0,0,0,0,71,3.725,3.725,0,0,0,0,6.536,75.74,755.76930830535,35.104988,6,P-GPS,,10.7
430800,2026-01-09 12:44:40,756.42547630535,38.713912,0.223694,1.41631238128,4.3527560448,19,5,7.45,756.42547630535,35.761156,0.4921268,1.98741476176,0.0,0.223694,-4.47388,38.8,-0.8,-6.0,0,0,1024,1024,1684,1024,0,0,100,0,0,0,0,71,3.725,3.725,0,0,0,0,6.536,75.74,756.42547630535,35.761156,6,P-GPS,,10.9
430900,2026-01-09 12:44:40,757.08164430535,39.37008,0.223694,1.45966540104,4.3962927916,19,5,7.45,757.08164430535,36.417324,0.4921268,1.98741476176,0.0,0.223694,-4.47388,38.7,-1.5,-7.4,0,0,1024,1024,1684,1024,0,0,100,0,0,0,0,71,3.725,3.725,0,0,0,0,6.536,75.74,757.08164430535,36.417324,6,P-GPS,,11.1
431000,2026-01-09 12:44:40,757.73781230535,40.026248,0.0,1.60548561568,4.5468833476,19,5,7.45,757.73781230535,37.073492,0.4921268,1.98741476176,0.0,0.0,-4.47388,38.5,-1.0,-8.1,0,0,1024,1024,1684,1024,0,0,100,0,0,0,0,71,3.725,3.725,0,0,0,0,6.536,75.74,757.73781230535,37.073492,6,P-GPS,,11.3
431100,2026-01-09 12:44:40,758.39398030535,40.682416,0.0,1.6249508394,4.5663715372,19,5,7.45,758.39398030535,37.72966,0.4921268,1.98741476176,0.0,0.0,-4.47388,38.7,-1.6,-6.8,0,0,1024,1024,1684,1024,0,0,100,0,0,0,0,71,3.725,3.725,0,0,0,0,6.536,75.74,758.39398030535,37.72966,6,P-GPS,,11.5
431200,2026-01-09 12:44:40,759.05014830535,41.0105,0.0,1.6055446708,4.5903216692,18,5,7.45,759.05014830535,38.385828,0.4921268,1.98741476176,0.0,0.0,-4.47388,38.7,-1.5,-6.4,0,0,1024,1024,1024,1024,0,0,0,0,0,0,0,71,3.725,3.725,0,0,0,0,6.536,75.74,759.05014830535,38.385828,6,P-GPS,,11.7
431300,2026-01-09 12:44:40,759.70631630535,41.0105,0.0,1.58384519504,4.6123032972,18,5,7.45,759.70631630535,39.041996,0.4921268,1.98741476176,0.0,0.0,-4.250186,38.7,-2.6,-6.0,0,0,1024,1024,1024,1024,0,0,0,0,0,0,0,71,3.725,3.725,0,0,0,0,6.536,75.74,759.70631630535,39.041996,6,P-GPS,,11.9
431400,2026-01-09 12:44:40,760.36248430535,41.0105,0.0,1.518536794,4.6790683912,19,5,7.459,760.36248430535,39.698164,0.4921268,1.98741476176,0.0,0.0,-4.026492,38.6,-3.8,-6.0,0,0,1024,1024,386,1024,0,0,-97,0,0,0,0,71,3.731,3.728,0,0,0,0,6.3,75.74,760.36248430535,39.698164,6,P-GPS,,12.1
431500,2026-01-09 12:44:41,761.01865230535,41.0105,0.0,1.5135827256,4.7220802036,19,5,7.459,761.01865230535,40.354332,0.4921268,1.98741476176,0.0,0.0,-3.579104,38.6,-4.3,-6.7,0,0,1024,1024,364,1024,0,0,-100,0,0,0,0,71,3.731,3.728,0,0,0,0,6.3,75.74,761.01865230535,40.354332,6,P-GPS,,12.3
431600,2026-01-09 12:44:41,761.34673630535,41.0105,0.0,1.51850070476,4.7827757436,19,5,7.459,761.34673630535,40.682416,0.4921268,1.98741476176,0.0,0.0,-2.684328,38.4,-3.8,-6.5,0,0,1024,1024,364,1024,0,0,-100,0,0,0,0,71,3.731,3.728,0,0,0,0,6.3,75.74,761.34673630535,40.682416,6,P-GPS,,12.4
431700,2026-01-09 12:44:41,761.67482030535,41.0105,0.0,1.50580385396,4.8331366376,19,5,7.459,761.67482030535,41.0105,0.4921268,1.98741476176,0.0,0.0,-2.013246,38.3,-4.0,-5.9,0,0,1024,1024,364,1024,0,0,-100,0,0,0,0,71,3.731,3.728,0,0,0,0,6.3,75.74,761.67482030535,41.0105,6,P-GPS,,12.5
431800,2026-01-09 12:44:41,761.67482030535,41.0105,0.223694,1.4916175018,4.903871548,19,5,7.459,761.67482030535,41.0105,0.4921268,1.98741476176,0.0,-0.223694,-1.342164,38.4,-4.5,-4.8,0,0,1024,1024,364,1024,0,0,-100,0,0,0,0,71,3.731,3.728,0,0,0,0,6.3,75.74,761.67482030535,41.0105,6,P-GPS,,12.5
431900,2026-01-09 12:44:41,761.67482030535,41.0105,0.223694,1.47398954848,4.950459476,19,5,7.459,761.67482030535,41.0105,0.4921268,1.98741476176,0.0,-0.223694,-0.447388,38.5,-4.5,-3.9,0,0,1024,1024,364,1024,0,0,-100,0,0,0,0,71,3.731,3.728,0,0,0,0,6.3,75.74,761.67482030535,41.0105,6,P-GPS,,12.5
432000,2026-01-09 12:44:41,761.67482030535,41.0105,0.223694,1.46824807848,4.9985893988,19,5,7.459,761.67482030535,41.0105,0.4921268,1.98741476176,0.0,-0.223694,0.223694,38.5,-4.4,-3.5,0,0,1024,1024,364,1024,0,0,-100,0,0,0,0,71,3.731,3.728,0,0,0,0,6.3,75.74,761.67482030535,41.0105,6,P-GPS,,12.5
432100,2026-01-09 12:44:41,761.34673630535,41.0105,0.223694,1.442585348,5.04511171,19,5,7.459,761.67482030535,41.0105,0.4921268,1.98741476176,0.0,-0.223694,0.671082,38.4,-4.7,-3.3,0,0,1024,1024,364,1024,0,0,-100,0,0,0,0,71,3.731,3.728,0,0,0,0,6.3,75.74,761.34673630535,40.682416,6,P-GPS,,12.4
432200,2026-01-09 12:44:41,761.01865230535,41.0105,0.223694,1.39704400796,5.1027232604,19,5,7.459,761.67482030535,41.0105,0.4921268,1.98741476176,0.0,-0.223694,1.342164,38.3,-4.6,-2.7,0,0,1024,1024,364,1024,0,0,-100,0,0,0,0,71,3.731,3.728,0,0,0,0,6.3,75.74,761.01865230535,40.354332,6,P-GPS,,12.3
432300,2026-01-09 12:44:41,760.69056830535,41.0105,0.223694,1.36769361332,5.1344817916,19,5,7.459,761.67482030535,41.0105,0.4921268,1.98741476176,0.0,-0.223694,1.565858,38.1,-4.6,-2.5,0,0,1024,1024,364,1024,0,0,-100,0,0,0,0,71,3.731,3.728,0,0,0,0,6.3,75.74,760.69056830535,40.026248,6,P-GPS,,12.2
432400,2026-01-09 12:44:41,760.36248430535,41.0105,0.223694,1.32321854628,5.1933728696,19,5,7.459,761.67482030535,41.0105,0.4921268,1.98741476176,0.0,-0.223694,2.013246,38.1,-4.2,-2.2,0,0,1024,1024,364,1024,0,0,-100,0,0,0,0,71,3.731,3.728,0,0,0,0,6.3,75.74,760.36248430535,39.698164,6,P-GPS,,12.1
432500,2026-01-09 12:44:42,760.03440030535,41.0105,0.223694,1.27983271812,5.2445539736,19,5,7.554,761.67482030535,41.0105,0.4921268,1.98741476176,0.0,-0.223694,2.23694,38.1,-3.8,-2.3,0,0,1024,1024,364,1024,0,0,-100,0,0,0,0,71,3.779,3.776,0,0,0,0,3.856,75.74,760.03440030535,39.37008,6,P-GPS,,12.0
432600,2026-01-09 12:44:42,759.70631630535,41.0105,0.223694,1.231873399,5.2970146052,19,5,7.554,761.67482030535,41.0105,0.4921268,1.98741476176,0.0,-0.223694,2.460634,38.2,-4.0,-2.3,0,0,1024,1024,364,1024,0,0,-100,0,0,0,0,71,3.779,3.776,0,0,0,0,3.856,75.74,759.70631630535,39.041996,6,P-GPS,,11.9
432700,2026-01-09 12:44:42,759.05014830535,41.0105,0.223694,1.22001972408,5.3334647376,19,5,7.554,761.67482030535,41.0105,0.4921268,1.98741476176,0.0,-0.223694,2.684328,38.2,-4.9,-2.6,0,0,1024,1024,364,1024,0,0,-100,0,0,0,0,71,3.779,3.776,0,0,0,0,3.856,75.74,759.05014830535,38.385828,6,P-GPS,,11.7
432800,2026-01-09 12:44:42,758.72206430535,41.0105,0.223694,1.24179137832,5.3864503036,19,5,7.554,761.67482030535,41.0105,0.4921268,1.98741476176,0.0,-0.223694,2.908022,38.3,-5.1,-2.7,0,0,1024,1024,364,1024,0,0,-100,0,0,0,0,71,3.779,3.776,0,0,0,0,3.856,75.74,758.72206430535,38.057744,6,P-GPS,,11.6
432900,2026-01-09 12:44:42,758.39398030535,41.0105,0.0,1.25418639184,5.4037403304,19,5,7.554,761.67482030535,41.0105,0.4921268,1.98741476176,0.0,0.0,2.908022,38.5,-5.4,-2.8,0,0,1024,1024,364,1024,0,0,-100,0,0,0,0,71,3.779,3.776,0,0,0,0,3.856,75.74,758.39398030535,37.72966,6,P-GPS,,11.5
433000,2026-01-09 12:44:42,757.73781230535,41.0105,0.0,1.25454728424,5.4274608036,19,5,7.554,761.67482030535,41.0105,0.4921268,1.98741476176,0.0,0.0,3.131716,38.5,-5.4,-3.0,0,0,1024,1024,364,1024,0,0,-100,0,0,0,0,71,3.779,3.776,0,0,0,0,3.856,75.74,757.73781230535,37.073492,6,P-GPS,,11.3
433100,2026-01-09 12:44:42,757.40972830535,41.0105,0.0,1.36121395432,5.5342521456,19,5,7.554,761.67482030535,41.0105,0.4921268,1.98741476176,0.0,0.0,3.35541,38.4,-5.3,-3.3,0,0,1024,1024,364,1024,0,0,-100,0,0,0,0,71,3.779,3.776,0,0,0,0,3.856,75.74,757.40972830535,36.745408,6,P-GPS,,11.2
433200,2026-01-09 12:44:42,756.75356030535,41.0105,0.0,1.39800529408,5.5865815436,19,5,7.554,761.67482030535,41.0105,0.4921268,1.98741476176,0.0,0.0,3.579104,38.5,-6.0,-3.3,0,0,1024,1024,704,1024,0,0,-48,0,0,0,0,71,3.779,3.776,0,0,0,0,3.856,75.74,756.75356030535,36.08924,6,P-GPS,,11.0
433300,2026-01-09 12:44:42,756.09739230535,41.0105,0.0,1.4271654,5.6269030672,19,5,7.554,761.67482030535,41.0105,0.4921268,1.98741476176,0.0,0.0,3.802798,38.4,-5.6,-3.3,0,0,1024,1024,1024,1024,0,0,0,0,0,0,0,71,3.779,3.776,0,0,0,0,3.856,75.74,756.09739230535,35.433072,6,P-GPS,,10.8
433400,2026-01-09 12:44:43,755.76930830535,41.0105,0.0,1.44691933764,5.6542980812,19,5,7.554,761.67482030535,41.0105,0.4921268,1.98741476176,0.0,0.0,3.579104,38.5,-5.3,-2.5,0,0,1024,1024,1024,1024,0,0,0,0,0,0,0,71,3.779,3.776,0,0,0,0,3.856,75.74,755.76930830535,35.104988,6,P-GPS,,10.7
433500,2026-01-09 12:44:43,755.11314030535,41.0105,0.0,1.44056106972,5.6933728856,19,5,7.554,761.67482030535,41.0105,0.4921268,1.98741476176,0.0,0.0,2.908022,38.4,-4.8,-1.9,0,0,1024,1024,1024,1024,0,0,0,0,0,0,0,71,3.779,3.776,0,0,0,0,3.856,75.74,755.11314030535,34.44882,6,P-GPS,,10.5
433600,2026-01-09 12:44:43,754.78505630535,41.0105,0.0,1.42763456012,5.7540028088,19,5,7.501,761.67482030535,41.0105,0.4921268,1.98741476176,0.0,0.0,2.23694,38.3,-4.8,-3.1,0,0,1024,1024,1024,1024,0,0,0,0,0,0,0,71,3.775,3.725,0,0,0,0,4.725,75.74,754.78505630535,34.120736,6,P-GPS,,10.4
433700,2026-01-09 12:44:43,754.78505630535,41.0105,0.0,1.4253281296,5.82841226,19,5,7.501,761.67482030535,41.0105,0.4921268,1.98741476176,0.0,0.0,1.565858,38.5,-5.0,-3.4,0,0,1024,1024,1024,1024,0,0,0,0,0,0,0,71,3.775,3.725,0,0,0,0,4.725,75.74,754.78505630535,34.120736,6,P-GPS,,10.4
433800,2026-01-09 12:44:43,754.45697230535,41.0105,0.0,1.43332025584,5.9200789296,19,5,7.501,761.67482030535,41.0105,0.4921268,1.98741476176,0.0,0.0,0.894776,38.7,-5.6,-3.9,0,0,1024,1024,1024,1024,0,0,0,0,0,0,0,71,3.775,3.725,0,0,0,0,4.725,75.74,754.45697230535,33.792652,6,P-GPS,,10.3
433900,2026-01-09 12:44:43,754.45697230535,41.0105,0.223694,1.44548561056,5.9873361496,19,5,7.501,761.67482030535,41.0105,0.4921268,1.98741476176,0.223694,0.0,0.447388,38.6,-5.2,-3.6,0,0,1024,1024,1024,1024,0,0,0,0,0,0,0,71,3.775,3.725,0,0,0,0,4.725,75.74,754.45697230535,33.792652,6,P-GPS,,10.3
434000,2026-01-09 12:44:43,754.12888830535,41.0105,0.223694,1.50428810588,6.0576117424,18,5,7.501,761.67482030535,41.0105,0.4921268,1.98741476176,0.223694,0.0,0.223694,38.5,-5.0,-4.3,0,0,1024,1024,1024,1024,0,0,0,0,0,0,0,71,3.775,3.725,0,0,0,0,4.725,75.74,754.12888830535,33.464568,6,P-GPS,,10.2
434100,2026-01-09 12:44:43,754.12888830535,41.0105,0.223694,1.49596133396,6.1120080696,18,5,7.501,761.67482030535,41.0105,0.4921268,1.98741476176,0.223694,0.0,0.0,38.5,-4.0,-3.7,0,0,1024,1024,1024,1024,0,0,0,0,0,0,0,71,3.775,3.725,0,0,0,0,4.725,75.74,754.12888830535,33.464568,6,P-GPS,,10.2
434200,2026-01-09 12:44:43,754.12888830535,41.0105,0.447388,1.46924545384,6.1836616152,19,5,7.501,761.67482030535,41.0105,0.4921268,1.98741476176,0.447388,0.0,0.0,38.6,-3.5,-2.8,0,0,1024,1024,1024,1024,0,0,0,0,0,0,0,71,3.775,3.725,0,0,0,0,4.725,75.74,754.12888830535,33.464568,6,P-GPS,,10.2
434300,2026-01-09 12:44:43,754.12888830535,41.0105,0.223694,1.436105689,6.2767062376,19,5,7.501,761.67482030535,41.0105,0.4921268,1.98741476176,0.223694,0.0,0.0,38.5,-3.0,-2.2,0,0,1024,1024,1024,1024,0,0,0,0,0,0,0,71,3.775,3.725,0,0,0,0,4.725,75.74,754.12888830535,33.464568,6,P-GPS,,10.2
434400,2026-01-09 12:44:43,754.12888830535,41.0105,0.223694,1.3598425632,6.4472771092,19,5,7.501,761.67482030535,41.0105,0.4921268,1.98741476176,0.223694,0.0,0.0,38.4,-2.4,-2.0,0,0,1024,1024,1024,1024,0,0,0,0,0,0,0,71,3.775,3.725,0,0,0,0,4.725,75.74,754.12888830535,33.464568,6,P-GPS,,10.2
434500,2026-01-09 12:44:44,753.80080430535,41.0105,0.223694,1.33988193264,6.5286419412,19,5,7.501,761.67482030535,41.0105,0.4921268,1.98741476176,0.223694,0.0,0.0,38.4,-2.9,-2.2,0,0,1024,1024,1024,1024,0,0,0,0,0,0,0,71,3.775,3.725,0,0,0,0,4.725,75.74,753.80080430535,33.136484,6,P-GPS,,10.1
434600,2026-01-09 12:44:44,753.80080430535,41.0105,0.223694,1.32256565912,6.584973964,19,5,7.501,761.67482030535,41.0105,0.4921268,1.98741476176,0.223694,0.0,0.0,38.4,-2.9,-2.0,0,0,1024,1024,1024,1024,0,0,0,0,0,0,0,71,3.775,3.725,0,0,0,0,4.725,75.74,753.80080430535,33.136484,6,P-GPS,,10.1
434700,2026-01-09 12:44:44,753.80080430535,41.0105,0.223694,1.3091535852,6.6317587424,19,5,7.482,761.67482030535,41.0105,0.4921268,1.98741476176,0.223694,0.0,0.0,38.5,-2.9,-1.5,0,0,1024,1024,1024,1024,0,0,0,0,0,0,0,71,3.743,3.744,0,0,0,0,6.058,75.74,753.80080430535,33.136484,6,P-GPS,,10.1
434800,2026-01-09 12:44:44,753.80080430535,41.0105,0.223694,1.29862865048,6.6472771156,19,5,7.482,761.67482030535,41.0105,0.4921268,1.98741476176,0.223694,0.0,0.0,38.5,-2.8,-1.8,0,0,1024,1024,1024,1024,0,0,0,0,0,0,0,71,3.743,3.744,0,0,0,0,6.058,75.74,753.80080430535,33.136484,6,P-GPS,,10.1
434900,2026-01-09 12:44:44,753.80080430535,41.0105,0.223694,1.28728350576,6.6719490324,19,5,7.482,761.67482030535,41.0105,0.4921268,1.98741476176,0.223694,0.0,0.0,38.3,-2.2,-1.9,0,0,1024,1024,1024,1024,0,0,0,0,0,0,0,71,3.743,3.744,0,0,0,0,6.058,75.74,753.80080430535,33.136484,6,P-GPS,,10.1
435000,2026-01-09 12:44:44,753.80080430535,41.0105,0.223694,1.27303481764,6.6882876156,19,5,7.482,761.67482030535,41.0105,0.4921268,1.98741476176,0.0,0.0,0.0,38.3,-3.5,-1.6,0,0,1024,1024,1024,1024,0,0,0,0,0,0,0,71,3.743,3.744,0,0,0,0,6.058,75.74,753.80080430535,33.136484,6,P-GPS,,10.1
435100,2026-01-09 12:44:44,753.47272030535,41.0105,0.0,1.24899610296,6.7224739684,19,5,7.482,761.67482030535,41.0105,0.4921268,1.98741476176,0.0,0.0,0.0,38.3,-3.7,-1.6,0,0,1024,1024,1024,1024,0,0,0,0,0,0,0,71,3.743,3.744,0,0,0,0,6.058,75.74,753.47272030535,32.8084,6,P-GPS,,10.0
435200,2026-01-09 12:44:44,753.47272030535,41.0105,0.223694,1.20947510432,6.790026464,19,5,7.482,761.67482030535,41.0105,0.4921268,1.98741476176,0.223694,0.0,0.0,38.3,-3.5,-1.0,0,0,1024,1024,1024,1024,0,0,0,0,0,0,0,71,3.743,3.744,0,0,0,0,6.058,75.74,753.47272030535,32.8084,6,P-GPS,,10.0
435300,2026-01-09 12:44:44,753.47272030535,41.0105,0.0,1.18001316112,6.844324366,19,5,7.482,761.67482030535,41.0105,0.4921268,1.98741476176,0.0,0.0,0.0,38.4,-2.9,-0.5,0,0,1024,1024,1024,1024,0,0,0,0,0,0,0,71,3.743,3.744,0,0,0,0,6.058,75.74,753.47272030535,32.8084,6,P-GPS,,10.0
435400,2026-01-09 12:44:44,753.47272030535,41.0105,0.0,1.15346460384,6.8932416904,19,5,7.482,761.67482030535,41.0105,0.4921268,1.98741476176,0.0,0.0,0.0,38.4,-2.7,-0.3,0,0,1024,1024,1024,1024,0,0,0,0,0,0,0,71,3.743,3.744,0,0,0,0,6.058,75.74,753.47272030535,32.8084,6,P-GPS,,10.0
435500,2026-01-09 12:44:45,753.47272030535,41.0105,0.0,1.1367946558,6.9269359172,19,5,7.482,761.67482030535,41.0105,0.4921268,1.98741476176,0.0,0.0,0.0,38.4,-2.5,-0.2,0,0,1024,1024,1024,1024,0,0,0,0,0,0,0,71,3.743,3.744,0,0,0,0,6.058,75.74,753.47272030535,32.8084,6,P-GPS,,10.0
435600,2026-01-09 12:44:45,753.47272030535,41.0105,0.0,1.1277231332,6.9467849992,19,5,7.482,761.67482030535,41.0105,0.4921268,1.98741476176,0.0,0.0,0.0,38.4,-2.7,-0.4,0,0,1024,1024,1024,1024,0,0,0,0,0,0,0,71,3.743,3.744,0,0,0,0,6.058,75.74,753.47272030535,32.8084,6,P-GPS,,10.0
435700,2026-01-09 12:44:45,753.47272030535,41.0105,0.0,1.1548228716,6.9797246328,19,5,7.482,761.67482030535,41.0105,0.4921268,1.98741476176,0.0,0.0,0.0,38.4,-2.6,-0.6,0,0,1024,1024,1024,1024,0,0,0,0,0,0,0,71,3.743,3.744,0,0,0,0,6.058,75.74,753.47272030535,32.8084,6,P-GPS,,10.0
435800,2026-01-09 12:44:45,753.47272030535,41.0105,0.0,1.1597605358,6.9868440556,19,5,7.499,761.67482030535,41.0105,0.4921268,1.98741476176,0.0,0.0,0.0,38.4,-2.7,-0.9,0,0,1024,1024,1024,1024,0,0,0,0,0,0,0,71,3.751,3.748,0,0,0,0,5.295,75.92,753.47272030535,32.8084,6,P-GPS,,10.0
435900,2026-01-09 12:44:45,753.47272030535,41.0105,0.0,1.16731302948,6.9970802764,19,5,7.499,761.67482030535,41.0105,0.4921268,1.98741476176,0.0,0.0,0.0,38.3,-2.7,-1.0,0,0,1024,1024,1024,1024,0,0,0,0,0,0,0,71,3.751,3.748,0,0,0,0,5.295,75.92,753.47272030535,32.8084,6,P-GPS,,10.0
436000,2026-01-09 12:44:45,753.47272030535,41.0105,0.0,1.17444885648,7.0172574424,19,5,7.499,761.67482030535,41.0105,0.4921268,1.98741476176,0.0,0.0,0.0,38.3,-3.0,-1.2,0,0,1024,1024,1024,1024,0,0,0,0,0,0,0,71,3.751,3.748,0,0,0,0,5.295,75.92,753.47272030535,32.8084,6,P-GPS,,10.0
436100,2026-01-09 12:44:45,753.47272030535,41.0105,0.0,1.19472116684,7.0614175488,19,5,7.499,761.67482030535,41.0105,0.4921268,1.98741476176,0.0,0.0,0.0,38.5,-2.3,-0.5,0,0,1024,1024,1024,1024,0,0,0,0,0,0,0,71,3.751,3.748,0,0,0,0,5.295,75.92,753.47272030535,32.8084,6,P-GPS,,10.0
436200,2026-01-09 12:44:45,753.47272030535,41.0105,0.0,1.2324311418,7.1332679448,19,5,7.499,761.67482030535,41.0105,0.4921268,1.98741476176,0.0,0.0,0.0,38.5,-3.1,-0.5,0,0,1024,1024,1024,1024,0,0,0,0,0,0,0,71,3.751,3.748,0,0,0,0,5.295,75.92,753.47272030535,32.8084,6,P-GPS,,10.0
436300,2026-01-09 12:44:45,753.14463630535,41.0105,0.0,1.2537401976,7.1847443244,19,5,7.499,761.67482030535,41.0105,0.4921268,1.98741476176,0.0,0.0,0.0,38.4,-3.0,-0.9,0,0,1024,1024,1024,1024,0,0,0,0,0,0,0,71,3.751,3.748,0,0,0,0,5.295,75.92,753.14463630535,32.480316,6,P-GPS,,9.9
436400,2026-01-09 12:44:45,753.14463630535,41.0105,0.0,1.25812339984,7.2205382888,19,5,7.499,761.67482030535,41.0105,0.4921268,1.98741476176,0.0,0.0,0.0,38.3,-3.5,-0.9,0,0,1024,1024,1024,1024,0,0,0,0,0,0,0,71,3.751,3.748,0,0,0,0,5.295,75.92,753.14463630535,32.480316,6,P-GPS,,9.9
436500,2026-01-09 12:44:46,753.14463630535,41.0105,0.0,1.24684715276,7.2719162432,19,5,7.499,761.67482030535,41.0105,0.4921268,1.98741476176,0.0,0.0,0.0,38.3,-3.3,-1.4,0,0,1024,1024,1024,1024,0,0,0,0,0,0,0,71,3.751,3.748,0,0,0,0,5.295,75.92,753.14463630535,32.480316,6,P-GPS,,9.9
436600,2026-01-09 12:44:46,753.14463630535,41.0105,0.0,1.2489829796,7.3122377668,19,5,7.499,761.67482030535,41.0105,0.4921268,1.98741476176,0.0,0.0,0.0,38.3,-3.4,-1.8,0,0,1024,1024,1024,1024,0,0,0,0,0,0,0,71,3.751,3.748,0,0,0,0,5.295,75.92,753.14463630535,32.480316,6,P-GPS,,9.9
436700,2026-01-09 12:44:46,753.14463630535,41.0105,0.0,1.26260502728,7.3541340936,19,5,7.499,761.67482030535,41.0105,0.4921268,1.98741476176,0.0,0.0,0.0,38.3,-3.1,-2.0,0,0,1024,1024,1024,1024,0,0,0,0,0,0,0,71,3.751,3.748,0,0,0,0,5.295,75.92,753.14463630535,32.480316,6,P-GPS,,9.9
436800,2026-01-09 12:44:46,753.14463630535,41.0105,0.0,1.285433112,7.4011485308,19,5,7.499,761.67482030535,41.0105,0.4921268,1.98741476176,0.0,0.0,0.0,38.3,-2.8,-2.0,0,0,1024,1024,1024,1024,0,0,0,0,0,0,0,71,3.751,3.748,0,0,0,0,5.295,75.92,753.14463630535,32.480316,6,P-GPS,,9.9
436900,2026-01-09 12:44:46,753.14463630535,41.0105,0.0,1.33840883548,7.4731629688,19,5,7.509,761.67482030535,41.0105,0.4921268,1.98741476176,0.0,0.0,0.0,38.3,-3.0,-1.9,0,0,1024,1024,1024,1024,0,0,0,0,0,0,0,71,3.757,3.753,0,0,0,0,4.886,75.92,753.14463630535,32.480316,6,P-GPS,,9.9
437000,2026-01-09 12:44:46,752.81655230535,41.0105,0.0,1.36002957108,7.5107285868,19,5,7.509,761.67482030535,41.0105,0.4921268,1.98741476176,0.0,0.0,0.0,38.2,-2.7,-1.8,0,0,1024,1024,1024,1024,0,0,0,0,0,0,0,71,3.757,3.753,0,0,0,0,4.886,75.92,752.81655230535,32.152232,6,P-GPS,,9.8
437100,2026-01-09 12:44:46,752.81655230535,41.0105,0.0,1.38145673712,7.5442259632,19,5,7.509,761.67482030535,41.0105,0.4921268,1.98741476176,0.0,0.0,0.0,38.2,-2.4,-2.1,0,0,1024,1024,1024,1024,0,0,0,0,0,0,0,71,3.757,3.753,0,0,0,0,4.886,75.92,752.81655230535,32.152232,6,P-GPS,,9.8
437200,2026-01-09 12:44:46,752.81655230535,41.0105,0.0,1.40187340444,7.578248274,19,5,7.509,761.67482030535,41.0105,0.4921268,1.98741476176,0.0,0.0,0.0,38.4,-2.8,-1.9,0,0,1024,1024,1024,1024,0,0,0,0,0,0,0,71,3.757,3.753,0,0,0,0,4.886,75.92,752.81655230535,32.152232,6,P-GPS,,9.8
437300,2026-01-09 12:44:46,752.81655230535,41.0105,0.0,1.40933075376,7.6029529992,19,5,7.509,761.67482030535,41.0105,0.4921268,1.98741476176,0.0,0.0,0.0,38.5,-3.6,-1.6,0,0,1024,1024,1024,1024,0,0,0,0,0,0,0,71,3.757,3.753,0,0,0,0,4.886,75.92,752.81655230535,32.152232,6,P-GPS,,9.8
437400,2026-01-09 12:44:46,752.81655230535,41.0105,0.0,1.39143377156,7.6236222912,19,5,7.509,761.67482030535,41.0105,0.4921268,1.98741476176,0.0,0.0,0.0,38.4,-2.9,-1.3,0,0,1024,1024,1024,1024,0,0,0,0,0,0,0,71,3.757,3.753,0,0,0,0,4.886,75.92,752.81655230535,32.152232,6,P-GPS,,9.8
437500,2026-01-09 12:44:47,752.81655230535,41.0105,0.0,1.38929138304,7.6469162552,19,5,7.509,761.67482030535,41.0105,0.4921268,1.98741476176,0.0,0.0,0.0,38.3,-3.1,-1.6,0,0,1024,1024,1024,1024,0,0,0,0,0,0,0,71,3.757,3.753,0,0,0,0,4.886,75.92,752.81655230535,32.152232,6,P-GPS,,9.8
437600,2026-01-09 12:44:47,752.81655230535,41.0105,0.0,1.38923560876,7.674376886,19,5,7.509,761.67482030535,41.0105,0.4921268,1.98741476176,0.0,0.0,0.0,38.3,-3.0,-1.9,0,0,1024,1024,1024,1024,0,0,0,0,0,0,0,71,3.757,3.753,0,0,0,0,4.886,75.92,752.81655230535,32.152232,6,P-GPS,,9.8
437700,2026-01-09 12:44:47,752.81655230535,41.0105,0.223694,1.3993438768,7.7145343676,19,5,7.509,761.67482030535,41.0105,0.4921268,1.98741476176,-0.223694,0.0,0.0,38.0,-2.7,-2.5,0,0,1024,1024,1024,1024,0,0,0,0,0,0,0,71,3.757,3.753,0,0,0,0,4.886,75.92,752.81655230535,32.152232,6,P-GPS,,9.8
437800,2026-01-09 12:44:47,752.81655230535,41.0105,0.223694,1.4065945332,7.7643703272,19,5,7.509,761.67482030535,41.0105,0.4921268,1.98741476176,-0.223694,0.0,0.0,38.0,-4.2,-3.3,0,0,1024,1024,1024,1024,0,0,0,0,0,0,0,71,3.757,3.753,0,0,0,0,4.886,75.92,752.81655230535,32.152232,6,P-GPS,,9.8
437900,2026-01-09 12:44:47,752.48846830535,41.0105,0.0,1.41587602956,7.8123033996,19,5,7.509,761.67482030535,41.0105,0.4921268,1.98741476176,0.0,0.0,0.0,38.2,-5.5,-2.4,0,0,1024,1024,1024,1024,0,0,0,0,0,0,0,71,3.757,3.753,0,0,0,0,4.886,75.92,752.48846830535,31.824148,6,P-GPS,,9.7
438000,2026-01-09 12:44:47,752.48846830535,41.0105,0.0,1.41600726316,7.8481301724,19,5,7.508,761.67482030535,41.0105,0.4921268,1.98741476176,0.0,0.0,0.0,38.4,-5.8,-1.7,0,0,1024,1024,1024,1024,0,0,0,0,0,0,0,70,3.756,3.752,0,0,0,0,4.743,75.92,752.48846830535,31.824148,6,P-GPS,,9.7
438100,2026-01-09 12:44:47,752.48846830535,41.0105,0.0,1.42889112184,7.880413638,19,5,7.508,761.67482030535,41.0105,0.4921268,1.98741476176,0.0,0.0,0.0,38.5,-5.0,-1.4,0,0,1024,1024,1024,1024,0,0,0,0,0,0,0,70,3.756,3.752,0,0,0,0,4.743,75.92,752.48846830535,31.824148,6,P-GPS,,9.7
438200,2026-01-09 12:44:47,752.48846830535,41.0105,0.0,1.4732283936,7.941601304,19,5,7.508,761.67482030535,41.0105,0.4921268,1.98741476176,0.0,0.0,0.0,38.4,-3.2,-1.6,0,0,1024,1024,1024,1024,0,0,0,0,0,0,0,70,3.756,3.752,0,0,0,0,4.743,75.92,752.48846830535,31.824148,6,P-GPS,,9.7
438300,2026-01-09 12:44:47,752.16038430535,41.0105,0.0,1.50579401144,7.9830383132,19,5,7.508,761.67482030535,41.0105,0.4921268,1.98741476176,0.0,0.0,0.0,38.0,-1.9,-3.7,0,0,1024,1024,1024,1024,0,0,0,0,0,0,0,70,3.756,3.752,0,0,0,0,4.743,75.92,752.16038430535,31.496064,6,P-GPS,,9.6
438400,2026-01-09 12:44:47,752.16038430535,41.0105,0.0,1.53058731932,8.0277889708,19,5,7.508,761.67482030535,41.0105,0.4921268,1.98741476176,0.0,0.0,0.0,38.4,-4.3,-2.3,0,0,1024,1024,1024,1024,0,0,0,0,0,0,0,70,3.756,3.752,0,0,0,0,4.743,75.92,752.16038430535,31.496064,6,P-GPS,,9.6
438500,2026-01-09 12:44:48,752.16038430535,41.0105,0.0,1.54546592872,8.0630251924,19,5,7.508,761.67482030535,41.0105,0.4921268,1.98741476176,0.0,0.0,0.0,38.6,-6.2,-1.7,0,0,1024,1024,1024,1024,0,0,0,0,0,0,0,70,3.756,3.752,0,0,0,0,4.743,75.92,752.16038430535,31.496064,6,P-GPS,,9.6
438600,2026-01-09 12:44:48,751.83230030535,41.0105,0.0,1.58222446008,8.0997706004,19,5,7.508,761.67482030535,41.0105,0.4921268,1.98741476176,0.0,0.0,0.0,38.6,-5.8,-0.8,0,0,1024,1024,1024,1024,0,0,0,0,0,0,0,70,3.756,3.752,0,0,0,0,4.743,75.92,751.83230030535,31.16798,6,P-GPS,,9.5
438700,2026-01-09 12:44:48,751.83230030535,41.0105,0.0,1.58041015556,8.1018047212,19,5,7.508,761.67482030535,41.0105,0.4921268,1.98741476176,0.0,0.0,0.0,38.4,-5.0,-1.1,0,0,1024,1024,1024,1024,0,0,0,0,0,0,0,70,3.756,3.752,0,0,0,0,4.743,75.92,751.83230030535,31.16798,6,P-GPS,,9.5
438800,2026-01-09 12:44:48,751.83230030535,41.0105,0.0,1.57379598212,8.1144687636,19,5,7.508,761.67482030535,41.0105,0.4921268,1.98741476176,0.0,0.0,0.0,38.4,-4.4,-0.8,0,0,1024,1024,1024,1024,0,0,0,0,0,0,0,70,3.756,3.752,0,0,0,0,4.743,75.92,751.83230030535,31.16798,6,P-GPS,,9.5
438900,2026-01-09 12:44:48,751.83230030535,41.0105,0.0,1.56717196616,8.1267391052,19,5,7.508,761.67482030535,41.0105,0.4921268,1.98741476176,0.0,0.0,0.0,38.4,-3.9,-0.7,0,0,1024,1024,1024,1024,0,0,0,0,0,0,0,70,3.756,3.752,0,0,0,0,4.743,75.92,751.83230030535,31.16798,6,P-GPS,,9.5
439000,2026-01-09 12:44:48,751.83230030535,41.0105,0.0,1.56086291084,8.1403217828,19,5,7.508,761.67482030535,41.0105,0.4921268,1.98741476176,0.0,0.0,0.0,38.0,-2.5,-1.5,0,0,1024,1024,1024,1024,0,0,0,0,0,0,0,70,3.756,3.752,0,0,0,0,4.743,75.92,751.83230030535,31.16798,6,P-GPS,,9.5
439100,2026-01-09 12:44:48,751.83230030535,41.0105,0.0,1.50974742364,8.1981958004,19,5,7.508,761.67482030535,41.0105,0.4921268,1.98741476176,0.0,0.0,0.0,38.0,-2.2,-1.4,0,0,1024,1024,1024,1024,0,0,0,0,0,0,0,70,3.76,3.756,0,0,0,0,4.743,75.92,751.83230030535,31.16798,6,P-GPS,,9.5
439200,2026-01-09 12:44:48,751.83230030535,41.0105,0.0,1.49159125508,8.2417653556,19,5,7.508,761.67482030535,41.0105,0.4921268,1.98741476176,0.0,0.0,0.0,38.1,-2.2,-1.1,0,0,1024,1024,1024,1024,0,0,0,0,0,0,0,70,3.76,3.756,0,0,0,0,4.743,75.92,751.83230030535,31.16798,6,P-GPS,,9.5
439300,2026-01-09 12:44:48,751.83230030535,41.0105,0.0,1.47433075584,8.285105252,19,5,7.508,761.67482030535,41.0105,0.4921268,1.98741476176,0.0,0.0,0.0,38.2,-2.6,-0.7,0,0,1024,1024,1024,1024,0,0,0,0,0,0,0,70,3.76,3.756,0,0,0,0,4.743,75.92,751.83230030535,31.16798,6,P-GPS,,9.5
439400,2026-01-09 12:44:48,751.83230030535,41.0105,0.0,1.46123036172,8.3288716576,19,5,7.508,761.67482030535,41.0105,0.4921268,1.98741476176,0.0,0.0,0.0,38.3,-2.6,-1.0,0,0,1024,1024,1024,1024,0,0,0,0,0,0,0,70,3.76,3.756,0,0,0,0,4.743,75.92,751.83230030535,31.16798,6,P-GPS,,9.5
439500,2026-01-09 12:44:49,751.50421630535,41.0105,0.0,1.43783141084,8.4144687732,19,5,7.508,761.67482030535,41.0105,0.4921268,1.98741476176,0.0,0.0,0.0,38.4,-2.6,-0.8,0,0,1024,1024,1024,1024,0,0,0,0,0,0,0,70,3.76,3.756,0,0,0,0,4.743,75.92,751.50421630535,30.839896,6,P-GPS,,9.4
439600,2026-01-09 12:44:49,751.50421630535,41.0105,0.0,1.43345477028,8.4410107688,19,5,7.508,761.67482030535,41.0105,0.4921268,1.98741476176,0.0,0.0,0.0,38.5,-2.6,-0.5,0,0,1024,1024,1024,1024,0,0,0,0,0,0,0,70,3.76,3.756,0,0,0,0,4.743,75.92,751.50421630535,30.839896,6,P-GPS,,9.4
439700,2026-01-09 12:44:49,751.50421630535,41.0105,0.0,1.42810700108,8.4695212684,19,5,7.508,761.67482030535,41.0105,0.4921268,1.98741476176,0.0,0.0,0.0,38.6,-2.6,-0.2,0,0,1024,1024,1024,1024,0,0,0,0,0,0,0,70,3.76,3.756,0,0,0,0,4.743,75.92,751.50421630535,30.839896,6,P-GPS,,9.4
439800,2026-01-09 12:44:49,751.50421630535,41.0105,0.0,1.4238517516,8.5015422668,19,5,7.508,761.67482030535,41.0105,0.4921268,1.98741476176,0.0,0.0,0.0,38.6,-2.2,0.0,0,0,1024,1024,1024,1024,0,0,0,0,0,0,0,70,3.76,3.756,0,0,0,0,4.743,75.92,751.50421630535,30.839896,6,P-GPS,,9.4
439900,2026-01-09 12:44:49,751.50421630535,41.0105,0.0,1.41527563584,8.511155128,19,5,7.508,761.67482030535,41.0105,0.4921268,1.98741476176,0.0,0.0,0.0,38.6,-1.6,0.0,0,0,1024,1024,1024,1024,0,0,0,0,0,0,0,70,3.76,3.756,0,0,0,0,4.743,75.92,751.50421630535,30.839896,6,P-GPS,,9.4
440000,2026-01-09 12:44:49,751.50421630535,41.0105,0.0,1.41524282744,8.5214241572,19,5,7.508,761.67482030535,41.0105,0.4921268,1.98741476176,0.0,0.0,0.0,38.5,-1.3,-0.4,0,0,1024,1024,1024,1024,0,0,0,0,0,0,0,70,3.76,3.756,0,0,0,0,4.743,75.92,751.50421630535,30.839896,6,P-GPS,,9.4
440100,2026-01-09 12:44:49,751.50421630535,41.0105,0.0,1.42095148904,8.5376643152,19,5,7.508,761.67482030535,41.0105,0.4921268,1.98741476176,0.0,0.0,0.0,38.4,-1.3,-0.4,0,0,1024,1024,1024,1024,0,0,0,0,0,0,0,70,3.76,3.756,0,0,0,0,4.743,75.92,751.50421630535,30.839896,6,P-GPS,,9.4
440200,2026-01-09 12:44:49,751.50421630535,41.0105,0.0,1.43291343168,8.560367728,19,5,7.515,761.67482030535,41.0105,0.4921268,1.98741476176,0.0,0.0,0.0,38.3,-1.2,-1.0,0,0,1024,1024,1024,1024,0,0,0,0,0,0,0,70,3.756,3.754,0,0,0,0,4.768,75.92,751.50421630535,30.839896,6,P-GPS,,9.4
440300,2026-01-09 12:44:49,751.50421630535,41.0105,0.0,1.43292655504,8.6039372832,19,5,7.515,761.67482030535,41.0105,0.4921268,1.98741476176,0.0,0.0,0.0,38.4,-1.4,-1.0,0,0,1024,1024,1024,1024,0,0,0,0,0,0,0,70,3.756,3.754,0,0,0,0,4.768,75.92,751.50421630535,30.839896,6,P-GPS,,9.4
440400,2026-01-09 12:44:50,751.50421630535,41.0105,0.0,1.43599414044,8.611220748,19,5,7.515,761.67482030535,41.0105,0.4921268,1.98741476176,0.0,0.0,0.0,38.4,-2.0,-1.2,0,0,1024,1024,1024,1024,0,0,0,0,0,0,0,70,3.756,3.754,0,0,0,0,4.768,75.92,751.50421630535,30.839896,6,P-GPS,,9.4
440500,2026-01-09 12:44:50,751.83230030535,41.0105,0.0,1.44431106984,8.6197181236,19,5,7.515,761.67482030535,41.0105,0.4921268,1.98741476176,0.0,0.0,0.0,38.4,-1.9,-1.6,0,0,1024,1024,1024,1024,0,0,0,0,0,0,0,70,3.756,3.754,0,0,0,0,4.768,75.92,751.83230030535,31.16798,6,P-GPS,,9.5
440600,2026-01-09 12:44:50,751.83230030535,41.0105,0.0,1.45565293372,8.6341210112,19,5,7.515,761.67482030535,41.0105,0.4921268,1.98741476176,0.0,0.0,0.0,38.4,-2.1,-1.9,0,0,1024,1024,1024,1024,0,0,0,0,0,0,0,70,3.756,3.754,0,0,0,0,4.768,75.92,751.83230030535,31.16798,6,P-GPS,,9.5
440700,2026-01-09 12:44:50,751.83230030535,41.0105,0.0,1.47384847236,8.658628886,19,5,7.515,761.67482030535,41.0105,0.4921268,1.98741476176,0.0,0.0,0.0,38.5,-2.5,-1.8,0,0,1024,1024,1024,1024,0,0,0,0,0,0,0,70,3.756,3.754,0,0,0,0,4.768,75.92,751.83230030535,31.16798,6,P-GPS,,9.5
440800,2026-01-09 12:44:50,751.83230030535,41.0105,0.0,1.52986225368,8.7233926676,19,5,7.515,761.67482030535,41.0105,0.4921268,1.98741476176,0.0,0.0,0.0,38.5,-3.0,-1.9,0,0,1024,1024,1024,1024,0,0,0,0,0,0,0,70,3.756,3.754,0,0,0,0,4.768,75.92,751.83230030535,31.16798,6,P-GPS,,9.5
440900,2026-01-09 12:44:50,751.83230030535,41.0105,0.0,1.54923561388,8.7503611724,19,5,7.515,761.67482030535,41.0105,0.4921268,1.98741476176,0.0,0.0,0.0,38.5,-2.8,-2.0,0,0,1024,1024,1024,1024,0,0,0,0,0,0,0,70,3.756,3.754,0,0,0,0,4.768,75.92,751.83230030535,31.16798,6,P-GPS,,9.5
441000,2026-01-09 12:44:50,751.83230030535,41.0105,0.0,1.56512800284,8.7742456876,19,5,7.515,761.67482030535,41.0105,0.4921268,1.98741476176,0.0,0.0,0.0,38.5,-3.0,-2.2,0,0,1024,1024,1024,1024,0,0,0,0,0,0,0,70,3.756,3.754,0,0,0,0,4.768,75.92,751.83230030535,31.16798,6,P-GPS,,9.5
441100,2026-01-09 12:44:50,751.83230030535,41.0105,0.0,1.58103023432,8.8008533,19,5,7.515,761.67482030535,41.0105,0.4921268,1.98741476176,0.0,0.0,0.0,38.5,-3.2,-2.4,0,0,1024,1024,1024,1024,0,0,0,0,0,0,0,70,3.756,3.754,0,0,0,0,4.768,75.92,751.83230030535,31.16798,6,P-GPS,,9.5
441200,2026-01-09 12:44:50,751.83230030535,41.0105,0.0,1.60882879164,8.8406498892,19,5,7.515,761.67482030535,41.0105,0.4921268,1.98741476176,0.0,0.0,0.0,38.6,-3.8,-2.2,0,0,1024,1024,1024,1024,0,0,0,0,0,0,0,70,3.756,3.754,0,0,0,0,4.768,75.92,751.83230030535,31.16798,6,P-GPS,,9.5
441300,2026-01-09 12:44:50,751.83230030535,41.0105,0.0,1.61755910688,8.8583664252,19,5,7.504,761.67482030535,41.0105,0.4921268,1.98741476176,0.0,0.0,0.0,38.6,-5.0,-2.5,0,0,1024,1024,1024,1024,0,0,0,0,0,0,0,70,3.753,3.751,0,0,0,0,4.806,75.92,751.83230030535,31.16798,6,P-GPS,,9.5
441400,2026-01-09 12:44:50,752.16038430535,41.0105,0.0,1.6276083198,8.868438604,19,5,7.504,761.67482030535,41.0105,0.4921268,1.98741476176,0.0,0.0,0.0,38.8,-4.8,-3.3,0,0,1024,1024,1024,1024,0,0,0,0,0,0,0,70,3.753,3.751,0,0,0,0,4.806,75.92,752.16038430535,31.496064,6,P-GPS,,9.6
441500,2026-01-09 12:44:51,752.16038430535,41.0105,0.223694,1.65575464616,8.9003611772,19,5,7.504,761.67482030535,41.0105,0.4921268,1.98741476176,0.0,0.223694,0.0,38.8,-3.4,-4.3,0,0,1024,1024,1024,1024,0,0,0,0,0,0,0,70,3.753,3.751,0,0,0,0,4.806,75.92,752.16038430535,31.496064,6,P-GPS,,9.6
441600,2026-01-09 12:44:51,752.16038430535,41.0105,0.223694,1.68310700924,8.9708336204,19,5,7.504,761.67482030535,41.0105,0.4921268,1.98741476176,0.0,0.223694,0.0,38.5,-1.8,-4.9,0,0,1024,1024,1024,1024,0,0,0,0,0,0,0,70,3.753,3.751,0,0,0,0,4.806,75.92,752.16038430535,31.496064,6,P-GPS,,9.6
441700,2026-01-09 12:44:51,752.16038430535,41.0105,0.223694,1.71877302088,9.0143047504,19,5,7.504,761.67482030535,41.0105,0.4921268,1.98741476176,0.0,0.223694,0.0,38.6,-1.3,-5.1,0,0,1024,1024,1024,1024,0,0,0,0,0,0,0,70,3.753,3.751,0,0,0,0,4.806,75.92,752.16038430535,31.496064,6,P-GPS,,9.6
441800,2026-01-09 12:44:51,752.48846830535,41.0105,0.223694,1.74908470164,9.050525224,19,5,7.504,761.67482030535,41.0105,0.4921268,1.98741476176,0.0,0.223694,0.0,38.4,-0.9,-5.6,0,0,1024,1024,1024,1024,0,0,0,0,0,0,0,70,3.753,3.751,0,0,0,0,4.806,75.92,752.48846830535,31.824148,6,P-GPS,,9.7
441900,2026-01-09 12:44:51,752.48846830535,41.0105,0.0,1.78152564756,9.083169582,19,5,7.504,761.67482030535,41.0105,0.4921268,1.98741476176,0.0,0.0,0.0,38.4,-1.0,-5.1,0,0,1024,1024,1024,1024,0,0,0,0,0,0,0,70,3.753,3.751,0,0,0,0,4.806,75.92,752.48846830535,31.824148,6,P-GPS,,9.7
442000,2026-01-09 12:44:51,752.48846830535,41.0105,0.0,1.84455058396,9.1514438624,19,5,7.504,761.67482030535,41.0105,0.4921268,1.98741476176,0.0,0.0,0.0,38.5,-1.7,-4.6,0,0,1024,1024,1024,1024,0,0,0,0,0,0,0,70,3.753,3.751,0,0,0,0,4.806,75.92,752.48846830535,31.824148,6,P-GPS,,9.7
442100,2026-01-09 12:44:51,752.81655230535,41.0105,0.0,1.85755583372,9.1651577736,19,5,7.504,761.67482030535,41.0105,0.4921268,1.98741476176,0.0,0.0,0.0,38.5,-1.9,-4.6,0,0,1024,1024,1024,1024,0,0,0,0,0,0,0,70,3.753,3.751,0,0,0,0,4.806,75.92,752.81655230535,32.152232,6,P-GPS,,9.8
442200,2026-01-09 12:44:51,752.81655230535,41.0105,0.0,1.85704402268,9.1848100052,19,5,7.504,761.67482030535,41.0105,0.4921268,1.98741476176,0.0,0.0,0.0,38.4,-2.0,-4.6,0,0,1024,1024,1024,1024,0,0,0,0,0,0,0,70,3.753,3.751,0,0,0,0,4.806,75.92,752.81655230535,32.152232,6,P-GPS,,9.8
442300,2026-01-09 12:44:51,752.81655230535,41.0105,0.0,1.84729664704,9.201279822,19,5,7.504,761.67482030535,41.0105,0.4921268,1.98741476176,0.0,0.0,0.0,38.7,-3.0,-3.9,0,0,1024,1024,1024,1024,0,0,0,0,0,0,0,70,3.753,3.751,0,0,0,0,4.806,75.92,752.81655230535,32.152232,6,P-GPS,,9.8
442400,2026-01-09 12:44:51,753.14463630535,41.0105,0.0,1.83440950752,9.2185698488,19,5,7.49,761.67482030535,41.0105,0.4921268,1.98741476176,0.0,0.0,0.0,38.7,-2.7,-3.7,0,0,1024,1024,1024,1024,0,0,0,0,0,0,0,70,3.747,3.744,0,0,0,0,5.248,75.92,753.14463630535,32.480316,6,P-GPS,,9.9
442500,2026-01-09 12:44:52,753.14463630535,41.0105,0.0,1.82275924468,9.2720147324,19,5,7.49,761.67482030535,41.0105,0.4921268,1.98741476176,0.0,0.0,0.0,38.7,-1.7,-3.7,0,0,1024,1024,1024,1024,0,0,0,0,0,0,0,70,3.747,3.744,0,0,0,0,5.248,75.92,753.14463630535,32.480316,6,P-GPS,,9.9
442600,2026-01-09 12:44:52,753.14463630535,41.0105,0.0,1.80730976912,9.2936682764,19,5,7.49,761.67482030535,41.0105,0.4921268,1.98741476176,0.0,0.0,0.0,38.5,-1.2,-4.0,0,0,1024,1024,1024,1024,0,0,0,0,0,0,0,70,3.747,3.744,0,0,0,0,5.248,75.92,753.14463630535,32.480316,6,P-GPS,,9.9
442700,2026-01-09 12:44:52,753.14463630535,41.0105,0.0,1.79214900748,9.3091210328,19,5,7.49,761.67482030535,41.0105,0.4921268,1.98741476176,0.0,0.0,0.0,38.5,-0.7,-4.0,0,0,1024,1024,1024,1024,0,0,0,0,0,0,0,70,3.747,3.744,0,0,0,0,5.248,75.92,753.14463630535,32.480316,6,P-GPS,,9.9
442800,2026-01-09 12:44:52,753.14463630535,41.0105,0.0,1.77315294388,9.3301512172,19,5,7.49,761.67482030535,41.0105,0.4921268,1.98741476176,0.0,0.0,0.0,38.4,-0.4,-4.3,0,0,1024,1024,1024,1024,0,0,0,0,0,0,0,70,3.747,3.744,0,0,0,0,5.248,75.92,753.14463630535,32.480316,6,P-GPS,,9.9
442900,2026-01-09 12:44:52,753.14463630535,41.0105,0.0,1.752214623,9.3521656536,19,5,7.49,761.67482030535,41.0105,0.4921268,1.98741476176,0.0,0.0,0.0,38.5,-0.9,-3.9,0,0,1024,1024,1024,1024,0,0,0,0,0,0,0,70,3.747,3.744,0,0,0,0,5.248,75.92,753.14463630535,32.480316,6,P-GPS,,9.9
443000,2026-01-09 12:44:52,753.14463630535,41.0105,0.0,1.72671593452,9.3780842896,19,5,7.49,761.67482030535,41.0105,0.4921268,1.98741476176,0.0,0.0,0.0,38.5,-1.4,-3.4,0,0,1024,1024,1024,1024,0,0,0,0,0,0,0,70,3.747,3.744,0,0,0,0,5.248,75.92,753.14463630535,32.480316,6,P-GPS,,9.9
443100,2026-01-09 12:44:52,753.14463630535,41.0105,0.0,1.69938653732,9.405676154,19,5,7.49,761.67482030535,41.0105,0.4921268,1.98741476176,0.0,0.0,0.0,38.6,-2.0,-3.0,0,0,1024,1024,1024,1024,0,0,0,0,0,0,0,70,3.747,3.744,0,0,0,0,5.248,75.92,753.14463630535,32.480316,6,P-GPS,,9.9
443200,2026-01-09 12:44:52,753.14463630535,41.0105,0.0,1.67164703512,9.4372050264,19,5,7.49,761.67482030535,41.0105,0.4921268,1.98741476176,0.0,0.0,0.0,38.6,-1.9,-3.1,0,0,1024,1024,1024,1024,0,0,0,0,0,0,0,70,3.747,3.744,0,0,0,0,5.248,75.92,753.14463630535,32.480316,6,P-GPS,,9.9
