time(millisecond),timestamp,altitude_above_seaLevel(feet),height_sonar(feet),speed(mph),distance(feet),mileage(feet),satellites,gpslevel,voltage(v),max_altitude(feet),max_ascent(feet),max_speed(mph),max_distance(feet), xSpeed(mph), ySpeed(mph), zSpeed(mph), compass_heading(degrees), pitch(degrees), roll(degrees),isPhoto,isVideo,rc_elevator,rc_aileron,rc_throttle,rc_rudder,rc_elevator(percent),rc_aileron(percent),rc_throttle(percent),rc_rudder(percent),gimbal_heading(degrees),gimbal_pitch(degrees),gimbal_roll(degrees),battery_percent,voltageCell1,voltageCell2,voltageCell3,voltageCell4,voltageCell5,voltageCell6,current(A),battery_temperature(f),altitude(feet),ascent(feet),flycStateRaw,flycState,message,height_above_takeoff(meters)
0,2026-01-09 12:36:45,720.98977110317,0.328084,0.0,0.0,0.0,16,5,0.0,720.98977110317,0.0,0.0,0.0,0.0,0.0,0.0,44.1,2.8,0.5,0,0,1024,1024,1024,1024,0,0,0,0,0,0,0,98,4.066,4.059,0,0,0,0,0.0,61.34,720.98977110317,0.0,41,Motors_Started,SD card speed low SD card speed low. Normal use may be affected. Replace SD card (Code: 10028). Gimbal stuck. Make sure gimbal cover is removed and manually check whether gimbal can rotate freely (Code: 40002),0.0
100,2026-01-09 12:36:45,720.98977110317,0.328084,0.0,0.030649443238,0.030649443238,16,5,0.0,720.98977110317,0.0,0.0,0.030649443238,0.0,0.0,0.0,44.0,2.7,0.4,0,0,1024,1024,1024,1024,0,0,0,0,0,0,0,98,4.066,4.059,0,0,0,0,0.0,61.34,720.98977110317,0.0,41,Motors_Started,,0.0
200,2026-01-09 12:36:45,720.98977110317,0.328084,0.0,0.052434712964,0.053206366532,16,5,0.0,720.98977110317,0.0,0.0,0.052434712964,0.0,0.0,0.0,44.0,2.7,0.4,0,0,1024,1024,1024,1024,0,0,0,0,0,0,0,98,4.066,4.059,0,0,0,0,0.0,61.34,720.98977110317,0.0,41,Motors_Started,,0.0
300,2026-01-09 12:36:45,720.98977110317,0.328084,0.0,0.08372375596,0.085818244216,16,5,0.0,720.98977110317,0.0,0.0,0.08372375596,0.0,0.0,0.0,44.0,2.8,0.5,0,0,1024,1024,1024,1024,0,0,0,0,0,0,0,98,4.066,4.059,0,0,0,0,0.0,61.34,720.98977110317,0.0,41,Motors_Started,,0.0
400,2026-01-09 12:36:45,720.98977110317,0.328084,0.0,0.122527234892,0.125556434464,16,5,0.0,720.98977110317,0.0,0.0,0.122527234892,0.0,0.0,0.0,43.9,2.8,0.5,0,0,1024,1024,1024,1024,0,0,0,0,0,0,0,98,4.066,4.059,0,0,0,0,0.0,61.34,720.98977110317,0.0,41,Motors_Started,,0.0
500,2026-01-09 12:36:45,720.98977110317,0.328084,0.0,0.139225398156,0.142693246036,16,5,0.0,720.98977110317,0.0,0.0,0.139225398156,0.0,0.0,0.0,43.8,2.7,0.5,0,0,1024,1024,1024,1024,0,0,0,0,0,0,0,98,4.066,4.059,0,0,0,0,0.0,61.34,720.98977110317,0.0,41,Motors_Started,,0.0
600,2026-01-09 12:36:45,720.98977110317,0.328084,0.0,0.13389764208,0.16582021528,16,5,0.0,720.98977110317,0.0,0.0,0.139225398156,0.0,0.0,0.0,43.8,2.8,0.4,0,0,1024,1024,1024,1024,0,0,0,0,0,0,0,98,4.066,4.059,0,0,0,0,0.0,61.34,720.98977110317,0.0,41,Motors_Started,Setting new Return-To-Home altitude to 90m (295 ft). Data Recorder File Index is 31. Setting new Maximum Flight Altitude to 90m (295 ft),0.0
700,2026-01-09 12:36:45,720.98977110317,0.328084,0.0,0.156343180856,0.188271331484,16,5,0.0,720.98977110317,0.0,0.0,0.156343180856,0.0,0.0,0.0,43.9,2.7,0.5,0,0,1024,1024,1024,1024,0,0,0,0,0,0,0,98,4.066,4.059,0,0,0,0,0.0,61.34,720.98977110317,0.0,41,Motors_Started,,0.0
800,2026-01-09 12:36:45,720.98977110317,0.328084,0.0,0.18888288006,0.220812671108,16,5,0.0,720.98977110317,0.0,0.0,0.18888288006,0.0,0.0,0.0,43.9,2.7,0.5,0,0,1024,1024,1024,1024,0,0,0,0,0,0,0,98,4.066,4.059,0,0,0,0,0.0,61.34,720.98977110317,0.0,41,Motors_Started,,0.0
900,2026-01-09 12:36:46,720.98977110317,0.328084,0.0,0.214601056736,0.246534456708,16,5,0.0,720.98977110317,0.0,0.0,0.214601056736,0.0,0.0,0.0,43.9,2.7,0.4,0,0,1024,1024,1024,1024,0,0,0,0,0,0,0,98,4.066,4.059,0,0,0,0,0.0,61.34,720.98977110317,0.0,41,Motors_Started,,0.0
1000,2026-01-09 12:36:46,720.98977110317,0.328084,0.0,0.250537081508,0.282809064168,16,5,0.0,720.98977110317,0.0,0.0,0.250537081508,0.0,0.0,0.0,43.9,2.7,0.4,0,0,1024,1024,1024,1024,0,0,0,0,0,0,0,98,4.066,4.059,0,0,0,0,0.0,61.34,720.98977110317,0.0,41,Motors_Started,,0.0
1100,2026-01-09 12:36:46,720.98977110317,0.328084,0.0,0.270226714684,0.302592857452,16,5,0.0,720.98977110317,0.0,0.0,0.270226714684,0.0,0.0,0.0,43.8,2.8,0.5,0,0,1024,1024,1024,1024,0,0,0,0,0,0,0,98,4.066,4.059,0,0,0,0,0.0,61.34,720.98977110317,0.0,11,AutoTakeoff,,0.0
1200,2026-01-09 12:36:46,720.98977110317,0.328084,0.0,0.289414707424,0.321937674344,16,5,0.0,720.98977110317,0.0,0.0,0.289414707424,0.0,0.0,0.0,43.8,2.7,0.5,0,0,1024,1024,1024,1024,0,0,0,0,0,0,0,98,4.066,4.059,0,0,0,0,0.0,61.34,720.98977110317,0.0,11,AutoTakeoff,,0.0
1300,2026-01-09 12:36:46,720.98977110317,0.328084,0.0,0.293824484468,0.326792333292,16,5,0.0,720.98977110317,0.0,0.0,0.293824484468,0.0,0.0,0.0,43.7,2.7,0.4,0,0,1024,1024,1024,1024,0,0,0,0,0,0,0,98,4.066,4.059,0,0,0,0,0.0,61.34,720.98977110317,0.0,11,AutoTakeoff,,0.0
1400,2026-01-09 12:36:46,720.98977110317,0.328084,0.0,0.245736228336,0.37505578628,16,5,0.0,720.98977110317,0.0,0.0,0.293824484468,0.0,0.0,0.0,43.7,2.7,0.4,0,0,1024,1024,1024,1024,0,0,0,0,0,0,0,98,4.066,4.059,0,0,0,0,0.0,61.34,720.98977110317,0.0,11,AutoTakeoff,,0.0
1500,2026-01-09 12:36:46,720.98977110317,0.328084,0.0,0.25130742274,0.38076116704,16,5,0.0,720.98977110317,0.0,0.0,0.293824484468,0.0,0.0,0.0,43.9,2.7,0.4,0,0,1024,1024,1024,1024,0,0,0,0,0,0,0,98,4.066,4.059,0,0,0,0,0.0,61.34,720.98977110317,0.0,11,AutoTakeoff,,0.0
1600,2026-01-09 12:36:46,720.98977110317,0.328084,0.0,0.25946851224,0.38897967124,16,5,8.179,720.98977110317,0.0,0.0,0.293824484468,0.0,0.0,0.0,44.4,2.8,0.4,0,0,1024,1024,1024,1024,0,0,0,0,0,0,0,98,4.066,4.059,0,0,0,0,0.875,61.34,720.98977110317,0.0,11,AutoTakeoff,,0.0
1700,2026-01-09 12:36:46,720.98977110317,0.328084,0.0,0.264345808984,0.39959318864,16,5,8.179,720.98977110317,0.0,0.0,0.293824484468,0.0,0.0,0.0,45.2,3.2,0.8,0,0,1024,1024,1024,1024,0,0,0,0,0,0,0,98,4.066,4.059,0,0,0,0,0.875,61.34,720.98977110317,0.0,11,AutoTakeoff,,0.0
1800,2026-01-09 12:36:46,720.98977110317,0.328084,0.223694,0.265134194836,0.44368111656,16,5,8.179,720.98977110317,0.0,0.223694,0.293824484468,-0.223694,0.0,0.0,45.9,3.4,1.5,0,0,1024,1024,1024,1024,0,0,0,0,0,0,0,98,4.066,4.059,0,0,0,0,0.875,61.34,720.98977110317,0.0,11,AutoTakeoff,,0.0
1900,2026-01-09 12:36:47,720.98977110317,0.328084,0.447388,0.23553314402,0.47952101272,16,5,8.179,720.98977110317,0.0,0.447388,0.293824484468,-0.447388,0.0,-0.223694,47.1,3.4,1.7,0,0,1024,1024,1024,1024,0,0,0,0,0,0,0,98,4.066,4.059,0,0,0,0,0.875,61.34,720.98977110317,0.0,11,AutoTakeoff,,0.0
2000,2026-01-09 12:36:47,720.98977110317,0.328084,0.671082,0.1810941659,0.54405513552,16,5,8.179,720.98977110317,0.0,0.671082,0.293824484468,-0.671082,0.0,-0.447388,47.2,2.0,-0.2,0,0,1024,1024,1024,1024,0,0,0,0,0,0,0,98,4.066,4.059,0,0,0,0,0.875,61.34,720.98977110317,0.0,11,AutoTakeoff,,0.0
2100,2026-01-09 12:36:47,721.31785510317,0.656168,0.671082,0.118079400104,0.63342193628,16,5,8.179,721.31785510317,0.328084,0.671082,0.293824484468,-0.671082,0.0,-0.894776,46.9,-0.5,-2.1,0,0,1024,1024,1024,1024,0,0,0,0,0,0,0,98,4.066,4.059,0,0,0,0,0.875,61.34,721.31785510317,0.328084,11,AutoTakeoff,,0.1
2200,2026-01-09 12:36:47,721.31785510317,0.656168,0.671082,0.10617946534,0.73096130948,16,5,8.179,721.31785510317,0.328084,0.671082,0.293824484468,-0.671082,0.0,-1.11847,46.9,-0.9,-2.4,0,0,1024,1024,1024,1024,0,0,0,0,0,0,0,98,4.066,4.059,0,0,0,0,0.875,61.34,721.31785510317,0.328084,11,AutoTakeoff,,0.1
2300,2026-01-09 12:36:47,721.64593910317,0.656168,0.447388,0.169604992304,0.82503939648,16,5,8.179,721.64593910317,0.656168,0.671082,0.293824484468,-0.447388,0.0,-1.342164,47.1,-1.5,-2.5,0,0,1024,1024,1024,1024,0,0,0,0,0,0,0,98,4.066,4.059,0,0,0,0,0.875,61.34,721.64593910317,0.656168,11,AutoTakeoff,,0.2
2400,2026-01-09 12:36:47,721.64593910317,0.984252,0.447388,0.245934719156,0.90392391344,16,5,8.179,721.64593910317,0.656168,0.671082,0.293824484468,-0.447388,0.0,-1.565858,47.2,-2.0,-3.1,0,0,1024,1024,1024,1024,0,0,0,0,0,0,0,98,4.066,4.059,0,0,0,0,0.875,61.34,721.64593910317,0.656168,11,AutoTakeoff,,0.2
2500,2026-01-09 12:36:47,721.97402310317,1.312336,0.223694,0.32991142788,0.98798887676,16,5,8.179,721.97402310317,0.984252,0.671082,0.32991142788,-0.223694,0.0,-1.789552,47.3,-1.4,-3.1,0,0,1024,1024,1024,1024,0,0,0,0,0,0,0,98,4.066,4.059,0,0,0,0,0.875,61.34,721.97402310317,0.984252,11,AutoTakeoff,,0.3
2600,2026-01-09 12:36:47,722.30210710317,1.312336,0.3131716,0.41940946224,1.07756565128,16,5,8.179,722.30210710317,1.312336,0.671082,0.41940946224,-0.223694,0.223694,-2.013246,47.2,-1.3,-3.0,0,0,1024,1024,1024,1024,0,0,0,0,0,0,0,98,4.066,4.059,0,0,0,0,0.875,61.34,722.30210710317,1.312336,11,AutoTakeoff,,0.4
2700,2026-01-09 12:36:47,722.63019110317,1.64042,0.3131716,0.6469488396,1.31387143312,16,5,7.82,722.63019110317,1.64042,0.671082,0.6469488396,-0.223694,0.223694,-2.23694,47.1,-1.2,-3.0,0,0,1024,1024,1024,1024,0,0,0,0,0,0,0,98,3.916,3.91,0,0,0,0,5.003,61.34,722.63019110317,1.64042,11,AutoTakeoff,Home Point updated. RTH altitude adjusted to 90 m (Code: 120852),0.5
2800,2026-01-09 12:36:47,723.28635910317,1.968504,0.223694,0.74780842288,1.4147310164,16,5,7.82,723.28635910317,2.296588,0.671082,0.74780842288,0.0,0.223694,-2.23694,47.0,-1.2,-3.3,0,0,1024,1024,1024,1024,0,0,0,0,0,0,0,98,3.916,3.91,0,0,0,0,5.003,61.34,723.28635910317,2.296588,11,AutoTakeoff,,0.7
2900,2026-01-09 12:36:48,723.61444310317,2.296588,0.223694,0.83838913444,1.50633535004,16,5,7.82,723.61444310317,2.624672,0.671082,0.83838913444,0.0,0.223694,-2.23694,46.9,-0.1,-3.2,0,0,1024,1024,1583,1024,0,0,85,0,0,0,0,98,3.916,3.91,0,0,0,0,5.003,61.34,723.61444310317,2.624672,11,AutoTakeoff,,0.8
3000,2026-01-09 12:36:48,723.94252710317,2.624672,0.223694,0.9271161714,1.5972605498,15,5,7.82,723.94252710317,2.952756,0.671082,0.9271161714,0.0,0.223694,-2.013246,46.9,0.6,-3.2,0,0,1024,1024,1684,1024,0,0,100,0,0,0,0,98,3.916,3.91,0,0,0,0,5.003,61.34,723.94252710317,2.952756,11,AutoTakeoff,,0.9
3100,2026-01-09 12:36:48,724.27061110317,2.952756,0.0,0.92313323164,1.63432091844,15,5,7.82,724.27061110317,3.28084,0.671082,0.9271161714,0.0,0.0,-2.23694,47.2,0.9,-2.0,0,0,1024,1024,1684,1024,0,0,100,0,0,0,0,98,3.916,3.91,0,0,0,0,5.003,61.34,724.27061110317,3.28084,6,P-GPS,,1.0
3200,2026-01-09 12:36:48,724.59869510317,3.28084,0.0,0.92804136828,1.64042984252,16,5,7.82,724.59869510317,3.608924,0.671082,0.92804136828,0.0,0.0,-2.460634,47.3,1.0,-1.9,0,0,1390,1024,1684,1024,55,0,100,0,0,0,0,98,3.916,3.91,0,0,0,0,5.003,61.34,724.59869510317,3.608924,6,P-GPS,,1.1
3300,2026-01-09 12:36:48,725.25486310317,3.608924,0.0,0.95896000444,1.68399283604,16,5,7.82,725.25486310317,4.265092,0.671082,0.95896000444,0.0,0.0,-3.131716,47.3,0.8,-2.4,0,0,1581,1024,1684,1024,84,0,100,0,0,0,0,98,3.916,3.91,0,0,0,0,5.003,61.34,725.25486310317,4.265092,6,P-GPS,,1.3
3400,2026-01-09 12:36:48,725.58294710317,4.265092,0.0,1.00651906108,1.750492182,16,5,7.82,725.58294710317,4.593176,0.671082,1.00651906108,0.0,0.0,-3.579104,47.3,0.0,-2.4,0,0,1637,1024,1684,1024,93,0,100,0,0,0,0,98,3.916,3.91,0,0,0,0,5.003,61.34,725.58294710317,4.593176,6,P-GPS,,1.4
3500,2026-01-09 12:36:48,726.23911510317,4.92126,0.0,0.9832513438,1.884596517,16,5,7.82,726.23911510317,5.249344,0.671082,1.00651906108,0.0,0.0,-3.802798,47.6,-7.2,-2.9,0,0,1251,1024,1684,1024,34,0,100,0,0,0,0,98,3.916,3.91,0,0,0,0,5.003,61.34,726.23911510317,5.249344,6,P-GPS,,1.6
3600,2026-01-09 12:36:48,726.89528310317,5.577428,0.3131716,0.97505908632,1.8993931054,16,5,7.82,726.89528310317,5.905512,0.671082,1.00651906108,0.223694,0.223694,-4.026492,47.7,-12.3,-2.3,0,0,1251,1024,1684,1024,34,0,100,0,0,0,0,98,3.916,3.91,0,0,0,0,5.003,61.34,726.89528310317,5.905512,6,P-GPS,,1.8
3700,2026-01-09 12:36:48,727.55145110317,6.233596,0.8052984,0.98201774796,1.97935701872,16,5,7.82,727.55145110317,6.56168,0.8052984,1.00651906108,0.671082,0.447388,-4.250186,47.2,-13.2,-1.8,0,0,1024,1024,1684,1024,0,0,100,0,0,0,0,98,3.916,3.91,0,0,0,0,5.003,61.34,727.55145110317,6.56168,6,P-GPS,,2.0
3800,2026-01-09 12:36:48,728.20761910317,6.889764,1.2974252,1.00471459908,2.14084324436,17,5,7.82,728.20761910317,7.217848,1.2974252,1.00651906108,1.11847,0.671082,-4.47388,45.5,-4.3,-1.7,0,0,1024,1024,1684,1024,0,0,100,0,0,0,0,98,3.916,3.91,0,0,0,0,5.003,61.34,728.20761910317,7.217848,6,P-GPS,,2.2
3900,2026-01-09 12:36:49,728.86378710317,7.545932,1.4987498,1.04935042728,2.3334810458,17,5,7.735,728.86378710317,7.874016,1.4987498,1.04935042728,1.342164,0.671082,-4.47388,44.1,5.3,-1.7,0,0,1024,1024,1684,1024,0,0,100,0,0,0,0,98,3.869,3.865,0,0,0,0,6.239,61.52,728.86378710317,7.874016,6,P-GPS,,2.4
4000,2026-01-09 12:36:49,729.51995510317,8.2021,1.2974252,0.8972113148,2.56464575136,17,5,7.735,729.51995510317,8.530184,1.4987498,1.04935042728,1.11847,0.671082,-4.47388,43.1,7.1,-1.9,0,0,1024,1024,1684,1024,0,0,100,0,0,0,0,98,3.869,3.865,0,0,0,0,6.239,61.52,729.51995510317,8.530184,6,P-GPS,,2.6
4100,2026-01-09 12:36:49,730.50420710317,8.858268,1.006623,0.95410436124,2.71624352524,17,5,7.735,730.50420710317,9.514436,1.4987498,1.04935042728,0.894776,0.447388,-4.47388,42.1,6.2,-1.6,0,0,1024,1024,1684,1024,0,0,100,0,0,0,0,98,3.869,3.865,0,0,0,0,6.239,61.52,730.50420710317,9.514436,6,P-GPS,,2.9
4200,2026-01-09 12:36:49,731.16037510317,9.514436,0.8052984,1.02608927168,2.8484088838,17,5,7.735,731.16037510317,10.170604,1.4987498,1.04935042728,0.671082,0.447388,-4.47388,41.1,5.4,-1.6,0,0,1632,1024,1684,1024,92,0,100,0,0,0,0,98,3.869,3.865,0,0,0,0,6.239,61.52,731.16037510317,10.170604,6,P-GPS,,3.1
4300,2026-01-09 12:36:49,731.81654310317,10.170604,0.4921268,1.02729990164,2.93608605196,17,5,7.735,731.81654310317,10.826772,1.4987498,1.04935042728,0.447388,0.223694,-4.47388,40.1,4.6,-1.6,0,0,1684,1024,1684,1024,100,0,100,0,0,0,0,98,3.869,3.865,0,0,0,0,6.239,61.52,731.81654310317,10.826772,6,P-GPS,,3.3
4400,2026-01-09 12:36:49,732.47271110317,10.826772,0.3131716,0.93089897992,3.13205062516,17,5,7.735,732.47271110317,11.48294,1.4987498,1.04935042728,0.223694,0.223694,-4.47388,39.3,0.7,-1.3,0,0,1684,1024,1684,1024,100,0,100,0,0,0,0,98,3.869,3.865,0,0,0,0,6.239,61.52,732.47271110317,11.48294,6,P-GPS,,3.5
4500,2026-01-09 12:36:49,733.12887910317,11.48294,0.4921268,0.94175199864,3.15923894624,17,5,7.735,733.12887910317,12.139108,1.4987498,1.04935042728,0.447388,0.223694,-4.47388,38.8,-9.3,-1.2,0,0,1633,1024,1684,1024,92,0,100,0,0,0,0,98,3.869,3.865,0,0,0,0,6.239,61.52,733.12887910317,12.139108,6,P-GPS,,3.7
4600,2026-01-09 12:36:49,733.78504710317,12.139108,0.4921268,1.00481302428,3.2281989222,17,5,7.735,733.78504710317,12.795276,1.4987498,1.04935042728,0.671082,0.223694,-4.250186,38.1,-15.2,-1.1,0,0,1633,1024,1684,1024,92,0,100,0,0,0,0,98,3.869,3.865,0,0,0,0,6.239,61.52,733.78504710317,12.795276,6,P-GPS,,3.9
4700,2026-01-09 12:36:49,734.44121510317,13.12336,1.4987498,1.10894360504,3.348589346,17,5,7.735,734.44121510317,13.451444,1.4987498,1.10894360504,1.342164,0.671082,-4.47388,37.2,-15.8,-1.1,0,0,1444,1024,1684,1024,64,0,100,0,0,0,0,98,3.869,3.865,0,0,0,0,6.239,61.52,734.44121510317,13.451444,6,P-GPS,,4.1
4800,2026-01-09 12:36:49,735.09738310317,13.779528,2.1922012,1.25933731064,3.5067914508,17,5,7.735,735.09738310317,14.107612,2.1922012,1.25933731064,2.013246,0.894776,-4.47388,36.3,-14.6,-1.4,0,0,1024,1024,1684,1024,0,0,100,0,0,0,0,98,3.869,3.865,0,0,0,0,6.239,61.52,735.09738310317,14.107612,6,P-GPS,,4.3
4900,2026-01-09 12:36:50,735.75355110317,14.435696,2.7066974,1.48813653056,3.7779856852,17,5,7.735,735.75355110317,14.76378,2.7066974,1.48813653056,2.460634,1.11847,-4.250186,35.5,-10.1,-1.3,0,0,1024,1024,1684,1024,0,0,100,0,0,0,0,98,3.869,3.865,0,0,0,0,6.239,61.52,735.75355110317,14.76378,6,P-GPS,,4.5
5000,2026-01-09 12:36:50,736.40971910317,15.091864,2.9974996,1.7917815534,4.1182416016,17,5,7.768,736.40971910317,15.419948,2.9974996,1.7917815534,2.684328,1.342164,-4.47388,24.9,5.4,-1.3,0,0,1024,1024,1684,1024,0,0,100,0,0,0,0,98,3.887,3.88,0,0,0,0,5.978,61.52,736.40971910317,15.419948,6,P-GPS,,4.7
5100,2026-01-09 12:36:50,737.06588710317,16.076116,2.7066974,2.15809062024,4.5086287532,17,5,7.768,737.06588710317,16.076116,2.9974996,2.15809062024,2.460634,1.11847,-4.47388,21.2,12.3,-1.7,0,0,1024,1024,1684,1024,0,0,100,0,0,0,0,98,3.887,3.88,0,0,0,0,5.978,61.52,737.06588710317,16.076116,6,P-GPS,,4.9
5200,2026-01-09 12:36:50,738.05013910317,16.732284,1.9908766,2.64323499272,4.9950132832,17,5,7.768,738.05013910317,17.060368,2.9974996,2.64323499272,1.789552,0.894776,-4.47388,23.7,12.3,-1.5,0,0,1024,1024,1684,1024,0,0,100,0,0,0,0,98,3.887,3.88,0,0,0,0,5.978,61.52,738.05013910317,17.060368,6,P-GPS,,5.2
5300,2026-01-09 12:36:50,738.70630710317,17.388452,1.4987498,2.93372384716,5.3091209048,17,5,7.768,738.70630710317,17.716536,2.9974996,2.93372384716,1.342164,0.671082,-4.47388,24.6,10.4,-1.1,0,0,1024,1024,1684,1024,0,0,100,0,0,0,0,98,3.887,3.88,0,0,0,0,5.978,61.52,738.70630710317,17.716536,6,P-GPS,,5.4
5400,2026-01-09 12:36:50,739.36247510317,17.716536,1.006623,3.18107293644,5.5779857428,17,5,7.768,739.36247510317,18.372704,2.9974996,3.18107293644,0.894776,0.447388,-4.47388,24.9,8.6,-1.2,0,0,1024,1024,1684,1024,0,0,100,0,0,0,0,98,3.887,3.88,0,0,0,0,5.978,61.52,739.36247510317,18.372704,6,P-GPS,,5.6
5500,2026-01-09 12:36:50,740.01864310317,20.013124,0.7158208,3.3403544376,5.7476051708,17,5,7.768,740.01864310317,19.028872,2.9974996,3.3403544376,0.671082,0.223694,-4.47388,25.8,6.9,-2.1,0,0,1024,1024,1684,1024,0,0,100,0,0,0,0,98,3.887,3.88,0,0,0,0,5.978,61.52,740.01864310317,19.028872,6,P-GPS,,5.8
5600,2026-01-09 12:36:50,740.67481110317,20.997376,0.4921268,3.4551510292,5.8679791904,17,5,7.768,740.67481110317,19.68504,2.9974996,3.4551510292,0.447388,0.223694,-4.250186,25.6,4.9,-1.6,0,0,1024,1024,1684,1024,0,0,100,0,0,0,0,98,3.887,3.88,0,0,0,0,5.978,61.52,740.67481110317,19.68504,6,P-GPS,,6.0
5700,2026-01-09 12:36:50,741.33097910317,21.653544,0.223694,3.5307087744,6.0585959944,17,5,7.768,741.33097910317,20.341208,2.9974996,3.5307087744,0.223694,0.0,-4.250186,23.9,4.5,-1.1,0,0,1024,1024,1684,1024,0,0,100,0,0,0,0,98,3.887,3.88,0,0,0,0,5.978,61.52,741.33097910317,20.341208,6,P-GPS,,6.2
5800,2026-01-09 12:36:50,741.98714710317,22.309712,0.0,3.4528872496,6.1365815612,17,5,7.768,741.98714710317,20.997376,2.9974996,3.5307087744,0.0,0.0,-4.250186,24.4,4.2,-1.9,0,0,1024,1024,1684,1024,0,0,100,0,0,0,0,98,3.887,3.88,0,0,0,0,5.978,61.52,741.98714710317,20.997376,6,P-GPS,,6.4
5900,2026-01-09 12:36:51,742.64331510317,23.293964,0.0,3.3416339652,6.2610894392,17,5,7.768,742.64331510317,21.653544,2.9974996,3.5307087744,0.0,0.0,-4.250186,26.1,1.6,-2.6,0,0,1024,1024,1684,1024,0,0,100,0,0,0,0,98,3.887,3.88,0,0,0,0,5.978,61.52,742.64331510317,21.653544,6,P-GPS,,6.6
6000,2026-01-09 12:36:51,743.29948310317,23.950132,0.0,3.20844498456,6.4222114916,17,5,7.768,743.29948310317,22.309712,2.9974996,3.5307087744,0.0,0.0,-4.47388,25.6,1.1,-1.8,0,0,1024,1024,1684,1024,0,0,100,0,0,0,0,98,3.887,3.88,0,0,0,0,5.978,61.52,743.29948310317,22.309712,6,P-GPS,,6.8
6100,2026-01-09 12:36:51,743.95565110317,24.6063,0.0,2.97999353368,6.6718506072,17,5,7.75,743.95565110317,22.96588,2.9974996,3.5307087744,0.0,0.0,-4.47388,24.8,1.6,-1.0,0,0,1024,1024,1684,1024,0,0,100,0,0,0,0,98,3.877,3.873,0,0,0,0,5.97,61.52,743.95565110317,22.96588,6,P-GPS,,7.0
6200,2026-01-09 12:36:51,744.61181910317,25.590552,0.0,2.97012476696,6.7517390612,17,5,7.75,744.61181910317,23.622048,2.9974996,3.5307087744,0.0,0.0,-4.47388,24.9,0.8,-1.4,0,0,1024,1024,1684,1024,0,0,100,0,0,0,0,98,3.877,3.873,0,0,0,0,5.97,61.52,744.61181910317,23.622048,6,P-GPS,,7.2
6300,2026-01-09 12:36:51,745.26798710317,26.574804,0.0,2.949967286,6.786581582,17,5,7.75,745.26798710317,24.278216,2.9974996,3.5307087744,0.0,0.0,-4.47388,24.8,0.5,-1.3,0,0,1024,1024,1684,1024,0,0,100,0,0,0,0,98,3.877,3.873,0,0,0,0,5.97,61.52,745.26798710317,24.278216,6,P-GPS,,7.4
6400,2026-01-09 12:36:51,745.92415510317,27.230972,0.0,2.91744759992,6.8191931316,17,5,7.75,745.92415510317,24.934384,2.9974996,3.5307087744,0.0,0.0,-4.47388,24.9,0.5,-1.7,0,0,1024,1024,1684,1024,0,0,100,0,0,0,0,98,3.877,3.873,0,0,0,0,5.97,61.52,745.92415510317,24.934384,6,P-GPS,,7.6
6500,2026-01-09 12:36:51,746.58032310317,27.88714,0.0,2.98037411112,7.1866144032,17,5,7.75,746.58032310317,25.590552,2.9974996,3.5307087744,0.0,0.223694,-4.250186,25.0,0.2,-2.9,0,0,1024,1024,1684,1024,0,0,100,0,0,0,0,98,3.877,3.873,0,0,0,0,5.97,61.52,746.58032310317,25.590552,6,P-GPS,,7.8
6600,2026-01-09 12:36:51,747.23649110317,28.543308,0.0,2.96274287696,7.298884748,17,5,7.75,747.23649110317,26.24672,2.9974996,3.5307087744,0.0,0.0,-4.250186,25.1,-0.2,-3.7,0,0,1024,1024,1684,1024,0,0,100,0,0,0,0,98,3.877,3.873,0,0,0,0,5.97,61.52,747.23649110317,26.24672,6,P-GPS,,8.0
6700,2026-01-09 12:36:51,747.89265910317,31.824148,0.0,2.94167988416,7.3879923624,17,5,7.75,747.89265910317,26.902888,2.9974996,3.5307087744,0.0,0.0,-4.250186,25.2,-0.3,-3.3,0,0,1024,1024,1684,1024,0,0,100,0,0,0,0,98,3.877,3.873,0,0,0,0,5.97,61.52,747.89265910317,26.902888,6,P-GPS,,8.2
6800,2026-01-09 12:36:51,748.54882710317,32.152232,0.0,2.91613198308,7.4670606064,17,5,7.75,748.54882710317,27.559056,2.9974996,3.5307087744,0.0,0.0,-4.250186,25.1,0.0,-3.3,0,0,1024,1024,1684,1024,0,0,100,0,0,0,0,98,3.877,3.873,0,0,0,0,5.97,61.52,748.54882710317,27.559056,6,P-GPS,,8.4
6900,2026-01-09 12:36:52,749.20499510317,32.8084,0.0,2.97234917648,7.580052736,17,5,7.75,749.20499510317,28.215224,2.9974996,3.5307087744,0.0,0.0,-4.250186,25.1,0.2,-2.9,0,0,1024,1024,1684,1024,0,0,100,0,0,0,0,98,3.877,3.873,0,0,0,0,5.97,61.52,749.20499510317,28.215224,6,P-GPS,,8.6
7000,2026-01-09 12:36:52,749.86116310317,33.136484,0.0,2.95426846724,7.6267718976,17,5,7.75,749.86116310317,28.871392,2.9974996,3.5307087744,0.0,0.0,-4.250186,25.1,0.5,-2.7,0,0,1024,1024,1684,1024,0,0,100,0,0,0,0,98,3.877,3.873,0,0,0,0,5.97,61.52,749.86116310317,28.871392,6,P-GPS,,8.8
7100,2026-01-09 12:36:52,750.51733110317,33.464568,0.0,2.9176182036,7.685203658,17,5,7.75,750.51733110317,29.52756,2.9974996,3.5307087744,0.0,0.0,-4.47388,25.1,0.0,-2.8,0,0,1024,1024,1684,1024,0,0,100,0,0,0,0,98,3.877,3.873,0,0,0,0,5.97,61.52,750.51733110317,29.52756,6,P-GPS,,9.0
7200,2026-01-09 12:36:52,751.17349910317,33.792652,0.0,2.86900927816,7.7564635028,17,5,7.754,751.17349910317,30.183728,2.9974996,3.5307087744,0.0,0.0,-4.47388,25.1,0.1,-2.5,0,0,1024,1024,1684,1024,0,0,100,0,0,0,0,98,3.879,3.874,0,0,0,0,5.801,61.52,751.17349910317,30.183728,6,P-GPS,,9.2
7300,2026-01-09 12:36:52,751.82966710317,34.120736,0.0,2.82897974932,7.7965225592,17,5,7.754,751.82966710317,30.839896,2.9974996,3.5307087744,0.0,0.0,-4.47388,25.0,0.2,-2.0,0,0,1024,1024,1684,1024,0,0,100,0,0,0,0,98,3.879,3.874,0,0,0,0,5.801,61.52,751.82966710317,30.839896,6,P-GPS,,9.4
7400,2026-01-09 12:36:52,752.48583510317,34.776904,0.0,2.79795612628,7.9357614088,17,5,7.754,752.48583510317,31.496064,2.9974996,3.5307087744,0.0,0.0,-4.47388,25.0,0.3,-2.5,0,0,1024,1024,1684,1024,0,0,100,0,0,0,0,98,3.879,3.874,0,0,0,0,5.801,61.52,752.48583510317,31.496064,6,P-GPS,,9.6
7500,2026-01-09 12:36:52,753.14200310317,35.433072,0.0,2.7690781726,7.971456948,17,5,7.754,753.14200310317,32.152232,2.9974996,3.5307087744,0.0,0.0,-4.47388,24.9,-0.5,-3.8,0,0,1024,1024,1684,1024,0,0,100,0,0,0,0,98,3.879,3.874,0,0,0,0,5.801,61.52,753.14200310317,32.152232,6,P-GPS,,9.8
7600,2026-01-09 12:36:52,753.79817110317,36.08924,0.0,2.74084982524,8.0236879208,17,5,7.754,753.79817110317,32.8084,2.9974996,3.5307087744,0.0,0.0,-4.47388,25.0,-0.1,-4.1,0,0,1024,1024,1684,1024,0,0,100,0,0,0,0,98,3.879,3.874,0,0,0,0,5.801,61.52,753.79817110317,32.8084,6,P-GPS,,10.0
7700,2026-01-09 12:36:52,754.45433910317,36.745408,0.0,2.71385507372,8.0688650876,17,5,7.754,754.45433910317,33.464568,2.9974996,3.5307087744,0.0,0.0,-4.47388,25.1,0.2,-3.1,0,0,1024,1024,1024,1024,0,0,0,0,0,0,0,98,3.879,3.874,0,0,0,0,5.801,61.52,754.45433910317,33.464568,6,P-GPS,,10.2
7800,2026-01-09 12:36:52,755.11050710317,37.401576,0.0,2.72741478544,8.3638782204,17,5,7.754,755.11050710317,34.120736,2.9974996,3.5307087744,0.0,0.0,-4.250186,25.0,0.3,-3.2,0,0,1024,1024,1024,1024,0,0,0,0,0,0,0,98,3.879,3.874,0,0,0,0,5.801,61.52,755.11050710317,34.120736,6,P-GPS,,10.4
7900,2026-01-09 12:36:53,755.76667510317,38.057744,0.0,2.70036754048,8.4119425264,17,5,7.754,755.76667510317,34.776904,2.9974996,3.5307087744,0.0,0.0,-3.802798,24.9,0.0,-3.8,0,0,1024,1024,1024,1024,0,0,0,0,0,0,0,98,3.879,3.874,0,0,0,0,5.801,61.52,755.76667510317,34.776904,6,P-GPS,,10.6
8000,2026-01-09 12:36:53,756.42284310317,38.713912,0.0,2.66629601708,8.4493769108,17,5,7.754,756.42284310317,35.433072,2.9974996,3.5307087744,0.0,0.0,-3.131716,25.0,0.0,-3.9,0,0,1024,1024,1024,1024,0,0,0,0,0,0,0,98,3.879,3.874,0,0,0,0,5.801,61.52,756.42284310317,35.433072,6,P-GPS,,10.8
8100,2026-01-09 12:36:53,756.75092710317,39.041996,0.0,2.64342856228,8.5002627392,17,5,7.754,756.75092710317,35.761156,2.9974996,3.5307087744,0.0,0.0,-2.460634,24.9,0.2,-4.6,0,0,1024,1024,1024,1024,0,0,0,0,0,0,0,98,3.879,3.874,0,0,0,0,5.801,61.52,756.75092710317,35.761156,6,P-GPS,,10.9
8200,2026-01-09 12:36:53,757.07901110317,39.37008,0.0,2.66763131896,8.7154858432,17,5,7.754,757.07901110317,36.08924,2.9974996,3.5307087744,0.0,0.0,-1.565858,25.0,0.0,-4.9,0,0,1024,1024,1024,1024,0,0,0,0,0,0,0,98,3.879,3.874,0,0,0,0,5.801,61.52,757.07901110317,36.08924,6,P-GPS,,11.0
8300,2026-01-09 12:36:53,757.07901110317,39.37008,0.0,2.64049221048,8.8021000192,17,5,7.919,757.07901110317,36.08924,2.9974996,3.5307087744,0.0,0.0,-0.894776,24.9,-0.2,-5.2,0,0,1024,1024,1024,1024,0,0,0,0,0,0,0,98,3.958,3.961,0,0,0,0,4.526,61.7,757.07901110317,36.08924,6,P-GPS,,11.0
8400,2026-01-09 12:36:53,757.40709510317,39.698164,0.0,2.60235572632,8.8930120956,17,5,7.919,757.40709510317,36.417324,2.9974996,3.5307087744,0.0,0.0,-0.447388,24.9,-0.7,-5.1,0,0,1024,1024,1024,1024,0,0,0,0,0,0,0,98,3.958,3.961,0,0,0,0,4.526,61.7,757.40709510317,36.417324,6,P-GPS,,11.1
8500,2026-01-09 12:36:53,757.40709510317,39.698164,0.0,2.58901583088,8.9613519928,17,5,7.919,757.40709510317,36.417324,2.9974996,3.5307087744,0.0,0.0,-0.223694,25.0,-1.1,-5.0,0,0,1024,1024,1024,1024,0,0,0,0,0,0,0,98,3.958,3.961,0,0,0,0,4.526,61.7,757.40709510317,36.417324,6,P-GPS,,11.1
8600,2026-01-09 12:36:53,757.40709510317,39.698164,0.0,2.65970480952,9.1400265392,17,5,7.919,757.40709510317,36.417324,2.9974996,3.5307087744,0.0,0.0,0.0,25.1,-1.1,-4.5,0,0,1024,1024,1024,1024,0,0,0,0,0,0,0,98,3.958,3.961,0,0,0,0,4.526,61.7,757.40709510317,36.417324,6,P-GPS,,11.1
8700,2026-01-09 12:36:53,757.40709510317,39.698164,0.0,2.65163722396,9.1972115804,17,5,7.919,757.40709510317,36.417324,2.9974996,3.5307087744,0.0,0.0,0.0,25.0,-1.3,-4.2,0,0,1024,1024,1024,1024,0,0,0,0,0,0,0,98,3.958,3.961,0,0,0,0,4.526,61.7,757.40709510317,36.417324,6,P-GPS,,11.1
8800,2026-01-09 12:36:53,757.40709510317,39.698164,0.0,2.6414534966,9.2528218184,17,5,7.919,757.40709510317,36.417324,2.9974996,3.5307087744,0.0,0.0,0.0,25.0,-0.8,-3.9,0,0,1024,1024,1024,1024,0,0,0,0,0,0,0,98,3.958,3.961,0,0,0,0,4.526,61.7,757.40709510317,36.417324,6,P-GPS,,11.1
8900,2026-01-09 12:36:54,757.73517910317,39.698164,0.0,2.6030020518,9.3060042348,17,5,7.919,757.73517910317,36.745408,2.9974996,3.5307087744,0.0,0.0,0.0,25.0,0.0,-3.7,0,0,1024,1024,1024,1024,0,0,0,0,0,0,0,98,3.958,3.961,0,0,0,0,4.526,61.7,757.73517910317,36.745408,6,P-GPS,,11.2
9000,2026-01-09 12:36:54,757.73517910317,39.698164,0.0,2.54617134132,9.371883502,17,5,7.919,757.73517910317,36.745408,2.9974996,3.5307087744,0.0,0.0,0.0,24.9,-0.2,-3.9,0,0,1024,1024,1024,1024,0,0,0,0,0,0,0,98,3.958,3.961,0,0,0,0,4.526,61.7,757.73517910317,36.745408,6,P-GPS,,11.2
9100,2026-01-09 12:36:54,757.73517910317,39.698164,0.0,2.4609252756,9.4739504344,17,5,7.919,757.73517910317,36.745408,2.9974996,3.5307087744,0.0,0.0,0.0,25.0,0.1,-3.8,0,0,1024,1024,1024,1024,0,0,0,0,0,0,0,98,3.958,3.961,0,0,0,0,4.526,61.7,757.73517910317,36.745408,6,P-GPS,,11.2
9200,2026-01-09 12:36:54,757.73517910317,39.698164,0.0,2.41526254448,9.527067234,17,5,7.919,757.73517910317,36.745408,2.9974996,3.5307087744,0.0,0.0,0.0,25.0,-0.8,-3.8,0,0,1024,1024,1024,1024,0,0,0,0,0,0,0,98,3.958,3.961,0,0,0,0,4.526,61.7,757.73517910317,36.745408,6,P-GPS,,11.2
9300,2026-01-09 12:36:54,758.06326310317,39.698164,0.0,2.39041018148,9.55462629,17,5,7.919,758.06326310317,37.073492,2.9974996,3.5307087744,0.0,0.0,0.0,25.1,-1.0,-4.1,0,0,1024,1024,1024,1024,0,0,0,0,0,0,0,98,3.958,3.961,0,0,0,0,4.526,61.7,758.06326310317,37.073492,6,P-GPS,,11.3
9400,2026-01-09 12:36:54,758.06326310317,39.698164,0.0,2.37821858004,9.568077734,17,5,7.84,758.06326310317,37.073492,2.9974996,3.5307087744,0.0,0.0,0.0,25.1,-0.9,-4.5,0,0,1024,1024,1024,1024,0,0,0,0,0,0,0,98,3.917,3.911,0,0,0,0,4.646,61.7,758.06326310317,37.073492,6,P-GPS,,11.3
9500,2026-01-09 12:36:54,758.06326310317,39.698164,0.0,2.38620086376,9.6113192052,17,5,7.84,758.06326310317,37.073492,2.9974996,3.5307087744,0.0,0.0,0.0,25.0,-0.7,-4.9,0,0,1024,1024,1024,1024,0,0,0,0,0,0,0,98,3.917,3.911,0,0,0,0,4.646,61.7,758.06326310317,37.073492,6,P-GPS,,11.3
9600,2026-01-09 12:36:54,758.06326310317,39.698164,0.0,2.38053813392,9.6401249804,17,5,7.84,758.06326310317,37.073492,2.9974996,3.5307087744,0.0,0.0,0.0,25.0,-0.7,-5.4,0,0,1024,1024,1024,1024,0,0,0,0,0,0,0,98,3.917,3.911,0,0,0,0,4.646,61.7,758.06326310317,37.073492,6,P-GPS,,11.3
9700,2026-01-09 12:36:54,758.39134710317,39.698164,0.0,2.38864508956,9.6628283932,17,5,7.84,758.39134710317,37.401576,2.9974996,3.5307087744,0.0,0.0,0.0,25.2,-0.7,-5.4,0,0,1024,1024,1024,1024,0,0,0,0,0,0,0,98,3.917,3.911,0,0,0,0,4.646,61.7,758.39134710317,37.401576,6,P-GPS,,11.4
9800,2026-01-09 12:36:54,758.39134710317,39.698164,0.0,2.40384194044,9.6853349556,17,5,7.84,758.39134710317,37.401576,2.9974996,3.5307087744,0.0,0.0,0.0,25.2,-0.9,-5.8,0,0,1024,1024,1024,1024,0,0,0,0,0,0,0,98,3.917,3.911,0,0,0,0,4.646,61.7,758.39134710317,37.401576,6,P-GPS,,11.4
9900,2026-01-09 12:36:55,758.39134710317,39.698164,0.0,2.48706044704,9.7848756412,17,5,7.84,758.39134710317,37.401576,2.9974996,3.5307087744,0.0,0.0,0.0,25.2,-0.6,-5.6,0,0,1024,1024,1024,1024,0,0,0,0,0,0,0,98,3.917,3.911,0,0,0,0,4.646,61.7,758.39134710317,37.401576,6,P-GPS,,11.4
10000,2026-01-09 12:36:55,758.39134710317,39.698164,0.0,2.50525598568,9.8152234112,17,5,7.84,758.39134710317,37.401576,2.9974996,3.5307087744,0.0,0.0,0.0,25.1,-0.4,-4.9,0,0,1024,1024,1024,1024,0,0,0,0,0,0,0,98,3.917,3.911,0,0,0,0,4.646,61.7,758.39134710317,37.401576,6,P-GPS,,11.4
10100,2026-01-09 12:36:55,758.06326310317,39.698164,0.0,2.52939968724,9.8447181628,17,5,7.84,758.39134710317,37.401576,2.9974996,3.5307087744,0.0,0.0,0.0,25.0,0.0,-4.6,0,0,1024,1024,1024,1024,0,0,0,0,0,0,0,98,3.917,3.911,0,0,0,0,4.646,61.7,758.06326310317,37.073492,6,P-GPS,,11.3
10200,2026-01-09 12:36:55,758.06326310317,39.698164,0.0,2.5579233102,9.8762142268,17,5,7.84,758.39134710317,37.401576,2.9974996,3.5307087744,0.0,0.0,0.0,25.0,0.3,-4.3,0,0,1024,1024,1024,1024,0,0,0,0,0,0,0,98,3.917,3.911,0,0,0,0,4.646,61.7,758.06326310317,37.073492,6,P-GPS,,11.3
10300,2026-01-09 12:36:55,758.06326310317,39.698164,0.0,2.65525270964,9.9750331276,17,5,7.84,758.39134710317,37.401576,2.9974996,3.5307087744,0.0,0.0,0.0,24.9,0.6,-4.2,0,0,1024,1024,1024,1024,0,0,0,0,0,0,0,98,3.917,3.911,0,0,0,0,4.646,61.7,758.06326310317,37.073492,6,P-GPS,,11.3
10400,2026-01-09 12:36:55,758.06326310317,39.698164,0.0,2.68204404908,10.002296908,17,5,7.84,758.39134710317,37.401576,2.9974996,3.5307087744,0.0,0.0,0.0,24.8,0.9,-4.7,0,0,1024,1024,1024,1024,0,0,0,0,0,0,0,98,3.917,3.911,0,0,0,0,4.646,61.7,758.06326310317,37.073492,6,P-GPS,,11.3
10500,2026-01-09 12:36:55,758.06326310317,39.698164,0.0,2.69863197612,10.0190620004,17,5,7.84,758.39134710317,37.401576,2.9974996,3.5307087744,0.0,0.0,0.0,24.8,0.8,-4.6,0,0,1024,1024,1024,1024,0,0,0,0,0,0,0,98,3.908,3.901,0,0,0,0,4.646,61.7,758.06326310317,37.073492,6,P-GPS,,11.3
10600,2026-01-09 12:36:55,758.06326310317,39.698164,0.0,2.70749024412,10.0291341792,17,5,7.84,758.39134710317,37.401576,2.9974996,3.5307087744,0.0,0.0,0.0,24.9,1.1,-4.4,0,0,1024,1024,1024,1024,0,0,0,0,0,0,0,98,3.908,3.901,0,0,0,0,4.646,61.7,758.06326310317,37.073492,6,P-GPS,,11.3
10700,2026-01-09 12:36:55,758.06326310317,39.698164,0.0,2.69508538808,10.0452431036,17,5,7.84,758.39134710317,37.401576,2.9974996,3.5307087744,0.0,0.0,0.0,25.1,0.3,-4.2,0,0,1024,1024,1024,1024,0,0,0,0,0,0,0,98,3.908,3.901,0,0,0,0,4.646,61.7,758.06326310317,37.073492,6,P-GPS,,11.3
10800,2026-01-09 12:36:55,758.39134710317,39.698164,0.0,2.6378609768,10.1074806384,17,5,7.84,758.39134710317,37.401576,2.9974996,3.5307087744,0.0,0.0,0.0,25.2,-0.2,-3.9,0,0,1024,1024,1024,1024,0,0,0,0,0,0,0,98,3.908,3.901,0,0,0,0,4.646,61.7,758.39134710317,37.401576,6,P-GPS,,11.4
10900,2026-01-09 12:36:56,758.39134710317,39.698164,0.0,2.60986228824,10.1500003248,17,5,7.84,758.39134710317,37.401576,2.9974996,3.5307087744,0.0,0.0,0.0,25.1,-0.1,-4.2,0,0,1024,1024,1024,1024,0,0,0,0,0,0,0,98,3.908,3.901,0,0,0,0,4.646,61.7,758.39134710317,37.401576,6,P-GPS,,11.4
11000,2026-01-09 12:36:56,758.39134710317,39.698164,0.0,2.58173564692,10.2001643684,17,5,7.84,758.39134710317,37.401576,2.9974996,3.5307087744,0.0,0.0,0.0,24.8,0.6,-4.8,0,0,1024,1024,1024,1024,0,0,0,0,0,0,0,98,3.908,3.901,0,0,0,0,4.646,61.7,758.39134710317,37.401576,6,P-GPS,,11.4
11100,2026-01-09 12:36:56,758.39134710317,39.698164,0.0,2.56448827104,10.2473428476,17,5,7.84,758.39134710317,37.401576,2.9974996,3.5307087744,0.0,0.0,0.0,24.7,1.6,-4.9,0,0,1024,1024,1024,1024,0,0,0,0,0,0,0,98,3.908,3.901,0,0,0,0,4.646,61.7,758.39134710317,37.401576,6,P-GPS,,11.4
11200,2026-01-09 12:36:56,758.71943110317,39.698164,0.0,2.49302173332,10.3756565,17,5,7.84,758.71943110317,37.72966,2.9974996,3.5307087744,0.0,0.0,0.0,24.7,0.9,-4.9,0,0,1024,1024,1024,1024,0,0,0,0,0,0,0,98,3.908,3.901,0,0,0,0,4.646,61.7,758.71943110317,37.72966,6,P-GPS,,11.5
11300,2026-01-09 12:36:56,758.71943110317,39.698164,0.0,2.48821202188,10.4141735616,17,5,7.84,758.71943110317,37.72966,2.9974996,3.5307087744,0.0,0.0,0.0,24.8,0.0,-5.2,0,0,1024,1024,1024,1024,0,0,0,0,0,0,0,98,3.908,3.901,0,0,0,0,4.646,61.7,758.71943110317,37.72966,6,P-GPS,,11.5
11400,2026-01-09 12:36:56,758.71943110317,39.698164,0.0,2.48589902968,10.4485895732,17,5,7.84,758.71943110317,37.72966,2.9974996,3.5307087744,0.0,0.0,-0.223694,24.8,-0.2,-5.1,0,0,1024,1024,1024,1024,0,0,0,0,0,0,0,98,3.908,3.901,0,0,0,0,4.646,61.7,758.71943110317,37.72966,6,P-GPS,,11.5
11500,2026-01-09 12:36:56,758.71943110317,39.698164,0.0,2.48578091944,10.4747706764,17,5,7.84,758.71943110317,37.72966,2.9974996,3.5307087744,0.0,0.0,0.0,24.9,-0.7,-5.1,0,0,1024,1024,1024,1024,0,0,0,0,0,0,0,98,3.908,3.901,0,0,0,0,4.646,61.7,758.71943110317,37.72966,6,P-GPS,,11.5
11600,2026-01-09 12:36:56,758.71943110317,39.698164,0.0,2.53510834884,10.5446525684,17,5,7.84,758.71943110317,37.72966,2.9974996,3.5307087744,0.0,0.0,0.0,24.9,-1.0,-5.0,0,0,1024,1024,1024,1024,0,0,0,0,0,0,0,98,3.908,3.901,0,0,0,0,4.646,61.7,758.71943110317,37.72966,6,P-GPS,,11.5
11700,2026-01-09 12:36:56,758.71943110317,39.698164,0.0,2.52538393908,10.557250994,17,5,7.84,758.71943110317,37.72966,2.9974996,3.5307087744,0.0,0.0,0.0,24.8,-0.5,-5.2,0,0,1024,1024,1024,1024,0,0,0,0,0,0,0,98,3.908,3.901,0,0,0,0,4.646,61.7,758.71943110317,37.72966,6,P-GPS,,11.5
11800,2026-01-09 12:36:56,758.71943110317,39.698164,0.0,2.50579404344,10.5769032256,17,5,7.84,758.71943110317,37.72966,2.9974996,3.5307087744,0.0,0.0,0.0,24.8,-0.3,-4.1,0,0,1024,1024,1024,1024,0,0,0,0,0,0,0,98,3.908,3.901,0,0,0,0,4.646,61.7,758.71943110317,37.72966,6,P-GPS,,11.5
11900,2026-01-09 12:36:57,758.39134710317,39.698164,0.0,2.48347776976,10.599737872,17,5,7.809,758.71943110317,37.72966,2.9974996,3.5307087744,0.0,0.0,0.0,24.7,-0.2,-4.0,0,0,1024,1024,1024,1024,0,0,0,0,0,0,0,98,3.921,3.914,0,0,0,0,5.055,61.7,758.39134710317,37.401576,6,P-GPS,,11.4
12000,2026-01-09 12:36:57,758.39134710317,39.698164,0.0,2.46205060372,10.6699150396,17,5,7.809,758.71943110317,37.72966,2.9974996,3.5307087744,0.0,0.0,0.0,24.8,-0.8,-3.7,0,0,1024,1024,1024,1024,0,0,0,0,0,0,0,98,3.921,3.914,0,0,0,0,5.055,61.7,758.39134710317,37.401576,6,P-GPS,,11.4
12100,2026-01-09 12:36:57,758.39134710317,39.698164,0.0,2.43025270244,10.7082680592,17,5,7.809,758.71943110317,37.72966,2.9974996,3.5307087744,0.0,0.0,0.0,24.8,-0.9,-3.5,0,0,1024,1024,1024,1024,0,0,0,0,0,0,0,98,3.921,3.914,0,0,0,0,5.055,61.7,758.39134710317,37.401576,6,P-GPS,,11.4
12200,2026-01-09 12:36:57,758.39134710317,39.698164,0.0,2.39560703204,10.7546263284,17,5,7.809,758.71943110317,37.72966,2.9974996,3.5307087744,0.0,0.0,0.0,25.0,-1.7,-3.4,0,0,1024,1024,1024,1024,0,0,0,0,0,0,0,98,3.921,3.914,0,0,0,0,5.055,61.7,758.39134710317,37.401576,6,P-GPS,,11.4
12300,2026-01-09 12:36:57,758.39134710317,39.698164,0.0,2.3629593932,10.7961945712,17,5,7.809,758.71943110317,37.72966,2.9974996,3.5307087744,0.0,0.0,0.0,24.9,-2.3,-3.6,0,0,1024,1024,1024,1024,0,0,0,0,0,0,0,98,3.921,3.914,0,0,0,0,5.055,61.7,758.39134710317,37.401576,6,P-GPS,,11.4
12400,2026-01-09 12:36:57,758.06326310317,39.698164,0.0,2.333661492,10.8326118952,17,5,7.809,758.71943110317,37.72966,2.9974996,3.5307087744,0.0,0.0,0.0,25.0,-2.6,-4.1,0,0,1024,1024,1024,1024,0,0,0,0,0,0,0,98,3.921,3.914,0,0,0,0,5.055,61.7,758.06326310317,37.073492,6,P-GPS,,11.3
12500,2026-01-09 12:36:57,758.06326310317,39.698164,0.0,2.27991149028,10.893044968,17,5,7.809,758.71943110317,37.72966,2.9974996,3.5307087744,0.0,0.0,0.0,24.9,-1.3,-3.8,0,0,1024,1024,1024,1024,0,0,0,0,0,0,0,98,3.921,3.914,0,0,0,0,5.055,61.7,758.06326310317,37.073492,6,P-GPS,,11.3
12600,2026-01-09 12:36:57,758.06326310317,39.698164,0.0,2.26357946876,10.9244097984,17,5,7.809,758.71943110317,37.72966,2.9974996,3.5307087744,0.0,0.0,0.0,25.0,-1.3,-3.7,0,0,1024,1024,1024,1024,0,0,0,0,0,0,0,98,3.921,3.914,0,0,0,0,5.055,61.7,758.06326310317,37.073492,6,P-GPS,,11.3
12700,2026-01-09 12:36:57,758.06326310317,39.698164,0.0,2.25911096468,10.9375659668,17,5,7.809,758.71943110317,37.72966,2.9974996,3.5307087744,0.0,0.0,0.0,25.0,-0.7,-4.0,0,0,1024,1024,1024,1024,0,0,0,0,0,0,0,98,3.921,3.914,0,0,0,0,5.055,61.7,758.06326310317,37.073492,6,P-GPS,,11.3
12800,2026-01-09 12:36:57,758.06326310317,39.698164,0.0,2.26192920624,10.9454071744,17,5,7.809,758.71943110317,37.72966,2.9974996,3.5307087744,0.0,0.0,0.0,25.2,-1.4,-3.9,0,0,1024,1024,1024,1024,0,0,0,0,0,0,0,98,3.921,3.914,0,0,0,0,5.055,61.7,758.06326310317,37.073492,6,P-GPS,,11.3
12900,2026-01-09 12:36:58,758.06326310317,39.698164,0.0,2.28270348512,10.9816932648,17,5,7.809,758.71943110317,37.72966,2.9974996,3.5307087744,0.0,0.0,0.0,25.2,-0.7,-4.4,0,0,1024,1024,1024,1024,0,0,0,0,0,0,0,98,3.921,3.914,0,0,0,0,5.055,61.7,758.06326310317,37.073492,6,P-GPS,,11.3
13000,2026-01-09 12:36:58,758.39134710317,39.698164,0.0,2.30887146496,11.007874368,17,5,7.827,758.71943110317,37.72966,2.9974996,3.5307087744,0.0,0.0,0.0,25.2,-0.4,-4.9,0,0,1024,1024,1024,1024,0,0,0,0,0,0,0,98,3.916,3.909,0,0,0,0,4.696,61.7,758.39134710317,37.401576,6,P-GPS,,11.4
13100,2026-01-09 12:36:58,758.39134710317,39.698164,0.0,2.33374679384,11.0330712192,17,5,7.827,758.71943110317,37.72966,2.9974996,3.5307087744,0.0,0.0,0.0,25.1,-0.2,-5.2,0,0,1024,1024,1024,1024,0,0,0,0,0,0,0,98,3.916,3.909,0,0,0,0,4.696,61.7,758.39134710317,37.401576,6,P-GPS,,11.4
13200,2026-01-09 12:36:58,758.39134710317,39.698164,0.0,2.36078419628,11.0604662332,17,5,7.827,758.71943110317,37.72966,2.9974996,3.5307087744,0.0,0.0,0.0,25.0,0.5,-5.7,0,0,1024,1024,1024,1024,0,0,0,0,0,0,0,98,3.916,3.909,0,0,0,0,4.696,61.7,758.39134710317,37.401576,6,P-GPS,,11.4
13300,2026-01-09 12:36:58,758.39134710317,39.698164,0.0,2.36700138808,11.0810699084,17,5,7.827,758.71943110317,37.72966,2.9974996,3.5307087744,0.0,0.0,0.0,24.9,0.9,-5.8,0,0,1024,1024,1024,1024,0,0,0,0,0,0,0,98,3.916,3.909,0,0,0,0,4.696,61.7,758.39134710317,37.401576,6,P-GPS,,11.4
13400,2026-01-09 12:36:58,758.39134710317,39.698164,0.0,2.38611556192,11.1052825076,17,5,7.827,758.71943110317,37.72966,2.9974996,3.5307087744,0.0,0.0,0.0,24.8,1.7,-6.1,0,0,1024,1024,1024,1024,0,0,0,0,0,0,0,98,3.916,3.909,0,0,0,0,4.696,61.7,758.39134710317,37.401576,6,P-GPS,,11.4
13500,2026-01-09 12:36:58,758.39134710317,39.698164,0.0,2.39414705824,11.1218179412,17,5,7.827,758.71943110317,37.72966,2.9974996,3.5307087744,0.0,0.0,0.0,24.7,1.4,-5.4,0,0,1024,1024,1024,1024,0,0,0,0,0,0,0,98,3.916,3.909,0,0,0,0,4.696,61.7,758.39134710317,37.401576,6,P-GPS,,11.4
13600,2026-01-09 12:36:58,758.39134710317,39.698164,0.0,2.39307422356,11.1409452384,17,5,7.827,758.71943110317,37.72966,2.9974996,3.5307087744,0.0,0.0,0.0,24.9,0.5,-5.3,0,0,1024,1024,1024,1024,0,0,0,0,0,0,0,98,3.916,3.909,0,0,0,0,4.696,61.7,758.39134710317,37.401576,6,P-GPS,,11.4
13700,2026-01-09 12:36:58,758.06326310317,39.698164,0.0,2.35527238508,11.1787733236,17,5,7.827,758.71943110317,37.72966,2.9974996,3.5307087744,0.0,0.0,0.0,25.1,0.7,-5.0,0,0,1024,1024,1024,1024,0,0,0,0,0,0,0,98,3.916,3.909,0,0,0,0,4.696,61.7,758.06326310317,37.073492,6,P-GPS,,11.3
13800,2026-01-09 12:36:58,758.06326310317,39.698164,0.0,2.333661492,11.2088586264,17,5,7.827,758.71943110317,37.72966,2.9974996,3.5307087744,0.0,0.0,0.0,25.3,0.6,-4.4,0,0,1024,1024,1024,1024,0,0,0,0,0,0,0,98,3.916,3.909,0,0,0,0,4.696,61.7,758.06326310317,37.073492,6,P-GPS,,11.3
13900,2026-01-09 12:36:59,758.06326310317,39.698164,0.0,2.31042986396,11.2404531156,17,5,7.827,758.71943110317,37.72966,2.9974996,3.5307087744,0.0,0.0,0.0,25.2,-0.2,-4.1,0,0,1024,1024,1024,1024,0,0,0,0,0,0,0,98,3.916,3.909,0,0,0,0,4.696,61.7,758.06326310317,37.073492,6,P-GPS,,11.3
14000,2026-01-09 12:36:59,758.06326310317,39.698164,0.0,2.2868110968,11.2727693896,17,5,7.827,758.71943110317,37.72966,2.9974996,3.5307087744,0.0,0.0,0.0,25.1,0.1,-4.1,0,0,1024,1024,1024,1024,0,0,0,0,0,0,0,98,3.916,3.909,0,0,0,0,4.696,61.7,758.06326310317,37.073492,6,P-GPS,,11.3
14100,2026-01-09 12:36:59,758.06326310317,39.698164,0.0,2.26735243476,11.3032812016,17,5,7.798,758.71943110317,37.72966,2.9974996,3.5307087744,0.0,0.0,0.0,25.0,0.0,-4.3,0,0,1024,1024,1024,1024,0,0,0,0,0,0,0,98,3.903,3.896,0,0,0,0,4.926,61.88,758.06326310317,37.073492,6,P-GPS,,11.3
14200,2026-01-09 12:36:59,757.73517910317,39.698164,0.0,2.23631240752,11.3397969508,17,5,7.798,758.71943110317,37.72966,2.9974996,3.5307087744,0.0,0.0,0.0,25.0,0.3,-4.3,0,0,1024,1024,1024,1024,0,0,0,0,0,0,0,98,3.903,3.896,0,0,0,0,4.926,61.88,757.73517910317,36.745408,6,P-GPS,,11.2
14300,2026-01-09 12:36:59,757.73517910317,39.698164,0.0,2.21658143576,11.3682418336,17,5,7.798,758.71943110317,37.72966,2.9974996,3.5307087744,0.0,0.0,0.0,24.9,0.7,-4.2,0,0,1024,1024,1024,1024,0,0,0,0,0,0,0,98,3.903,3.896,0,0,0,0,4.926,61.88,757.73517910317,36.745408,6,P-GPS,,11.2
14400,2026-01-09 12:36:59,757.73517910317,39.698164,0.0,2.190944952,11.4024609948,17,5,7.798,758.71943110317,37.72966,2.9974996,3.5307087744,0.0,0.0,0.0,25.0,0.4,-4.0,0,0,1024,1024,1024,1024,0,0,0,0,0,0,0,98,3.903,3.896,0,0,0,0,4.926,61.88,757.73517910317,36.745408,6,P-GPS,,11.2
14500,2026-01-09 12:36:59,757.73517910317,39.698164,0.0,2.17265098816,11.4324478724,17,5,7.798,758.71943110317,37.72966,2.9974996,3.5307087744,0.0,0.0,0.0,24.9,0.1,-3.9,0,0,1024,1024,1024,1024,0,0,0,0,0,0,0,98,3.903,3.896,0,0,0,0,4.926,61.88,757.73517910317,36.745408,6,P-GPS,,11.2
14600,2026-01-09 12:36:59,757.40709510317,39.698164,0.0,2.1754593872,11.442257584,17,5,7.798,758.71943110317,37.72966,2.9974996,3.5307087744,0.0,0.0,0.0,24.8,0.2,-3.7,0,0,1024,1024,1024,1024,0,0,0,0,0,0,0,98,3.903,3.896,0,0,0,0,4.926,61.88,757.40709510317,36.417324,6,P-GPS,,11.1
14700,2026-01-09 12:36:59,757.40709510317,39.698164,0.223694,2.14351712896,11.4979006304,17,5,7.798,758.71943110317,37.72966,2.9974996,3.5307087744,0.0,-0.223694,0.0,24.9,-0.3,-3.3,0,0,1024,1024,1024,1024,0,0,0,0,0,0,0,98,3.903,3.896,0,0,0,0,4.926,61.88,757.40709510317,36.417324,6,P-GPS,,11.1
14800,2026-01-09 12:36:59,757.40709510317,39.698164,0.223694,2.10173235072,11.569718218,17,5,7.798,758.71943110317,37.72966,2.9974996,3.5307087744,0.0,-0.223694,0.0,24.9,-0.8,-3.1,0,0,1024,1024,1024,1024,0,0,0,0,0,0,0,98,3.903,3.896,0,0,0,0,4.926,61.88,757.40709510317,36.417324,6,P-GPS,,11.1
14900,2026-01-09 12:37:00,757.40709510317,39.698164,0.223694,2.06913064364,11.639107984,17,5,7.798,758.71943110317,37.72966,2.9974996,3.5307087744,0.0,-0.223694,0.0,25.0,-1.7,-2.6,0,0,1024,1024,1024,1024,0,0,0,0,0,0,0,98,3.903,3.896,0,0,0,0,4.926,61.88,757.40709510317,36.417324,6,P-GPS,,11.1
15000,2026-01-09 12:37:00,757.40709510317,39.698164,0.223694,2.06465229704,11.7470148116,17,5,7.798,758.71943110317,37.72966,2.9974996,3.5307087744,0.0,-0.223694,0.0,25.0,-1.7,-2.2,0,0,1024,1024,1024,1024,0,0,0,0,0,0,0,98,3.903,3.896,0,0,0,0,4.926,61.88,757.40709510317,36.417324,6,P-GPS,,11.1
15100,2026-01-09 12:37:00,757.07901110317,39.698164,0.223694,2.03454402836,11.813156546,17,5,7.798,758.71943110317,37.72966,2.9974996,3.5307087744,0.0,-0.223694,0.0,24.9,-2.2,-2.0,0,0,1024,1024,1024,1024,0,0,0,0,0,0,0,98,3.903,3.896,0,0,0,0,4.926,61.88,757.07901110317,36.08924,6,P-GPS,,11.0
15200,2026-01-09 12:37:00,757.07901110317,39.698164,0.0,2.004757282,11.8784780704,17,5,7.818,758.71943110317,37.72966,2.9974996,3.5307087744,0.0,0.0,0.0,24.9,-2.4,-2.2,0,0,1024,1024,1024,1024,0,0,0,0,0,0,0,98,3.911,3.907,0,0,0,0,4.773,61.88,757.07901110317,36.08924,6,P-GPS,,11.0
15300,2026-01-09 12:37:00,757.07901110317,39.698164,0.0,1.9879921896,11.9334649488,17,5,7.818,758.71943110317,37.72966,2.9974996,3.5307087744,0.0,0.0,0.0,25.0,-2.4,-2.3,0,0,1024,1024,1024,1024,0,0,0,0,0,0,0,98,3.911,3.907,0,0,0,0,4.773,61.88,757.07901110317,36.08924,6,P-GPS,,11.0
15400,2026-01-09 12:37:00,757.07901110317,39.698164,0.0,1.9846785412,11.9796919844,17,5,7.818,758.71943110317,37.72966,2.9974996,3.5307087744,0.0,0.0,0.0,25.0,-1.9,-2.5,0,0,1024,1024,1024,1024,0,0,0,0,0,0,0,98,3.911,3.907,0,0,0,0,4.773,61.88,757.07901110317,36.08924,6,P-GPS,,11.0
15500,2026-01-09 12:37:00,757.07901110317,39.698164,0.0,1.98663392184,12.017880962,17,5,7.818,758.71943110317,37.72966,2.9974996,3.5307087744,0.0,0.0,0.0,24.9,-1.5,-2.6,0,0,1024,1024,1024,1024,0,0,0,0,0,0,0,98,3.911,3.907,0,0,0,0,4.773,61.88,757.07901110317,36.08924,6,P-GPS,,11.0
15600,2026-01-09 12:37:00,757.07901110317,39.698164,0.0,1.9920932396,12.052657866,17,5,7.818,758.71943110317,37.72966,2.9974996,3.5307087744,0.0,0.0,0.0,25.0,-1.2,-2.4,0,0,1024,1024,1024,1024,0,0,0,0,0,0,0,98,3.911,3.907,0,0,0,0,4.773,61.88,757.07901110317,36.08924,6,P-GPS,,11.0
15700,2026-01-09 12:37:00,757.07901110317,39.698164,0.0,1.99549547068,12.0708337196,17,5,7.818,758.71943110317,37.72966,2.9974996,3.5307087744,0.0,0.0,0.0,24.9,-1.0,-2.3,0,0,1024,1024,1024,1024,0,0,0,0,0,0,0,98,3.911,3.907,0,0,0,0,4.773,61.88,757.07901110317,36.08924,6,P-GPS,,11.0
15800,2026-01-09 12:37:00,757.07901110317,39.698164,0.0,1.99812670436,12.0851709904,17,5,7.818,758.71943110317,37.72966,2.9974996,3.5307087744,0.0,0.0,0.0,24.8,-1.2,-2.2,0,0,1024,1024,1024,1024,0,0,0,0,0,0,0,98,3.911,3.907,0,0,0,0,4.773,61.88,757.07901110317,36.08924,6,P-GPS,,11.0
15900,2026-01-09 12:37:01,757.07901110317,39.698164,0.0,2.01304468384,12.1076447444,17,5,7.818,758.71943110317,37.72966,2.9974996,3.5307087744,0.0,0.0,0.0,24.9,-1.5,-1.9,0,0,1024,1024,1024,1024,0,0,0,0,0,0,0,98,3.911,3.907,0,0,0,0,4.773,61.88,757.07901110317,36.08924,6,P-GPS,,11.0
16000,2026-01-09 12:37:01,757.07901110317,39.698164,0.0,2.0193406158,12.1248035376,17,5,7.818,758.71943110317,37.72966,2.9974996,3.5307087744,0.0,0.0,0.0,24.9,-1.4,-1.6,0,0,1024,1024,1024,1024,0,0,0,0,0,0,0,98,3.911,3.907,0,0,0,0,4.773,61.88,757.07901110317,36.08924,6,P-GPS,,11.0
16100,2026-01-09 12:37:01,757.07901110317,39.698164,0.0,2.0167979648,12.1416014384,17,5,7.818,758.71943110317,37.72966,2.9974996,3.5307087744,0.0,0.0,0.0,25.0,-1.6,-1.7,0,0,1024,1024,1024,1024,0,0,0,0,0,0,0,98,3.911,3.907,0,0,0,0,4.773,61.88,757.07901110317,36.08924,6,P-GPS,,11.0
16200,2026-01-09 12:37:01,757.07901110317,39.698164,0.0,2.0108760486,12.1605646936,17,5,7.818,758.71943110317,37.72966,2.9974996,3.5307087744,0.0,0.0,0.0,24.9,-1.3,-2.4,0,0,1024,1024,1024,1024,0,0,0,0,0,0,0,98,3.911,3.907,0,0,0,0,4.773,61.88,757.07901110317,36.08924,6,P-GPS,,11.0
16300,2026-01-09 12:37:01,757.07901110317,39.698164,0.0,1.94949809388,12.2366473732,17,5,7.818,758.71943110317,37.72966,2.9974996,3.5307087744,0.0,0.0,0.0,25.0,-1.7,-2.3,0,0,1024,1024,1024,1024,0,0,0,0,0,0,0,98,3.911,3.907,0,0,0,0,4.773,61.88,757.07901110317,36.08924,6,P-GPS,,11.0
16400,2026-01-09 12:37:01,757.07901110317,39.698164,0.0,1.94740491796,12.241306166,17,5,7.82,758.71943110317,37.72966,2.9974996,3.5307087744,0.0,0.0,0.0,25.0,-1.4,-2.6,0,0,1024,1024,1024,1024,0,0,0,0,0,0,0,98,3.912,3.908,0,0,0,0,4.61,61.88,757.07901110317,36.08924,6,P-GPS,,11.0
16500,2026-01-09 12:37:01,757.07901110317,39.698164,0.0,1.94741476048,12.2507221768,17,5,7.82,758.71943110317,37.72966,2.9974996,3.5307087744,0.0,0.0,0.0,25.1,-1.4,-2.4,0,0,1024,1024,1024,1024,0,0,0,0,0,0,0,98,3.912,3.908,0,0,0,0,4.61,61.88,757.07901110317,36.08924,6,P-GPS,,11.0
16600,2026-01-09 12:37:01,757.07901110317,39.698164,0.0,1.95074481308,12.2617786076,17,5,7.82,758.71943110317,37.72966,2.9974996,3.5307087744,0.0,0.0,0.0,25.1,-1.7,-2.5,0,0,1024,1024,1024,1024,0,0,0,0,0,0,0,98,3.912,3.908,0,0,0,0,4.61,61.88,757.07901110317,36.08924,6,P-GPS,,11.0
16700,2026-01-09 12:37:01,757.07901110317,39.698164,0.0,1.95631896024,12.2691276892,17,5,7.82,758.71943110317,37.72966,2.9974996,3.5307087744,0.0,0.0,0.0,25.1,-1.3,-2.4,0,0,1024,1024,1024,1024,0,0,0,0,0,0,0,98,3.912,3.908,0,0,0,0,4.61,61.88,757.07901110317,36.08924,6,P-GPS,,11.0
16800,2026-01-09 12:37:01,757.07901110317,39.698164,0.0,1.9696358898,12.2825463248,17,5,7.82,758.71943110317,37.72966,2.9974996,3.5307087744,0.0,0.0,0.0,25.0,-0.7,-2.3,0,0,1024,1024,1024,1024,0,0,0,0,0,0,0,98,3.912,3.908,0,0,0,0,4.61,61.88,757.07901110317,36.08924,6,P-GPS,,11.0
16900,2026-01-09 12:37:02,757.07901110317,39.698164,0.0,1.97844822604,12.3005909448,17,5,7.82,758.71943110317,37.72966,2.9974996,3.5307087744,0.0,0.0,0.0,24.9,-0.2,-2.2,0,0,1024,1024,1024,1024,0,0,0,0,0,0,0,98,3.912,3.908,0,0,0,0,4.61,61.88,757.07901110317,36.08924,6,P-GPS,,11.0
17000,2026-01-09 12:37:02,757.07901110317,39.698164,0.0,1.98547578532,12.323819292,17,5,7.82,758.71943110317,37.72966,2.9974996,3.5307087744,0.0,0.0,0.0,24.9,0.0,-2.2,0,0,1024,1024,1024,1024,0,0,0,0,0,0,0,98,3.912,3.908,0,0,0,0,4.61,61.88,757.07901110317,36.08924,6,P-GPS,,11.0
17100,2026-01-09 12:37:02,757.07901110317,39.698164,0.0,1.97942591636,12.3473757232,17,5,7.82,758.71943110317,37.72966,2.9974996,3.5307087744,0.0,0.0,0.0,24.9,0.1,-2.0,0,0,1024,1024,1024,1024,0,0,0,0,0,0,0,98,3.912,3.908,0,0,0,0,4.61,61.88,757.07901110317,36.08924,6,P-GPS,,11.0
17200,2026-01-09 12:37:02,757.07901110317,39.698164,0.0,1.9851706672,12.3532812352,17,5,7.82,758.71943110317,37.72966,2.9974996,3.5307087744,0.0,0.0,0.0,24.8,0.1,-2.0,0,0,1024,1024,1024,1024,0,0,0,0,0,0,0,98,3.912,3.908,0,0,0,0,4.61,61.88,757.07901110317,36.08924,6,P-GPS,,11.0
17300,2026-01-09 12:37:02,757.07901110317,39.698164,0.0,1.98427499788,12.3604334664,17,5,7.82,758.71943110317,37.72966,2.9974996,3.5307087744,0.0,0.0,0.0,24.8,0.2,-1.9,0,0,1024,1024,1024,1024,0,0,0,0,0,0,0,98,3.912,3.908,0,0,0,0,4.61,61.88,757.07901110317,36.08924,6,P-GPS,,11.0
17400,2026-01-09 12:37:02,757.07901110317,39.698164,0.0,1.9810696172,12.369915094,17,5,7.82,758.71943110317,37.72966,2.9974996,3.5307087744,0.0,0.0,0.0,24.9,0.2,-1.9,0,0,1024,1024,1024,1024,0,0,0,0,0,0,0,98,3.912,3.908,0,0,0,0,4.61,61.88,757.07901110317,36.08924,6,P-GPS,,11.0
17500,2026-01-09 12:37:02,757.07901110317,39.698164,0.0,1.97631896088,12.3775594512,17,5,7.816,758.71943110317,37.72966,2.9974996,3.5307087744,0.0,0.0,0.0,25.0,0.0,-1.9,0,0,1024,1024,1024,1024,0,0,0,0,0,0,0,98,3.908,3.903,0,0,0,0,4.667,61.88,757.07901110317,36.08924,6,P-GPS,,11.0
17600,2026-01-09 12:37:02,757.07901110317,39.698164,0.0,1.934137201,12.4332024976,17,5,7.816,758.71943110317,37.72966,2.9974996,3.5307087744,0.0,0.0,0.0,25.1,0.0,-1.9,0,0,1024,1024,1024,1024,0,0,0,0,0,0,0,98,3.908,3.903,0,0,0,0,4.667,61.88,757.07901110317,36.08924,6,P-GPS,,11.0
17700,2026-01-09 12:37:02,757.07901110317,39.698164,0.0,1.93037735836,12.4392392432,17,5,7.816,758.71943110317,37.72966,2.9974996,3.5307087744,0.0,0.0,0.0,25.0,0.0,-2.0,0,0,1024,1024,1024,1024,0,0,0,0,0,0,0,98,3.908,3.903,0,0,0,0,4.667,61.88,757.07901110317,36.08924,6,P-GPS,,11.0
17800,2026-01-09 12:37:02,757.07901110317,39.698164,0.0,1.9281988806,12.4464570912,17,5,7.816,758.71943110317,37.72966,2.9974996,3.5307087744,0.0,0.0,0.0,25.1,0.1,-2.1,0,0,1024,1024,1024,1024,0,0,0,0,0,0,0,98,3.908,3.903,0,0,0,0,4.667,61.88,757.07901110317,36.08924,6,P-GPS,,11.0
17900,2026-01-09 12:37:03,757.07901110317,39.698164,0.0,1.92056436592,12.4543311072,17,5,7.816,758.71943110317,37.72966,2.9974996,3.5307087744,0.0,0.0,0.0,25.0,0.3,-2.1,0,0,1024,1024,1024,1024,0,0,0,0,0,0,0,98,3.908,3.903,0,0,0,0,4.667,61.88,757.07901110317,36.08924,6,P-GPS,,11.0
18000,2026-01-09 12:37:03,757.07901110317,39.698164,0.0,1.88306108388,12.492290426,17,5,7.816,758.71943110317,37.72966,2.9974996,3.5307087744,0.0,0.0,0.0,25.1,0.0,-2.3,0,0,1024,1024,1024,1024,0,0,0,0,0,0,0,98,3.908,3.903,0,0,0,0,4.667,61.88,757.07901110317,36.08924,6,P-GPS,,11.0
18100,2026-01-09 12:37:03,757.07901110317,39.698164,0.0,1.88053811792,12.4959649668,17,5,7.816,758.71943110317,37.72966,2.9974996,3.5307087744,0.0,0.0,0.0,25.1,0.3,-2.5,0,0,1024,1024,1024,1024,0,0,0,0,0,0,0,98,3.908,3.903,0,0,0,0,4.667,61.88,757.07901110317,36.08924,6,P-GPS,,11.0
18200,2026-01-09 12:37:03,757.07901110317,39.698164,0.0,1.8819390366,12.497375728,17,5,7.816,758.71943110317,37.72966,2.9974996,3.5307087744,0.0,0.0,0.0,25.0,0.7,-2.5,0,0,1024,1024,1024,1024,0,0,0,0,0,0,0,98,3.908,3.903,0,0,0,0,4.667,61.88,757.07901110317,36.08924,6,P-GPS,,11.0
18300,2026-01-09 12:37:03,757.07901110317,39.698164,0.0,1.88450793432,12.5001316336,17,5,7.816,758.71943110317,37.72966,2.9974996,3.5307087744,0.0,0.0,0.0,25.0,1.3,-2.5,0,0,1024,1024,1024,1024,0,0,0,0,0,0,0,98,3.908,3.903,0,0,0,0,4.667,61.88,757.07901110317,36.08924,6,P-GPS,,11.0
18400,2026-01-09 12:37:03,757.07901110317,39.698164,0.0,1.889353735,12.5049872768,17,5,7.816,758.71943110317,37.72966,2.9974996,3.5307087744,0.0,0.0,0.0,24.8,1.5,-2.6,0,0,1024,1024,1024,1024,0,0,0,0,0,0,0,98,3.908,3.903,0,0,0,0,4.667,61.88,757.07901110317,36.08924,6,P-GPS,,11.0
18500,2026-01-09 12:37:03,757.07901110317,39.698164,0.0,1.88392066396,12.5107943636,17,5,7.816,758.71943110317,37.72966,2.9974996,3.5307087744,0.0,0.0,0.0,24.7,1.2,-2.9,0,0,1024,1024,1024,1024,0,0,0,0,0,0,0,98,3.908,3.903,0,0,0,0,4.667,61.88,757.07901110317,36.08924,6,P-GPS,,11.0
18600,2026-01-09 12:37:03,757.07901110317,39.698164,0.0,1.86998365564,12.5248035504,17,5,7.816,758.71943110317,37.72966,2.9974996,3.5307087744,0.0,0.0,0.0,24.9,1.2,-2.0,0,0,1024,1024,1024,1024,0,0,0,0,0,0,0,98,3.904,3.898,0,0,0,0,4.667,61.88,757.07901110317,36.08924,6,P-GPS,,11.0
18700,2026-01-09 12:37:03,757.07901110317,39.698164,0.0,1.8624180386,12.5452431836,17,5,7.816,758.71943110317,37.72966,2.9974996,3.5307087744,0.0,0.0,0.0,24.9,0.6,-2.1,0,0,1024,1024,1024,1024,0,0,0,0,0,0,0,98,3.904,3.898,0,0,0,0,4.667,61.88,757.07901110317,36.08924,6,P-GPS,,11.0
18800,2026-01-09 12:37:04,757.07901110317,39.698164,0.223694,1.87548890516,12.5613192996,17,5,7.816,758.71943110317,37.72966,2.9974996,3.5307087744,-0.223694,0.0,0.0,25.0,-0.6,-2.3,0,0,1024,1024,1024,1024,0,0,0,0,0,0,0,98,3.904,3.898,0,0,0,0,4.667,61.88,757.07901110317,36.08924,6,P-GPS,,11.0
18900,2026-01-09 12:37:04,757.07901110317,39.698164,0.223694,1.87262473184,12.603018776,17,5,7.816,758.71943110317,37.72966,2.9974996,3.5307087744,-0.223694,0.0,0.0,25.1,-1.4,-2.7,0,0,1024,1024,1024,1024,0,0,0,0,0,0,0,98,3.904,3.898,0,0,0,0,4.667,61.88,757.07901110317,36.08924,6,P-GPS,,11.0
19000,2026-01-09 12:37:04,757.40709510317,39.698164,0.0,1.87064310448,12.6464242892,17,5,7.816,758.71943110317,37.72966,2.9974996,3.5307087744,0.0,0.0,0.0,25.1,-1.5,-2.9,0,0,1024,1024,1024,1024,0,0,0,0,0,0,0,98,3.904,3.898,0,0,0,0,4.667,61.88,757.40709510317,36.417324,6,P-GPS,,11.1
19100,2026-01-09 12:37:04,757.40709510317,39.698164,0.0,1.86944559788,12.6900266528,17,5,7.816,758.71943110317,37.72966,2.9974996,3.5307087744,0.0,0.0,0.0,25.1,-1.5,-3.0,0,0,1024,1024,1024,1024,0,0,0,0,0,0,0,98,3.904,3.898,0,0,0,0,4.667,61.88,757.40709510317,36.417324,6,P-GPS,,11.1
19200,2026-01-09 12:37:04,757.40709510317,39.698164,0.0,1.8712106898,12.7361880716,17,5,7.816,758.71943110317,37.72966,2.9974996,3.5307087744,0.0,0.0,0.0,25.1,-1.3,-3.1,0,0,1024,1024,1024,1024,0,0,0,0,0,0,0,98,3.904,3.898,0,0,0,0,4.667,61.88,757.40709510317,36.417324,6,P-GPS,,11.1
19300,2026-01-09 12:37:04,757.40709510317,39.698164,0.0,1.8763452044,12.7938324304,17,5,7.816,758.71943110317,37.72966,2.9974996,3.5307087744,0.0,0.0,0.0,25.2,-1.4,-3.6,0,0,1024,1024,1024,1024,0,0,0,0,0,0,0,98,3.904,3.898,0,0,0,0,4.667,61.88,757.40709510317,36.417324,6,P-GPS,,11.1
19400,2026-01-09 12:37:04,757.73517910317,39.698164,0.0,1.89104992928,12.8322838752,17,5,7.816,758.71943110317,37.72966,2.9974996,3.5307087744,0.0,0.0,0.0,25.3,-1.6,-4.1,0,0,1024,1024,1024,1024,0,0,0,0,0,0,0,98,3.904,3.898,0,0,0,0,4.667,61.88,757.73517910317,36.745408,6,P-GPS,,11.2
19500,2026-01-09 12:37:04,757.73517910317,39.698164,0.0,1.91048890628,12.8593508052,17,5,7.816,758.71943110317,37.72966,2.9974996,3.5307087744,0.0,0.0,0.0,25.2,-1.0,-4.5,0,0,1024,1024,1024,1024,0,0,0,0,0,0,0,98,3.904,3.898,0,0,0,0,4.667,61.88,757.73517910317,36.745408,6,P-GPS,,11.2
19600,2026-01-09 12:37:04,757.73517910317,39.698164,0.0,1.92895019296,12.879593588,17,5,7.816,758.71943110317,37.72966,2.9974996,3.5307087744,0.0,0.0,0.0,25.2,-0.8,-4.0,0,0,1024,1024,1024,1024,0,0,0,0,0,0,0,98,3.904,3.898,0,0,0,0,4.667,61.88,757.73517910317,36.745408,6,P-GPS,,11.2
19700,2026-01-09 12:37:04,757.73517910317,39.698164,0.0,1.97122053552,12.9231303348,17,5,7.807,758.71943110317,37.72966,2.9974996,3.5307087744,0.0,0.0,0.0,25.0,0.0,-4.0,0,0,1024,1024,1024,1024,0,0,0,0,0,0,0,98,3.901,3.894,0,0,0,0,4.76,61.88,757.73517910317,36.745408,6,P-GPS,,11.2
19800,2026-01-09 12:37:04,757.73517910317,39.698164,0.0,1.97638785852,12.930282566,17,5,7.807,758.71943110317,37.72966,2.9974996,3.5307087744,0.0,0.0,0.0,25.1,0.0,-3.8,0,0,1024,1024,1024,1024,0,0,0,0,0,0,0,98,3.901,3.894,0,0,0,0,4.76,61.88,757.73517910317,36.745408,6,P-GPS,,11.2
19900,2026-01-09 12:37:05,757.73517910317,39.698164,0.0,1.97792985332,12.9321526448,17,5,7.807,758.71943110317,37.72966,2.9974996,3.5307087744,0.0,0.0,0.0,25.0,0.0,-3.8,0,0,1024,1024,1024,1024,0,0,0,0,0,0,0,98,3.901,3.894,0,0,0,0,4.76,61.88,757.73517910317,36.745408,6,P-GPS,,11.2
20000,2026-01-09 12:37:05,757.73517910317,39.698164,0.0,1.974737596,12.9359584192,17,5,7.807,758.71943110317,37.72966,2.9974996,3.5307087744,0.0,0.0,0.0,25.0,-0.7,-3.8,0,0,1024,1024,1024,1024,0,0,0,0,0,0,0,98,3.901,3.894,0,0,0,0,4.76,61.88,757.73517910317,36.745408,6,P-GPS,,11.2
20100,2026-01-09 12:37:05,757.73517910317,39.698164,0.0,1.98100071956,12.9572510708,17,5,7.807,758.71943110317,37.72966,2.9974996,3.5307087744,0.0,0.0,0.0,25.1,-0.8,-3.4,0,0,1024,1024,1024,1024,0,0,0,0,0,0,0,98,3.901,3.894,0,0,0,0,4.76,61.88,757.73517910317,36.745408,6,P-GPS,,11.2
20200,2026-01-09 12:37:05,757.73517910317,39.698164,0.0,1.97356961696,12.9684059268,17,5,7.807,758.71943110317,37.72966,2.9974996,3.5307087744,0.0,0.0,0.0,25.0,-0.7,-3.1,0,0,1024,1024,1024,1024,0,0,0,0,0,0,0,98,3.901,3.894,0,0,0,0,4.76,61.88,757.73517910317,36.745408,6,P-GPS,,11.2
20300,2026-01-09 12:37:05,757.73517910317,39.698164,0.0,1.96298234628,12.9888127516,17,5,7.807,758.71943110317,37.72966,2.9974996,3.5307087744,0.0,0.0,0.0,25.0,-1.0,-2.9,0,0,1024,1024,1024,1024,0,0,0,0,0,0,0,98,3.901,3.894,0,0,0,0,4.76,61.88,757.73517910317,36.745408,6,P-GPS,,11.2
20400,2026-01-09 12:37:05,757.73517910317,39.698164,0.0,1.9520341832,13.0151578968,17,5,7.807,758.71943110317,37.72966,2.9974996,3.5307087744,0.0,0.0,0.0,24.8,-0.8,-3.1,0,0,1024,1024,1024,1024,0,0,0,0,0,0,0,98,3.901,3.894,0,0,0,0,4.76,61.88,757.73517910317,36.745408,6,P-GPS,,11.2
20500,2026-01-09 12:37:05,757.73517910317,39.698164,0.0,1.96009848792,13.0722773212,17,5,7.807,758.71943110317,37.72966,2.9974996,3.5307087744,0.0,0.0,0.0,24.9,-1.0,-2.9,0,0,1024,1024,1024,1024,0,0,0,0,0,0,0,98,3.901,3.894,0,0,0,0,4.76,61.88,757.73517910317,36.745408,6,P-GPS,,11.2
20600,2026-01-09 12:37:05,757.73517910317,39.698164,0.0,1.95717525948,13.0959321776,17,5,7.807,758.71943110317,37.72966,2.9974996,3.5307087744,0.0,0.0,0.0,25.0,-0.8,-2.8,0,0,1024,1024,1024,1024,0,0,0,0,0,0,0,98,3.901,3.894,0,0,0,0,4.76,61.88,757.73517910317,36.745408,6,P-GPS,,11.2
