time(millisecond),timestamp,altitude_above_seaLevel(feet),height_sonar(feet),speed(mph),distance(feet),mileage(feet),satellites,gpslevel,voltage(v),max_altitude(feet),max_ascent(feet),max_speed(mph),max_distance(feet), xSpeed(mph), ySpeed(mph), zSpeed(mph), compass_heading(degrees), pitch(degrees), roll(degrees),isPhoto,isVideo,rc_elevator,rc_aileron,rc_throttle,rc_rudder,rc_elevator(percent),rc_aileron(percent),rc_throttle(percent),rc_rudder(percent),gimbal_heading(degrees),gimbal_pitch(degrees),gimbal_roll(degrees),battery_percent,voltageCell1,voltageCell2,voltageCell3,voltageCell4,voltageCell5,voltageCell6,current(A),battery_temperature(f),altitude(feet),ascent(feet),flycStateRaw,flycState,message,height_above_takeoff(meters)
0,2026-01-08 12:27:45,720.98977110317,0.328084,0.0,0.0,0.0,16,5,0.0,720.98977110317,0.0,0.0,0.0,0.0,0.0,0.0,211.2,2.6,0.1,0,0,1024,1024,1024,1024,0,0,0,0,0,0,0,98,4.084,4.075,0,0,0,0,0.0,61.88,720.98977110317,0.0,41,Motors_Started,SD card speed low SD card speed low. Normal use may be affected. Replace SD card (Code: 10028). Gimbal stuck. Make sure gimbal cover is removed and manually check whether gimbal can rotate freely (Code: 40002),0.0
100,2026-01-08 12:27:45,720.98977110317,0.328084,0.0,0.049303151184,0.049303151184,16,5,0.0,720.98977110317,0.0,0.0,0.049303151184,0.0,0.0,0.0,211.2,2.6,0.1,0,0,1024,1024,1024,1024,0,0,0,0,0,0,0,98,4.084,4.075,0,0,0,0,0.0,61.88,720.98977110317,0.0,41,Motors_Started,,0.0
200,2026-01-08 12:27:45,720.98977110317,0.328084,0.0,0.061942587284,0.0619504613,16,5,0.0,720.98977110317,0.0,0.0,0.061942587284,0.0,0.0,0.0,211.2,2.6,0.2,0,0,1024,1024,1024,1024,0,0,0,0,0,0,0,98,4.084,4.075,0,0,0,0,0.0,61.88,720.98977110317,0.0,41,Motors_Started,,0.0
300,2026-01-08 12:27:45,720.98977110317,0.328084,0.0,0.068646983824,0.06898622268,16,5,0.0,720.98977110317,0.0,0.0,0.068646983824,0.0,0.0,0.0,211.2,2.7,0.2,0,0,1024,1024,1024,1024,0,0,0,0,0,0,0,98,4.084,4.075,0,0,0,0,0.0,61.88,720.98977110317,0.0,41,Motors_Started,,0.0
400,2026-01-08 12:27:45,720.98977110317,0.328084,0.0,0.071964241148,0.07308399184,16,5,0.0,720.98977110317,0.0,0.0,0.071964241148,0.0,0.0,0.0,211.3,2.6,0.2,0,0,1024,1024,1024,1024,0,0,0,0,0,0,0,98,4.084,4.075,0,0,0,0,0.0,61.88,720.98977110317,0.0,41,Motors_Started,,0.0
500,2026-01-08 12:27:45,720.98977110317,0.328084,0.0,0.080884517024,0.093140094844,16,5,0.0,720.98977110317,0.0,0.0,0.080884517024,0.0,0.0,0.0,211.3,2.6,0.2,0,0,1024,1024,1024,1024,0,0,0,0,0,0,0,98,4.084,4.075,0,0,0,0,0.0,61.88,720.98977110317,0.0,41,Motors_Started,,0.0
600,2026-01-08 12:27:46,720.98977110317,0.328084,0.0,0.087384189148,0.102690948168,16,5,0.0,720.98977110317,0.0,0.0,0.087384189148,0.0,0.0,0.0,211.1,2.5,0.1,0,0,1024,1024,1024,1024,0,0,0,0,0,0,0,98,4.084,4.075,0,0,0,0,0.0,61.88,720.98977110317,0.0,41,Motors_Started,,0.0
700,2026-01-08 12:27:46,720.98977110317,0.328084,0.0,0.102266407472,0.125471132624,16,5,0.0,720.98977110317,0.0,0.0,0.102266407472,0.0,0.0,0.0,211.2,2.7,0.1,0,0,1024,1024,1024,1024,0,0,0,0,0,0,0,98,4.084,4.075,0,0,0,0,0.0,61.88,720.98977110317,0.0,41,Motors_Started,,0.0
800,2026-01-08 12:27:46,720.98977110317,0.328084,0.0,0.113943901284,0.13761647422,16,5,0.0,720.98977110317,0.0,0.0,0.113943901284,0.0,0.0,0.0,211.2,2.6,0.2,0,0,1024,1024,1024,1024,0,0,0,0,0,0,0,98,4.084,4.075,0,0,0,0,0.0,61.88,720.98977110317,0.0,41,Motors_Started,Setting new Return-To-Home altitude to 90m (295 ft). Data Recorder File Index is 30. Setting new Maximum Flight Altitude to 90m (295 ft),0.0
900,2026-01-08 12:27:46,720.98977110317,0.328084,0.0,0.11958497758,0.14905840372,16,5,0.0,720.98977110317,0.0,0.0,0.11958497758,0.0,0.0,0.0,211.3,2.6,0.2,0,0,1024,1024,1024,1024,0,0,0,0,0,0,0,98,4.084,4.075,0,0,0,0,0.0,61.88,720.98977110317,0.0,41,Motors_Started,SD card speed low. Normal use may be affected. Replace SD card (Code: 10028),0.0
1000,2026-01-08 12:27:46,720.98977110317,0.328084,0.0,0.137309059512,0.168722446344,16,5,8.159,720.98977110317,0.0,0.0,0.137309059512,0.0,0.0,0.0,211.3,2.6,0.2,0,0,1024,1024,1024,1024,0,0,0,0,0,0,0,98,4.084,4.075,0,0,0,0,1.232,61.88,720.98977110317,0.0,41,Motors_Started,,0.0
1100,2026-01-08 12:27:46,720.98977110317,0.328084,0.0,0.133824479348,0.176978680204,16,5,8.159,720.98977110317,0.0,0.0,0.137309059512,0.0,0.0,0.0,211.3,2.6,0.2,0,0,1024,1024,1024,1024,0,0,0,0,0,0,0,98,4.084,4.075,0,0,0,0,1.232,61.88,720.98977110317,0.0,41,Motors_Started,,0.0
1200,2026-01-08 12:27:46,720.98977110317,0.328084,0.0,0.130186683956,0.182837604276,16,5,8.159,720.98977110317,0.0,0.0,0.137309059512,0.0,0.0,0.0,211.3,2.6,0.2,0,0,1024,1024,1024,1024,0,0,0,0,0,0,0,98,4.084,4.075,0,0,0,0,1.232,61.88,720.98977110317,0.0,11,AutoTakeoff,,0.0
1300,2026-01-08 12:27:46,720.98977110317,0.328084,0.0,0.126259518476,0.186883864248,16,5,8.159,720.98977110317,0.0,0.0,0.137309059512,0.0,0.0,0.0,211.3,2.6,0.2,0,0,1024,1024,1024,1024,0,0,0,0,0,0,0,98,4.084,4.075,0,0,0,0,1.232,61.88,720.98977110317,0.0,11,AutoTakeoff,,0.0
1400,2026-01-08 12:27:46,720.98977110317,0.328084,0.0,0.101475068864,0.214563327076,16,5,8.159,720.98977110317,0.0,0.0,0.137309059512,0.0,0.0,0.0,211.2,2.6,0.2,0,0,1024,1024,1024,1024,0,0,0,0,0,0,0,98,4.084,4.075,0,0,0,0,1.232,61.88,720.98977110317,0.0,11,AutoTakeoff,,0.0
1500,2026-01-08 12:27:46,720.98977110317,0.328084,0.0,0.098395016272,0.217818904608,16,5,8.159,720.98977110317,0.0,0.0,0.137309059512,0.0,0.0,0.0,211.2,2.6,0.2,0,0,1024,1024,1024,1024,0,0,0,0,0,0,0,98,4.084,4.075,0,0,0,0,1.232,61.88,720.98977110317,0.0,11,AutoTakeoff,,0.0
1600,2026-01-08 12:27:47,720.98977110317,0.328084,0.0,0.095781827212,0.223642067524,16,5,8.159,720.98977110317,0.0,0.0,0.137309059512,0.0,0.0,0.0,211.2,2.6,0.2,0,0,1024,1024,1024,1024,0,0,0,0,0,0,0,98,4.084,4.075,0,0,0,0,1.232,61.88,720.98977110317,0.0,11,AutoTakeoff,,0.0
1700,2026-01-08 12:27:47,720.98977110317,0.328084,0.0,0.093529858636,0.236948170312,16,5,8.159,720.98977110317,0.0,0.0,0.137309059512,0.0,0.0,0.0,211.2,2.6,0.1,0,0,1024,1024,1024,1024,0,0,0,0,0,0,0,98,4.084,4.075,0,0,0,0,1.232,61.88,720.98977110317,0.0,11,AutoTakeoff,,0.0
1800,2026-01-08 12:27:47,720.98977110317,0.328084,0.0,0.091430121036,0.249364509292,16,5,8.159,720.98977110317,0.0,0.0,0.137309059512,0.0,0.0,0.0,210.6,2.4,0.3,0,0,1024,1024,1024,1024,0,0,0,0,0,0,0,98,4.084,4.075,0,0,0,0,1.232,61.88,720.98977110317,0.0,11,AutoTakeoff,,0.0
1900,2026-01-08 12:27:47,720.98977110317,0.328084,0.0,0.086673559204,0.259139115904,16,5,8.159,720.98977110317,0.0,0.0,0.137309059512,0.0,0.0,0.0,209.3,1.9,0.5,0,0,1024,1024,1024,1024,0,0,0,0,0,0,0,98,4.084,4.075,0,0,0,0,1.232,61.88,720.98977110317,0.0,11,AutoTakeoff,,0.0
2000,2026-01-08 12:27:47,720.98977110317,0.328084,0.0,0.080052496,0.26581201638,16,5,8.159,720.98977110317,0.0,0.0,0.137309059512,0.0,0.0,-0.447388,208.8,1.4,-0.2,0,0,1024,1024,1024,1024,0,0,0,0,0,0,0,98,4.084,4.075,0,0,0,0,1.232,61.88,720.98977110317,0.0,11,AutoTakeoff,,0.0
2100,2026-01-08 12:27:47,720.98977110317,0.328084,0.0,0.075801839696,0.282884851572,16,5,7.986,720.98977110317,0.0,0.0,0.137309059512,0.0,0.0,-0.671082,208.9,1.2,0.2,0,0,1024,1024,1024,1024,0,0,0,0,0,0,0,98,3.999,3.987,0,0,0,0,2.889,61.88,720.98977110317,0.0,11,AutoTakeoff,,0.0
2200,2026-01-08 12:27:47,721.31785510317,0.656168,0.0,0.05727854514,0.32761812072,16,5,7.986,721.31785510317,0.328084,0.0,0.137309059512,0.0,0.0,-0.894776,208.6,1.2,0.3,0,0,1024,1024,1024,1024,0,0,0,0,0,0,0,98,3.999,3.987,0,0,0,0,2.889,61.88,721.31785510317,0.328084,11,AutoTakeoff,,0.1
2300,2026-01-08 12:27:47,721.31785510317,0.656168,0.0,0.076157154668,0.35792652064,16,5,7.986,721.31785510317,0.328084,0.0,0.137309059512,0.0,0.0,-1.342164,208.8,1.5,0.5,0,0,1024,1024,1024,1024,0,0,0,0,0,0,0,98,3.999,3.987,0,0,0,0,2.889,61.88,721.31785510317,0.328084,11,AutoTakeoff,,0.1
2400,2026-01-08 12:27:47,721.64593910317,0.984252,0.223694,0.107466866956,0.389271666,16,5,7.986,721.64593910317,0.656168,0.223694,0.137309059512,-0.223694,0.0,-1.565858,208.8,1.1,1.8,0,0,1024,1024,1024,1024,0,0,0,0,0,0,0,98,3.999,3.987,0,0,0,0,2.889,61.88,721.64593910317,0.656168,11,AutoTakeoff,,0.2
2500,2026-01-08 12:27:48,721.64593910317,0.984252,0.223694,0.149143049392,0.43495080132,16,5,7.986,721.64593910317,0.656168,0.223694,0.149143049392,-0.223694,0.0,-1.789552,208.7,1.7,2.6,0,0,1024,1024,1024,1024,0,0,0,0,0,0,0,98,3.999,3.987,0,0,0,0,2.889,61.88,721.64593910317,0.656168,11,AutoTakeoff,,0.2
2600,2026-01-08 12:27:48,721.97402310317,1.312336,0.223694,0.189059389252,0.4869258686,16,5,7.986,721.97402310317,0.984252,0.223694,0.189059389252,-0.223694,0.0,-2.013246,208.8,2.9,3.2,0,0,1024,1024,1024,1024,0,0,0,0,0,0,0,98,3.999,3.987,0,0,0,0,2.889,61.88,721.97402310317,0.984252,11,AutoTakeoff,,0.3
2700,2026-01-08 12:27:48,722.30210710317,1.64042,0.223694,0.2432578818,0.62607613552,16,5,7.986,722.30210710317,1.312336,0.223694,0.2432578818,-0.223694,0.0,-2.23694,208.8,3.3,2.9,0,0,1024,1024,1024,1024,0,0,0,0,0,0,0,98,3.999,3.987,0,0,0,0,2.889,61.88,722.30210710317,1.312336,11,AutoTakeoff,,0.4
2800,2026-01-08 12:27:48,722.63019110317,1.968504,0.223694,0.297445219492,0.68577101932,16,5,7.986,722.63019110317,1.64042,0.223694,0.297445219492,-0.223694,0.0,-2.23694,209.1,4.0,2.7,0,0,1024,1024,1024,1024,0,0,0,0,0,0,0,98,3.999,3.987,0,0,0,0,2.889,61.88,722.63019110317,1.64042,11,AutoTakeoff,Home Point updated. RTH altitude adjusted to 90 m (Code: 120852),0.5
2900,2026-01-08 12:27:48,722.95827510317,2.296588,0.223694,0.34693898748,0.73925855384,16,5,7.986,722.95827510317,1.968504,0.223694,0.34693898748,-0.223694,0.0,-2.23694,208.9,3.9,2.7,0,0,1024,1024,1558,1024,0,0,81,0,0,0,0,98,3.999,3.987,0,0,0,0,2.889,61.88,722.95827510317,1.968504,11,AutoTakeoff,,0.6
3000,2026-01-08 12:27:48,723.28635910317,2.624672,0.0,0.3394521106,0.80280842464,16,5,7.986,723.28635910317,2.296588,0.223694,0.34693898748,0.0,0.0,-2.23694,208.8,2.7,1.3,0,0,1024,1024,1684,1024,0,0,100,0,0,0,0,98,3.999,3.987,0,0,0,0,2.889,61.88,723.28635910317,2.296588,11,AutoTakeoff,,0.7
3100,2026-01-08 12:27:48,723.61444310317,2.952756,0.223694,0.38374673144,1.24738192968,16,5,7.986,723.61444310317,2.624672,0.223694,0.38374673144,-0.223694,0.0,-2.23694,208.8,3.2,0.4,0,0,1024,1024,1684,1024,0,0,100,0,0,0,0,98,3.999,3.987,0,0,0,0,2.889,61.88,723.61444310317,2.624672,6,P-GPS,,0.8
3200,2026-01-08 12:27:48,724.27061110317,3.28084,0.3131716,0.52860237912,1.400836659,16,5,7.836,724.27061110317,3.28084,0.3131716,0.52860237912,-0.223694,-0.223694,-2.013246,208.7,4.9,-0.3,0,0,1024,1024,1684,1024,0,0,100,0,0,0,0,98,3.925,3.91,0,0,0,0,5.715,61.88,724.27061110317,3.28084,6,P-GPS,,1.0
3300,2026-01-08 12:27:48,724.59869510317,3.608924,0.447388,0.71153545584,1.58443902708,16,5,7.836,724.59869510317,3.608924,0.447388,0.71153545584,-0.447388,0.0,-2.23694,208.7,6.6,-0.4,0,0,1024,1024,1684,1024,0,0,100,0,0,0,0,98,3.925,3.91,0,0,0,0,5.715,61.88,724.59869510317,3.608924,6,P-GPS,,1.1
3400,2026-01-08 12:27:48,724.92677910317,3.937008,0.671082,0.82130580056,1.69702105168,16,5,7.836,724.92677910317,3.937008,0.671082,0.82130580056,-0.671082,0.0,-2.460634,208.9,7.8,1.5,0,0,1024,1024,1684,1024,0,0,100,0,0,0,0,98,3.925,3.91,0,0,0,0,5.715,61.88,724.92677910317,3.937008,6,P-GPS,,1.2
3500,2026-01-08 12:27:48,725.58294710317,4.265092,0.671082,1.07935698992,2.03705387096,16,5,7.836,725.58294710317,4.593176,0.671082,1.07935698992,-0.671082,0.0,-3.131716,209.1,8.2,3.7,0,0,1024,1024,1684,1024,0,0,100,0,0,0,0,98,3.925,3.91,0,0,0,0,5.715,61.88,725.58294710317,4.593176,6,P-GPS,,1.4
3600,2026-01-08 12:27:49,725.91103110317,5.249344,0.447388,1.1404363882,2.13674875604,16,5,7.836,725.91103110317,4.92126,0.671082,1.1404363882,-0.447388,0.0,-3.579104,209.3,8.3,4.2,0,0,1024,1024,1684,1024,0,0,100,0,0,0,0,98,3.925,3.91,0,0,0,0,5.715,61.88,725.91103110317,4.92126,6,P-GPS,,1.5
3700,2026-01-08 12:27:49,726.56719910317,5.905512,0.223694,1.23975725752,2.28576450884,16,5,7.836,726.56719910317,5.577428,0.671082,1.23975725752,-0.223694,0.0,-4.026492,209.3,7.9,4.1,0,0,1024,1024,1684,1024,0,0,100,0,0,0,0,98,3.925,3.91,0,0,0,0,5.715,61.88,726.56719910317,5.577428,6,P-GPS,,1.7
3800,2026-01-08 12:27:49,727.22336710317,6.56168,0.223694,1.3942257664,2.49260506664,16,5,7.836,727.22336710317,6.233596,0.671082,1.3942257664,-0.223694,0.0,-4.250186,209.1,7.5,3.5,0,0,1024,1024,1684,1024,0,0,100,0,0,0,0,98,3.925,3.91,0,0,0,0,5.715,61.88,727.22336710317,6.233596,6,P-GPS,,1.9
3900,2026-01-08 12:27:49,728.20761910317,7.217848,0.223694,1.84287079388,3.10553159544,16,5,7.836,728.20761910317,7.217848,0.671082,1.84287079388,-0.223694,0.0,-4.250186,209.1,6.8,3.4,0,0,1024,1024,1684,1024,0,0,100,0,0,0,0,98,3.925,3.91,0,0,0,0,5.715,61.88,728.20761910317,7.217848,6,P-GPS,,2.2
4000,2026-01-08 12:27:49,728.86378710317,7.874016,0.0,2.11457027764,3.3840880348,16,5,7.836,728.86378710317,7.874016,0.671082,2.11457027764,0.0,0.0,-4.47388,209.1,6.6,3.5,0,0,1024,1024,1684,1024,0,0,100,0,0,0,0,98,3.925,3.91,0,0,0,0,5.715,61.88,728.86378710317,7.874016,6,P-GPS,,2.4
4100,2026-01-08 12:27:49,729.51995510317,8.530184,0.0,2.42342855524,3.6930119292,16,5,7.836,729.51995510317,8.530184,0.671082,2.42342855524,0.0,0.0,-4.697574,209.2,6.9,3.9,0,0,1024,1024,1684,1024,0,0,100,0,0,0,0,98,3.925,3.91,0,0,0,0,5.715,61.88,729.51995510317,8.530184,6,P-GPS,,2.6
4200,2026-01-08 12:27:49,730.50420710317,9.186352,0.0,2.65056767012,3.9204725664,16,5,7.836,730.50420710317,9.514436,0.671082,2.65056767012,0.0,0.0,-4.697574,209.4,7.6,4.2,0,0,1024,1024,1684,1024,0,0,100,0,0,0,0,98,3.925,3.91,0,0,0,0,5.715,61.88,730.50420710317,9.514436,6,P-GPS,,2.9
4300,2026-01-08 12:27:49,731.16037510317,9.84252,0.0,2.80794956492,4.0805119416,16,5,7.836,731.16037510317,10.170604,0.671082,2.80794956492,0.0,0.0,-4.47388,209.3,7.8,3.5,0,0,1024,1024,1684,1024,0,0,100,0,0,0,0,98,3.925,3.91,0,0,0,0,5.715,61.88,731.16037510317,10.170604,6,P-GPS,,3.1
4400,2026-01-08 12:27:49,731.81654310317,10.498688,0.0,2.94006243004,4.273786226,16,5,7.836,731.81654310317,10.826772,0.671082,2.94006243004,0.0,0.0,-4.47388,209.2,7.4,2.5,0,0,1024,1024,1684,1024,0,0,100,0,0,0,0,98,3.925,3.91,0,0,0,0,5.715,61.88,731.81654310317,10.826772,6,P-GPS,,3.3
4500,2026-01-08 12:27:50,732.47271110317,11.154856,0.0,3.00754274716,4.3424213988,16,5,7.756,732.47271110317,11.48294,0.671082,3.00754274716,0.0,0.0,-4.47388,209.1,7.4,2.4,0,0,1024,1024,1684,1024,0,0,100,0,0,0,0,98,3.882,3.875,0,0,0,0,7.023,61.88,732.47271110317,11.48294,6,P-GPS,,3.5
4600,2026-01-08 12:27:50,733.12887910317,11.811024,0.0,3.050114927,4.3850395104,16,5,7.756,733.12887910317,12.139108,0.671082,3.050114927,0.0,0.0,-4.47388,209.1,7.1,2.2,0,0,1024,1024,1684,1024,0,0,100,0,0,0,0,98,3.882,3.875,0,0,0,0,7.023,61.88,733.12887910317,12.139108,6,P-GPS,,3.7
4700,2026-01-08 12:27:50,733.78504710317,12.467192,0.0,3.07852372056,4.4200788816,16,5,7.756,733.78504710317,12.795276,0.671082,3.07852372056,0.0,0.0,-4.47388,209.2,7.2,2.6,0,0,1024,1024,1684,1024,0,0,100,0,0,0,0,98,3.882,3.875,0,0,0,0,7.023,61.88,733.78504710317,12.795276,6,P-GPS,,3.9
4800,2026-01-08 12:27:50,734.44121510317,13.12336,0.0,2.57182094844,4.9288387404,16,5,7.756,734.44121510317,13.451444,0.671082,3.07852372056,0.0,0.0,-4.47388,209.3,7.8,3.4,0,0,1024,1024,1684,1024,0,0,100,0,0,0,0,98,3.882,3.875,0,0,0,0,7.023,61.88,734.44121510317,13.451444,6,P-GPS,,4.1
4900,2026-01-08 12:27:50,735.42546710317,13.779528,0.0,2.5291011308,4.9800854612,16,5,7.756,735.42546710317,14.435696,0.671082,3.07852372056,0.0,0.0,-4.250186,209.4,7.8,4.4,0,0,1024,1024,1684,1024,0,0,100,0,0,0,0,98,3.882,3.875,0,0,0,0,7.023,61.88,735.42546710317,14.435696,6,P-GPS,,4.4
5000,2026-01-08 12:27:50,736.08163510317,14.435696,0.0,2.46327763788,5.0552166972,16,5,7.756,736.08163510317,15.091864,0.671082,3.07852372056,0.0,0.0,-4.250186,209.3,7.9,4.1,0,0,1024,1024,1684,1024,0,0,100,0,0,0,0,98,3.882,3.875,0,0,0,0,7.023,61.88,736.08163510317,15.091864,6,P-GPS,,4.6
5100,2026-01-08 12:27:50,736.73780310317,15.091864,0.0,2.3796424646,5.1527888788,16,5,7.756,736.73780310317,15.748032,0.671082,3.07852372056,0.0,0.0,-4.250186,209.2,7.7,4.2,0,0,1024,1024,1684,1024,0,0,100,0,0,0,0,98,3.882,3.875,0,0,0,0,7.023,61.88,736.73780310317,15.748032,6,P-GPS,,4.8
5200,2026-01-08 12:27:50,737.39397110317,15.748032,0.0,2.1792815658,5.3547245808,16,5,7.756,737.39397110317,16.4042,0.671082,3.07852372056,0.0,0.0,-4.47388,208.9,5.9,3.8,0,0,1024,1024,1684,1024,0,0,100,0,0,0,0,98,3.882,3.875,0,0,0,0,7.023,61.88,737.39397110317,16.4042,6,P-GPS,,5.0
5300,2026-01-08 12:27:50,738.05013910317,16.4042,0.0,1.83152236832,5.7025592376,16,5,7.756,738.05013910317,17.060368,0.671082,3.07852372056,0.0,0.0,-4.697574,209.2,6.6,4.8,0,0,1024,1024,1684,1024,0,0,100,0,0,0,0,98,3.882,3.875,0,0,0,0,7.023,61.88,738.05013910317,17.060368,6,P-GPS,,5.2
5400,2026-01-08 12:27:50,738.70630710317,17.060368,0.0,1.63058404168,5.905676042,16,5,7.756,738.70630710317,17.716536,0.671082,3.07852372056,0.0,0.0,-4.47388,209.3,7.6,5.2,0,0,1024,1024,1684,1024,0,0,100,0,0,0,0,98,3.882,3.875,0,0,0,0,7.023,61.88,738.70630710317,17.716536,6,P-GPS,,5.4
5500,2026-01-08 12:27:50,739.36247510317,18.04462,0.223694,1.622293359,5.9435369356,16,5,7.756,739.36247510317,18.372704,0.671082,3.07852372056,0.223694,0.0,-4.47388,209.3,6.4,4.7,0,0,1024,1024,1684,1024,0,0,100,0,0,0,0,98,3.863,3.855,0,0,0,0,7.023,61.88,739.36247510317,18.372704,6,P-GPS,,5.6
5600,2026-01-08 12:27:51,740.01864310317,18.700788,0.223694,1.607693621,6.1764109588,16,5,7.756,740.01864310317,19.028872,0.671082,3.07852372056,0.223694,0.0,-4.47388,209.4,4.4,3.8,0,0,1024,1024,1684,1024,0,0,100,0,0,0,0,98,3.863,3.855,0,0,0,0,7.023,61.88,740.01864310317,19.028872,6,P-GPS,,5.8
5700,2026-01-08 12:27:51,740.67481110317,19.356956,0.0,1.63987538056,6.2433729032,16,5,7.756,740.67481110317,19.68504,0.671082,3.07852372056,0.0,0.0,-4.697574,209.4,5.5,3.2,0,0,1024,1024,1684,1024,0,0,100,0,0,0,0,98,3.863,3.855,0,0,0,0,7.023,61.88,740.67481110317,19.68504,6,P-GPS,,6.0
5800,2026-01-08 12:27:51,741.33097910317,20.341208,0.0,1.65604336008,6.3209319608,16,5,7.756,741.33097910317,20.341208,0.671082,3.07852372056,0.0,0.0,-4.697574,209.3,6.1,3.1,0,0,1024,1024,1684,1024,0,0,100,0,0,0,0,98,3.863,3.855,0,0,0,0,7.023,61.88,741.33097910317,20.341208,6,P-GPS,,6.2
5900,2026-01-08 12:27:51,741.98714710317,20.997376,0.0,1.65830713968,6.4176839324,16,5,7.756,741.98714710317,20.997376,0.671082,3.07852372056,0.0,0.0,-4.697574,209.4,7.3,2.3,0,0,1024,1024,1684,1024,0,0,100,0,0,0,0,98,3.863,3.855,0,0,0,0,7.023,61.88,741.98714710317,20.997376,6,P-GPS,,6.4
6000,2026-01-08 12:27:51,742.64331510317,21.653544,0.0,1.64108272968,6.5061025704,16,5,7.756,742.64331510317,21.653544,0.671082,3.07852372056,0.0,0.0,-4.47388,209.7,8.5,2.9,0,0,1024,1024,1684,1024,0,0,100,0,0,0,0,98,3.863,3.855,0,0,0,0,7.023,61.88,742.64331510317,21.653544,6,P-GPS,,6.6
6100,2026-01-08 12:27:51,743.29948310317,22.637796,0.0,1.51025923468,6.7591537596,16,5,7.756,743.29948310317,22.309712,0.671082,3.07852372056,0.0,0.0,-4.250186,209.9,9.0,3.2,0,0,1024,1024,1684,1024,0,0,100,0,0,0,0,98,3.863,3.855,0,0,0,0,7.023,61.88,743.29948310317,22.309712,6,P-GPS,,6.8
6200,2026-01-08 12:27:51,743.95565110317,23.293964,0.223694,1.44973101752,6.8265422132,16,5,7.756,743.95565110317,22.96588,0.671082,3.07852372056,0.223694,0.0,-4.250186,209.7,6.8,3.3,0,0,1024,1024,1684,1024,0,0,100,0,0,0,0,98,3.863,3.855,0,0,0,0,7.023,61.88,743.95565110317,22.96588,6,P-GPS,,7.0
6300,2026-01-08 12:27:51,744.28373510317,24.278216,0.223694,1.35535437408,6.9211616388,16,5,7.756,744.28373510317,23.293964,0.671082,3.07852372056,0.223694,0.0,-4.250186,209.3,4.0,3.0,0,0,1024,1024,1684,1024,0,0,100,0,0,0,0,98,3.863,3.855,0,0,0,0,7.023,61.88,744.28373510317,23.293964,6,P-GPS,,7.1
6400,2026-01-08 12:27:51,744.93990310317,25.262468,0.3131716,1.24355647024,7.0360238472,16,5,7.756,744.93990310317,23.950132,0.671082,3.07852372056,0.223694,0.223694,-4.250186,209.2,4.2,3.8,0,0,1024,1024,1684,1024,0,0,100,0,0,0,0,98,3.863,3.855,0,0,0,0,7.023,61.88,744.93990310317,23.950132,6,P-GPS,,7.3
6500,2026-01-08 12:27:52,745.59607110317,25.918636,0.3131716,0.87796262652,7.4339897392,16,5,7.756,745.59607110317,24.6063,0.671082,3.07852372056,0.223694,0.223694,-4.47388,209.5,5.4,5.2,0,0,1024,1024,1684,1024,0,0,100,0,0,0,0,98,3.863,3.855,0,0,0,0,7.023,61.88,745.59607110317,24.6063,6,P-GPS,,7.5
6600,2026-01-08 12:27:52,746.25223910317,26.574804,0.3131716,0.7703248278,7.554626226,16,5,7.713,746.25223910317,25.262468,0.671082,3.07852372056,0.223694,0.223694,-4.250186,209.4,3.8,4.7,0,0,1024,1024,1684,1024,0,0,100,0,0,0,0,98,3.872,3.871,0,0,0,0,6.588,61.88,746.25223910317,25.262468,6,P-GPS,,7.7
6700,2026-01-08 12:27:52,746.90840710317,27.230972,0.3131716,0.6727198378,7.6584976204,16,5,7.713,746.90840710317,25.918636,0.671082,3.07852372056,0.223694,0.223694,-4.250186,209.3,2.8,3.8,0,0,1024,1024,1684,1024,0,0,100,0,0,0,0,98,3.872,3.871,0,0,0,0,6.588,61.88,746.90840710317,25.918636,6,P-GPS,,7.9
6800,2026-01-08 12:27:52,747.56457510317,28.215224,0.3131716,0.58720802404,7.7471131088,16,5,7.713,747.56457510317,26.574804,0.671082,3.07852372056,0.0,0.0,-4.47388,209.2,3.8,4.7,0,0,1024,1024,1684,1024,0,0,100,0,0,0,0,98,3.872,3.871,0,0,0,0,6.588,61.88,747.56457510317,26.574804,6,P-GPS,,8.1
6900,2026-01-08 12:27:52,747.89265910317,28.871392,0.0,0.57294621256,7.9965881824,15,5,7.713,747.89265910317,26.902888,0.671082,3.07852372056,0.0,0.0,-4.47388,209.5,4.6,5.3,0,0,1024,1024,1684,1024,0,0,100,0,0,0,0,98,3.872,3.871,0,0,0,0,6.588,61.88,747.89265910317,26.902888,6,P-GPS,,8.2
7000,2026-01-08 12:27:52,748.54882710317,29.52756,0.0,0.58684056996,8.148130182,15,5,7.713,748.54882710317,27.559056,0.671082,3.07852372056,0.0,0.0,-4.47388,209.3,4.2,5.0,0,0,1024,1024,1684,1024,0,0,100,0,0,0,0,98,3.872,3.871,0,0,0,0,6.588,61.88,748.54882710317,27.559056,6,P-GPS,,8.4
7100,2026-01-08 12:27:52,749.20499510317,30.511812,0.0,0.67259188504,8.345308666,15,5,7.713,749.20499510317,28.215224,0.671082,3.07852372056,0.0,0.0,-4.47388,209.2,4.8,4.9,0,0,1024,1024,1684,1024,0,0,100,0,0,0,0,98,3.872,3.871,0,0,0,0,6.588,61.88,749.20499510317,28.215224,6,P-GPS,,8.6
7200,2026-01-08 12:27:52,749.53307910317,31.16798,0.0,0.80841209936,8.5239832124,16,5,7.713,749.53307910317,28.543308,0.671082,3.07852372056,0.0,0.0,-4.47388,209.5,6.7,4.6,0,0,1024,1024,1684,1024,0,0,100,0,0,0,0,98,3.872,3.871,0,0,0,0,6.588,61.88,749.53307910317,28.543308,6,P-GPS,,8.7
7300,2026-01-08 12:27:52,750.18924710317,31.824148,0.0,1.27771001464,8.9951774532,16,5,7.713,750.18924710317,29.199476,0.671082,3.07852372056,0.0,0.0,-4.250186,209.6,6.2,4.0,0,0,1024,1024,1684,1024,0,0,100,0,0,0,0,98,3.872,3.871,0,0,0,0,6.588,61.88,750.18924710317,29.199476,6,P-GPS,,8.9
7400,2026-01-08 12:27:52,750.84541510317,32.480316,0.223694,1.401492827,9.1217522604,16,5,7.713,750.84541510317,29.855644,0.671082,3.07852372056,0.223694,0.0,-4.250186,209.4,4.4,3.7,0,0,1024,1024,1684,1024,0,0,100,0,0,0,0,98,3.872,3.871,0,0,0,0,6.588,61.88,750.84541510317,29.855644,6,P-GPS,,9.1
7500,2026-01-08 12:27:53,751.17349910317,33.136484,0.223694,1.50543968072,9.226050164,16,5,7.713,751.17349910317,30.183728,0.671082,3.07852372056,0.223694,0.0,-4.47388,209.2,3.2,3.5,0,0,1024,1024,1684,1024,0,0,100,0,0,0,0,98,3.872,3.871,0,0,0,0,6.588,61.88,751.17349910317,30.183728,6,P-GPS,,9.2
7600,2026-01-08 12:27:53,751.82966710317,33.792652,0.0,1.56250005,9.2831695884,16,5,7.713,751.82966710317,30.839896,0.671082,3.07852372056,0.0,0.0,-4.47388,209.5,3.9,4.1,0,0,1024,1024,1684,1024,0,0,100,0,0,0,0,98,3.872,3.871,0,0,0,0,6.588,61.88,751.82966710317,30.839896,6,P-GPS,,9.4
7700,2026-01-08 12:27:53,752.48583510317,34.44882,0.0,1.57174217628,9.298228644,16,5,7.713,752.48583510317,31.496064,0.671082,3.07852372056,0.0,0.0,-4.250186,209.5,4.2,3.7,0,0,1024,1024,1684,1024,0,0,100,0,0,0,0,98,3.872,3.871,0,0,0,0,6.588,61.88,752.48583510317,31.496064,6,P-GPS,,9.6
7800,2026-01-08 12:27:53,752.81391910317,35.104988,0.0,1.46192261896,9.527395318,16,5,7.744,752.81391910317,31.824148,0.671082,3.07852372056,0.0,0.0,-4.47388,209.6,4.0,3.5,0,0,1024,1024,1684,1024,0,0,100,0,0,0,0,98,3.87,3.865,0,0,0,0,6.223,61.88,752.81391910317,31.824148,6,P-GPS,,9.7
7900,2026-01-08 12:27:53,753.47008710317,35.761156,0.0,1.45535437728,9.558071172,16,5,7.744,753.47008710317,32.480316,0.671082,3.07852372056,0.0,0.0,-4.250186,209.6,4.6,3.4,0,0,1024,1024,1684,1024,0,0,100,0,0,0,0,98,3.87,3.865,0,0,0,0,6.223,61.88,753.47008710317,32.480316,6,P-GPS,,9.9
8000,2026-01-08 12:27:53,754.12625510317,36.417324,0.0,1.44085306448,9.6028218296,16,5,7.744,754.12625510317,33.136484,0.671082,3.07852372056,0.0,0.0,-4.250186,209.5,4.8,3.7,0,0,1024,1024,1684,1024,0,0,100,0,0,0,0,98,3.87,3.865,0,0,0,0,6.223,61.88,754.12625510317,33.136484,6,P-GPS,,10.1
8100,2026-01-08 12:27:53,754.78242310317,37.073492,0.0,1.43030516388,9.6659451912,16,5,7.744,754.78242310317,33.792652,0.671082,3.07852372056,0.0,0.0,-4.47388,209.6,5.3,3.7,0,0,1024,1024,1024,1024,0,0,0,0,0,0,0,98,3.87,3.865,0,0,0,0,6.223,61.88,754.78242310317,33.792652,6,P-GPS,,10.3
8200,2026-01-08 12:27:53,755.43859110317,37.72966,0.0,1.2011647366,9.9088257764,15,5,7.744,755.43859110317,34.44882,0.671082,3.07852372056,0.0,0.0,-4.250186,209.6,5.5,4.3,0,0,1024,1024,1024,1024,0,0,0,0,0,0,0,98,3.87,3.865,0,0,0,0,6.223,61.88,755.43859110317,34.44882,6,P-GPS,,10.5
8300,2026-01-08 12:27:53,755.76667510317,38.385828,0.0,1.17357615304,10.0112207928,16,5,7.744,755.76667510317,34.776904,0.671082,3.07852372056,0.0,0.0,-4.250186,209.5,4.7,4.7,0,0,1024,1024,1024,1024,0,0,0,0,0,0,0,98,3.87,3.865,0,0,0,0,6.223,61.88,755.76667510317,34.776904,6,P-GPS,,10.6
8400,2026-01-08 12:27:53,756.42284310317,39.041996,0.0,1.1675525308,10.0992785384,16,5,7.744,756.42284310317,35.433072,0.671082,3.07852372056,0.0,0.0,-3.802798,209.7,5.4,4.6,0,0,1024,1024,1024,1024,0,0,0,0,0,0,0,98,3.87,3.865,0,0,0,0,6.223,61.88,756.42284310317,35.433072,6,P-GPS,,10.8
8500,2026-01-08 12:27:53,756.75092710317,39.698164,0.0,1.17096788524,10.1811683048,16,5,7.744,756.75092710317,35.761156,0.671082,3.07852372056,0.0,0.0,-3.35541,209.7,6.3,4.4,0,0,1024,1024,1024,1024,0,0,0,0,0,0,0,98,3.87,3.865,0,0,0,0,6.223,61.88,756.75092710317,35.761156,6,P-GPS,,10.9
8600,2026-01-08 12:27:54,757.07901110317,39.698164,0.223694,1.10873035044,10.29609613,16,5,7.744,757.07901110317,36.08924,0.671082,3.07852372056,-0.223694,0.0,-2.684328,209.7,6.9,5.0,0,0,1024,1024,1024,1024,0,0,0,0,0,0,0,98,3.87,3.865,0,0,0,0,6.223,61.88,757.07901110317,36.08924,6,P-GPS,,11.0
8700,2026-01-08 12:27:54,757.40709510317,39.698164,0.223694,0.97996722296,10.4810370808,16,5,7.744,757.40709510317,36.417324,0.671082,3.07852372056,-0.223694,0.0,-1.789552,209.7,7.7,5.0,0,0,1024,1024,1024,1024,0,0,0,0,0,0,0,98,3.87,3.865,0,0,0,0,6.223,61.88,757.40709510317,36.417324,6,P-GPS,,11.1
8800,2026-01-08 12:27:54,757.40709510317,39.698164,0.223694,0.92217194552,10.5855318348,16,5,7.744,757.40709510317,36.417324,0.671082,3.07852372056,-0.223694,0.0,-0.894776,209.8,8.0,4.7,0,0,1024,1024,1024,1024,0,0,0,0,0,0,0,98,3.87,3.865,0,0,0,0,6.223,61.88,757.40709510317,36.417324,6,P-GPS,,11.1
8900,2026-01-08 12:27:54,757.40709510317,39.698164,0.0,0.93083336312,10.6037733052,16,5,7.927,757.40709510317,36.417324,0.671082,3.07852372056,0.0,0.0,-0.447388,209.8,7.5,4.2,0,0,1024,1024,1024,1024,0,0,0,0,0,0,0,98,3.969,3.959,0,0,0,0,4.467,62.06,757.40709510317,36.417324,6,P-GPS,,11.1
9000,2026-01-08 12:27:54,757.73517910317,39.698164,0.0,0.81832023616,10.8187995588,16,5,7.927,757.73517910317,36.745408,0.671082,3.07852372056,0.0,0.0,-0.223694,209.8,6.8,4.5,0,0,1024,1024,1024,1024,0,0,0,0,0,0,0,98,3.969,3.959,0,0,0,0,4.467,62.06,757.73517910317,36.745408,6,P-GPS,,11.2
9100,2026-01-08 12:27:54,757.73517910317,39.698164,0.0,0.78268047124,10.8673559908,16,5,7.927,757.73517910317,36.745408,0.671082,3.07852372056,0.0,0.0,0.0,209.8,7.1,4.3,0,0,1024,1024,1024,1024,0,0,0,0,0,0,0,98,3.969,3.959,0,0,0,0,4.467,62.06,757.73517910317,36.745408,6,P-GPS,,11.2
9200,2026-01-08 12:27:54,757.73517910317,39.698164,0.0,0.73104989216,10.9374675416,16,5,7.927,757.73517910317,36.745408,0.671082,3.07852372056,0.0,0.0,0.0,209.6,7.4,4.8,0,0,1024,1024,1024,1024,0,0,0,0,0,0,0,98,3.969,3.959,0,0,0,0,4.467,62.06,757.73517910317,36.745408,6,P-GPS,,11.2
9300,2026-01-08 12:27:54,757.73517910317,39.698164,0.0,0.66398952256,11.0312667572,16,5,7.927,757.73517910317,36.745408,0.671082,3.07852372056,0.0,0.0,0.0,209.3,6.5,4.9,0,0,1024,1024,1024,1024,0,0,0,0,0,0,0,98,3.969,3.959,0,0,0,0,4.467,62.06,757.73517910317,36.745408,6,P-GPS,,11.2
9400,2026-01-08 12:27:54,757.73517910317,39.698164,0.0,0.60081366752,11.12368802,16,5,7.927,757.73517910317,36.745408,0.671082,3.07852372056,0.0,0.0,0.0,209.1,6.8,4.6,0,0,1024,1024,1024,1024,0,0,0,0,0,0,0,98,3.969,3.959,0,0,0,0,4.467,62.06,757.73517910317,36.745408,6,P-GPS,,11.2
9500,2026-01-08 12:27:55,757.40709510317,39.698164,0.0,0.500246079,11.3839242488,16,5,7.927,757.73517910317,36.745408,0.671082,3.07852372056,0.0,0.0,0.0,209.2,6.9,4.3,0,0,1024,1024,1024,1024,0,0,0,0,0,0,0,98,3.969,3.959,0,0,0,0,4.467,62.06,757.40709510317,36.417324,6,P-GPS,,11.1
9600,2026-01-08 12:27:55,757.40709510317,39.698164,0.0,0.48775592112,11.4666014168,16,5,7.927,757.73517910317,36.745408,0.671082,3.07852372056,0.0,0.0,0.0,209.2,6.7,4.5,0,0,1024,1024,1024,1024,0,0,0,0,0,0,0,98,3.969,3.959,0,0,0,0,4.467,62.06,757.40709510317,36.417324,6,P-GPS,,11.1
9700,2026-01-08 12:27:55,757.40709510317,39.698164,0.0,0.5024114334,11.5416342276,16,5,7.927,757.73517910317,36.745408,0.671082,3.07852372056,0.0,0.0,0.0,209.1,6.3,4.3,0,0,1024,1024,1024,1024,0,0,0,0,0,0,0,98,3.969,3.959,0,0,0,0,4.467,62.06,757.40709510317,36.417324,6,P-GPS,,11.1
9800,2026-01-08 12:27:55,757.40709510317,39.698164,0.223694,0.51565290364,11.5840882972,16,5,7.927,757.73517910317,36.745408,0.671082,3.07852372056,0.223694,0.0,0.0,209.1,5.9,3.9,0,0,1024,1024,1024,1024,0,0,0,0,0,0,0,98,3.969,3.959,0,0,0,0,4.467,62.06,757.40709510317,36.417324,6,P-GPS,,11.1
9900,2026-01-08 12:27:55,757.40709510317,39.698164,0.223694,0.528133219,11.699311398,16,5,7.927,757.73517910317,36.745408,0.671082,3.07852372056,0.223694,0.0,0.0,209.1,5.6,3.8,0,0,1024,1024,1024,1024,0,0,0,0,0,0,0,98,3.969,3.959,0,0,0,0,4.467,62.06,757.40709510317,36.417324,6,P-GPS,,11.1
10000,2026-01-08 12:27:55,757.40709510317,39.698164,0.223694,0.51189634184,11.7206696664,16,5,7.836,757.73517910317,36.745408,0.671082,3.07852372056,0.223694,0.0,0.0,209.2,4.8,3.5,0,0,1024,1024,1024,1024,0,0,0,0,0,0,0,98,3.919,3.917,0,0,0,0,4.72,62.06,757.40709510317,36.417324,6,P-GPS,,11.1
10100,2026-01-08 12:27:55,757.40709510317,39.698164,0.223694,0.4797900416,11.7735239988,16,5,7.836,757.73517910317,36.745408,0.671082,3.07852372056,0.223694,0.0,0.0,209.1,4.3,3.6,0,0,1024,1024,1024,1024,0,0,0,0,0,0,0,98,3.919,3.917,0,0,0,0,4.72,62.06,757.40709510317,36.417324,6,P-GPS,,11.1
10200,2026-01-08 12:27:55,757.07901110317,39.698164,0.223694,0.45458662872,11.8491145524,16,5,7.836,757.73517910317,36.745408,0.671082,3.07852372056,0.223694,0.0,0.0,209.1,4.7,3.8,0,0,1024,1024,1024,1024,0,0,0,0,0,0,0,98,3.919,3.917,0,0,0,0,4.72,62.06,757.07901110317,36.08924,6,P-GPS,,11.0
10300,2026-01-08 12:27:55,757.07901110317,39.698164,0.0,0.59452757808,12.2529203396,16,5,7.836,757.73517910317,36.745408,0.671082,3.07852372056,0.0,0.0,0.0,209.1,4.6,3.8,0,0,1024,1024,1024,1024,0,0,0,0,0,0,0,98,3.919,3.917,0,0,0,0,4.72,62.06,757.07901110317,36.08924,6,P-GPS,,11.0
10400,2026-01-08 12:27:55,757.07901110317,39.698164,0.0,0.67020343352,12.3684059076,16,5,7.836,757.73517910317,36.745408,0.671082,3.07852372056,0.0,0.0,0.0,209.0,4.4,3.8,0,0,1024,1024,1024,1024,0,0,0,0,0,0,0,98,3.919,3.917,0,0,0,0,4.72,62.06,757.07901110317,36.08924,6,P-GPS,,11.0
10500,2026-01-08 12:27:55,757.07901110317,39.698164,0.0,0.77213913232,12.5014439696,16,5,7.836,757.73517910317,36.745408,0.671082,3.07852372056,0.0,0.0,0.0,209.2,4.8,3.9,0,0,1024,1024,1024,1024,0,0,0,0,0,0,0,98,3.919,3.917,0,0,0,0,4.72,62.06,757.07901110317,36.08924,6,P-GPS,,11.0
10600,2026-01-08 12:27:56,757.07901110317,39.698164,0.0,0.8852034404,12.6364177272,16,5,7.836,757.73517910317,36.745408,0.671082,3.07852372056,0.0,0.0,0.0,209.4,5.3,4.1,0,0,1024,1024,1024,1024,0,0,0,0,0,0,0,98,3.919,3.917,0,0,0,0,4.72,62.06,757.07901110317,36.08924,6,P-GPS,,11.0
10700,2026-01-08 12:27:56,757.07901110317,39.698164,0.0,1.1599573862,12.9342523824,16,5,7.836,757.73517910317,36.745408,0.671082,3.07852372056,0.0,0.0,0.0,209.5,7.6,4.4,0,0,1024,1024,1024,1024,0,0,0,0,0,0,0,98,3.919,3.917,0,0,0,0,4.72,62.06,757.07901110317,36.08924,6,P-GPS,,11.0
10800,2026-01-08 12:27:56,757.07901110317,39.698164,0.0,1.253526943,13.0366473988,16,5,7.836,757.73517910317,36.745408,0.671082,3.07852372056,0.0,0.0,0.0,209.2,6.8,4.1,0,0,1024,1024,1024,1024,0,0,0,0,0,0,0,98,3.919,3.917,0,0,0,0,4.72,62.06,757.07901110317,36.08924,6,P-GPS,,11.0
10900,2026-01-08 12:27:56,757.07901110317,39.698164,0.0,1.32100726012,13.1090555376,16,5,7.836,757.73517910317,36.745408,0.671082,3.07852372056,0.0,0.0,0.0,209.2,5.5,4.5,0,0,1024,1024,1024,1024,0,0,0,0,0,0,0,98,3.919,3.917,0,0,0,0,4.72,62.06,757.07901110317,36.08924,6,P-GPS,SD card speed low. Normal use may be affected. Replace SD card (Code: 10028). Gimbal stuck. Make sure gimbal cover is removed and manually check whether gimbal can rotate freely (Code: 40002),11.0
11000,2026-01-08 12:27:56,757.07901110317,39.698164,0.0,1.34456697216,13.1407156436,16,5,7.836,757.73517910317,36.745408,0.671082,3.07852372056,0.0,0.0,0.0,209.3,5.3,4.9,0,0,1024,1024,1024,1024,0,0,0,0,0,0,0,98,3.919,3.917,0,0,0,0,4.72,62.06,757.07901110317,36.08924,6,P-GPS,,11.0
11100,2026-01-08 12:27:56,757.07901110317,39.698164,0.0,1.323736919,13.1698823112,16,5,7.861,757.73517910317,36.745408,0.671082,3.07852372056,0.0,0.0,0.0,209.3,5.2,5.4,0,0,1024,1024,1024,1024,0,0,0,0,0,0,0,98,3.932,3.919,0,0,0,0,4.797,62.06,757.07901110317,36.08924,6,P-GPS,,11.0
11200,2026-01-08 12:27:56,757.07901110317,39.698164,0.0,1.07232286896,13.4319558104,16,5,7.861,757.73517910317,36.745408,0.671082,3.07852372056,0.0,0.0,0.0,209.2,5.3,5.1,0,0,1024,1024,1024,1024,0,0,0,0,0,0,0,98,3.932,3.919,0,0,0,0,4.797,62.06,757.07901110317,36.08924,6,P-GPS,,11.0
11300,2026-01-08 12:27:56,757.07901110317,39.698164,0.0,1.03663389144,13.470636914,16,5,7.861,757.73517910317,36.745408,0.671082,3.07852372056,0.0,0.0,0.0,209.2,6.0,5.7,0,0,1024,1024,1024,1024,0,0,0,0,0,0,0,98,3.932,3.919,0,0,0,0,4.797,62.06,757.07901110317,36.08924,6,P-GPS,,11.0
11400,2026-01-08 12:27:56,757.07901110317,39.698164,0.0,1.00767063592,13.4999348152,16,5,7.861,757.73517910317,36.745408,0.671082,3.07852372056,0.0,0.0,0.0,209.2,7.1,5.8,0,0,1024,1024,1024,1024,0,0,0,0,0,0,0,98,3.932,3.919,0,0,0,0,4.797,62.06,757.07901110317,36.08924,6,P-GPS,,11.0
11500,2026-01-08 12:27:56,757.07901110317,39.698164,0.0,0.98683074024,13.5212602752,16,5,7.861,757.73517910317,36.745408,0.671082,3.07852372056,0.0,0.0,0.0,209.2,7.0,5.9,0,0,1024,1024,1024,1024,0,0,0,0,0,0,0,98,3.932,3.919,0,0,0,0,4.797,62.06,757.07901110317,36.08924,6,P-GPS,,11.0
11600,2026-01-08 12:27:57,757.07901110317,39.698164,0.0,0.76562994576,13.7726054276,16,5,7.861,757.73517910317,36.745408,0.671082,3.07852372056,0.0,0.0,0.0,209.3,7.3,5.9,0,0,1024,1024,1024,1024,0,0,0,0,0,0,0,98,3.932,3.919,0,0,0,0,4.797,62.06,757.07901110317,36.08924,6,P-GPS,,11.0
11700,2026-01-08 12:27:57,757.07901110317,39.698164,0.0,0.74811026016,13.8119426992,16,5,7.861,757.73517910317,36.745408,0.671082,3.07852372056,0.0,0.0,0.0,209.3,7.4,6.1,0,0,1024,1024,1024,1024,0,0,0,0,0,0,0,98,3.932,3.919,0,0,0,0,4.797,62.06,757.07901110317,36.08924,6,P-GPS,,11.0
11800,2026-01-08 12:27:57,757.07901110317,39.698164,0.0,0.72170605984,13.8479663224,16,5,7.861,757.73517910317,36.745408,0.671082,3.07852372056,0.0,0.0,0.0,209.1,6.7,6.2,0,0,1024,1024,1024,1024,0,0,0,0,0,0,0,98,3.932,3.919,0,0,0,0,4.797,62.06,757.07901110317,36.08924,6,P-GPS,,11.0
11900,2026-01-08 12:27:57,757.07901110317,39.698164,0.0,0.6855807306,13.886483384,16,5,7.861,757.73517910317,36.745408,0.671082,3.07852372056,0.0,0.0,0.0,209.1,6.2,6.1,0,0,1024,1024,1024,1024,0,0,0,0,0,0,0,98,3.932,3.919,0,0,0,0,4.797,62.06,757.07901110317,36.08924,6,P-GPS,,11.0
12000,2026-01-08 12:27:57,757.07901110317,39.698164,0.0,0.62938650308,13.9561684256,16,5,7.861,757.73517910317,36.745408,0.671082,3.07852372056,0.0,0.0,0.0,209.1,6.5,6.4,0,0,1024,1024,1024,1024,0,0,0,0,0,0,0,98,3.932,3.919,0,0,0,0,4.797,62.06,757.07901110317,36.08924,6,P-GPS,,11.0
12100,2026-01-08 12:27:57,757.07901110317,39.698164,0.0,0.5538221962,14.0680122612,16,5,7.861,757.73517910317,36.745408,0.671082,3.07852372056,0.0,0.0,0.0,208.9,5.6,6.4,0,0,1024,1024,1024,1024,0,0,0,0,0,0,0,98,3.932,3.919,0,0,0,0,4.797,62.06,757.07901110317,36.08924,6,P-GPS,,11.0
12200,2026-01-08 12:27:57,757.07901110317,39.698164,0.0,0.50688321832,14.1451120012,16,5,7.833,757.73517910317,36.745408,0.671082,3.07852372056,0.0,0.0,-0.223694,209.0,5.9,6.5,0,0,1024,1024,1024,1024,0,0,0,0,0,0,0,98,3.919,3.913,0,0,0,0,4.771,62.06,757.07901110317,36.08924,6,P-GPS,,11.0
12300,2026-01-08 12:27:57,757.07901110317,39.698164,0.0,0.47954725944,14.185860034,16,5,7.833,757.73517910317,36.745408,0.671082,3.07852372056,0.0,0.0,0.0,209.0,6.6,5.8,0,0,1024,1024,1024,1024,0,0,0,0,0,0,0,98,3.919,3.913,0,0,0,0,4.771,62.06,757.07901110317,36.08924,6,P-GPS,,11.0
12400,2026-01-08 12:27:57,757.07901110317,39.698164,0.0,0.47634844044,14.1997707956,16,5,7.833,757.73517910317,36.745408,0.671082,3.07852372056,0.0,0.0,0.0,209.1,6.6,6.2,0,0,1024,1024,1024,1024,0,0,0,0,0,0,0,98,3.919,3.913,0,0,0,0,4.771,62.06,757.07901110317,36.08924,6,P-GPS,,11.0
12500,2026-01-08 12:27:57,757.07901110317,39.698164,0.0,0.46145342684,14.2168967804,16,5,7.833,757.73517910317,36.745408,0.671082,3.07852372056,0.0,0.0,0.0,209.0,6.2,6.3,0,0,1024,1024,1024,1024,0,0,0,0,0,0,0,98,3.919,3.913,0,0,0,0,4.771,62.06,757.07901110317,36.08924,6,P-GPS,,11.0
12600,2026-01-08 12:27:58,757.07901110317,39.698164,0.0,0.4534613006,14.235072634,16,5,7.833,757.73517910317,36.745408,0.671082,3.07852372056,0.0,0.0,0.0,208.9,6.1,6.5,0,0,1024,1024,1024,1024,0,0,0,0,0,0,0,98,3.919,3.913,0,0,0,0,4.771,62.06,757.07901110317,36.08924,6,P-GPS,,11.0
12700,2026-01-08 12:27:58,757.07901110317,39.698164,0.0,0.45665027708,14.2635503252,16,5,7.833,757.73517910317,36.745408,0.671082,3.07852372056,0.0,0.0,0.0,209.0,7.2,6.2,0,0,1024,1024,1024,1024,0,0,0,0,0,0,0,98,3.919,3.913,0,0,0,0,4.771,62.06,757.07901110317,36.08924,6,P-GPS,,11.0
12800,2026-01-08 12:27:58,756.75092710317,39.698164,0.0,0.46019686512,14.285433528,16,5,7.833,757.73517910317,36.745408,0.671082,3.07852372056,0.0,0.0,0.0,209.2,7.5,6.5,0,0,1024,1024,1024,1024,0,0,0,0,0,0,0,98,3.919,3.913,0,0,0,0,4.771,62.06,756.75092710317,35.761156,6,P-GPS,,10.9
12900,2026-01-08 12:27:58,756.75092710317,39.698164,0.0,0.48966865084,14.3311028208,16,5,7.833,757.73517910317,36.745408,0.671082,3.07852372056,0.0,0.0,0.0,209.2,8.2,6.6,0,0,1024,1024,1024,1024,0,0,0,0,0,0,0,98,3.919,3.913,0,0,0,0,4.771,62.06,756.75092710317,35.761156,6,P-GPS,,10.9
13000,2026-01-08 12:27:58,756.75092710317,39.698164,0.0,0.46754266588,14.366142192,16,5,7.833,757.73517910317,36.745408,0.671082,3.07852372056,0.0,0.0,0.0,208.9,7.3,5.2,0,0,1024,1024,1024,1024,0,0,0,0,0,0,0,98,3.919,3.913,0,0,0,0,4.771,62.06,756.75092710317,35.761156,6,P-GPS,,10.9
13100,2026-01-08 12:27:58,756.42284310317,39.698164,0.0,0.43088584056,14.42011201,16,5,7.833,757.73517910317,36.745408,0.671082,3.07852372056,0.0,0.0,0.0,208.7,5.9,5.3,0,0,1024,1024,1024,1024,0,0,0,0,0,0,0,98,3.919,3.913,0,0,0,0,4.771,62.06,756.42284310317,35.433072,6,P-GPS,,10.8
13200,2026-01-08 12:27:58,756.42284310317,39.698164,0.0,0.38690289952,14.4713259224,16,5,7.833,757.73517910317,36.745408,0.671082,3.07852372056,0.0,0.0,0.0,208.6,6.3,6.3,0,0,1024,1024,1024,1024,0,0,0,0,0,0,0,98,3.919,3.913,0,0,0,0,4.771,62.06,756.42284310317,35.433072,6,P-GPS,,10.8
13300,2026-01-08 12:27:58,756.42284310317,39.698164,0.0,0.2690124758,14.61040073,16,5,7.779,757.73517910317,36.745408,0.671082,3.07852372056,0.0,0.0,0.0,208.6,6.4,5.3,0,0,1024,1024,1024,1024,0,0,0,0,0,0,0,98,3.894,3.888,0,0,0,0,4.742,62.06,756.42284310317,35.433072,6,P-GPS,,10.8
13400,2026-01-08 12:27:58,756.09475910317,39.698164,0.0,0.222868773536,14.6565621488,16,5,7.779,757.73517910317,36.745408,0.671082,3.07852372056,0.0,0.0,0.0,208.6,4.9,4.6,0,0,1024,1024,1024,1024,0,0,0,0,0,0,0,98,3.894,3.888,0,0,0,0,4.742,62.06,756.09475910317,35.104988,6,P-GPS,,10.7
13500,2026-01-08 12:27:58,756.09475910317,39.698164,0.0,0.18274606884,14.6972773732,16,5,7.779,757.73517910317,36.745408,0.671082,3.07852372056,0.0,0.0,-0.223694,208.8,5.9,4.3,0,0,1024,1024,1024,1024,0,0,0,0,0,0,0,98,3.894,3.888,0,0,0,0,4.742,62.06,756.09475910317,35.104988,6,P-GPS,,10.7
13600,2026-01-08 12:27:59,756.09475910317,39.698164,0.0,0.161439637712,14.7315293428,16,5,7.779,757.73517910317,36.745408,0.671082,3.07852372056,0.0,0.0,-0.223694,208.9,5.6,4.8,0,0,1024,1024,1024,1024,0,0,0,0,0,0,0,98,3.894,3.888,0,0,0,0,4.742,62.06,756.09475910317,35.104988,6,P-GPS,,10.7
13700,2026-01-08 12:27:59,756.09475910317,39.698164,0.0,0.288796269084,14.923064782,16,5,7.779,757.73517910317,36.745408,0.671082,3.07852372056,0.0,0.0,-0.223694,209.0,6.9,4.6,0,0,1024,1024,1024,1024,0,0,0,0,0,0,0,98,3.894,3.888,0,0,0,0,4.742,62.06,756.09475910317,35.104988,6,P-GPS,,10.7
13800,2026-01-08 12:27:59,755.76667510317,39.698164,0.0,0.33479987948,14.98769733,16,5,7.779,757.73517910317,36.745408,0.671082,3.07852372056,0.0,0.0,0.0,209.0,6.9,4.7,0,0,1024,1024,1024,1024,0,0,0,0,0,0,0,98,3.894,3.888,0,0,0,0,4.742,62.06,755.76667510317,34.776904,6,P-GPS,,10.6
13900,2026-01-08 12:27:59,755.76667510317,39.698164,0.0,0.40555775576,15.0786094064,16,5,7.779,757.73517910317,36.745408,0.671082,3.07852372056,0.0,0.0,0.0,209.0,6.4,4.7,0,0,1024,1024,1024,1024,0,0,0,0,0,0,0,98,3.894,3.888,0,0,0,0,4.742,62.06,755.76667510317,34.776904,6,P-GPS,,10.6
14000,2026-01-08 12:27:59,755.76667510317,39.698164,0.0,0.46603347948,15.1599742384,16,5,7.779,757.73517910317,36.745408,0.671082,3.07852372056,0.0,0.0,0.0,209.0,6.7,4.3,0,0,1024,1024,1024,1024,0,0,0,0,0,0,0,98,3.894,3.888,0,0,0,0,4.742,62.06,755.76667510317,34.776904,6,P-GPS,,10.6
14100,2026-01-08 12:27:59,755.76667510317,39.698164,0.0,0.66577429952,15.37647687,16,5,7.779,757.73517910317,36.745408,0.671082,3.07852372056,0.0,0.0,0.0,209.0,5.9,4.4,0,0,1024,1024,1024,1024,0,0,0,0,0,0,0,98,3.894,3.888,0,0,0,0,4.742,62.06,755.76667510317,34.776904,6,P-GPS,,10.6
14200,2026-01-08 12:27:59,755.76667510317,39.698164,0.0,0.7215879496,15.4614834344,16,5,7.779,757.73517910317,36.745408,0.671082,3.07852372056,0.0,0.0,0.0,209.0,5.9,5.0,0,0,1024,1024,1024,1024,0,0,0,0,0,0,0,98,3.894,3.888,0,0,0,0,4.742,62.06,755.76667510317,34.776904,6,P-GPS,,10.6
14300,2026-01-08 12:27:59,755.76667510317,39.698164,0.0,0.78346131116,15.5534453796,16,5,7.779,757.73517910317,36.745408,0.671082,3.07852372056,0.0,0.0,0.0,209.0,7.4,5.0,0,0,1024,1024,1024,1024,0,0,0,0,0,0,0,98,3.894,3.888,0,0,0,0,4.742,62.06,755.76667510317,34.776904,6,P-GPS,,10.6
14400,2026-01-08 12:27:59,755.76667510317,39.698164,0.0,0.82541341224,15.6240818648,16,5,7.859,757.73517910317,36.745408,0.671082,3.07852372056,0.0,0.0,0.0,208.8,7.4,4.2,0,0,1024,1024,1024,1024,0,0,0,0,0,0,0,98,3.934,3.926,0,0,0,0,4.496,62.24,755.76667510317,34.776904,6,P-GPS,,10.6
14500,2026-01-08 12:28:00,755.43859110317,39.698164,0.0,0.84930776996,15.684383704,16,5,7.859,757.73517910317,36.745408,0.671082,3.07852372056,0.0,0.0,0.0,208.6,6.6,3.9,0,0,1024,1024,1024,1024,0,0,0,0,0,0,0,98,3.934,3.926,0,0,0,0,4.496,62.24,755.43859110317,34.44882,6,P-GPS,,10.5
14600,2026-01-08 12:28:00,755.43859110317,39.698164,0.0,0.85212929236,15.7317262252,16,5,7.859,757.73517910317,36.745408,0.671082,3.07852372056,0.0,0.0,0.0,208.5,5.5,3.7,0,0,1024,1024,1024,1024,0,0,0,0,0,0,0,98,3.934,3.926,0,0,0,0,4.496,62.24,755.43859110317,34.44882,6,P-GPS,,10.5
14700,2026-01-08 12:28:00,755.43859110317,39.698164,0.0,0.89598756148,15.7771002424,16,5,7.859,757.73517910317,36.745408,0.671082,3.07852372056,0.0,0.0,0.0,208.6,4.9,3.7,0,0,1024,1024,1024,1024,0,0,0,0,0,0,0,98,3.934,3.926,0,0,0,0,4.496,62.24,755.43859110317,34.44882,6,P-GPS,,10.5
14800,2026-01-08 12:28:00,755.43859110317,39.698164,0.0,0.94183730048,15.8229663856,16,5,7.859,757.73517910317,36.745408,0.671082,3.07852372056,0.0,0.0,0.0,208.9,6.2,4.3,0,0,1024,1024,1024,1024,0,0,0,0,0,0,0,98,3.934,3.926,0,0,0,0,4.496,62.24,755.43859110317,34.44882,6,P-GPS,,10.5
14900,2026-01-08 12:28:00,755.43859110317,39.698164,0.0,0.98873690828,15.8704729488,16,5,7.859,757.73517910317,36.745408,0.671082,3.07852372056,0.0,0.0,0.0,208.9,7.5,4.2,0,0,1024,1024,1024,1024,0,0,0,0,0,0,0,98,3.934,3.926,0,0,0,0,4.496,62.24,755.43859110317,34.44882,6,P-GPS,,10.5
15000,2026-01-08 12:28:00,755.43859110317,39.698164,0.0,0.99196525484,16.0104992,16,5,7.859,757.73517910317,36.745408,0.671082,3.07852372056,0.0,0.0,0.0,208.7,6.9,3.8,0,0,1024,1024,1024,1024,0,0,0,0,0,0,0,98,3.934,3.926,0,0,0,0,4.496,62.24,755.43859110317,34.44882,6,P-GPS,,10.5
15100,2026-01-08 12:28:00,755.43859110317,39.698164,0.0,1.0499344168,16.0716212492,16,5,7.859,757.73517910317,36.745408,0.671082,3.07852372056,0.0,0.0,0.0,208.7,6.3,4.3,0,0,1024,1024,1024,1024,0,0,0,0,0,0,0,98,3.934,3.926,0,0,0,0,4.496,62.24,755.43859110317,34.44882,6,P-GPS,,10.5
15200,2026-01-08 12:28:00,755.11050710317,39.698164,0.0,1.10359583584,16.1272642956,16,5,7.859,757.73517910317,36.745408,0.671082,3.07852372056,0.0,0.0,0.0,208.8,6.9,4.4,0,0,1024,1024,1024,1024,0,0,0,0,0,0,0,98,3.934,3.926,0,0,0,0,4.496,62.24,755.11050710317,34.120736,6,P-GPS,,10.4
15300,2026-01-08 12:28:00,755.11050710317,39.698164,0.0,1.15623691364,16.180118628,16,5,7.859,757.73517910317,36.745408,0.671082,3.07852372056,0.0,0.0,0.0,208.9,7.0,4.6,0,0,1024,1024,1024,1024,0,0,0,0,0,0,0,98,3.934,3.926,0,0,0,0,4.496,62.24,755.11050710317,34.120736,6,P-GPS,,10.4
15400,2026-01-08 12:28:00,755.11050710317,39.698164,0.0,1.18005909288,16.2163391016,16,5,7.859,757.73517910317,36.745408,0.671082,3.07852372056,0.0,0.0,0.0,208.9,6.6,4.6,0,0,1024,1024,1024,1024,0,0,0,0,0,0,0,98,3.934,3.926,0,0,0,0,4.496,62.24,755.11050710317,34.120736,6,P-GPS,,10.4
15500,2026-01-08 12:28:00,755.11050710317,39.698164,0.0,1.17699806916,16.2705713868,16,5,7.859,757.73517910317,36.745408,0.671082,3.07852372056,0.0,0.0,0.0,208.9,6.3,4.7,0,0,1024,1024,1024,1024,0,0,0,0,0,0,0,98,3.922,3.917,0,0,0,0,4.496,62.24,755.11050710317,34.120736,6,P-GPS,,10.4
15600,2026-01-08 12:28:01,755.11050710317,39.698164,0.0,1.17339570684,16.2992787368,16,5,7.859,757.73517910317,36.745408,0.671082,3.07852372056,0.0,0.0,0.0,208.8,6.1,4.8,0,0,1024,1024,1024,1024,0,0,0,0,0,0,0,98,3.922,3.917,0,0,0,0,4.496,62.24,755.11050710317,34.120736,6,P-GPS,,10.4
15700,2026-01-08 12:28:01,755.11050710317,39.698164,0.0,1.17274938136,16.3014768996,16,5,7.859,757.73517910317,36.745408,0.671082,3.07852372056,0.0,0.0,0.0,208.6,4.9,4.6,0,0,1024,1024,1024,1024,0,0,0,0,0,0,0,98,3.922,3.917,0,0,0,0,4.496,62.24,755.11050710317,34.120736,6,P-GPS,,10.4
15800,2026-01-08 12:28:01,755.11050710317,39.698164,0.0,1.07207352512,16.427822048,16,5,7.859,757.73517910317,36.745408,0.671082,3.07852372056,0.0,0.0,0.0,208.7,4.1,4.5,0,0,1024,1024,1024,1024,0,0,0,0,0,0,0,98,3.922,3.917,0,0,0,0,4.496,62.24,755.11050710317,34.120736,6,P-GPS,,10.4
15900,2026-01-08 12:28:01,755.11050710317,39.698164,0.0,1.07129924688,16.4450792664,16,5,7.859,757.73517910317,36.745408,0.671082,3.07852372056,0.0,0.0,0.0,208.9,4.6,4.3,0,0,1024,1024,1024,1024,0,0,0,0,0,0,0,98,3.922,3.917,0,0,0,0,4.496,62.24,755.11050710317,34.120736,6,P-GPS,,10.4
16000,2026-01-08 12:28:01,755.11050710317,39.698164,0.0,1.08501643892,16.4743443592,16,5,7.859,757.73517910317,36.745408,0.671082,3.07852372056,0.0,0.0,0.0,209.0,4.9,4.9,0,0,1024,1024,1024,1024,0,0,0,0,0,0,0,98,3.922,3.917,0,0,0,0,4.496,62.24,755.11050710317,34.120736,6,P-GPS,,10.4
16100,2026-01-08 12:28:01,755.11050710317,39.698164,0.0,1.11162405132,16.5182748068,16,5,7.859,757.73517910317,36.745408,0.671082,3.07852372056,0.0,0.0,0.0,209.0,4.3,5.0,0,0,1024,1024,1024,1024,0,0,0,0,0,0,0,98,3.922,3.917,0,0,0,0,4.496,62.24,755.11050710317,34.120736,6,P-GPS,,10.4
16200,2026-01-08 12:28:01,754.78242310317,39.698164,0.0,1.135498724,16.5606304512,16,5,7.859,757.73517910317,36.745408,0.671082,3.07852372056,0.0,0.0,0.0,208.7,5.0,4.4,0,0,1024,1024,1024,1024,0,0,0,0,0,0,0,98,3.922,3.917,0,0,0,0,4.496,62.24,754.78242310317,33.792652,6,P-GPS,,10.3
16300,2026-01-08 12:28:01,754.78242310317,39.698164,0.0,1.18582352876,16.677493972,16,5,7.859,757.73517910317,36.745408,0.671082,3.07852372056,0.0,0.0,0.0,208.8,6.2,3.8,0,0,1024,1024,1024,1024,0,0,0,0,0,0,0,98,3.922,3.917,0,0,0,0,4.496,62.24,754.78242310317,33.792652,6,P-GPS,,10.3
16400,2026-01-08 12:28:01,754.45433910317,39.698164,0.0,1.22381565596,16.7205057844,16,5,7.859,757.73517910317,36.745408,0.671082,3.07852372056,0.0,0.0,0.0,208.9,6.1,4.3,0,0,1024,1024,1024,1024,0,0,0,0,0,0,0,98,3.922,3.917,0,0,0,0,4.496,62.24,754.45433910317,33.464568,6,P-GPS,,10.2
16500,2026-01-08 12:28:01,754.45433910317,39.698164,0.0,1.2726870486,16.7696199592,16,5,7.859,757.73517910317,36.745408,0.671082,3.07852372056,0.0,0.0,0.0,208.9,6.1,4.1,0,0,1024,1024,1024,1024,0,0,0,0,0,0,0,98,3.922,3.917,0,0,0,0,4.496,62.24,754.45433910317,33.464568,6,P-GPS,,10.2
16600,2026-01-08 12:28:02,754.12625510317,39.698164,0.0,1.31178153804,16.8094165484,16,5,7.839,757.73517910317,36.745408,0.671082,3.07852372056,0.0,0.0,0.0,209.0,5.8,4.4,0,0,1024,1024,1024,1024,0,0,0,0,0,0,0,98,3.942,3.939,0,0,0,0,4.614,62.42,754.12625510317,33.136484,6,P-GPS,,10.1
16700,2026-01-08 12:28:02,754.12625510317,39.698164,0.0,1.36429138224,16.9013128768,16,5,7.839,757.73517910317,36.745408,0.671082,3.07852372056,0.0,0.0,0.0,208.9,5.9,4.5,0,0,1024,1024,1024,1024,0,0,0,0,0,0,0,98,3.942,3.939,0,0,0,0,4.614,62.42,754.12625510317,33.136484,6,P-GPS,,10.1
16800,2026-01-08 12:28:02,754.12625510317,39.698164,0.0,1.40021658024,16.9410438492,16,5,7.839,757.73517910317,36.745408,0.671082,3.07852372056,0.0,0.0,0.0,208.8,6.0,4.4,0,0,1024,1024,1024,1024,0,0,0,0,0,0,0,98,3.942,3.939,0,0,0,0,4.614,62.42,754.12625510317,33.136484,6,P-GPS,,10.1
16900,2026-01-08 12:28:02,754.12625510317,39.698164,0.0,1.44657813028,16.9903876828,16,5,7.839,757.73517910317,36.745408,0.671082,3.07852372056,0.0,0.0,0.0,208.6,5.7,4.4,0,0,1024,1024,1024,1024,0,0,0,0,0,0,0,98,3.942,3.939,0,0,0,0,4.614,62.42,754.12625510317,33.136484,6,P-GPS,,10.1
17000,2026-01-08 12:28:02,754.12625510317,39.698164,0.0,1.48297576924,17.0281501512,16,5,7.839,757.73517910317,36.745408,0.671082,3.07852372056,0.0,0.0,0.0,208.6,6.0,4.7,0,0,1024,1024,1024,1024,0,0,0,0,0,0,0,98,3.942,3.939,0,0,0,0,4.614,62.42,754.12625510317,33.136484,6,P-GPS,,10.1
17100,2026-01-08 12:28:02,754.12625510317,39.698164,0.0,1.4986384994,17.0598430656,16,5,7.839,757.73517910317,36.745408,0.671082,3.07852372056,0.0,0.0,0.0,208.6,5.7,4.5,0,0,1024,1024,1024,1024,0,0,0,0,0,0,0,98,3.942,3.939,0,0,0,0,4.614,62.42,754.12625510317,33.136484,6,P-GPS,,10.1
17200,2026-01-08 12:28:02,754.12625510317,39.698164,0.0,1.52883535076,17.0911750876,16,5,7.839,757.73517910317,36.745408,0.671082,3.07852372056,0.0,0.0,0.0,208.7,6.1,4.7,0,0,1024,1024,1024,1024,0,0,0,0,0,0,0,98,3.942,3.939,0,0,0,0,4.614,62.42,754.12625510317,33.136484,6,P-GPS,,10.1
17300,2026-01-08 12:28:02,753.79817110317,39.698164,0.0,1.56769690056,17.135171152,16,5,7.839,757.73517910317,36.745408,0.671082,3.07852372056,0.0,0.0,0.0,208.7,6.8,4.7,0,0,1024,1024,1024,1024,0,0,0,0,0,0,0,98,3.942,3.939,0,0,0,0,4.614,62.42,753.79817110317,32.8084,6,P-GPS,,10.0
17400,2026-01-08 12:28:02,753.79817110317,39.698164,0.0,1.59371068092,17.171588476,16,5,7.839,757.73517910317,36.745408,0.671082,3.07852372056,0.0,0.0,0.0,208.6,6.8,4.6,0,0,1024,1024,1024,1024,0,0,0,0,0,0,0,98,3.942,3.939,0,0,0,0,4.614,62.42,753.79817110317,32.8084,6,P-GPS,,10.0
17500,2026-01-08 12:28:03,753.79817110317,39.698164,0.0,1.57525267508,17.2734257496,16,5,7.839,757.73517910317,36.745408,0.671082,3.07852372056,0.0,0.0,0.0,208.7,7.5,4.6,0,0,1024,1024,1024,1024,0,0,0,0,0,0,0,98,3.942,3.939,0,0,0,0,4.614,62.42,753.79817110317,32.8084,6,P-GPS,,10.0
17600,2026-01-08 12:28:03,753.79817110317,39.698164,0.0,1.59444886992,17.306266958,16,5,7.839,757.73517910317,36.745408,0.671082,3.07852372056,0.0,0.0,0.0,208.7,7.6,4.3,0,0,1024,1024,1024,1024,0,0,0,0,0,0,0,98,3.942,3.939,0,0,0,0,4.614,62.42,753.79817110317,32.8084,6,P-GPS,,10.0
17700,2026-01-08 12:28:03,753.79817110317,39.698164,0.0,1.61868115416,17.3383207648,16,5,7.839,757.73517910317,36.745408,0.671082,3.07852372056,0.0,0.0,0.0,208.7,7.2,3.8,0,0,1024,1024,1024,1024,0,0,0,0,0,0,0,98,3.942,3.939,0,0,0,0,4.614,62.42,753.79817110317,32.8084,6,P-GPS,,10.0
17800,2026-01-08 12:28:03,753.79817110317,39.698164,0.0,1.62970477656,17.3681764088,16,5,7.856,757.73517910317,36.745408,0.671082,3.07852372056,0.0,0.0,0.0,208.6,7.0,3.5,0,0,1024,1024,1024,1024,0,0,0,0,0,0,0,98,3.929,3.927,0,0,0,0,4.27,62.42,753.79817110317,32.8084,6,P-GPS,,10.0
17900,2026-01-08 12:28:03,753.79817110317,39.698164,0.0,1.629675249,17.4067590872,16,5,7.856,757.73517910317,36.745408,0.671082,3.07852372056,0.0,0.0,0.0,208.6,7.2,3.1,0,0,1024,1024,1024,1024,0,0,0,0,0,0,0,98,3.929,3.927,0,0,0,0,4.27,62.42,753.79817110317,32.8084,6,P-GPS,,10.0
18000,2026-01-08 12:28:03,753.79817110317,39.698164,0.0,1.6079560882,17.4516737868,16,5,7.856,757.73517910317,36.745408,0.671082,3.07852372056,0.0,0.0,0.0,208.6,6.8,3.0,0,0,1024,1024,1024,1024,0,0,0,0,0,0,0,98,3.929,3.927,0,0,0,0,4.27,62.42,753.79817110317,32.8084,6,P-GPS,,10.0
18100,2026-01-08 12:28:03,753.79817110317,39.698164,0.0,1.61540031416,17.4879598772,16,5,7.856,757.73517910317,36.745408,0.671082,3.07852372056,0.0,0.0,0.0,208.7,7.9,2.4,0,0,1024,1024,1024,1024,0,0,0,0,0,0,0,98,3.929,3.927,0,0,0,0,4.27,62.42,753.79817110317,32.8084,6,P-GPS,,10.0
18200,2026-01-08 12:28:03,753.79817110317,39.698164,0.0,1.6345637006,17.5145018728,16,5,7.856,757.73517910317,36.745408,0.671082,3.07852372056,0.0,0.0,0.0,208.7,8.3,2.2,0,0,1024,1024,1024,1024,0,0,0,0,0,0,0,98,3.929,3.927,0,0,0,0,4.27,62.42,753.79817110317,32.8084,6,P-GPS,,10.0
18300,2026-01-08 12:28:03,753.79817110317,39.698164,0.0,1.66705713996,17.5476383568,16,5,7.856,757.73517910317,36.745408,0.671082,3.07852372056,0.0,0.0,0.0,208.7,8.1,2.2,0,0,1024,1024,1024,1024,0,0,0,0,0,0,0,98,3.929,3.927,0,0,0,0,4.27,62.42,753.79817110317,32.8084,6,P-GPS,,10.0
18400,2026-01-08 12:28:03,753.79817110317,39.698164,0.0,1.70872380796,17.6628614576,16,5,7.856,757.73517910317,36.745408,0.671082,3.07852372056,0.0,0.0,0.0,208.7,7.7,2.7,0,0,1024,1024,1024,1024,0,0,0,0,0,0,0,98,3.929,3.927,0,0,0,0,4.27,62.42,753.79817110317,32.8084,6,P-GPS,,10.0
18500,2026-01-08 12:28:03,754.12625510317,39.698164,0.0,1.78126974204,17.7428811452,16,5,7.856,757.73517910317,36.745408,0.671082,3.07852372056,0.0,0.0,0.0,208.7,7.8,3.1,0,0,1024,1024,1024,1024,0,0,0,0,0,0,0,98,3.929,3.927,0,0,0,0,4.27,62.42,754.12625510317,33.136484,6,P-GPS,,10.1
18600,2026-01-08 12:28:04,754.12625510317,39.698164,0.0,1.84120084632,17.8210963708,16,5,7.856,757.73517910317,36.745408,0.671082,3.07852372056,0.0,0.0,0.0,208.7,8.3,3.7,0,0,1024,1024,1024,1024,0,0,0,0,0,0,0,98,3.929,3.927,0,0,0,0,4.27,62.42,754.12625510317,33.136484,6,P-GPS,,10.1
18700,2026-01-08 12:28:04,754.12625510317,39.698164,0.0,1.89180124164,17.9094822004,16,5,7.856,757.73517910317,36.745408,0.671082,3.07852372056,0.0,0.0,0.0,208.7,8.3,3.7,0,0,1024,1024,1024,1024,0,0,0,0,0,0,0,98,3.929,3.927,0,0,0,0,4.27,62.42,754.12625510317,33.136484,6,P-GPS,,10.1
18800,2026-01-08 12:28:04,754.12625510317,39.698164,0.0,1.9311352324,18.0338916532,16,5,7.856,757.73517910317,36.745408,0.671082,3.07852372056,0.0,0.0,0.0,208.8,7.8,4.2,0,0,1024,1024,1024,1024,0,0,0,0,0,0,0,98,3.929,3.927,0,0,0,0,4.27,62.42,754.12625510317,33.136484,6,P-GPS,,10.1
18900,2026-01-08 12:28:04,754.12625510317,39.698164,0.0,1.97049546988,18.2145347036,16,5,7.842,757.73517910317,36.745408,0.671082,3.07852372056,0.0,0.0,0.0,208.7,7.6,4.0,0,0,1024,1024,1024,1024,0,0,0,0,0,0,0,98,3.915,3.909,0,0,0,0,4.6,62.42,754.12625510317,33.136484,6,P-GPS,,10.1
19000,2026-01-08 12:28:04,754.12625510317,39.698164,0.0,1.99745085132,18.3281173844,16,5,7.842,757.73517910317,36.745408,0.671082,3.07852372056,0.0,0.0,0.0,208.7,7.6,4.0,0,0,1024,1024,1024,1024,0,0,0,0,0,0,0,98,3.915,3.909,0,0,0,0,4.6,62.42,754.12625510317,33.136484,6,P-GPS,,10.1
19100,2026-01-08 12:28:04,754.12625510317,39.698164,0.0,2.00087276744,18.3643706664,16,5,7.842,757.73517910317,36.745408,0.671082,3.07852372056,0.0,0.0,0.0,208.8,7.8,3.8,0,0,1024,1024,1024,1024,0,0,0,0,0,0,0,98,3.915,3.909,0,0,0,0,4.6,62.42,754.12625510317,33.136484,6,P-GPS,,10.1
19200,2026-01-08 12:28:04,754.12625510317,39.698164,0.0,1.85659126676,18.51378012,16,5,7.842,757.73517910317,36.745408,0.671082,3.07852372056,0.0,0.0,0.0,208.9,8.1,3.8,0,0,1024,1024,1024,1024,0,0,0,0,0,0,0,98,3.915,3.909,0,0,0,0,4.6,62.42,754.12625510317,33.136484,6,P-GPS,,10.1
19300,2026-01-08 12:28:04,754.45433910317,39.698164,0.0,1.84087276232,18.5294953436,16,5,7.842,757.73517910317,36.745408,0.671082,3.07852372056,0.0,0.0,0.0,208.9,8.1,4.1,0,0,1024,1024,1024,1024,0,0,0,0,0,0,0,98,3.915,3.909,0,0,0,0,4.6,62.42,754.45433910317,33.464568,6,P-GPS,,10.2
19400,2026-01-08 12:28:04,754.45433910317,39.698164,0.0,1.8318898224,18.5442263152,16,5,7.842,757.73517910317,36.745408,0.671082,3.07852372056,0.0,0.0,0.0,208.8,7.9,3.8,0,0,1024,1024,1024,1024,0,0,0,0,0,0,0,98,3.915,3.909,0,0,0,0,4.6,62.42,754.45433910317,33.464568,6,P-GPS,,10.2
19500,2026-01-08 12:28:05,754.45433910317,39.698164,0.0,1.8340879852,18.5674874708,16,5,7.842,757.73517910317,36.745408,0.671082,3.07852372056,0.0,0.0,0.0,208.9,7.9,4.0,0,0,1024,1024,1024,1024,0,0,0,0,0,0,0,98,3.915,3.909,0,0,0,0,4.6,62.42,754.45433910317,33.464568,6,P-GPS,,10.2
19600,2026-01-08 12:28:05,754.45433910317,39.698164,0.0,1.83713260472,18.5794297284,16,5,7.842,757.73517910317,36.745408,0.671082,3.07852372056,0.0,0.0,0.0,208.9,7.8,4.1,0,0,1024,1024,1024,1024,0,0,0,0,0,0,0,98,3.915,3.909,0,0,0,0,4.6,62.42,754.45433910317,33.464568,6,P-GPS,,10.2
19700,2026-01-08 12:28:05,754.45433910317,39.698164,0.0,1.81864835216,18.6679139832,16,5,7.842,757.73517910317,36.745408,0.671082,3.07852372056,0.0,0.0,0.0,208.9,7.8,4.2,0,0,1024,1024,1024,1024,0,0,0,0,0,0,0,98,3.915,3.909,0,0,0,0,4.6,62.42,754.45433910317,33.464568,6,P-GPS,,10.2
19800,2026-01-08 12:28:05,754.45433910317,39.698164,0.0,1.81801515004,18.6733273692,16,5,7.842,757.73517910317,36.745408,0.671082,3.07852372056,0.0,0.0,0.0,208.8,8.0,4.5,0,0,1024,1024,1024,1024,0,0,0,0,0,0,0,98,3.915,3.909,0,0,0,0,4.6,62.42,754.45433910317,33.464568,6,P-GPS,,10.2
19900,2026-01-08 12:28:05,754.45433910317,39.698164,0.0,1.81240491364,18.6829402304,16,5,7.842,757.73517910317,36.745408,0.671082,3.07852372056,0.0,0.0,0.0,208.7,7.4,4.0,0,0,1024,1024,1024,1024,0,0,0,0,0,0,0,98,3.915,3.909,0,0,0,0,4.6,62.42,754.45433910317,33.464568,6,P-GPS,,10.2
20000,2026-01-08 12:28:05,754.45433910317,39.698164,0.0,1.80461948032,18.6932748764,16,5,7.843,757.73517910317,36.745408,0.671082,3.07852372056,0.0,0.0,0.0,208.7,7.5,4.0,0,0,1024,1024,1024,1024,0,0,0,0,0,0,0,98,3.923,3.919,0,0,0,0,4.445,62.6,754.45433910317,33.464568,6,P-GPS,,10.2
20100,2026-01-08 12:28:05,754.45433910317,39.698164,0.0,1.76833338992,18.7303811768,16,5,7.843,757.73517910317,36.745408,0.671082,3.07852372056,0.0,0.0,0.0,208.8,7.6,4.0,0,0,1024,1024,1024,1024,0,0,0,0,0,0,0,98,3.923,3.919,0,0,0,0,4.445,62.6,754.45433910317,33.464568,6,P-GPS,,10.2
20200,2026-01-08 12:28:05,754.45433910317,39.698164,0.0,1.75639441316,18.7435373452,16,5,7.843,757.73517910317,36.745408,0.671082,3.07852372056,0.0,0.0,0.0,208.8,7.4,3.9,0,0,1024,1024,1024,1024,0,0,0,0,0,0,0,98,3.923,3.919,0,0,0,0,4.445,62.6,754.45433910317,33.464568,6,P-GPS,,10.2
20300,2026-01-08 12:28:05,754.45433910317,39.698164,0.0,1.74278548884,18.7572840648,16,5,7.843,757.73517910317,36.745408,0.671082,3.07852372056,0.0,0.0,0.0,208.7,7.2,3.8,0,0,1024,1024,1024,1024,0,0,0,0,0,0,0,98,3.923,3.919,0,0,0,0,4.445,62.6,754.45433910317,33.464568,6,P-GPS,,10.2
20400,2026-01-08 12:28:05,754.45433910317,39.698164,0.0,1.73749677476,18.7665360336,16,5,7.843,757.73517910317,36.745408,0.671082,3.07852372056,0.0,0.0,0.0,208.7,7.3,3.5,0,0,1024,1024,1024,1024,0,0,0,0,0,0,0,98,3.923,3.919,0,0,0,0,4.445,62.6,754.45433910317,33.464568,6,P-GPS,,10.2
20500,2026-01-08 12:28:05,754.45433910317,39.698164,0.0,1.76535110636,18.8294625448,16,5,7.843,757.73517910317,36.745408,0.671082,3.07852372056,0.0,0.0,0.0,208.7,7.4,3.4,0,0,1024,1024,1024,1024,0,0,0,0,0,0,0,98,3.923,3.919,0,0,0,0,4.445,62.6,754.45433910317,33.464568,6,P-GPS,,10.2
