time(millisecond),timestamp,altitude_above_seaLevel(feet),height_sonar(feet),speed(mph),distance(feet),mileage(feet),satellites,gpslevel,voltage(v),max_altitude(feet),max_ascent(feet),max_speed(mph),max_distance(feet), xSpeed(mph), ySpeed(mph), zSpeed(mph), compass_heading(degrees), pitch(degrees), roll(degrees),isPhoto,isVideo,rc_elevator,rc_aileron,rc_throttle,rc_rudder,rc_elevator(percent),rc_aileron(percent),rc_throttle(percent),rc_rudder(percent),gimbal_heading(degrees),gimbal_pitch(degrees),gimbal_roll(degrees),battery_percent,voltageCell1,voltageCell2,voltageCell3,voltageCell4,voltageCell5,voltageCell6,current(A),battery_temperature(f),altitude(feet),ascent(feet),flycStateRaw,flycState,message,height_above_takeoff(meters)
282700,2026-01-09 12:41:47,720.81025010005,0.656168,0.0,0.0,0.0,17,5,0.0,720.81025010005,0.0,0.0,0.0,0.0,0.0,0.0,25.1,1.3,0.8,0,0,1024,1024,1024,1024,0,0,0,0,0,0,0,81,3.948,3.945,0,0,0,0,0.0,72.32,720.81025010005,0.0,41,Motors_Started,SD card speed low SD card speed low. Normal use may be affected. Replace SD card (Code: 10028). Gimbal stuck. Make sure gimbal cover is removed and manually check whether gimbal can rotate freely (Code: 40002),0.0
282800,2026-01-09 12:41:47,720.81025010005,0.656168,0.0,0.0175655517432,0.0175655517432,17,5,0.0,720.81025010005,0.0,0.0,0.0175655517432,0.0,0.0,0.0,25.1,1.3,0.8,0,0,1024,1024,1024,1024,0,0,0,0,0,0,0,81,3.948,3.945,0,0,0,0,0.0,72.32,720.81025010005,0.0,41,Motors_Started,,0.0
282900,2026-01-09 12:41:47,720.81025010005,0.328084,0.0,0.0315920613784,0.031602363216,18,5,0.0,720.81025010005,0.0,0.0,0.0315920613784,0.0,0.0,0.0,25.1,1.3,0.8,0,0,1024,1024,1024,1024,0,0,0,0,0,0,0,81,3.948,3.945,0,0,0,0,0.0,72.32,720.81025010005,0.0,41,Motors_Started,,0.0
283000,2026-01-09 12:41:47,720.81025010005,0.328084,0.0,0.053625001716,0.054084975484,18,5,7.896,720.81025010005,0.0,0.0,0.053625001716,0.0,0.0,0.0,25.1,1.2,0.8,0,0,1024,1024,1024,1024,0,0,0,0,0,0,0,81,3.948,3.945,0,0,0,0,0.672,72.32,720.81025010005,0.0,41,Motors_Started,,0.0
283100,2026-01-09 12:41:47,720.81025010005,0.328084,0.0,0.056103676336,0.056991143556,18,5,7.896,720.81025010005,0.0,0.0,0.056103676336,0.0,0.0,0.0,25.2,1.3,0.8,0,0,1024,1024,1024,1024,0,0,0,0,0,0,0,81,3.948,3.945,0,0,0,0,0.672,72.32,720.81025010005,0.0,41,Motors_Started,,0.0
283200,2026-01-09 12:41:47,720.81025010005,0.328084,0.0,0.054494096232,0.059928151524,18,5,7.896,720.81025010005,0.0,0.0,0.056103676336,0.0,0.0,0.0,25.2,1.2,0.8,0,0,1024,1024,1024,1024,0,0,0,0,0,0,0,81,3.948,3.945,0,0,0,0,0.672,72.32,720.81025010005,0.0,41,Motors_Started,,0.0
283300,2026-01-09 12:41:47,720.81025010005,0.328084,0.0,0.057909122588,0.066746393212,18,5,7.896,720.81025010005,0.0,0.0,0.057909122588,0.0,0.0,0.0,25.2,1.3,0.8,0,0,1024,1024,1024,1024,0,0,0,0,0,0,0,81,3.948,3.945,0,0,0,0,0.672,72.32,720.81025010005,0.0,41,Motors_Started,Setting new Return-To-Home altitude to 90m (295 ft). Data Recorder File Index is 31. Setting new Maximum Flight Altitude to 90m (295 ft),0.0
283400,2026-01-09 12:41:47,720.81025010005,0.328084,0.0,3.00320219584,0.117659452584,18,5,7.896,720.81025010005,0.0,0.0,3.00320219584,0.0,0.0,0.0,25.2,1.3,0.8,0,0,1024,1024,1024,1024,0,0,0,0,0,0,0,81,3.948,3.945,0,0,0,0,0.672,72.32,720.81025010005,0.0,41,Motors_Started,,0.0
283500,2026-01-09 12:41:48,720.81025010005,0.328084,0.0,3.0219653198,0.13695210412,18,5,7.896,720.81025010005,0.0,0.0,3.0219653198,0.0,0.0,0.0,25.2,1.3,0.8,0,0,1024,1024,1024,1024,0,0,0,0,0,0,0,81,3.948,3.945,0,0,0,0,0.672,72.32,720.81025010005,0.0,41,Motors_Started,,0.0
283600,2026-01-09 12:41:48,720.81025010005,0.328084,0.0,3.0292323804,0.144911750044,18,5,7.896,720.81025010005,0.0,0.0,3.0292323804,0.0,0.0,0.0,25.1,1.2,0.8,0,0,1024,1024,1024,1024,0,0,0,0,0,0,0,81,3.948,3.945,0,0,0,0,0.672,72.32,720.81025010005,0.0,41,Motors_Started,,0.0
283700,2026-01-09 12:41:48,720.81025010005,0.328084,0.0,3.03459327296,0.151208338172,17,5,7.896,720.81025010005,0.0,0.0,3.03459327296,0.0,0.0,0.0,25.1,1.3,0.9,0,0,1024,1024,1024,1024,0,0,0,0,0,0,0,81,3.948,3.945,0,0,0,0,0.672,72.32,720.81025010005,0.0,41,Motors_Started,,0.0
283800,2026-01-09 12:41:48,720.81025010005,0.328084,0.0,3.03486558268,0.153683403868,17,5,7.896,720.81025010005,0.0,0.0,3.03486558268,0.0,0.0,0.0,25.1,1.3,0.8,0,0,1024,1024,1024,1024,0,0,0,0,0,0,0,81,3.948,3.945,0,0,0,0,0.672,72.32,720.81025010005,0.0,11,AutoTakeoff,,0.0
283900,2026-01-09 12:41:48,720.81025010005,0.328084,0.0,3.01234261608,0.176695543712,17,5,7.896,720.81025010005,0.0,0.0,3.03486558268,0.0,0.0,0.0,25.2,1.3,0.8,0,0,1024,1024,1024,1024,0,0,0,0,0,0,0,81,3.948,3.945,0,0,0,0,0.672,72.32,720.81025010005,0.0,11,AutoTakeoff,,0.0
284000,2026-01-09 12:41:48,720.81025010005,0.328084,0.0,3.01734261624,0.198548562784,17,5,7.896,720.81025010005,0.0,0.0,3.03486558268,0.0,0.0,0.0,25.2,1.3,0.8,0,0,1024,1024,1545,1024,0,0,79,0,0,0,0,81,3.948,3.945,0,0,0,0,0.672,72.32,720.81025010005,0.0,11,AutoTakeoff,,0.0
284100,2026-01-09 12:41:48,720.81025010005,0.328084,0.0,3.02520022804,0.219867461104,17,5,7.891,720.81025010005,0.0,0.0,3.03486558268,0.0,0.0,0.0,25.2,1.3,0.8,0,0,1024,1024,1684,1024,0,0,100,0,0,0,0,81,3.949,3.942,0,0,0,0,1.37,72.5,720.81025010005,0.0,11,AutoTakeoff,,0.0
284200,2026-01-09 12:41:48,720.81025010005,0.328084,0.0,3.0417979976,0.243495086532,17,5,7.891,720.81025010005,0.0,0.0,3.0417979976,0.0,0.0,0.0,25.1,1.3,0.8,0,0,1024,1024,1684,1024,0,0,100,0,0,0,0,81,3.949,3.942,0,0,0,0,1.37,72.5,720.81025010005,0.0,11,AutoTakeoff,,0.0
284300,2026-01-09 12:41:48,720.81025010005,0.328084,0.0,3.07185377284,0.314794629496,17,5,7.891,720.81025010005,0.0,0.0,3.07185377284,0.0,0.0,0.0,25.2,1.3,0.8,0,0,1024,1024,1684,1024,0,0,100,0,0,0,0,81,3.949,3.942,0,0,0,0,1.37,72.5,720.81025010005,0.0,11,AutoTakeoff,,0.0
284400,2026-01-09 12:41:48,720.81025010005,0.328084,0.0,3.07838264444,0.32145506278,17,5,7.891,720.81025010005,0.0,0.0,3.07838264444,0.0,0.0,0.0,25.7,1.7,0.5,0,0,1024,1024,1684,1024,0,0,100,0,0,0,0,81,3.949,3.942,0,0,0,0,1.37,72.5,720.81025010005,0.0,11,AutoTakeoff,,0.0
284500,2026-01-09 12:41:49,720.81025010005,0.328084,0.0,3.08679143736,0.3301837376,17,5,7.891,720.81025010005,0.0,0.0,3.08679143736,0.0,0.0,0.0,26.2,3.7,1.1,0,0,1024,1024,1684,1024,0,0,100,0,0,0,0,81,3.949,3.942,0,0,0,0,1.37,72.5,720.81025010005,0.0,11,AutoTakeoff,,0.0
284600,2026-01-09 12:41:49,720.81025010005,0.328084,0.0,3.1060040364,0.35057743904,17,5,7.891,720.81025010005,0.0,0.0,3.1060040364,0.0,0.0,-0.223694,26.6,4.3,1.4,0,0,1024,1024,1684,1024,0,0,100,0,0,0,0,81,3.949,3.942,0,0,0,0,1.37,72.5,720.81025010005,0.0,11,AutoTakeoff,,0.0
284700,2026-01-09 12:41:49,720.81025010005,0.328084,0.447388,3.14718185924,0.39594161372,17,5,7.891,720.81025010005,0.0,0.447388,3.14718185924,-0.447388,0.0,-0.447388,26.7,3.4,0.4,0,0,1024,1024,1684,1024,0,0,100,0,0,0,0,81,3.949,3.942,0,0,0,0,1.37,72.5,720.81025010005,0.0,11,AutoTakeoff,,0.0
284800,2026-01-09 12:41:49,720.81025010005,0.656168,0.447388,3.21673566724,0.47341536948,17,5,7.891,720.81025010005,0.0,0.447388,3.21673566724,-0.447388,0.0,-0.894776,26.7,0.7,-0.3,0,0,1024,1024,1684,1024,0,0,100,0,0,0,0,81,3.949,3.942,0,0,0,0,1.37,72.5,720.81025010005,0.0,11,AutoTakeoff,,0.0
284900,2026-01-09 12:41:49,720.81025010005,0.656168,0.447388,3.2901247772,0.5573490992,17,5,7.891,720.81025010005,0.0,0.447388,3.2901247772,-0.447388,0.0,-1.11847,26.7,-0.6,-1.2,0,0,1024,1024,1684,1024,0,0,100,0,0,0,0,81,3.949,3.942,0,0,0,0,1.37,72.5,720.81025010005,0.0,11,AutoTakeoff,,0.0
285000,2026-01-09 12:41:49,721.13833410005,0.656168,0.447388,3.3703413152,0.65297902352,17,5,7.891,721.13833410005,0.328084,0.447388,3.3703413152,-0.447388,0.0,-1.565858,26.7,-1.3,-0.8,0,0,1024,1024,1684,1024,0,0,100,0,0,0,0,81,3.949,3.942,0,0,0,0,1.37,72.5,721.13833410005,0.328084,11,AutoTakeoff,,0.1
285100,2026-01-09 12:41:49,721.46641810005,0.984252,0.447388,3.4677166464,0.75890422376,18,5,7.891,721.46641810005,0.656168,0.447388,3.4677166464,-0.447388,0.0,-2.013246,27.0,-2.0,-0.8,0,0,1024,1024,1684,1024,0,0,100,0,0,0,0,81,3.81,3.801,0,0,0,0,1.37,72.5,721.46641810005,0.656168,11,AutoTakeoff,,0.2
285200,2026-01-09 12:41:49,721.79450210005,1.312336,0.447388,3.545275704,0.84401905588,18,5,7.891,721.79450210005,0.984252,0.447388,3.545275704,-0.447388,0.0,-2.460634,26.9,-2.3,-1.3,0,0,1024,1024,1684,1024,0,0,100,0,0,0,0,81,3.81,3.801,0,0,0,0,1.37,72.5,721.79450210005,0.984252,11,AutoTakeoff,,0.3
285300,2026-01-09 12:41:49,722.12258610005,1.64042,0.447388,3.6233925044,0.93301840256,18,5,7.891,722.12258610005,1.312336,0.447388,3.6233925044,-0.447388,0.0,-2.908022,26.8,-3.4,-1.5,0,0,1024,1024,1684,1024,0,0,100,0,0,0,0,81,3.81,3.801,0,0,0,0,1.37,72.5,722.12258610005,1.312336,11,AutoTakeoff,,0.4
285400,2026-01-09 12:41:49,722.77875410005,1.968504,0.223694,3.7157481504,1.04713914112,18,5,7.891,722.77875410005,1.968504,0.447388,3.7157481504,-0.223694,0.0,-3.35541,26.6,-2.7,-1.6,0,0,1024,1024,1684,1024,0,0,100,0,0,0,0,81,3.81,3.801,0,0,0,0,1.37,72.5,722.77875410005,1.968504,11,AutoTakeoff,Home Point updated. RTH altitude adjusted to 90 m (Code: 120852),0.6
285500,2026-01-09 12:41:50,723.43492210005,2.624672,0.0,3.7825788612,1.12758533792,18,5,7.891,723.43492210005,2.624672,0.447388,3.7825788612,0.0,0.0,-3.802798,26.7,-2.0,-1.6,0,0,1024,1024,1684,1024,0,0,100,0,0,0,0,81,3.81,3.801,0,0,0,0,1.37,72.5,723.43492210005,2.624672,11,AutoTakeoff,,0.8
285600,2026-01-09 12:41:50,724.09109010005,2.952756,0.0,3.8687009112,1.21462274228,18,5,7.891,724.09109010005,3.28084,0.447388,3.8687009112,0.0,0.0,-4.250186,26.8,-3.0,-1.0,0,0,1024,1024,1684,1024,0,0,100,0,0,0,0,81,3.81,3.801,0,0,0,0,1.37,72.5,724.09109010005,3.28084,6,P-GPS,,1.0
285700,2026-01-09 12:41:50,725.07534210005,3.608924,0.0,3.8821523552,1.23398625996,18,5,7.891,725.07534210005,4.265092,0.447388,3.8821523552,0.0,0.0,-4.47388,27.0,-3.4,-0.1,0,0,1024,1024,1684,1024,0,0,100,0,0,0,0,81,3.81,3.801,0,0,0,0,1.37,72.5,725.07534210005,4.265092,6,P-GPS,,1.3
285800,2026-01-09 12:41:50,725.73151010005,4.265092,0.0,3.8593505172,1.27754925348,18,5,7.891,725.73151010005,4.92126,0.447388,3.8821523552,0.0,0.0,-4.47388,27.0,-3.0,0.2,0,0,1024,1024,1684,1024,0,0,100,0,0,0,0,81,3.81,3.801,0,0,0,0,1.37,72.5,725.73151010005,4.92126,6,P-GPS,,1.5
285900,2026-01-09 12:41:50,726.38767810005,4.92126,0.0,3.8377297816,1.30434059292,18,5,7.891,726.38767810005,5.577428,0.447388,3.8821523552,0.0,0.0,-4.47388,26.8,-1.8,0.2,0,0,1024,1024,1684,1024,0,0,100,0,0,0,0,81,3.81,3.801,0,0,0,0,1.37,72.5,726.38767810005,5.577428,6,P-GPS,,1.7
286000,2026-01-09 12:41:50,727.04384610005,5.577428,0.223694,3.787401696,1.35513127696,18,5,7.891,727.04384610005,6.233596,0.447388,3.8821523552,0.223694,0.0,-4.47388,26.6,-0.2,-0.3,0,0,1024,1024,1684,1024,0,0,100,0,0,0,0,81,3.81,3.801,0,0,0,0,1.37,72.5,727.04384610005,6.233596,6,P-GPS,,1.9
286100,2026-01-09 12:41:50,727.70001410005,6.233596,0.223694,3.7754594384,1.38156828568,18,5,7.891,727.70001410005,6.889764,0.447388,3.8821523552,0.223694,0.0,-4.47388,26.7,0.7,0.2,0,0,1024,1024,1684,1024,0,0,100,0,0,0,0,81,3.81,3.801,0,0,0,0,1.37,72.5,727.70001410005,6.889764,6,P-GPS,,2.1
286200,2026-01-09 12:41:50,728.68426610005,6.889764,0.0,3.7351379148,1.43533141076,18,5,7.891,728.68426610005,7.874016,0.447388,3.8821523552,0.0,0.0,-4.47388,26.6,0.4,-0.5,0,0,1024,1024,1684,1024,0,0,100,0,0,0,0,81,3.81,3.801,0,0,0,0,1.37,72.5,728.68426610005,7.874016,6,P-GPS,,2.4
286300,2026-01-09 12:41:50,729.34043410005,7.545932,0.0,3.71391088,1.47974414184,18,5,7.628,729.34043410005,8.530184,0.447388,3.8821523552,0.0,0.0,-4.47388,26.5,0.4,-1.1,0,0,1024,1024,1684,1024,0,0,100,0,0,0,0,81,3.817,3.812,0,0,0,0,6.533,72.5,729.34043410005,8.530184,6,P-GPS,,2.6
286400,2026-01-09 12:41:50,729.99660210005,8.2021,0.0,3.6567914556,1.68975727192,18,5,7.628,729.99660210005,9.186352,0.447388,3.8821523552,0.0,0.0,-4.697574,26.6,-0.7,-1.4,0,0,1024,1024,1684,1024,0,0,100,0,0,0,0,81,3.817,3.812,0,0,0,0,6.533,72.5,729.99660210005,9.186352,6,P-GPS,,2.8
286500,2026-01-09 12:41:51,730.65277010005,8.858268,0.0,3.6731628472,1.72814309992,18,5,7.628,730.65277010005,9.84252,0.447388,3.8821523552,0.0,0.0,-4.47388,26.7,-1.8,-0.9,0,0,1024,1024,1684,1024,0,0,100,0,0,0,0,81,3.817,3.812,0,0,0,0,6.533,72.5,730.65277010005,9.84252,6,P-GPS,,3.0
286600,2026-01-09 12:41:51,731.30893810005,9.514436,0.0,3.7071523496,1.76478352104,18,5,7.628,731.30893810005,10.498688,0.447388,3.8821523552,0.0,0.0,-4.47388,26.6,-2.0,-1.6,0,0,1024,1024,1684,1024,0,0,100,0,0,0,0,81,3.817,3.812,0,0,0,0,6.533,72.5,731.30893810005,10.498688,6,P-GPS,,3.2
286700,2026-01-09 12:41:51,732.29319010005,10.498688,0.0,3.72785445,1.78671921728,18,5,7.628,732.29319010005,11.48294,0.447388,3.8821523552,0.0,0.0,-4.250186,26.7,-1.5,-1.3,0,0,1024,1024,1684,1024,0,0,100,0,0,0,0,81,3.817,3.812,0,0,0,0,6.533,72.5,732.29319010005,11.48294,6,P-GPS,,3.5
286800,2026-01-09 12:41:51,732.94935810005,10.826772,0.0,3.6912074672,1.82945215828,18,5,7.628,732.94935810005,12.139108,0.447388,3.8821523552,0.0,0.0,-4.250186,26.8,-1.6,-1.6,0,0,1024,1024,1684,1024,0,0,100,0,0,0,0,81,3.817,3.812,0,0,0,0,6.533,72.5,732.94935810005,12.139108,6,P-GPS,,3.7
286900,2026-01-09 12:41:51,733.60552610005,11.48294,0.0,3.6867783332,1.83842197484,18,5,7.628,733.60552610005,12.795276,0.447388,3.8821523552,0.0,0.0,-4.250186,26.9,-1.4,-1.8,0,0,1024,1024,1684,1090,0,0,100,10,0,0,0,81,3.817,3.812,0,0,0,0,6.533,72.5,733.60552610005,12.795276,6,P-GPS,,3.9
287000,2026-01-09 12:41:51,734.26169410005,12.139108,0.0,3.7093833208,1.8649606896,18,5,7.628,734.26169410005,13.451444,0.447388,3.8821523552,0.0,0.0,-4.250186,26.8,-0.6,-2.6,0,0,1024,1024,1684,1684,0,0,100,100,0,0,0,81,3.817,3.812,0,0,0,0,6.533,72.5,734.26169410005,13.451444,6,P-GPS,,4.1
287100,2026-01-09 12:41:51,734.91786210005,12.795276,0.0,3.7262796468,1.88253286864,18,5,7.628,734.91786210005,14.107612,0.447388,3.8821523552,0.0,0.0,-4.250186,26.7,-0.5,-2.6,0,0,1024,1024,1684,1684,0,0,100,100,0,0,0,81,3.817,3.812,0,0,0,0,6.533,72.5,734.91786210005,14.107612,6,P-GPS,,4.3
287200,2026-01-09 12:41:51,735.57403010005,13.451444,0.0,3.7367455264,1.8999508482,18,5,7.628,735.57403010005,14.76378,0.447388,3.8821523552,0.0,0.0,-4.47388,29.3,-0.2,-3.1,0,0,1024,1024,1684,1684,0,0,100,100,0,0,0,81,3.817,3.812,0,0,0,0,6.533,72.5,735.57403010005,14.76378,6,P-GPS,,4.5
287300,2026-01-09 12:41:51,735.90211410005,14.107612,0.0,3.7726051076,1.97201121796,18,5,7.628,735.90211410005,15.091864,0.447388,3.8821523552,0.0,0.0,-4.47388,41.3,0.4,-3.3,0,0,1024,1024,1684,1425,0,0,100,61,0,0,0,81,3.817,3.812,0,0,0,0,6.533,72.5,735.90211410005,15.091864,6,P-GPS,,4.6
287400,2026-01-09 12:41:52,736.55828210005,14.76378,0.223694,3.7562009076,1.99828418468,18,5,7.631,736.55828210005,15.748032,0.447388,3.8821523552,0.223694,0.0,-4.250186,54.4,1.0,-1.9,0,0,1024,1024,1684,1024,0,0,100,0,0,0,0,81,3.818,3.813,0,0,0,0,5.689,72.5,736.55828210005,15.748032,6,P-GPS,,4.8
287500,2026-01-09 12:41:52,737.21445010005,15.419948,0.223694,3.7195867332,2.05222775596,19,5,7.631,737.21445010005,16.4042,0.447388,3.8821523552,0.223694,0.0,-4.47388,64.5,1.6,0.2,0,0,1024,1024,1684,1024,0,0,100,0,0,0,0,81,3.818,3.813,0,0,0,0,5.689,72.5,737.21445010005,16.4042,6,P-GPS,,5.0
287600,2026-01-09 12:41:52,737.87061810005,16.076116,0.3131716,3.6586615344,2.14958340212,19,5,7.631,737.87061810005,17.060368,0.447388,3.8821523552,0.223694,0.223694,-4.47388,66.0,2.8,0.8,0,0,1024,1024,1684,1024,0,0,100,0,0,0,0,81,3.818,3.813,0,0,0,0,5.689,72.5,737.87061810005,17.060368,6,P-GPS,,5.2
287700,2026-01-09 12:41:52,738.52678610005,16.4042,0.3131716,3.5451772788,2.31445873548,19,5,7.631,738.52678610005,17.716536,0.447388,3.8821523552,0.223694,0.0,-4.47388,66.2,3.8,0.4,0,0,1024,1024,1684,1024,0,0,100,0,0,0,0,81,3.818,3.813,0,0,0,0,5.689,72.5,738.52678610005,17.716536,6,P-GPS,,5.4
287800,2026-01-09 12:41:52,739.18295410005,17.060368,0.3131716,3.5086615296,2.3810204174,19,5,7.631,739.18295410005,18.372704,0.447388,3.8821523552,0.223694,0.223694,-4.47388,66.4,4.3,-0.2,0,0,1024,1024,1684,1024,0,0,100,0,0,0,0,81,3.818,3.813,0,0,0,0,5.689,72.5,739.18295410005,18.372704,6,P-GPS,,5.6
287900,2026-01-09 12:41:52,739.83912210005,17.716536,0.223694,3.486056542,2.43405191516,19,5,7.631,739.83912210005,19.028872,0.447388,3.8821523552,0.0,0.223694,-4.250186,66.5,4.7,0.2,0,0,1024,1024,1684,1024,0,0,100,0,0,0,0,81,3.818,3.813,0,0,0,0,5.689,72.5,739.83912210005,19.028872,6,P-GPS,,5.8
288000,2026-01-09 12:41:52,740.49529010005,18.700788,0.447388,3.4913715028,2.47332356996,19,5,7.631,740.49529010005,19.68504,0.447388,3.8821523552,0.0,0.447388,-4.250186,66.4,5.2,-1.1,0,0,1024,1024,1684,987,0,0,100,-6,0,0,0,81,3.818,3.813,0,0,0,0,5.689,72.5,740.49529010005,19.68504,6,P-GPS,,6.0
288100,2026-01-09 12:41:52,741.15145810005,19.356956,0.223694,3.514271766,2.50543971272,19,5,7.631,741.15145810005,20.341208,0.447388,3.8821523552,0.0,0.223694,-4.250186,66.4,5.4,-2.7,0,0,1024,1024,1684,553,0,0,100,-71,0,0,0,81,3.818,3.813,0,0,0,0,5.689,72.5,741.15145810005,20.341208,6,P-GPS,,6.2
288200,2026-01-09 12:41:52,741.80762610005,20.013124,0.3131716,3.5662074632,2.55738853328,19,5,7.631,741.80762610005,20.997376,0.447388,3.8821523552,-0.223694,0.223694,-4.250186,66.3,5.9,-4.4,0,0,1024,1024,1684,721,0,0,100,-46,0,0,0,81,3.818,3.813,0,0,0,0,5.689,72.5,741.80762610005,20.997376,6,P-GPS,,6.4
288300,2026-01-09 12:41:52,742.79187810005,20.997376,0.223694,3.6040683568,2.59538394132,19,5,7.631,742.79187810005,21.981628,0.447388,3.8821523552,0.0,0.223694,-4.250186,66.4,6.3,-3.9,0,0,1024,1024,1684,721,0,0,100,-46,0,0,0,81,3.818,3.813,0,0,0,0,5.689,72.5,742.79187810005,21.981628,6,P-GPS,,6.7
288400,2026-01-09 12:41:52,743.44804610005,21.653544,0.3131716,3.613353134,2.60471136944,19,5,7.631,743.44804610005,22.637796,0.447388,3.8821523552,-0.223694,0.223694,-4.250186,62.5,5.1,-4.0,0,0,1024,1024,1684,1024,0,0,100,0,0,0,0,81,3.818,3.813,0,0,0,0,5.689,72.5,743.44804610005,22.637796,6,P-GPS,,6.9
288500,2026-01-09 12:41:53,744.10421410005,22.309712,0.3131716,3.6903544488,2.6872048104,18,5,7.595,744.10421410005,23.293964,0.447388,3.8821523552,-0.223694,0.223694,-4.250186,55.5,4.8,-5.9,0,0,1024,1024,1684,1024,0,0,100,0,0,0,0,81,3.799,3.796,0,0,0,0,6.03,72.5,744.10421410005,23.293964,6,P-GPS,,7.1
288600,2026-01-09 12:41:53,745.08846610005,22.96588,0.223694,3.7350394896,2.73257554676,18,5,7.595,745.08846610005,24.278216,0.447388,3.8821523552,-0.223694,0.0,-4.250186,55.5,4.7,-7.3,0,0,1024,1024,1684,1024,0,0,100,0,0,0,0,81,3.799,3.796,0,0,0,0,6.03,72.5,745.08846610005,24.278216,6,P-GPS,,7.4
288700,2026-01-09 12:41:53,745.74463410005,22.96588,0.0,3.7654856848,2.7636319782,18,5,7.595,745.74463410005,24.934384,0.447388,3.8821523552,0.0,0.0,-4.47388,55.5,4.0,-7.0,0,0,1024,1024,1684,1024,0,0,100,0,0,0,0,81,3.799,3.796,0,0,0,0,6.03,72.5,745.74463410005,24.934384,6,P-GPS,,7.6
288800,2026-01-09 12:41:53,746.40080210005,27.230972,0.0,3.7830381788,2.7933563886,18,5,7.595,746.40080210005,25.590552,0.447388,3.8821523552,0.0,0.0,-4.47388,55.8,3.1,-7.1,0,0,1024,1024,1684,1024,0,0,100,0,0,0,0,81,3.799,3.796,0,0,0,0,6.03,72.5,746.40080210005,25.590552,6,P-GPS,,7.8
288900,2026-01-09 12:41:53,747.05697010005,28.215224,0.0,3.783956814,2.82277568088,19,5,7.595,747.05697010005,26.24672,0.447388,3.8821523552,0.0,0.0,-4.250186,55.5,3.7,-6.1,0,0,1024,1024,1684,1024,0,0,100,0,0,0,0,81,3.799,3.796,0,0,0,0,6.03,72.5,747.05697010005,26.24672,6,P-GPS,,8.0
289000,2026-01-09 12:41:53,747.71313810005,29.199476,0.223694,3.7494751856,2.9239174164,19,5,7.595,747.71313810005,26.902888,0.447388,3.8821523552,0.0,-0.223694,-4.250186,55.8,1.8,-5.5,0,0,1024,1024,1684,1024,0,0,100,0,0,0,0,81,3.799,3.796,0,0,0,0,6.03,72.5,747.71313810005,26.902888,6,P-GPS,,8.2
289100,2026-01-09 12:41:53,748.36930610005,30.183728,0.223694,3.7303806968,2.97877962288,19,5,7.595,748.36930610005,27.559056,0.447388,3.8821523552,0.0,0.0,-4.250186,55.9,1.8,-5.9,0,0,1024,1024,1684,1024,0,0,100,0,0,0,0,81,3.799,3.796,0,0,0,0,6.03,72.5,748.36930610005,27.559056,6,P-GPS,,8.4
289200,2026-01-09 12:41:53,749.02547410005,30.839896,0.0,3.723097232,3.03150272168,19,5,7.595,749.02547410005,28.215224,0.447388,3.8821523552,0.0,0.0,-4.250186,55.6,3.0,-5.0,0,0,1024,1024,1684,1024,0,0,100,0,0,0,0,81,3.799,3.796,0,0,0,0,6.03,72.5,749.02547410005,28.215224,6,P-GPS,,8.6
289300,2026-01-09 12:41:53,749.68164210005,31.824148,0.0,3.7174541872,3.07011820848,19,5,7.595,749.68164210005,28.871392,0.447388,3.8821523552,0.0,0.0,-4.47388,55.5,2.7,-4.9,0,0,1024,1024,1024,1024,0,0,0,0,0,0,0,81,3.799,3.796,0,0,0,0,6.03,72.5,749.68164210005,28.871392,6,P-GPS,,8.8
289400,2026-01-09 12:41:53,750.66589410005,32.480316,0.0,3.6780841072,3.10948828848,19,5,7.595,750.66589410005,29.855644,0.447388,3.8821523552,0.0,0.0,-4.47388,55.5,2.1,-6.5,0,0,1024,1024,1024,1024,0,0,0,0,0,0,0,81,3.799,3.796,0,0,0,0,6.03,72.5,750.66589410005,29.855644,6,P-GPS,,9.1
289500,2026-01-09 12:41:54,751.32206210005,33.136484,0.0,3.6771326636,3.12412083488,19,5,7.595,751.32206210005,30.511812,0.447388,3.8821523552,0.0,0.0,-4.250186,55.7,0.5,-6.2,0,0,1024,1024,1024,1024,0,0,0,0,0,0,0,81,3.799,3.796,0,0,0,0,6.03,72.5,751.32206210005,30.511812,6,P-GPS,,9.3
289600,2026-01-09 12:41:54,751.97823010005,33.464568,0.0,3.7095473628,3.16773960268,19,5,7.612,751.97823010005,31.16798,0.447388,3.8821523552,0.0,0.0,-3.579104,55.5,2.0,-6.9,0,0,1024,1024,1024,1024,0,0,0,0,0,0,0,81,3.804,3.809,0,0,0,0,6.199,72.5,751.97823010005,31.16798,6,P-GPS,,9.5
289700,2026-01-09 12:41:54,752.30631410005,34.120736,0.0,3.7525263668,3.21350732068,19,5,7.612,752.30631410005,31.496064,0.447388,3.8821523552,0.0,0.0,-2.908022,55.3,3.0,-7.4,0,0,1024,1024,1024,1024,0,0,0,0,0,0,0,81,3.804,3.809,0,0,0,0,6.199,72.5,752.30631410005,31.496064,6,P-GPS,,9.6
289800,2026-01-09 12:41:54,752.63439810005,34.44882,0.0,3.9276904144,3.388779636,19,5,7.612,752.63439810005,31.824148,0.447388,3.9276904144,0.0,0.0,-2.013246,55.2,3.3,-7.8,0,0,1024,1024,1024,1024,0,0,0,0,0,0,0,81,3.804,3.809,0,0,0,0,6.199,72.5,752.63439810005,31.824148,6,P-GPS,,9.7
289900,2026-01-09 12:41:54,752.96248210005,34.120736,0.0,4.0038715192,3.4651575912,19,5,7.612,752.96248210005,32.152232,0.447388,4.0038715192,0.0,0.0,-1.11847,55.2,3.3,-7.9,0,0,1024,1024,1024,1024,0,0,0,0,0,0,0,81,3.804,3.809,0,0,0,0,6.199,72.5,752.96248210005,32.152232,6,P-GPS,,9.8
290000,2026-01-09 12:41:54,752.96248210005,33.792652,0.0,4.069717978,3.536581478,19,5,7.612,752.96248210005,32.152232,0.447388,4.069717978,0.0,0.0,-0.671082,55.2,3.0,-8.3,0,0,1024,1024,1024,1024,0,0,0,0,0,0,0,81,3.804,3.809,0,0,0,0,6.199,72.5,752.96248210005,32.152232,6,P-GPS,,9.8
290100,2026-01-09 12:41:54,753.29056610005,33.464568,0.0,4.1226379272,3.5958334484,19,5,7.612,753.29056610005,32.480316,0.447388,4.1226379272,0.0,0.0,-0.223694,55.3,1.6,-8.4,0,0,1024,1024,1024,1024,0,0,0,0,0,0,0,81,3.804,3.809,0,0,0,0,6.199,72.5,753.29056610005,32.480316,6,P-GPS,,9.9
290200,2026-01-09 12:41:54,753.29056610005,33.464568,0.0,4.116469948,3.6201772812,19,5,7.612,753.29056610005,32.480316,0.447388,4.1226379272,0.0,0.0,0.0,55.4,0.9,-7.9,0,0,1024,1024,1024,1024,0,0,0,0,0,0,0,81,3.804,3.809,0,0,0,0,6.199,72.5,753.29056610005,32.480316,6,P-GPS,,9.9
290300,2026-01-09 12:41:54,753.29056610005,33.136484,0.0,4.1321195548,3.6449476232,19,5,7.612,753.29056610005,32.480316,0.447388,4.1321195548,0.0,0.0,0.0,55.6,0.8,-6.9,0,0,1024,1024,1024,1024,0,0,0,0,0,0,0,81,3.804,3.809,0,0,0,0,6.199,72.5,753.29056610005,32.480316,6,P-GPS,,9.9
290400,2026-01-09 12:41:54,752.96248210005,32.8084,0.223694,4.164370212,3.7112205912,19,5,7.612,753.29056610005,32.480316,0.447388,4.164370212,0.0,-0.223694,0.0,55.5,0.5,-6.4,0,0,1024,1024,1024,1024,0,0,0,0,0,0,0,81,3.804,3.809,0,0,0,0,6.199,72.5,752.96248210005,32.152232,6,P-GPS,,9.8
290500,2026-01-09 12:41:55,752.96248210005,32.480316,0.0,4.1872048584,3.7643373908,19,5,7.612,753.29056610005,32.480316,0.447388,4.1872048584,0.0,0.0,0.0,55.6,0.2,-6.5,0,0,1024,1024,1024,1024,0,0,0,0,0,0,0,81,3.804,3.809,0,0,0,0,6.199,72.5,752.96248210005,32.152232,6,P-GPS,,9.8
290600,2026-01-09 12:41:55,752.96248210005,32.480316,0.0,4.1969161448,3.7871064204,19,5,7.612,753.29056610005,32.480316,0.447388,4.1969161448,0.0,0.0,0.0,55.8,0.5,-5.8,0,0,1024,1024,1024,1024,0,0,0,0,0,0,0,81,3.804,3.809,0,0,0,0,6.199,72.5,752.96248210005,32.152232,6,P-GPS,,9.8
290700,2026-01-09 12:41:55,752.96248210005,32.152232,0.0,4.2120736256,3.824475188,19,5,7.649,753.29056610005,32.480316,0.447388,4.2120736256,0.0,0.0,0.0,55.6,0.8,-6.1,0,0,1024,1024,1024,1024,0,0,0,0,0,0,0,80,3.807,3.798,0,0,0,0,4.587,72.5,752.96248210005,32.152232,6,P-GPS,,9.8
290800,2026-01-09 12:41:55,752.96248210005,31.824148,0.0,4.1841536772,3.8665355568,19,5,7.649,753.29056610005,32.480316,0.447388,4.2120736256,0.0,0.0,0.0,55.6,1.0,-6.5,0,0,1024,1024,1024,1024,0,0,0,0,0,0,0,80,3.807,3.798,0,0,0,0,4.587,72.5,752.96248210005,32.152232,6,P-GPS,,9.8
290900,2026-01-09 12:41:55,752.96248210005,31.824148,0.0,4.159941078,3.9062665292,19,5,7.649,753.29056610005,32.480316,0.447388,4.2120736256,0.0,0.0,0.0,55.6,0.7,-6.8,0,0,1024,1024,1024,1024,0,0,0,0,0,0,0,80,3.807,3.798,0,0,0,0,4.587,72.5,752.96248210005,32.152232,6,P-GPS,,9.8
291000,2026-01-09 12:41:55,752.96248210005,31.496064,0.0,4.1368767728,3.9522967144,19,5,7.649,753.29056610005,32.480316,0.447388,4.2120736256,0.0,0.0,0.0,55.4,0.9,-7.0,0,0,1024,1024,1024,1024,0,0,0,0,0,0,0,80,3.807,3.798,0,0,0,0,4.587,72.5,752.96248210005,32.152232,6,P-GPS,,9.8
291100,2026-01-09 12:41:55,752.96248210005,31.496064,0.0,4.0093177136,4.1086943572,19,5,7.649,753.29056610005,32.480316,0.447388,4.2120736256,0.0,0.0,0.0,55.6,0.3,-6.9,0,0,1024,1024,1024,1024,0,0,0,0,0,0,0,80,3.807,3.798,0,0,0,0,4.587,72.5,752.96248210005,32.152232,6,P-GPS,,9.8
291200,2026-01-09 12:41:55,752.96248210005,31.16798,0.0,4.009022438,4.1227363524,19,5,7.649,753.29056610005,32.480316,0.447388,4.2120736256,0.0,0.0,0.0,55.7,0.5,-6.9,0,0,1024,1024,1024,1024,0,0,0,0,0,0,0,80,3.807,3.798,0,0,0,0,4.587,72.5,752.96248210005,32.152232,6,P-GPS,,9.8
291300,2026-01-09 12:41:55,752.96248210005,31.16798,0.0,4.0122704696,4.130249476,19,5,7.649,753.29056610005,32.480316,0.447388,4.2120736256,0.0,0.0,0.0,55.5,1.2,-7.4,0,0,1024,1024,1024,1024,0,0,0,0,0,0,0,80,3.807,3.798,0,0,0,0,4.587,72.5,752.96248210005,32.152232,6,P-GPS,,9.8
291400,2026-01-09 12:41:55,752.96248210005,31.16798,0.0,4.0204397612,4.139763912,19,5,7.649,753.29056610005,32.480316,0.447388,4.2120736256,0.0,0.0,0.0,55.7,0.9,-7.5,0,0,1024,1024,1024,1024,0,0,0,0,0,0,0,80,3.807,3.798,0,0,0,0,4.587,72.5,752.96248210005,32.152232,6,P-GPS,,9.8
291500,2026-01-09 12:41:56,752.96248210005,30.839896,0.0,4.0511484236,4.170603808,19,5,7.649,753.29056610005,32.480316,0.447388,4.2120736256,0.0,0.0,0.0,55.7,1.0,-7.6,0,0,1024,1024,1024,1024,0,0,0,0,0,0,0,80,3.807,3.798,0,0,0,0,4.587,72.5,752.96248210005,32.152232,6,P-GPS,,9.8
291600,2026-01-09 12:41:56,752.96248210005,30.839896,0.0,4.0382875308,4.1871392416,19,5,7.649,753.29056610005,32.480316,0.447388,4.2120736256,0.0,0.0,0.0,55.7,0.7,-7.4,0,0,1024,1024,1024,1024,0,0,0,0,0,0,0,80,3.807,3.798,0,0,0,0,4.587,72.5,752.96248210005,32.152232,6,P-GPS,,9.8
291700,2026-01-09 12:41:56,752.96248210005,30.839896,0.0,4.0217520972,4.2058072212,19,5,7.649,753.29056610005,32.480316,0.447388,4.2120736256,0.0,0.0,0.0,55.6,1.5,-7.2,0,0,1024,1024,1024,1024,0,0,0,0,0,0,0,80,3.807,3.798,0,0,0,0,4.587,72.5,752.96248210005,32.152232,6,P-GPS,,9.8
291800,2026-01-09 12:41:56,752.96248210005,30.839896,0.0,3.999179918,4.2284778256,19,5,7.602,753.29056610005,32.480316,0.447388,4.2120736256,0.0,0.0,0.0,55.8,0.4,-6.6,0,0,1024,1024,1024,1024,0,0,0,0,0,0,0,80,3.803,3.798,0,0,0,0,5.903,72.5,752.96248210005,32.152232,6,P-GPS,,9.8
291900,2026-01-09 12:41:56,752.96248210005,30.839896,0.0,3.9618767672,4.26837284,19,5,7.602,753.29056610005,32.480316,0.447388,4.2120736256,0.0,0.0,0.0,55.7,0.3,-6.1,0,0,1024,1024,1024,1024,0,0,0,0,0,0,0,80,3.803,3.798,0,0,0,0,5.903,72.5,752.96248210005,32.152232,6,P-GPS,,9.8
292000,2026-01-09 12:41:56,752.96248210005,30.839896,0.0,3.9447835908,4.286909586,19,5,7.602,753.29056610005,32.480316,0.447388,4.2120736256,0.0,0.0,0.0,55.9,0.1,-6.2,0,0,1024,1024,1024,1024,0,0,0,0,0,0,0,80,3.803,3.798,0,0,0,0,5.903,72.5,752.96248210005,32.152232,6,P-GPS,,9.8
292100,2026-01-09 12:41:56,752.96248210005,30.839896,0.0,3.9373688924,4.2955053868,19,5,7.602,753.29056610005,32.480316,0.447388,4.2120736256,0.0,0.0,0.0,55.8,-0.3,-6.4,0,0,1024,1024,1024,1024,0,0,0,0,0,0,0,80,3.803,3.798,0,0,0,0,5.903,72.5,752.96248210005,32.152232,6,P-GPS,,9.8
292200,2026-01-09 12:41:56,752.96248210005,30.839896,0.0,3.9292652176,4.3040683792,19,5,7.602,753.29056610005,32.480316,0.447388,4.2120736256,0.0,0.0,0.0,55.7,-0.5,-6.8,0,0,1024,1024,1024,1024,0,0,0,0,0,0,0,80,3.803,3.798,0,0,0,0,5.903,72.5,752.96248210005,32.152232,6,P-GPS,,9.8
292300,2026-01-09 12:41:56,752.96248210005,30.839896,0.0,3.918635296,4.31512481,19,5,7.602,753.29056610005,32.480316,0.447388,4.2120736256,0.0,0.0,0.0,55.7,0.0,-7.2,0,0,1024,1024,1024,1024,0,0,0,0,0,0,0,80,3.803,3.798,0,0,0,0,5.903,72.5,752.96248210005,32.152232,6,P-GPS,,9.8
292400,2026-01-09 12:41:57,752.63439810005,30.839896,0.0,3.8813321452,4.3603675936,19,5,7.602,753.29056610005,32.480316,0.447388,4.2120736256,0.0,0.0,0.0,55.8,0.0,-6.6,0,0,1024,1024,1024,1024,0,0,0,0,0,0,0,80,3.803,3.798,0,0,0,0,5.903,72.5,752.63439810005,31.824148,6,P-GPS,,9.7
292500,2026-01-09 12:41:57,752.96248210005,30.839896,0.0,3.87385183,4.3678807172,19,5,7.602,753.29056610005,32.480316,0.447388,4.2120736256,0.0,0.0,0.0,55.7,0.3,-6.9,0,0,1024,1024,1024,1024,0,0,0,0,0,0,0,80,3.803,3.798,0,0,0,0,5.903,72.5,752.96248210005,32.152232,6,P-GPS,,9.8
292600,2026-01-09 12:41:57,752.96248210005,30.839896,0.0,3.8952429068,4.3937665448,19,5,7.602,753.29056610005,32.480316,0.447388,4.2120736256,0.0,0.0,0.0,55.6,0.8,-7.1,0,0,1024,1024,1024,1024,0,0,0,0,0,0,0,80,3.803,3.798,0,0,0,0,5.903,72.5,752.96248210005,32.152232,6,P-GPS,,9.8
292700,2026-01-09 12:41:57,752.96248210005,30.839896,0.0,3.9131562932,4.4192586716,19,5,7.602,753.29056610005,32.480316,0.447388,4.2120736256,0.0,0.0,0.0,55.6,1.2,-6.8,0,0,1024,1024,1024,1024,0,0,0,0,0,0,0,80,3.803,3.798,0,0,0,0,5.903,72.5,752.96248210005,32.152232,6,P-GPS,,9.8
292800,2026-01-09 12:41:57,752.96248210005,30.839896,0.0,3.979002752,4.4920933196,19,5,7.602,753.29056610005,32.480316,0.447388,4.2120736256,0.0,0.0,0.0,55.4,1.5,-7.1,0,0,1024,1024,1024,1024,0,0,0,0,0,0,0,80,3.803,3.798,0,0,0,0,5.903,72.5,752.96248210005,32.152232,6,P-GPS,,9.8
292900,2026-01-09 12:41:57,752.96248210005,30.839896,0.0,3.9764436968,4.5215552628,19,5,7.631,753.29056610005,32.480316,0.447388,4.2120736256,0.0,0.0,0.0,55.6,1.7,-6.7,0,0,1024,1024,1024,1024,0,0,0,0,0,0,0,80,3.809,3.804,0,0,0,0,5.788,72.68,752.96248210005,32.152232,6,P-GPS,,9.8
293000,2026-01-09 12:41:57,752.96248210005,30.839896,0.0,3.9580709928,4.5691602512,19,5,7.631,753.29056610005,32.480316,0.447388,4.2120736256,0.0,0.0,0.0,55.6,1.6,-6.4,0,0,1024,1024,1024,1024,0,0,0,0,0,0,0,80,3.809,3.804,0,0,0,0,5.788,72.68,752.96248210005,32.152232,6,P-GPS,,9.8
293100,2026-01-09 12:41:57,752.96248210005,31.16798,0.0,3.9418964516,4.616469964,19,5,7.631,753.29056610005,32.480316,0.447388,4.2120736256,0.0,0.0,0.0,55.5,2.3,-6.6,0,0,1024,1024,1024,1024,0,0,0,0,0,0,0,80,3.809,3.804,0,0,0,0,5.788,72.68,752.96248210005,32.152232,6,P-GPS,,9.8
293200,2026-01-09 12:41:57,752.96248210005,31.16798,0.0,3.89353687,4.705052644,19,5,7.631,753.29056610005,32.480316,0.447388,4.2120736256,0.0,0.0,0.0,55.3,3.1,-7.1,0,0,1024,1024,1024,1024,0,0,0,0,0,0,0,80,3.809,3.804,0,0,0,0,5.788,72.68,752.96248210005,32.152232,6,P-GPS,,9.8
293300,2026-01-09 12:41:57,752.96248210005,31.16798,0.0,3.8880250588,4.7375657684,19,5,7.631,753.29056610005,32.480316,0.447388,4.2120736256,0.0,0.0,0.0,55.4,3.0,-7.1,0,0,1024,1024,1024,1024,0,0,0,0,0,0,0,80,3.809,3.804,0,0,0,0,5.788,72.68,752.96248210005,32.152232,6,P-GPS,,9.8
293400,2026-01-09 12:41:57,753.29056610005,31.16798,0.0,3.8906497308,4.7558400472,19,5,7.631,753.29056610005,32.480316,0.447388,4.2120736256,0.0,0.0,0.0,55.5,3.0,-7.3,0,0,1024,1024,1024,1024,0,0,0,0,0,0,0,80,3.809,3.804,0,0,0,0,5.788,72.68,753.29056610005,32.480316,6,P-GPS,,9.9
293500,2026-01-09 12:41:58,753.29056610005,31.16798,0.0,3.9047901512,4.7705382104,19,5,7.631,753.29056610005,32.480316,0.447388,4.2120736256,0.0,0.0,0.0,55.5,2.2,-8.2,0,0,1024,1024,1024,1024,0,0,0,0,0,0,0,80,3.809,3.804,0,0,0,0,5.788,72.68,753.29056610005,32.480316,6,P-GPS,,9.9
293600,2026-01-09 12:41:58,753.29056610005,31.16798,0.0,3.9345801784,4.8312993672,19,5,7.631,753.29056610005,32.480316,0.447388,4.2120736256,0.0,0.0,0.0,55.5,1.3,-8.7,0,0,1024,1024,1024,1024,0,0,0,0,0,0,0,80,3.809,3.804,0,0,0,0,5.788,72.68,753.29056610005,32.480316,6,P-GPS,,9.9
293700,2026-01-09 12:41:58,753.29056610005,31.16798,0.223694,3.971128736,4.8770670852,19,5,7.631,753.29056610005,32.480316,0.447388,4.2120736256,-0.223694,0.0,0.0,55.7,0.0,-9.1,0,0,1024,1024,1024,1024,0,0,0,0,0,0,0,80,3.809,3.804,0,0,0,0,5.788,72.68,753.29056610005,32.480316,6,P-GPS,,9.9
293800,2026-01-09 12:41:58,753.29056610005,31.16798,0.223694,4.01164711,4.9273623624,19,5,7.631,753.29056610005,32.480316,0.447388,4.2120736256,-0.223694,0.0,0.0,55.7,-0.1,-8.6,0,0,1024,1024,1024,1024,0,0,0,0,0,0,0,80,3.809,3.804,0,0,0,0,5.788,72.68,753.29056610005,32.480316,6,P-GPS,,9.9
293900,2026-01-09 12:41:58,753.29056610005,31.16798,0.223694,4.048884644,4.9770014716,19,5,7.631,753.29056610005,32.480316,0.447388,4.2120736256,-0.223694,0.0,0.0,56.2,-1.7,-9.0,0,0,1024,1024,1024,1024,0,0,0,0,0,0,0,80,3.809,3.804,0,0,0,0,5.788,72.68,753.29056610005,32.480316,6,P-GPS,,9.9
294000,2026-01-09 12:41:58,753.29056610005,31.16798,0.0,4.0850066924,5.0220802132,19,5,7.631,753.29056610005,32.480316,0.447388,4.2120736256,0.0,0.0,0.0,56.4,-2.3,-9.6,0,0,1024,1024,1024,1024,0,0,0,0,0,0,0,80,3.809,3.804,0,0,0,0,5.788,72.68,753.29056610005,32.480316,6,P-GPS,,9.9
294100,2026-01-09 12:41:58,753.29056610005,31.16798,0.0,4.1099410764,5.052985726,19,5,7.591,753.29056610005,32.480316,0.447388,4.2120736256,0.0,0.0,0.0,56.1,-0.4,-9.0,0,0,1024,1024,1024,1024,0,0,0,0,0,0,0,80,3.796,3.796,0,0,0,0,5.746,72.68,753.29056610005,32.480316,6,P-GPS,,9.9
294200,2026-01-09 12:41:58,753.29056610005,31.16798,0.0,4.1245736228,5.0700132856,19,5,7.591,753.29056610005,32.480316,0.447388,4.2120736256,0.0,0.0,0.0,55.9,0.0,-8.6,0,0,1024,1024,1024,1024,0,0,0,0,0,0,0,80,3.796,3.796,0,0,0,0,5.746,72.68,753.29056610005,32.480316,6,P-GPS,,9.9
294300,2026-01-09 12:41:58,752.96248210005,31.16798,0.0,4.1250657488,5.0707350704,19,5,7.591,753.29056610005,32.480316,0.447388,4.2120736256,0.0,0.0,0.0,55.5,1.6,-7.7,0,0,1024,1024,1024,1024,0,0,0,0,0,0,0,80,3.796,3.796,0,0,0,0,5.746,72.68,752.96248210005,32.152232,6,P-GPS,,9.8
294400,2026-01-09 12:41:58,752.96248210005,31.16798,0.0,4.1124673232,5.0851051496,19,5,7.591,753.29056610005,32.480316,0.447388,4.2120736256,0.0,0.0,0.0,55.8,1.3,-6.9,0,0,1024,1024,1024,1024,0,0,0,0,0,0,0,80,3.796,3.796,0,0,0,0,5.746,72.68,752.96248210005,32.152232,6,P-GPS,,9.8
294500,2026-01-09 12:41:59,752.63439810005,31.16798,0.0,4.0780185032,5.1201445208,19,5,7.591,753.29056610005,32.480316,0.447388,4.2120736256,0.0,0.0,0.0,56.0,0.6,-6.8,0,0,1024,1024,1024,1024,0,0,0,0,0,0,0,80,3.796,3.796,0,0,0,0,5.746,72.68,752.63439810005,31.824148,6,P-GPS,,9.7
294600,2026-01-09 12:41:59,752.63439810005,31.16798,0.0,4.0575460616,5.1788715568,19,5,7.591,753.29056610005,32.480316,0.447388,4.2120736256,0.0,0.0,0.0,55.1,3.9,-7.8,0,0,1024,1024,1024,1024,0,0,0,0,0,0,0,80,3.796,3.796,0,0,0,0,5.746,72.68,752.63439810005,31.824148,6,P-GPS,,9.7
294700,2026-01-09 12:41:59,752.30631410005,31.16798,0.0,4.0411090532,5.215223264,19,5,7.591,753.29056610005,32.480316,0.447388,4.2120736256,0.0,0.0,0.223694,55.7,2.9,-6.9,0,0,1024,1024,1024,1024,0,0,0,0,0,0,0,80,3.796,3.796,0,0,0,0,5.746,72.68,752.30631410005,31.496064,6,P-GPS,,9.6
294800,2026-01-09 12:41:59,752.30631410005,31.16798,0.0,4.021981756,5.2351707712,19,5,7.591,753.29056610005,32.480316,0.447388,4.2120736256,0.0,0.0,0.0,55.6,1.5,-7.6,0,0,1024,1024,1024,1024,0,0,0,0,0,0,0,80,3.796,3.796,0,0,0,0,5.746,72.68,752.30631410005,31.496064,6,P-GPS,,9.6
294900,2026-01-09 12:41:59,751.97823010005,31.16798,0.223694,3.9862534084,5.2724411136,19,5,7.591,753.29056610005,32.480316,0.447388,4.2120736256,0.0,-0.223694,0.0,55.7,1.3,-6.4,0,0,1024,1024,1024,1024,0,0,0,0,0,0,0,80,3.796,3.796,0,0,0,0,5.746,72.68,751.97823010005,31.16798,6,P-GPS,,9.5
295000,2026-01-09 12:41:59,751.65014610005,31.16798,0.223694,3.913878078,5.344816444,19,5,7.591,753.29056610005,32.480316,0.447388,4.2120736256,0.0,-0.223694,0.0,56.0,0.3,-5.8,0,0,1024,1024,1024,1024,0,0,0,0,0,0,0,80,3.796,3.796,0,0,0,0,5.746,72.68,751.65014610005,30.839896,6,P-GPS,,9.4
295100,2026-01-09 12:41:59,751.65014610005,31.16798,0.223694,3.8554135092,5.4053807504,19,5,7.591,753.29056610005,32.480316,0.447388,4.2120736256,0.0,-0.223694,0.0,55.9,-1.0,-5.6,0,0,1024,1024,1024,1024,0,0,0,0,0,0,0,80,3.816,3.808,0,0,0,0,5.746,72.68,751.65014610005,30.839896,6,P-GPS,,9.4
295200,2026-01-09 12:41:59,751.32206210005,31.16798,0.223694,3.8370079968,5.4562993872,19,5,7.591,753.29056610005,32.480316,0.447388,4.2120736256,0.0,-0.223694,0.0,55.8,-1.4,-5.9,0,0,1024,1024,1024,1024,0,0,0,0,0,0,0,80,3.816,3.808,0,0,0,0,5.746,72.68,751.32206210005,30.511812,6,P-GPS,,9.3
295300,2026-01-09 12:41:59,750.99397810005,31.16798,0.223694,3.8413058972,5.5578085768,19,5,7.591,753.29056610005,32.480316,0.447388,4.2120736256,0.0,-0.223694,0.0,55.7,-0.9,-5.7,0,0,1024,1024,1024,1024,0,0,0,0,0,0,0,80,3.816,3.808,0,0,0,0,5.746,72.68,750.99397810005,30.183728,6,P-GPS,,9.2
295400,2026-01-09 12:42:00,750.99397810005,31.16798,0.447388,3.8207678388,5.6362862696,19,5,7.591,753.29056610005,32.480316,0.447388,4.2120736256,0.0,-0.447388,0.0,55.7,-1.7,-4.9,0,0,1024,1024,1024,1024,0,0,0,0,0,0,0,80,3.816,3.808,0,0,0,0,5.746,72.68,750.99397810005,30.183728,6,P-GPS,,9.2
295500,2026-01-09 12:42:00,750.66589410005,31.16798,0.447388,3.802821644,5.7073820724,19,5,7.591,753.29056610005,32.480316,0.447388,4.2120736256,0.0,-0.223694,0.0,55.9,-3.2,-3.7,0,0,1024,1024,1024,1024,0,0,0,0,0,0,0,80,3.816,3.808,0,0,0,0,5.746,72.68,750.66589410005,29.855644,6,P-GPS,,9.1
295600,2026-01-09 12:42:00,750.66589410005,31.16798,0.223694,3.7886484152,5.7578742,19,5,7.591,753.29056610005,32.480316,0.447388,4.2120736256,0.0,-0.223694,0.0,55.8,-2.2,-4.3,0,0,1024,1024,1024,1024,0,0,0,0,0,0,0,80,3.816,3.808,0,0,0,0,5.746,72.68,750.66589410005,29.855644,6,P-GPS,,9.1
295700,2026-01-09 12:42:00,750.66589410005,31.16798,0.0,3.7845473652,5.7964896868,19,5,7.591,753.29056610005,32.480316,0.447388,4.2120736256,0.0,0.0,0.0,56.0,-2.5,-4.2,0,0,1024,1024,1024,1024,0,0,0,0,0,0,0,80,3.816,3.808,0,0,0,0,5.746,72.68,750.66589410005,29.855644,6,P-GPS,,9.1
295800,2026-01-09 12:42:00,750.66589410005,31.16798,0.0,3.8220473664,5.8642390328,19,5,7.591,753.29056610005,32.480316,0.447388,4.2120736256,0.0,0.0,0.0,56.0,-2.6,-5.2,0,0,1024,1024,1024,1024,0,0,0,0,0,0,0,80,3.816,3.808,0,0,0,0,5.746,72.68,750.66589410005,29.855644,6,P-GPS,,9.1
295900,2026-01-09 12:42:00,750.66589410005,31.16798,0.0,3.83366154,5.8758860148,19,5,7.591,753.29056610005,32.480316,0.447388,4.2120736256,0.0,0.0,0.0,55.7,-0.1,-6.3,0,0,1024,1024,1024,1024,0,0,0,0,0,0,0,80,3.816,3.808,0,0,0,0,5.746,72.68,750.66589410005,29.855644,6,P-GPS,,9.1
296000,2026-01-09 12:42:00,750.66589410005,31.16798,0.0,3.8266405424,5.900426698,19,5,7.591,753.29056610005,32.480316,0.447388,4.2120736256,0.0,0.0,0.0,55.7,0.8,-6.8,0,0,1024,1024,1024,1024,0,0,0,0,0,0,0,80,3.816,3.808,0,0,0,0,5.746,72.68,750.66589410005,29.855644,6,P-GPS,,9.1
296100,2026-01-09 12:42:00,750.66589410005,31.16798,0.0,3.8222114084,5.9264109508,19,5,7.591,753.29056610005,32.480316,0.447388,4.2120736256,0.0,0.0,0.0,55.8,0.8,-7.0,0,0,1024,1024,1024,1024,0,0,0,0,0,0,0,80,3.816,3.808,0,0,0,0,5.746,72.68,750.66589410005,29.855644,6,P-GPS,,9.1
296200,2026-01-09 12:42:00,750.66589410005,31.16798,0.0,3.8062009092,6.0229004552,19,5,7.624,753.29056610005,32.480316,0.447388,4.2120736256,0.0,0.0,0.0,55.7,1.0,-7.2,0,0,1024,1024,1024,1024,0,0,0,0,0,0,0,80,3.825,3.823,0,0,0,0,5.547,72.68,750.66589410005,29.855644,6,P-GPS,,9.1
296300,2026-01-09 12:42:00,750.66589410005,31.16798,0.0,3.8125985472,6.0575461256,19,5,7.624,753.29056610005,32.480316,0.447388,4.2120736256,0.0,0.0,0.0,55.7,1.3,-7.0,0,0,1024,1024,1024,1024,0,0,0,0,0,0,0,80,3.825,3.823,0,0,0,0,5.547,72.68,750.66589410005,29.855644,6,P-GPS,,9.1
296400,2026-01-09 12:42:00,750.66589410005,31.16798,0.0,3.8210631144,6.0888781476,19,5,7.624,753.29056610005,32.480316,0.447388,4.2120736256,0.0,0.0,0.0,55.8,0.9,-6.7,0,0,1024,1024,1024,1024,0,0,0,0,0,0,0,80,3.825,3.823,0,0,0,0,5.547,72.68,750.66589410005,29.855644,6,P-GPS,,9.1
296500,2026-01-09 12:42:01,750.66589410005,31.16798,0.0,3.827591986,6.1038059696,19,5,7.624,753.29056610005,32.480316,0.447388,4.2120736256,0.0,0.0,0.0,55.8,0.0,-6.3,0,0,1024,1024,1024,1024,0,0,0,0,0,0,0,80,3.825,3.823,0,0,0,0,5.547,72.68,750.66589410005,29.855644,6,P-GPS,,9.1
296600,2026-01-09 12:42:01,750.66589410005,31.16798,0.0,3.8428150836,6.1225067576,19,5,7.624,753.29056610005,32.480316,0.447388,4.2120736256,0.0,0.0,0.0,55.9,-1.0,-6.1,0,0,1024,1024,1024,1024,0,0,0,0,0,0,0,80,3.825,3.823,0,0,0,0,5.547,72.68,750.66589410005,29.855644,6,P-GPS,,9.1
296700,2026-01-09 12:42:01,750.33781010005,31.16798,0.0,3.8427822752,6.1382547896,19,5,7.624,753.29056610005,32.480316,0.447388,4.2120736256,0.0,0.0,0.0,56.0,-1.5,-6.3,0,0,1024,1024,1024,1024,0,0,0,0,0,0,0,80,3.825,3.823,0,0,0,0,5.547,72.68,750.33781010005,29.52756,6,P-GPS,,9.0
296800,2026-01-09 12:42:01,750.33781010005,31.16798,0.0,3.8241799124,6.1655841868,19,5,7.624,753.29056610005,32.480316,0.447388,4.2120736256,0.0,0.0,0.0,56.1,-1.9,-6.1,0,0,1024,1024,1024,1024,0,0,0,0,0,0,0,80,3.825,3.823,0,0,0,0,5.547,72.68,750.33781010005,29.52756,6,P-GPS,,9.0
296900,2026-01-09 12:42:01,750.33781010005,31.16798,0.0,3.8078085208,6.1869096468,19,5,7.624,753.29056610005,32.480316,0.447388,4.2120736256,0.0,0.0,0.0,55.8,-0.8,-6.2,0,0,1024,1024,1024,1024,0,0,0,0,0,0,0,80,3.825,3.823,0,0,0,0,5.547,72.68,750.33781010005,29.52756,6,P-GPS,,9.0
297000,2026-01-09 12:42:01,750.33781010005,31.16798,0.0,3.7637140312,6.2545277592,19,5,7.624,753.29056610005,32.480316,0.447388,4.2120736256,0.0,0.0,0.0,55.9,-0.9,-6.0,0,0,1024,1024,1024,1024,0,0,0,0,0,0,0,80,3.825,3.823,0,0,0,0,5.547,72.68,750.33781010005,29.52756,6,P-GPS,,9.0
297100,2026-01-09 12:42:01,750.33781010005,31.16798,0.0,3.7617127188,6.2756891772,19,5,7.624,753.29056610005,32.480316,0.447388,4.2120736256,0.0,0.0,0.0,56.2,-2.4,-6.0,0,0,1024,1024,1024,1024,0,0,0,0,0,0,0,80,3.825,3.823,0,0,0,0,5.547,72.68,750.33781010005,29.52756,6,P-GPS,,9.0
297200,2026-01-09 12:42:01,750.33781010005,30.839896,0.0,3.7667652124,6.2866471828,19,5,7.624,753.29056610005,32.480316,0.447388,4.2120736256,0.0,0.0,0.0,56.0,-1.8,-6.6,0,0,1024,1024,1024,1024,0,0,0,0,0,0,0,80,3.825,3.823,0,0,0,0,5.547,72.68,750.33781010005,29.52756,6,P-GPS,,9.0
297300,2026-01-09 12:42:01,750.33781010005,30.839896,0.0,3.772309832,6.2924542696,19,5,7.624,753.29056610005,32.480316,0.447388,4.2120736256,0.0,0.0,0.0,56.0,-1.8,-7.2,0,0,1024,1024,1024,1024,0,0,0,0,0,0,0,80,3.825,3.823,0,0,0,0,5.547,72.68,750.33781010005,29.52756,6,P-GPS,,9.0
297400,2026-01-09 12:42:02,750.00972610005,30.839896,0.0,3.7721129816,6.315452958,19,5,7.638,753.29056610005,32.480316,0.447388,4.2120736256,0.0,0.0,0.0,55.9,-1.4,-7.2,0,0,1024,1024,1024,1024,0,0,0,0,0,0,0,80,3.822,3.817,0,0,0,0,4.865,72.68,750.00972610005,29.199476,6,P-GPS,,8.9
297500,2026-01-09 12:42:02,750.00972610005,30.839896,0.0,3.7559384404,6.3757547972,19,5,7.638,753.29056610005,32.480316,0.447388,4.2120736256,0.0,0.0,0.0,55.8,-0.9,-6.9,0,0,1024,1024,1024,1024,0,0,0,0,0,0,0,80,3.822,3.817,0,0,0,0,4.865,72.68,750.00972610005,29.199476,6,P-GPS,,8.9
297600,2026-01-09 12:42:02,750.00972610005,30.839896,0.0,3.7654856848,6.3986550604,19,5,7.638,753.29056610005,32.480316,0.447388,4.2120736256,0.0,0.0,0.0,55.9,-1.3,-6.8,0,0,1024,1024,1024,1024,0,0,0,0,0,0,0,80,3.822,3.817,0,0,0,0,4.865,72.68,750.00972610005,29.199476,6,P-GPS,,8.9
297700,2026-01-09 12:42:02,750.00972610005,30.839896,0.0,3.7735893596,6.4205382632,19,5,7.638,753.29056610005,32.480316,0.447388,4.2120736256,0.0,0.0,0.0,55.9,-1.6,-7.0,0,0,1024,1024,1024,1024,0,0,0,0,0,0,0,80,3.822,3.817,0,0,0,0,4.865,72.68,750.00972610005,29.199476,6,P-GPS,,8.9
297800,2026-01-09 12:42:02,750.00972610005,30.839896,0.0,3.7844817484,6.444554012,19,5,7.638,753.29056610005,32.480316,0.447388,4.2120736256,0.0,0.0,0.0,55.9,-1.1,-7.4,0,0,1024,1024,1024,1024,0,0,0,0,0,0,0,80,3.822,3.817,0,0,0,0,4.865,72.68,750.00972610005,29.199476,6,P-GPS,,8.9
297900,2026-01-09 12:42:02,750.00972610005,30.839896,0.0,3.8048229564,6.4872377404,19,5,7.638,753.29056610005,32.480316,0.447388,4.2120736256,0.0,0.0,0.0,55.7,-0.7,-7.6,0,0,1024,1024,1024,1024,0,0,0,0,0,0,0,80,3.822,3.817,0,0,0,0,4.865,72.68,750.00972610005,29.199476,6,P-GPS,,8.9
298000,2026-01-09 12:42:02,750.00972610005,30.839896,0.0,3.8148295184,6.50180467,19,5,7.638,753.29056610005,32.480316,0.447388,4.2120736256,0.0,0.0,0.0,55.9,-0.7,-7.7,0,0,1024,1024,1024,1024,0,0,0,0,0,0,0,80,3.822,3.817,0,0,0,0,4.865,72.68,750.00972610005,29.199476,6,P-GPS,,8.9
298100,2026-01-09 12:42:02,750.00972610005,30.839896,0.0,3.8250985476,6.5131563764,19,5,7.638,753.29056610005,32.480316,0.447388,4.2120736256,0.0,0.0,0.0,55.8,-1.0,-8.2,0,0,1024,1024,1024,1024,0,0,0,0,0,0,0,80,3.822,3.817,0,0,0,0,4.865,72.68,750.00972610005,29.199476,6,P-GPS,,8.9
298200,2026-01-09 12:42:02,750.00972610005,30.839896,0.0,3.8354003852,6.5247049332,19,5,7.638,753.29056610005,32.480316,0.447388,4.2120736256,0.0,0.0,0.0,55.6,-0.8,-8.6,0,0,1024,1024,1024,1024,0,0,0,0,0,0,0,80,3.822,3.817,0,0,0,0,4.865,72.68,750.00972610005,29.199476,6,P-GPS,,8.9
298300,2026-01-09 12:42:02,750.00972610005,30.839896,0.0,3.8145342428,6.5559713384,19,5,7.638,753.29056610005,32.480316,0.447388,4.2120736256,0.0,0.0,0.0,55.6,-0.8,-8.4,0,0,1024,1024,1024,1024,0,0,0,0,0,0,0,80,3.822,3.817,0,0,0,0,4.865,72.68,750.00972610005,29.199476,6,P-GPS,,8.9
298400,2026-01-09 12:42:02,749.68164210005,30.839896,0.0,3.8091864736,6.5831366936,19,5,7.638,753.29056610005,32.480316,0.447388,4.2120736256,0.0,0.0,0.0,55.6,0.4,-7.8,0,0,1024,1024,1024,1024,0,0,0,0,0,0,0,80,3.822,3.817,0,0,0,0,4.865,72.68,749.68164210005,28.871392,6,P-GPS,,8.8
298500,2026-01-09 12:42:03,749.68164210005,30.839896,0.0,3.798228468,6.61417344,19,5,7.603,753.29056610005,32.480316,0.447388,4.2120736256,0.0,0.0,0.0,55.7,0.6,-6.9,0,0,1024,1024,1024,1024,0,0,0,0,0,0,0,80,3.804,3.799,0,0,0,0,5.566,72.68,749.68164210005,28.871392,6,P-GPS,,8.8
298600,2026-01-09 12:42:03,749.68164210005,30.839896,0.0,3.78362873,6.650426722,19,5,7.603,753.29056610005,32.480316,0.447388,4.2120736256,0.0,0.0,0.0,55.8,0.9,-6.7,0,0,1024,1024,1024,1024,0,0,0,0,0,0,0,80,3.804,3.799,0,0,0,0,5.566,72.68,749.68164210005,28.871392,6,P-GPS,,8.8
298700,2026-01-09 12:42:03,749.68164210005,30.839896,0.0,3.7235565496,6.7243768556,19,5,7.603,753.29056610005,32.480316,0.447388,4.2120736256,0.0,0.0,0.0,55.6,1.5,-7.4,0,0,1024,1024,1024,1024,0,0,0,0,0,0,0,80,3.804,3.799,0,0,0,0,5.566,72.68,749.68164210005,28.871392,6,P-GPS,,8.8
298800,2026-01-09 12:42:03,749.35355810005,30.839896,0.0,3.7025591736,6.769029088,19,5,7.603,753.29056610005,32.480316,0.447388,4.2120736256,0.0,0.0,0.0,55.6,1.1,-7.4,0,0,1024,1024,1024,1024,0,0,0,0,0,0,0,80,3.804,3.799,0,0,0,0,5.566,72.68,749.35355810005,28.543308,6,P-GPS,,8.7
298900,2026-01-09 12:42:03,749.35355810005,30.839896,0.0,3.6811680968,6.8087600604,19,5,7.603,753.29056610005,32.480316,0.447388,4.2120736256,0.0,0.0,0.0,55.7,1.1,-7.0,0,0,1024,1024,1024,1024,0,0,0,0,0,0,0,80,3.804,3.799,0,0,0,0,5.566,72.68,749.35355810005,28.543308,6,P-GPS,,8.7
299000,2026-01-09 12:42:03,749.02547410005,30.839896,0.0,3.659612978,6.8416012688,19,5,7.603,753.29056610005,32.480316,0.447388,4.2120736256,0.0,0.0,0.0,55.8,0.9,-6.3,0,0,1024,1024,1024,1024,0,0,0,0,0,0,0,80,3.804,3.799,0,0,0,0,5.566,72.68,749.02547410005,28.215224,6,P-GPS,,8.6
299100,2026-01-09 12:42:03,749.02547410005,30.839896,0.0,3.6384187516,6.8767718736,19,5,7.603,753.29056610005,32.480316,0.447388,4.2120736256,0.0,0.0,0.0,55.7,1.1,-5.8,0,0,1024,1024,1024,1024,0,0,0,0,0,0,0,80,3.804,3.799,0,0,0,0,5.566,72.68,749.02547410005,28.215224,6,P-GPS,,8.6
299200,2026-01-09 12:42:03,749.02547410005,30.839896,0.223694,3.6303478852,6.8976052076,19,5,7.603,753.29056610005,32.480316,0.447388,4.2120736256,0.223694,0.0,0.0,55.6,1.0,-5.5,0,0,1024,1024,1024,1024,0,0,0,0,0,0,0,80,3.804,3.799,0,0,0,0,5.566,72.68,749.02547410005,28.215224,6,P-GPS,,8.6
299300,2026-01-09 12:42:03,748.69739010005,30.839896,0.223694,3.611712714,6.9392718756,19,5,7.603,753.29056610005,32.480316,0.447388,4.2120736256,0.223694,0.0,0.0,55.6,1.9,-5.0,0,0,1024,1024,1024,1024,0,0,0,0,0,0,0,80,3.804,3.799,0,0,0,0,5.566,72.68,748.69739010005,27.88714,6,P-GPS,,8.5
299400,2026-01-09 12:42:03,748.69739010005,30.839896,0.223694,3.57447518,6.9926511424,19,5,7.603,753.29056610005,32.480316,0.447388,4.2120736256,0.223694,0.0,0.0,55.5,2.7,-4.8,0,0,1024,1024,1024,1024,0,0,0,0,0,0,0,80,3.804,3.799,0,0,0,0,5.566,72.68,748.69739010005,27.88714,6,P-GPS,,8.5
299500,2026-01-09 12:42:04,748.69739010005,30.839896,0.0,3.5460302972,7.0340881516,19,5,7.603,753.29056610005,32.480316,0.447388,4.2120736256,0.0,0.0,0.0,55.5,2.4,-5.0,0,0,1024,1024,1024,1024,0,0,0,0,0,0,0,80,3.804,3.799,0,0,0,0,5.566,72.68,748.69739010005,27.88714,6,P-GPS,,8.5
299600,2026-01-09 12:42:04,748.69739010005,30.839896,0.0,3.509350506,7.0713256856,19,5,7.608,753.29056610005,32.480316,0.447388,4.2120736256,0.0,0.0,0.0,55.6,2.4,-4.7,0,0,1024,1024,1024,1024,0,0,0,0,0,0,0,80,3.806,3.802,0,0,0,0,5.546,72.68,748.69739010005,27.88714,6,P-GPS,,8.5
299700,2026-01-09 12:42:04,748.36930610005,30.839896,0.0,3.4917323952,7.0927495708,19,5,7.608,753.29056610005,32.480316,0.447388,4.2120736256,0.0,0.0,0.0,55.6,1.8,-4.6,0,0,1024,1024,1024,1024,0,0,0,0,0,0,0,80,3.806,3.802,0,0,0,0,5.546,72.68,748.36930610005,27.559056,6,P-GPS,,8.4
299800,2026-01-09 12:42:04,748.36930610005,30.839896,0.0,3.4579725516,7.1271655824,19,5,7.608,753.29056610005,32.480316,0.447388,4.2120736256,0.0,0.0,0.0,55.6,1.6,-4.8,0,0,1024,1024,1024,1024,0,0,0,0,0,0,0,80,3.806,3.802,0,0,0,0,5.546,72.68,748.36930610005,27.559056,6,P-GPS,,8.4
299900,2026-01-09 12:42:04,748.36930610005,30.839896,0.0,3.4280512908,7.1572836936,19,5,7.608,753.29056610005,32.480316,0.447388,4.2120736256,0.0,0.0,0.0,55.6,1.6,-4.4,0,0,1024,1024,1024,1024,0,0,0,0,0,0,0,80,3.806,3.802,0,0,0,0,5.546,72.68,748.36930610005,27.559056,6,P-GPS,,8.4
300000,2026-01-09 12:42:04,748.36930610005,30.839896,0.0,3.35875995,7.2387141424,19,5,7.608,753.29056610005,32.480316,0.447388,4.2120736256,0.0,0.0,0.0,55.8,1.2,-3.9,0,0,1024,1024,1024,1024,0,0,0,0,0,0,0,80,3.806,3.802,0,0,0,0,5.546,72.68,748.36930610005,27.559056,6,P-GPS,,8.4
300100,2026-01-09 12:42:04,748.36930610005,30.839896,0.0,3.3462271412,7.2517390772,18,5,7.608,753.29056610005,32.480316,0.447388,4.2120736256,0.0,0.0,0.0,55.7,1.1,-4.4,0,0,1024,1024,1024,1024,0,0,0,0,0,0,0,80,3.806,3.802,0,0,0,0,5.546,72.68,748.36930610005,27.559056,6,P-GPS,,8.4
300200,2026-01-09 12:42:04,748.36930610005,30.839896,0.0,3.3539699236,7.2750658496,18,5,7.608,753.29056610005,32.480316,0.447388,4.2120736256,0.0,0.0,0.0,55.7,1.5,-4.8,0,0,1024,1024,1024,1024,0,0,0,0,0,0,0,80,3.806,3.802,0,0,0,0,5.546,72.68,748.36930610005,27.559056,6,P-GPS,,8.4
300300,2026-01-09 12:42:04,748.36930610005,30.839896,0.0,3.3581693988,7.3035435408,18,5,7.608,753.29056610005,32.480316,0.447388,4.2120736256,0.0,0.0,0.0,55.7,2.3,-4.9,0,0,1024,1024,1024,1024,0,0,0,0,0,0,0,80,3.806,3.802,0,0,0,0,5.546,72.68,748.36930610005,27.559056,6,P-GPS,,8.4
300400,2026-01-09 12:42:05,748.36930610005,30.839896,0.0,3.37352373,7.325951678,18,5,7.608,753.29056610005,32.480316,0.447388,4.2120736256,0.0,0.0,0.0,55.6,3.5,-4.5,0,0,1024,1024,1024,1024,0,0,0,0,0,0,0,80,3.806,3.802,0,0,0,0,5.546,72.68,748.36930610005,27.559056,6,P-GPS,,8.4
300500,2026-01-09 12:42:05,748.36930610005,30.839896,0.0,3.3704725488,7.3537403928,18,5,7.608,753.29056610005,32.480316,0.447388,4.2120736256,0.0,0.0,0.0,55.4,3.8,-4.8,0,0,1024,1024,1024,1024,0,0,0,0,0,0,0,80,3.806,3.802,0,0,0,0,5.546,72.68,748.36930610005,27.559056,6,P-GPS,,8.4
300600,2026-01-09 12:42:05,748.69739010005,30.839896,0.0,3.3733268796,7.3808401312,18,5,7.608,753.29056610005,32.480316,0.447388,4.2120736256,0.0,0.0,0.0,55.3,3.9,-5.8,0,0,1024,1024,1024,1024,0,0,0,0,0,0,0,80,3.806,3.802,0,0,0,0,5.546,72.68,748.69739010005,27.88714,6,P-GPS,,8.5
300700,2026-01-09 12:42:05,748.69739010005,30.839896,0.0,3.3792652,7.4010172972,18,5,7.635,753.29056610005,32.480316,0.447388,4.2120736256,0.0,0.0,0.0,55.2,3.6,-6.0,0,0,1024,1024,1024,1024,0,0,0,0,0,0,0,80,3.82,3.817,0,0,0,0,5.002,72.68,748.69739010005,27.88714,6,P-GPS,,8.5
300800,2026-01-09 12:42:05,748.69739010005,30.839896,0.0,3.3873360664,7.4202102112,18,5,7.635,753.29056610005,32.480316,0.447388,4.2120736256,0.0,0.0,0.0,55.4,3.3,-5.3,0,0,1024,1024,1024,1024,0,0,0,0,0,0,0,80,3.82,3.817,0,0,0,0,5.002,72.68,748.69739010005,27.88714,6,P-GPS,,8.5
300900,2026-01-09 12:42:05,748.69739010005,30.839896,0.0,3.3970145444,7.4464569312,18,5,7.635,753.29056610005,32.480316,0.447388,4.2120736256,0.0,0.0,0.0,55.5,2.8,-5.5,0,0,1024,1024,1024,1024,0,0,0,0,0,0,0,80,3.82,3.817,0,0,0,0,5.002,72.68,748.69739010005,27.88714,6,P-GPS,,8.5
301000,2026-01-09 12:42:05,748.69739010005,30.839896,0.0,3.4134843612,7.4663060132,18,5,7.635,753.29056610005,32.480316,0.447388,4.2120736256,0.0,0.0,0.0,55.5,2.4,-5.7,0,0,1024,1024,1024,1024,0,0,0,0,0,0,0,80,3.82,3.817,0,0,0,0,5.002,72.68,748.69739010005,27.88714,6,P-GPS,,8.5
301100,2026-01-09 12:42:05,749.02547410005,30.839896,0.0,3.433070976,7.4895343604,18,5,7.635,753.29056610005,32.480316,0.447388,4.2120736256,0.0,0.0,0.0,55.8,1.8,-5.9,0,0,1024,1024,1024,1024,0,0,0,0,0,0,0,80,3.82,3.817,0,0,0,0,5.002,72.68,749.02547410005,28.215224,6,P-GPS,,8.6
301200,2026-01-09 12:42:05,749.02547410005,30.839896,0.0,3.4599410556,7.5188978784,18,5,7.635,753.29056610005,32.480316,0.447388,4.2120736256,0.0,0.0,0.0,55.5,2.0,-5.9,0,0,1024,1024,1024,1024,0,0,0,0,0,0,0,80,3.82,3.817,0,0,0,0,5.002,72.68,749.02547410005,28.215224,6,P-GPS,,8.6
301300,2026-01-09 12:42:05,749.02547410005,30.839896,0.0,3.5009187472,7.5646655964,18,5,7.635,753.29056610005,32.480316,0.447388,4.2120736256,0.0,0.0,0.0,55.4,2.4,-6.1,0,0,1024,1024,1024,1024,0,0,0,0,0,0,0,80,3.82,3.817,0,0,0,0,5.002,72.68,749.02547410005,28.215224,6,P-GPS,,8.6
301400,2026-01-09 12:42:05,749.35355810005,30.839896,0.0,3.5176510312,7.5936026052,18,5,7.635,753.29056610005,32.480316,0.447388,4.2120736256,0.0,0.0,0.0,55.5,3.0,-6.6,0,0,1024,1024,1024,1024,0,0,0,0,0,0,0,80,3.82,3.817,0,0,0,0,5.002,72.68,749.35355810005,28.543308,6,P-GPS,,8.7
301500,2026-01-09 12:42:06,749.35355810005,30.839896,0.223694,3.5338255724,7.6352692732,18,5,7.635,753.29056610005,32.480316,0.447388,4.2120736256,-0.223694,0.0,0.0,55.9,1.1,-6.3,0,0,1024,1024,1024,1024,0,0,0,0,0,0,0,80,3.82,3.817,0,0,0,0,5.002,72.68,749.35355810005,28.543308,6,P-GPS,,8.7
301600,2026-01-09 12:42:06,749.35355810005,30.839896,0.223694,3.5570539196,7.686515994,18,5,7.635,753.29056610005,32.480316,0.447388,4.2120736256,-0.223694,0.0,0.0,55.9,-0.5,-6.8,0,0,1024,1024,1024,1024,0,0,0,0,0,0,0,80,3.82,3.817,0,0,0,0,5.002,72.68,749.35355810005,28.543308,6,P-GPS,,8.7
301700,2026-01-09 12:42:06,749.35355810005,30.839896,0.223694,3.5851707184,7.739173476,18,5,7.635,753.29056610005,32.480316,0.447388,4.2120736256,-0.223694,0.0,0.0,55.8,-1.1,-7.1,0,0,1024,1024,1024,1024,0,0,0,0,0,0,0,80,3.82,3.817,0,0,0,0,5.002,72.68,749.35355810005,28.543308,6,P-GPS,,8.7
301800,2026-01-09 12:42:06,749.35355810005,30.839896,0.0,3.6266733444,7.805282402,18,5,7.637,753.29056610005,32.480316,0.447388,4.2120736256,0.0,0.0,0.0,55.8,-1.3,-7.0,0,0,1024,1024,1024,1024,0,0,0,0,0,0,0,80,3.821,3.816,0,0,0,0,4.922,72.68,749.35355810005,28.543308,6,P-GPS,,8.7
301900,2026-01-09 12:42:06,749.35355810005,30.839896,0.0,3.660761272,7.8527561568,19,5,7.637,753.29056610005,32.480316,0.447388,4.2120736256,0.0,0.0,0.0,55.4,0.6,-6.7,0,0,1024,1024,1024,1024,0,0,0,0,0,0,0,80,3.821,3.816,0,0,0,0,4.922,72.68,749.35355810005,28.543308,6,P-GPS,,8.7
302000,2026-01-09 12:42:06,749.35355810005,30.839896,0.0,3.682906942,7.8831039268,19,5,7.637,753.29056610005,32.480316,0.447388,4.2120736256,0.0,0.0,0.0,55.3,1.5,-7.1,0,0,1024,1024,1024,1024,0,0,0,0,0,0,0,80,3.821,3.816,0,0,0,0,4.922,72.68,749.35355810005,28.543308,6,P-GPS,,8.7
302100,2026-01-09 12:42:06,749.68164210005,30.839896,0.0,3.6836943436,7.9141406732,19,5,7.637,753.29056610005,32.480316,0.447388,4.2120736256,0.0,0.0,0.0,55.6,0.9,-6.5,0,0,1024,1024,1024,1024,0,0,0,0,0,0,0,80,3.821,3.816,0,0,0,0,4.922,72.68,749.68164210005,28.871392,6,P-GPS,,8.8
302200,2026-01-09 12:42:06,749.68164210005,30.839896,0.0,3.683235026,7.9358270256,19,5,7.637,753.29056610005,32.480316,0.447388,4.2120736256,0.0,0.0,0.0,55.7,0.7,-6.0,0,0,1024,1024,1024,1024,0,0,0,0,0,0,0,80,3.821,3.816,0,0,0,0,4.922,72.68,749.68164210005,28.871392,6,P-GPS,,8.8
302300,2026-01-09 12:42:06,749.68164210005,30.839896,0.0,3.6800854196,7.9539372624,19,5,7.637,753.29056610005,32.480316,0.447388,4.2120736256,0.0,0.0,0.0,55.8,0.0,-5.3,0,0,1024,1024,1024,1024,0,0,0,0,0,0,0,80,3.821,3.816,0,0,0,0,4.922,72.68,749.68164210005,28.871392,6,P-GPS,,8.8
302400,2026-01-09 12:42:06,749.68164210005,30.839896,0.0,3.6736221648,7.9619097036,19,5,7.637,753.29056610005,32.480316,0.447388,4.2120736256,0.0,0.0,0.0,55.8,0.4,-6.0,0,0,1024,1024,1024,1024,0,0,0,0,0,0,0,80,3.821,3.816,0,0,0,0,4.922,72.68,749.68164210005,28.871392,6,P-GPS,,8.8
302500,2026-01-09 12:42:07,749.68164210005,30.839896,0.0,3.6625985424,7.973917578,19,5,7.637,753.29056610005,32.480316,0.447388,4.2120736256,0.0,0.0,0.0,55.9,0.1,-6.2,0,0,1024,1024,1024,1024,0,0,0,0,0,0,0,80,3.821,3.816,0,0,0,0,4.922,72.68,749.68164210005,28.871392,6,P-GPS,,8.8
302600,2026-01-09 12:42:07,749.68164210005,30.839896,0.0,3.5926182252,8.0534123312,19,5,7.637,753.29056610005,32.480316,0.447388,4.2120736256,0.0,0.0,0.0,55.7,-0.5,-6.9,0,0,1024,1024,1024,1024,0,0,0,0,0,0,0,80,3.821,3.816,0,0,0,0,4.922,72.68,749.68164210005,28.871392,6,P-GPS,,8.8
302700,2026-01-09 12:42:07,749.68164210005,30.839896,0.0,3.5735237364,8.0725396284,18,5,7.637,753.29056610005,32.480316,0.447388,4.2120736256,0.0,0.0,0.0,55.7,0.4,-6.8,0,0,1024,1024,1024,1024,0,0,0,0,0,0,0,80,3.821,3.816,0,0,0,0,4.922,72.68,749.68164210005,28.871392,6,P-GPS,,8.8
302800,2026-01-09 12:42:07,749.68164210005,30.839896,0.0,3.5665355472,8.0796590512,18,5,7.637,753.29056610005,32.480316,0.447388,4.2120736256,0.0,0.0,0.0,55.6,0.7,-6.4,0,0,1024,1024,1024,1024,0,0,0,0,0,0,0,80,3.821,3.816,0,0,0,0,4.922,72.68,749.68164210005,28.871392,6,P-GPS,,8.8
302900,2026-01-09 12:42:07,749.68164210005,30.839896,0.0,3.5542323972,8.0921262432,18,5,7.635,753.29056610005,32.480316,0.447388,4.2120736256,0.0,0.0,0.0,55.7,0.7,-6.2,0,0,1024,1024,1024,1024,0,0,0,0,0,0,0,80,3.82,3.815,0,0,0,0,4.772,72.86,749.68164210005,28.871392,6,P-GPS,,8.8
303000,2026-01-09 12:42:07,749.68164210005,30.839896,0.0,3.5453413208,8.1011157448,18,5,7.635,753.29056610005,32.480316,0.447388,4.2120736256,0.0,0.0,0.0,55.6,0.5,-6.1,0,0,1024,1024,1024,1024,0,0,0,0,0,0,0,80,3.82,3.815,0,0,0,0,4.772,72.86,749.68164210005,28.871392,6,P-GPS,,8.8
303100,2026-01-09 12:42:07,749.68164210005,30.839896,0.0,3.5225066744,8.1273952732,18,5,7.635,753.29056610005,32.480316,0.447388,4.2120736256,0.0,0.0,0.0,55.7,0.6,-5.6,0,0,1024,1024,1024,1024,0,0,0,0,0,0,0,80,3.82,3.815,0,0,0,0,4.772,72.86,749.68164210005,28.871392,6,P-GPS,,8.8
303200,2026-01-09 12:42:07,749.35355810005,30.839896,0.0,3.4962599544,8.1572837256,18,5,7.635,753.29056610005,32.480316,0.447388,4.2120736256,0.0,0.0,0.0,55.7,1.1,-5.1,0,0,1024,1024,1024,1024,0,0,0,0,0,0,0,80,3.82,3.815,0,0,0,0,4.772,72.86,749.35355810005,28.543308,6,P-GPS,,8.7
303300,2026-01-09 12:42:07,749.35355810005,30.839896,0.0,3.469980426,8.1900265088,18,5,7.635,753.29056610005,32.480316,0.447388,4.2120736256,0.0,0.0,0.0,55.5,2.8,-5.2,0,0,1024,1024,1024,1024,0,0,0,0,0,0,0,80,3.82,3.815,0,0,0,0,4.772,72.86,749.35355810005,28.543308,6,P-GPS,,8.7
303400,2026-01-09 12:42:07,749.35355810005,30.839896,0.0,3.4310696636,8.232611812,18,5,7.635,753.29056610005,32.480316,0.447388,4.2120736256,0.0,0.0,0.0,55.4,4.1,-4.6,0,0,1024,1024,1024,1024,0,0,0,0,0,0,0,80,3.82,3.815,0,0,0,0,4.772,72.86,749.35355810005,28.543308,6,P-GPS,,8.7
