time(millisecond),timestamp,altitude_above_seaLevel(feet),height_sonar(feet),speed(mph),distance(feet),mileage(feet),satellites,gpslevel,voltage(v),max_altitude(feet),max_ascent(feet),max_speed(mph),max_distance(feet), xSpeed(mph), ySpeed(mph), zSpeed(mph), compass_heading(degrees), pitch(degrees), roll(degrees),isPhoto,isVideo,rc_elevator,rc_aileron,rc_throttle,rc_rudder,rc_elevator(percent),rc_aileron(percent),rc_throttle(percent),rc_rudder(percent),gimbal_heading(degrees),gimbal_pitch(degrees),gimbal_roll(degrees),battery_percent,voltageCell1,voltageCell2,voltageCell3,voltageCell4,voltageCell5,voltageCell6,current(A),battery_temperature(f),altitude(feet),ascent(feet),flycStateRaw,flycState,message,height_above_takeoff(meters)
617500,2026-01-07 15:44:48,720.47283440684,0.328084,0.0,0.0,0.0,17,5,0.0,720.47283440684,0.0,0.0,0.0,0.0,0.0,0.0,3.0,3.0,0.6,0,0,1024,1024,1024,1024,0,0,0,0,0,0,0,38,3.631,3.629,0,0,0,0,0.0,77.18,720.47283440684,0.0,41,Motors_Started,SD card speed low SD card speed low. Normal use may be affected. Replace SD card (Code: 10028). Gimbal stuck. Make sure gimbal cover is removed and manually check whether gimbal can rotate freely (Code: 40002),0.0
617600,2026-01-07 15:44:48,720.47283440684,0.328084,0.0,0.00228561030936,0.00228561030936,17,5,0.0,720.47283440684,0.0,0.0,0.00228561030936,0.0,0.0,0.0,3.0,3.0,0.6,0,0,1024,1024,1024,1024,0,0,0,0,0,0,0,38,3.631,3.629,0,0,0,0,0.0,77.18,720.47283440684,0.0,41,Motors_Started,,0.0
617700,2026-01-07 15:44:48,720.47283440684,0.328084,0.0,0.0048122048784,0.0048126313876,17,5,0.0,720.47283440684,0.0,0.0,0.0048122048784,0.0,0.0,0.0,3.0,3.0,0.6,0,0,1024,1024,1024,1024,0,0,0,0,0,0,0,38,3.631,3.629,0,0,0,0,0.0,77.18,720.47283440684,0.0,41,Motors_Started,,0.0
617800,2026-01-07 15:44:48,720.47283440684,0.328084,0.0,0.0067381563836,0.0067600395864,17,5,0.0,720.47283440684,0.0,0.0,0.0067381563836,0.0,0.0,0.0,3.0,3.0,0.6,0,0,1024,1024,1024,1024,0,0,0,0,0,0,0,38,3.631,3.629,0,0,0,0,0.0,77.18,720.47283440684,0.0,41,Motors_Started,,0.0
617900,2026-01-07 15:44:48,720.47283440684,0.328084,0.0,0.0086252627432,0.0086508532952,17,5,0.0,720.47283440684,0.0,0.0,0.0086252627432,0.0,0.0,0.0,3.0,3.0,0.6,0,0,1024,1024,1024,1024,0,0,0,0,0,0,0,38,3.631,3.629,0,0,0,0,0.0,77.18,720.47283440684,0.0,41,Motors_Started,,0.0
618000,2026-01-07 15:44:48,720.47283440684,0.328084,0.0,0.0215206043632,0.0215670610576,17,5,0.0,720.47283440684,0.0,0.0,0.0215206043632,0.0,0.0,0.0,3.0,3.0,0.6,0,0,1024,1024,1024,1024,0,0,0,0,0,0,0,38,3.631,3.629,0,0,0,0,0.0,77.18,720.47283440684,0.0,41,Motors_Started,,0.0
618100,2026-01-07 15:44:48,720.47283440684,0.328084,0.0,0.022889764512,0.0229718511288,17,5,0.0,720.47283440684,0.0,0.0,0.022889764512,0.0,0.0,0.0,3.0,2.9,0.5,0,0,1024,1024,1024,1024,0,0,0,0,0,0,0,38,3.631,3.629,0,0,0,0,0.0,77.18,720.47283440684,0.0,41,Motors_Started,,0.0
618200,2026-01-07 15:44:48,720.47283440684,0.328084,0.0,0.041834318924,0.041938649636,17,5,0.0,720.47283440684,0.0,0.0,0.041834318924,0.0,0.0,0.0,3.0,2.9,0.6,0,0,1024,1024,1024,1024,0,0,0,0,0,0,0,38,3.631,3.629,0,0,0,0,0.0,77.18,720.47283440684,0.0,41,Motors_Started,,0.0
618300,2026-01-07 15:44:49,720.47283440684,0.328084,0.0,0.058933072752,0.059037403464,17,5,0.0,720.47283440684,0.0,0.0,0.058933072752,0.0,0.0,0.0,3.0,2.9,0.6,0,0,1024,1024,1024,1024,0,0,0,0,0,0,0,38,3.631,3.629,0,0,0,0,0.0,77.18,720.47283440684,0.0,41,Motors_Started,Setting new Return-To-Home altitude to 500m (1640 ft). Data Recorder File Index is 27. Setting new Maximum Flight Altitude to 500m (1640 ft),0.0
618400,2026-01-07 15:44:49,720.47283440684,0.328084,0.0,4.188648428,0.095069556848,17,5,0.0,720.47283440684,0.0,0.0,4.188648428,0.0,0.0,0.0,2.9,3.0,0.5,0,0,1024,1024,1024,1024,0,0,0,0,0,0,0,38,3.631,3.629,0,0,0,0,0.0,77.18,720.47283440684,0.0,41,Motors_Started,,0.0
618500,2026-01-07 15:44:49,720.47283440684,0.328084,0.0,4.2054135204,0.113795279232,17,5,0.0,720.47283440684,0.0,0.0,4.2054135204,0.0,0.0,0.0,3.0,3.0,0.5,0,0,1024,1024,1024,1024,0,0,0,0,0,0,0,38,3.631,3.629,0,0,0,0,0.0,77.18,720.47283440684,0.0,41,Motors_Started,,0.0
618600,2026-01-07 15:44:49,720.47283440684,0.328084,0.0,4.2137140456,0.122263455356,17,5,7.249,720.47283440684,0.0,0.0,4.2137140456,0.0,0.0,0.0,3.0,3.0,0.5,0,0,1024,1024,1024,1024,0,0,0,0,0,0,0,38,3.624,3.624,0,0,0,0,0.781,77.18,720.47283440684,0.0,11,AutoTakeoff,,0.0
618700,2026-01-07 15:44:49,720.47283440684,0.328084,0.0,4.221456828,0.130095476604,17,5,7.249,720.47283440684,0.0,0.0,4.221456828,0.0,0.0,0.0,3.0,2.9,0.5,0,0,1024,1024,1024,1024,0,0,0,0,0,0,0,38,3.624,3.624,0,0,0,0,0.781,77.18,720.47283440684,0.0,11,AutoTakeoff,,0.0
618800,2026-01-07 15:44:49,720.47283440684,0.328084,0.0,4.2250001352,0.141903547848,17,5,7.249,720.47283440684,0.0,0.0,4.2250001352,0.0,0.0,0.0,3.0,2.9,0.5,0,0,1024,1024,1024,1024,0,0,0,0,0,0,0,38,3.624,3.624,0,0,0,0,0.781,77.18,720.47283440684,0.0,11,AutoTakeoff,,0.0
618900,2026-01-07 15:44:49,720.47283440684,0.328084,0.0,4.22654213,0.143464243436,17,5,7.249,720.47283440684,0.0,0.0,4.22654213,0.0,0.0,0.0,3.0,3.0,0.5,0,0,1024,1024,1024,1024,0,0,0,0,0,0,0,38,3.624,3.624,0,0,0,0,0.781,77.18,720.47283440684,0.0,11,AutoTakeoff,,0.0
619000,2026-01-07 15:44:49,720.47283440684,0.328084,0.0,4.213254728,0.16586122578,17,5,7.249,720.47283440684,0.0,0.0,4.22654213,0.0,0.0,0.0,3.0,3.0,0.5,0,0,1024,1024,1024,1024,0,0,0,0,0,0,0,38,3.624,3.624,0,0,0,0,0.781,77.18,720.47283440684,0.0,11,AutoTakeoff,,0.0
619100,2026-01-07 15:44:49,720.47283440684,0.328084,0.0,4.2013124704,0.185888785476,17,5,7.249,720.47283440684,0.0,0.0,4.22654213,0.0,0.0,0.0,3.0,3.0,0.5,0,0,1024,1024,1024,1024,0,0,0,0,0,0,0,38,3.624,3.624,0,0,0,0,0.781,77.18,720.47283440684,0.0,11,AutoTakeoff,,0.0
619200,2026-01-07 15:44:49,720.47283440684,0.328084,0.0,4.2030513156,0.212543970056,17,5,7.249,720.47283440684,0.0,0.0,4.22654213,0.0,0.0,0.0,3.1,2.9,0.5,0,0,1024,1024,1024,1024,0,0,0,0,0,0,0,38,3.624,3.624,0,0,0,0,0.781,77.18,720.47283440684,0.0,11,AutoTakeoff,,0.0
619300,2026-01-07 15:44:49,720.47283440684,0.328084,0.0,4.2124017096,0.230388458816,17,5,7.249,720.47283440684,0.0,0.0,4.22654213,0.0,0.0,0.0,3.3,3.0,0.5,0,0,1024,1024,1024,1024,0,0,0,0,0,0,0,38,3.624,3.624,0,0,0,0,0.781,77.18,720.47283440684,0.0,11,AutoTakeoff,,0.0
619400,2026-01-07 15:44:50,720.47283440684,0.328084,0.0,4.2029528904,0.240858931592,17,5,7.249,720.47283440684,0.0,0.0,4.22654213,0.0,0.0,0.0,3.1,2.3,-0.1,0,0,1024,1024,1024,1024,0,0,0,0,0,0,0,38,3.624,3.624,0,0,0,0,0.781,77.18,720.47283440684,0.0,11,AutoTakeoff,,0.0
619500,2026-01-07 15:44:50,720.47283440684,0.328084,0.0,4.1975723128,0.251200467356,17,5,7.249,720.47283440684,0.0,0.0,4.22654213,0.0,0.0,-0.223694,2.6,2.5,-1.0,0,0,1024,1024,1024,1024,0,0,0,0,0,0,0,38,3.624,3.624,0,0,0,0,0.781,77.18,720.47283440684,0.0,11,AutoTakeoff,,0.0
619600,2026-01-07 15:44:50,720.47283440684,0.328084,0.0,4.2039371424,0.270736229136,17,5,7.219,720.47283440684,0.0,0.0,4.22654213,0.0,0.0,-0.447388,2.7,1.4,0.1,0,0,1024,1024,1024,1024,0,0,0,0,0,0,0,38,3.611,3.608,0,0,0,0,1.422,77.18,720.47283440684,0.0,11,AutoTakeoff,,0.0
619700,2026-01-07 15:44:50,720.47283440684,0.656168,0.0,4.1834647008,0.303708343052,17,5,7.219,720.47283440684,0.0,0.0,4.22654213,0.0,0.0,-0.671082,2.9,0.9,0.5,0,0,1024,1024,1024,1024,0,0,0,0,0,0,0,38,3.611,3.608,0,0,0,0,1.422,77.18,720.47283440684,0.0,11,AutoTakeoff,,0.0
619800,2026-01-07 15:44:50,720.47283440684,0.656168,0.0,4.1846129948,0.3340879372,17,5,7.219,720.47283440684,0.0,0.0,4.22654213,0.0,0.0,-0.894776,2.8,0.4,0.6,0,0,1024,1024,1024,1024,0,0,0,0,0,0,0,38,3.611,3.608,0,0,0,0,1.422,77.18,720.47283440684,0.0,11,AutoTakeoff,,0.0
619900,2026-01-07 15:44:50,720.47283440684,0.656168,0.0,4.1789043332,0.36233925044,17,5,7.219,720.47283440684,0.0,0.0,4.22654213,0.0,0.0,-1.11847,2.9,0.7,0.9,0,0,1024,1024,1024,1024,0,0,0,0,0,0,0,38,3.611,3.608,0,0,0,0,1.422,77.18,720.47283440684,0.0,11,AutoTakeoff,,0.0
620000,2026-01-07 15:44:50,720.80091840684,0.984252,0.0,4.1789043332,0.38936352952,17,5,7.219,720.80091840684,0.328084,0.0,4.22654213,0.0,0.0,-1.342164,3.0,0.8,1.8,0,0,1024,1024,1024,1024,0,0,0,0,0,0,0,38,3.611,3.608,0,0,0,0,1.422,77.18,720.80091840684,0.328084,11,AutoTakeoff,,0.1
620100,2026-01-07 15:44:50,720.80091840684,0.984252,0.0,4.201771788,0.4193405646,17,5,7.219,720.80091840684,0.328084,0.0,4.22654213,0.0,0.0,-1.789552,3.0,0.9,1.5,0,0,1024,1024,1024,1024,0,0,0,0,0,0,0,38,3.611,3.608,0,0,0,0,1.422,77.18,720.80091840684,0.328084,11,AutoTakeoff,,0.1
620200,2026-01-07 15:44:50,721.12900240684,1.312336,0.0,4.1620080072,0.47184712796,17,5,7.219,721.12900240684,0.656168,0.0,4.22654213,0.0,0.0,-2.013246,3.0,1.1,1.3,0,0,1024,1024,1024,1024,0,0,0,0,0,0,0,38,3.611,3.608,0,0,0,0,1.422,77.18,721.12900240684,0.656168,11,AutoTakeoff,,0.2
620300,2026-01-07 15:44:51,721.45708640684,1.64042,0.0,4.1215224416,0.52087272008,17,5,7.219,721.45708640684,0.984252,0.0,4.22654213,0.0,0.0,-2.23694,3.0,1.2,1.3,0,0,1024,1024,1024,1024,0,0,0,0,0,0,0,37,3.611,3.608,0,0,0,0,1.422,77.18,721.45708640684,0.984252,11,AutoTakeoff,,0.3
620400,2026-01-07 15:44:51,721.78517040684,1.968504,0.0,4.0819555112,0.56081366624,17,5,7.219,721.78517040684,1.312336,0.0,4.22654213,0.0,0.0,-2.23694,3.0,1.0,0.8,0,0,1024,993,1024,1024,0,-5,0,0,0,0,0,37,3.611,3.608,0,0,0,0,1.422,77.18,721.78517040684,1.312336,11,AutoTakeoff,Home Point updated. RTH altitude adjusted to 500 m (Code: 120852),0.4
620500,2026-01-07 15:44:51,722.11325440684,2.296588,0.0,3.9978019652,0.64512469256,17,5,7.219,722.11325440684,1.64042,0.0,4.22654213,0.0,0.0,-2.23694,2.9,2.0,0.8,0,0,1024,773,1024,1024,0,-38,0,0,0,0,0,37,3.611,3.608,0,0,0,0,1.422,77.18,722.11325440684,1.64042,11,AutoTakeoff,,0.5
620600,2026-01-07 15:44:51,722.44133840684,2.624672,0.0,3.9375985512,0.71020999648,17,5,7.041,722.44133840684,1.968504,0.0,4.22654213,0.0,0.0,-2.23694,2.9,1.9,0.8,0,0,1024,364,1024,1024,0,-100,0,0,0,0,0,37,3.507,3.502,0,0,0,0,4.55,77.18,722.44133840684,1.968504,11,AutoTakeoff,,0.6
620700,2026-01-07 15:44:51,722.76942240684,2.952756,0.0,3.8806759772,0.77097771496,17,5,7.041,722.76942240684,2.296588,0.0,4.22654213,0.0,0.0,-2.23694,2.9,2.4,-0.6,0,0,1024,1024,1024,1024,0,0,0,0,0,0,0,37,3.507,3.502,0,0,0,0,4.55,77.18,722.76942240684,2.296588,6,P-GPS,,0.7
620800,2026-01-07 15:44:51,723.09750640684,2.952756,0.223694,3.8352035348,0.82463585316,17,5,7.041,723.09750640684,2.624672,0.223694,4.22654213,0.0,-0.223694,-2.013246,2.6,2.1,-8.5,0,0,1024,1428,1024,1024,0,61,0,0,0,0,0,37,3.507,3.502,0,0,0,0,4.55,77.18,723.09750640684,2.624672,6,P-GPS,,0.8
620900,2026-01-07 15:44:51,723.42559040684,3.28084,0.671082,3.75246075,0.92505252304,16,5,7.041,723.42559040684,2.952756,0.671082,4.22654213,0.0,-0.671082,-1.565858,2.4,2.0,-10.7,0,0,1024,1684,1024,1024,0,100,0,0,0,0,0,37,3.507,3.502,0,0,0,0,4.55,77.18,723.42559040684,2.952756,6,P-GPS,,0.9
621000,2026-01-07 15:44:51,723.75367440684,3.608924,0.894776,3.6594817444,1.11047247648,16,5,7.041,723.75367440684,3.28084,0.894776,4.22654213,0.0,-0.894776,-1.11847,2.9,1.4,-1.0,0,0,1024,1024,1024,1024,0,0,0,0,0,0,0,37,3.507,3.502,0,0,0,0,4.55,77.18,723.75367440684,3.28084,6,P-GPS,,1.0
621100,2026-01-07 15:44:51,723.75367440684,3.608924,0.894776,3.5747048388,1.30153875556,17,5,7.041,723.75367440684,3.28084,0.894776,4.22654213,0.0,-0.894776,-0.671082,3.1,1.6,9.2,0,0,1024,1024,1024,1024,0,0,0,0,0,0,0,37,3.507,3.502,0,0,0,0,4.55,77.18,723.75367440684,3.28084,6,P-GPS,,1.0
621200,2026-01-07 15:44:51,723.75367440684,3.608924,0.447388,3.506561792,1.42416671224,17,5,7.041,723.75367440684,3.28084,0.894776,4.22654213,0.0,-0.447388,-0.223694,3.3,1.2,15.7,0,0,1024,1024,1024,1024,0,0,0,0,0,0,0,37,3.507,3.502,0,0,0,0,4.55,77.18,723.75367440684,3.28084,6,P-GPS,,1.0
621300,2026-01-07 15:44:51,723.75367440684,3.937008,0.223694,3.4576116592,1.49107288236,16,5,7.041,723.75367440684,3.28084,0.894776,4.22654213,0.0,-0.223694,0.0,2.5,0.8,5.5,0,0,1024,1024,1024,1024,0,0,0,0,0,0,0,37,3.507,3.502,0,0,0,0,4.55,77.18,723.75367440684,3.28084,6,P-GPS,,1.0
621400,2026-01-07 15:44:52,723.75367440684,3.937008,0.0,3.4291011596,1.64588587944,16,5,7.041,723.75367440684,3.28084,0.894776,4.22654213,0.0,0.0,0.0,2.5,1.1,2.0,0,0,1024,1024,1024,1024,0,0,0,0,0,0,0,37,3.507,3.502,0,0,0,0,4.55,77.18,723.75367440684,3.28084,6,P-GPS,,1.0
621500,2026-01-07 15:44:52,723.75367440684,3.608924,0.0,3.412565726,1.68889769184,17,5,7.041,723.75367440684,3.28084,0.894776,4.22654213,0.0,0.0,0.0,2.7,0.9,1.9,0,0,1024,1024,1024,1024,0,0,0,0,0,0,0,37,3.507,3.502,0,0,0,0,4.55,77.18,723.75367440684,3.28084,6,P-GPS,,1.0
621600,2026-01-07 15:44:52,723.75367440684,3.608924,0.0,3.370406932,1.73975727352,17,5,7.081,723.75367440684,3.28084,0.894776,4.22654213,0.0,0.0,0.0,2.8,1.2,1.3,0,0,1024,1024,1024,1024,0,0,0,0,0,0,0,37,3.541,3.54,0,0,0,0,5.214,77.18,723.75367440684,3.28084,6,P-GPS,,1.0
621700,2026-01-07 15:44:52,723.75367440684,3.608924,0.0,3.3317914452,1.78421593636,16,5,7.081,723.75367440684,3.28084,0.894776,4.22654213,0.0,0.0,0.0,2.8,1.2,0.9,0,0,1024,1024,1024,1505,0,0,0,73,0,0,0,37,3.541,3.54,0,0,0,0,5.214,77.18,723.75367440684,3.28084,6,P-GPS,,1.0
621800,2026-01-07 15:44:52,723.75367440684,3.608924,0.0,3.378280948,1.94495741132,16,5,7.081,723.75367440684,3.28084,0.894776,4.22654213,0.0,0.0,0.0,2.8,1.1,0.5,0,0,1024,1024,1024,1684,0,0,0,100,0,0,0,37,3.541,3.54,0,0,0,0,5.214,77.18,723.75367440684,3.28084,6,P-GPS,,1.0
621900,2026-01-07 15:44:52,723.75367440684,3.608924,0.0,3.380577536,1.99697512952,16,5,7.081,723.75367440684,3.28084,0.894776,4.22654213,0.0,0.0,0.0,3.8,1.4,0.1,0,0,1024,1024,1024,1024,0,0,0,0,0,0,0,37,3.541,3.54,0,0,0,0,5.214,77.18,723.75367440684,3.28084,6,P-GPS,,1.0
622000,2026-01-07 15:44:52,723.75367440684,3.608924,0.0,3.3696523388,2.03972447472,16,5,7.081,723.75367440684,3.28084,0.894776,4.22654213,0.0,0.0,0.0,15.4,1.5,0.0,0,0,1024,1024,1026,1024,0,0,0,0,0,0,0,37,3.541,3.54,0,0,0,0,5.214,77.18,723.75367440684,3.28084,6,P-GPS,,1.0
622100,2026-01-07 15:44:52,723.75367440684,3.608924,0.0,3.3562665116,2.07563326852,16,5,7.081,723.75367440684,3.28084,0.894776,4.22654213,0.0,0.0,0.0,24.6,1.2,1.7,0,0,1024,1024,1026,1024,0,0,0,0,0,0,0,37,3.541,3.54,0,0,0,0,5.214,77.18,723.75367440684,3.28084,6,P-GPS,,1.0
622200,2026-01-07 15:44:52,723.75367440684,3.608924,0.0,3.3695539136,2.17158471516,16,5,7.081,723.75367440684,3.28084,0.894776,4.22654213,0.0,0.0,0.0,24.1,1.4,0.4,0,0,1024,1024,1684,1024,0,0,100,0,0,0,0,37,3.541,3.54,0,0,0,0,5.214,77.18,723.75367440684,3.28084,6,P-GPS,,1.0
622300,2026-01-07 15:44:52,723.75367440684,3.937008,0.0,3.3519686112,2.2022310416,16,5,7.081,723.75367440684,3.28084,0.894776,4.22654213,0.0,0.0,0.0,24.1,1.4,-0.4,0,0,1024,1024,1684,1024,0,0,100,0,0,0,0,37,3.541,3.54,0,0,0,0,5.214,77.18,723.75367440684,3.28084,6,P-GPS,,1.0
622400,2026-01-07 15:44:53,724.08175840684,3.937008,0.0,3.3098098172,2.24674219788,16,5,7.081,724.08175840684,3.608924,0.894776,4.22654213,0.0,0.0,-0.223694,24.3,1.4,-0.1,0,0,1024,1024,1684,1024,0,0,100,0,0,0,0,37,3.541,3.54,0,0,0,0,5.214,77.18,724.08175840684,3.608924,6,P-GPS,,1.1
622500,2026-01-07 15:44:53,724.08175840684,3.937008,0.0,3.26408803096,2.29331700252,17,5,7.081,724.08175840684,3.608924,0.894776,4.22654213,0.0,0.0,-0.894776,24.3,1.8,0.3,0,0,1024,1024,1684,1024,0,0,100,0,0,0,0,37,3.541,3.54,0,0,0,0,5.214,77.18,724.08175840684,3.608924,6,P-GPS,,1.1
622600,2026-01-07 15:44:53,724.40984240684,4.265092,0.0,3.1096949814,2.4485565088,17,5,7.017,724.40984240684,3.937008,0.894776,4.22654213,0.0,0.0,-1.565858,24.4,2.0,0.3,0,0,1024,1024,1684,1024,0,0,100,0,0,0,0,37,3.509,3.505,0,0,0,0,5.518,77.18,724.40984240684,3.937008,6,P-GPS,,1.2
622700,2026-01-07 15:44:53,724.73792640684,4.593176,0.0,3.04162083224,2.5168800018,17,5,7.017,724.73792640684,4.265092,0.894776,4.22654213,0.0,0.0,-2.23694,24.5,2.6,0.4,0,0,1024,1024,1684,1024,0,0,100,0,0,0,0,37,3.509,3.505,0,0,0,0,5.518,77.18,724.73792640684,4.265092,6,P-GPS,,1.3
622800,2026-01-07 15:44:53,725.06601040684,4.92126,0.0,2.98830062056,2.57915690668,17,5,7.017,725.06601040684,4.593176,0.894776,4.22654213,0.0,0.0,-3.131716,24.5,2.0,0.7,0,0,1024,1024,1684,1024,0,0,100,0,0,0,0,37,3.509,3.505,0,0,0,0,5.518,77.18,725.06601040684,4.593176,6,P-GPS,,1.4
622900,2026-01-07 15:44:53,725.72217840684,5.577428,0.0,2.9408465508,2.63731307652,17,5,7.017,725.72217840684,5.249344,0.894776,4.22654213,0.0,0.0,-3.802798,24.5,1.7,1.0,0,0,1024,1024,1684,1024,0,0,100,0,0,0,0,37,3.509,3.505,0,0,0,0,5.518,77.18,725.72217840684,5.249344,6,P-GPS,,1.6
623000,2026-01-07 15:44:53,726.05026240684,5.905512,0.0,2.8905184652,2.69116150344,17,5,7.017,726.05026240684,5.577428,0.894776,4.22654213,0.0,0.0,-4.026492,24.5,1.7,0.9,0,0,1024,1024,1684,1024,0,0,100,0,0,0,0,37,3.509,3.505,0,0,0,0,5.518,77.18,726.05026240684,5.577428,6,P-GPS,,1.7
623100,2026-01-07 15:44:53,726.70643040684,6.56168,0.0,2.81345809528,2.78642725452,17,5,7.017,726.70643040684,6.233596,0.894776,4.22654213,0.0,0.0,-4.250186,24.5,2.2,1.3,0,0,1024,1024,1684,1024,0,0,100,0,0,0,0,37,3.509,3.505,0,0,0,0,5.518,77.18,726.70643040684,6.233596,6,P-GPS,,1.9
623200,2026-01-07 15:44:53,727.36259840684,7.217848,0.0,2.77534129616,2.82709654716,17,5,7.017,727.36259840684,6.889764,0.894776,4.22654213,0.0,0.0,-4.47388,24.6,2.0,1.0,0,0,1024,1024,1684,1024,0,0,100,0,0,0,0,37,3.509,3.505,0,0,0,0,5.518,77.18,727.36259840684,6.889764,6,P-GPS,,2.1
623300,2026-01-07 15:44:54,728.01876640684,7.874016,0.0,2.74193578328,2.86269366116,17,5,7.017,728.01876640684,7.545932,0.894776,4.22654213,0.0,0.0,-4.47388,24.5,2.2,0.8,0,0,1024,1024,1684,1024,0,0,100,0,0,0,0,37,3.509,3.505,0,0,0,0,5.518,77.18,728.01876640684,7.545932,6,P-GPS,,2.3
623400,2026-01-07 15:44:54,728.67493440684,8.530184,0.0,2.6796916868,2.94118447732,17,5,7.017,728.67493440684,8.2021,0.894776,4.22654213,0.0,0.0,-4.250186,24.5,1.9,1.0,0,0,1024,1024,1684,1024,0,0,100,0,0,0,0,37,3.509,3.505,0,0,0,0,5.518,77.18,728.67493440684,8.2021,6,P-GPS,,2.5
623500,2026-01-07 15:44:54,729.33110240684,9.186352,0.0,2.57522646036,3.06750994068,17,5,7.017,729.33110240684,8.858268,0.894776,4.22654213,0.0,0.0,-4.250186,24.4,2.2,1.3,0,0,1024,1024,1684,1024,0,0,100,0,0,0,0,37,3.509,3.505,0,0,0,0,5.518,77.18,729.33110240684,8.858268,6,P-GPS,,2.7
623600,2026-01-07 15:44:54,729.98727040684,9.84252,0.0,2.5936844662,3.09016414088,17,5,6.992,729.98727040684,9.514436,0.894776,4.22654213,0.0,0.0,-4.250186,24.3,1.9,1.2,0,0,1024,1024,1684,1024,0,0,100,0,0,0,0,37,3.498,3.494,0,0,0,0,6.938,77.18,729.98727040684,9.514436,6,P-GPS,,2.9
623700,2026-01-07 15:44:54,730.64343840684,10.170604,0.0,2.61354010988,3.11306440408,17,5,6.992,730.64343840684,10.170604,0.894776,4.22654213,0.0,0.0,-4.250186,24.3,2.3,1.8,0,0,1024,1024,1684,1024,0,0,100,0,0,0,0,37,3.498,3.494,0,0,0,0,6.938,77.18,730.64343840684,10.170604,6,P-GPS,,3.1
623800,2026-01-07 15:44:54,731.29960640684,10.826772,0.0,2.5974574322,3.1341208352,17,5,6.992,731.29960640684,10.826772,0.894776,4.22654213,0.0,0.0,-4.250186,24.4,2.4,1.7,0,0,1024,1024,1684,1024,0,0,100,0,0,0,0,37,3.498,3.494,0,0,0,0,6.938,77.18,731.29960640684,10.826772,6,P-GPS,,3.3
623900,2026-01-07 15:44:54,731.95577440684,11.48294,0.0,2.63514444128,3.19099091576,17,5,6.992,731.95577440684,11.48294,0.894776,4.22654213,0.0,0.0,-4.250186,24.3,2.8,1.6,0,0,1024,1024,1684,1024,0,0,100,0,0,0,0,37,3.498,3.494,0,0,0,0,6.938,77.18,731.95577440684,11.48294,6,P-GPS,,3.5
624000,2026-01-07 15:44:54,732.61194240684,12.139108,0.0,2.61854339088,3.22098435504,17,5,6.992,732.61194240684,12.139108,0.894776,4.22654213,0.0,0.0,-4.250186,24.3,3.1,1.4,0,0,1024,1024,1684,1024,0,0,100,0,0,0,0,37,3.498,3.494,0,0,0,0,6.938,77.18,732.61194240684,12.139108,6,P-GPS,,3.7
624100,2026-01-07 15:44:54,733.26811040684,12.795276,0.0,2.61008538536,3.2479987916,17,5,6.992,733.26811040684,12.795276,0.894776,4.22654213,0.0,0.0,-4.250186,24.2,2.7,1.3,0,0,1024,1024,1684,1024,0,0,100,0,0,0,0,37,3.498,3.494,0,0,0,0,6.938,77.18,733.26811040684,12.795276,6,P-GPS,,3.9
624200,2026-01-07 15:44:54,733.92427840684,13.451444,0.0,2.61372711776,3.3026247776,17,5,6.992,733.92427840684,13.451444,0.894776,4.22654213,0.0,0.0,-4.47388,24.2,2.8,1.0,0,0,1024,1024,1684,1024,0,0,100,0,0,0,0,37,3.498,3.494,0,0,0,0,6.938,77.18,733.92427840684,13.451444,6,P-GPS,,4.1
624300,2026-01-07 15:44:54,734.58044640684,13.779528,0.0,2.58811359988,3.4415355432,17,5,6.992,734.58044640684,14.107612,0.894776,4.22654213,0.0,0.0,-4.47388,24.2,2.5,1.0,0,0,1024,1024,1684,1024,0,0,100,0,0,0,0,37,3.498,3.494,0,0,0,0,6.938,77.18,734.58044640684,14.107612,6,P-GPS,,4.3
624400,2026-01-07 15:44:55,735.23661440684,14.435696,0.0,2.5805611062,3.4915683532,17,5,6.992,735.23661440684,14.76378,0.894776,4.22654213,0.0,0.0,-4.47388,24.2,2.0,1.1,0,0,1024,1024,1684,1024,0,0,100,0,0,0,0,37,3.498,3.494,0,0,0,0,6.938,77.18,735.23661440684,14.76378,6,P-GPS,,4.5
624500,2026-01-07 15:44:55,735.89278240684,15.091864,0.0,2.57793971504,3.5338911892,17,5,6.984,735.89278240684,15.419948,0.894776,4.22654213,0.0,0.0,-4.47388,24.4,2.1,0.4,0,0,1024,1024,1684,1024,0,0,100,0,0,0,0,37,3.496,3.488,0,0,0,0,6.072,77.18,735.89278240684,15.419948,6,P-GPS,,4.7
624600,2026-01-07 15:44:55,736.54895040684,15.748032,0.0,2.63109916556,3.6045604828,17,5,6.984,736.54895040684,16.076116,0.894776,4.22654213,0.0,0.0,-4.47388,24.5,2.2,0.1,0,0,1024,1024,1684,1024,0,0,100,0,0,0,0,37,3.496,3.488,0,0,0,0,6.072,77.18,736.54895040684,16.076116,6,P-GPS,,4.9
624700,2026-01-07 15:44:55,737.20511840684,16.4042,0.223694,2.68624352428,3.672244212,17,5,6.984,737.20511840684,16.732284,0.894776,4.22654213,-0.223694,0.0,-4.47388,24.4,1.4,0.5,0,0,1024,1024,1684,1024,0,0,100,0,0,0,0,37,3.496,3.488,0,0,0,0,6.072,77.18,737.20511840684,16.732284,6,P-GPS,,5.1
624800,2026-01-07 15:44:55,737.86128640684,17.060368,0.223694,2.87994759872,3.954888578,17,5,6.984,737.86128640684,17.388452,0.894776,4.22654213,-0.223694,0.0,-4.47388,24.4,0.9,-0.1,0,0,1024,1024,1684,1024,0,0,100,0,0,0,0,37,3.496,3.488,0,0,0,0,6.072,77.18,737.86128640684,17.388452,6,P-GPS,,5.3
624900,2026-01-07 15:44:55,738.51745440684,17.716536,0.223694,2.94244760072,4.0175198136,17,5,6.984,738.51745440684,18.04462,0.894776,4.22654213,-0.223694,0.0,-4.47388,24.4,0.8,0.2,0,0,1024,1024,1684,1024,0,0,100,0,0,0,0,37,3.496,3.488,0,0,0,0,6.072,77.18,738.51745440684,18.04462,6,P-GPS,,5.5
625000,2026-01-07 15:44:55,739.17362240684,18.700788,0.0,2.98383539732,4.0688321512,17,5,6.984,739.17362240684,18.700788,0.894776,4.22654213,0.0,0.0,-4.250186,24.4,0.4,0.4,0,0,1024,1024,1684,1024,0,0,100,0,0,0,0,37,3.496,3.488,0,0,0,0,6.072,77.18,739.17362240684,18.700788,6,P-GPS,,5.7
625100,2026-01-07 15:44:55,739.82979040684,19.356956,0.0,3.0154364482,4.1114174544,17,5,6.984,739.82979040684,19.356956,0.894776,4.22654213,0.0,0.0,-4.47388,24.4,0.8,0.7,0,0,1024,1024,1684,1024,0,0,100,0,0,0,0,37,3.496,3.488,0,0,0,0,6.072,77.18,739.82979040684,19.356956,6,P-GPS,,5.9
625200,2026-01-07 15:44:55,740.48595840684,20.341208,0.0,3.00097778632,4.21751982,17,5,6.984,740.48595840684,20.013124,0.894776,4.22654213,0.0,0.0,-4.47388,24.5,1.7,1.2,0,0,1024,1024,1684,1024,0,0,100,0,0,0,0,37,3.496,3.488,0,0,0,0,6.072,77.18,740.48595840684,20.013124,6,P-GPS,,6.1
625300,2026-01-07 15:44:56,741.14212640684,20.997376,0.0,3.01187345596,4.2491143092,17,5,6.984,741.14212640684,20.669292,0.894776,4.22654213,0.0,0.0,-4.47388,24.4,1.4,1.0,0,0,1024,1024,1684,1024,0,0,100,0,0,0,0,37,3.496,3.488,0,0,0,0,6.072,77.18,741.14212640684,20.669292,6,P-GPS,,6.3
625400,2026-01-07 15:44:56,741.79829440684,21.653544,0.0,3.01989182892,4.2594817636,17,5,6.984,741.79829440684,21.32546,0.894776,4.22654213,0.0,0.0,-4.47388,24.4,1.3,1.1,0,0,1024,1024,1684,1024,0,0,100,0,0,0,0,37,3.496,3.488,0,0,0,0,6.072,77.18,741.79829440684,21.32546,6,P-GPS,,6.5
625500,2026-01-07 15:44:56,742.45446240684,22.637796,0.0,3.0245735876,4.2666996116,17,5,6.984,742.45446240684,21.981628,0.894776,4.22654213,0.0,0.0,-4.47388,24.3,1.2,1.3,0,0,1024,1024,1684,1024,0,0,100,0,0,0,0,37,3.496,3.488,0,0,0,0,6.072,77.18,742.45446240684,21.981628,6,P-GPS,,6.7
625600,2026-01-07 15:44:56,743.11063040684,23.622048,0.0,2.98507883568,4.3416339972,17,5,6.984,743.11063040684,22.637796,0.894776,4.22654213,0.0,0.0,-4.47388,24.3,1.6,1.4,0,0,1024,1024,1684,1024,0,0,100,0,0,0,0,37,3.496,3.491,0,0,0,0,6.072,77.18,743.11063040684,22.637796,6,P-GPS,,6.9
625700,2026-01-07 15:44:56,743.76679840684,24.278216,0.0,2.97366807416,4.3762796676,16,5,6.984,743.76679840684,23.293964,0.894776,4.22654213,0.0,0.0,-4.47388,24.3,2.0,1.5,0,0,1024,1024,1684,1024,0,0,100,0,0,0,0,37,3.496,3.491,0,0,0,0,6.072,77.18,743.76679840684,23.293964,6,P-GPS,,7.1
625800,2026-01-07 15:44:56,744.42296640684,25.262468,0.0,2.93609917532,4.4511812448,16,5,6.984,744.42296640684,23.950132,0.894776,4.22654213,0.0,0.0,-4.47388,24.3,2.1,1.4,0,0,1024,1024,1684,1024,0,0,100,0,0,0,0,37,3.496,3.491,0,0,0,0,6.072,77.18,744.42296640684,23.950132,6,P-GPS,,7.3
625900,2026-01-07 15:44:56,745.07913440684,25.918636,0.0,2.90129274376,4.5185696984,16,5,6.984,745.07913440684,24.6063,0.894776,4.22654213,0.0,0.0,-4.47388,24.3,2.3,1.2,0,0,1024,1024,1684,1024,0,0,100,0,0,0,0,37,3.496,3.491,0,0,0,0,6.072,77.18,745.07913440684,24.6063,6,P-GPS,,7.5
626000,2026-01-07 15:44:56,745.73530240684,26.902888,0.0,2.8197671506,4.6178479168,16,5,6.984,745.73530240684,25.262468,0.894776,4.22654213,0.0,0.0,-4.47388,24.3,2.5,1.1,0,0,1024,1024,1684,1024,0,0,100,0,0,0,0,37,3.496,3.491,0,0,0,0,6.072,77.18,745.73530240684,25.262468,6,P-GPS,,7.7
626100,2026-01-07 15:44:56,746.39147040684,27.559056,0.0,2.79868119192,4.639599886,17,5,6.984,746.39147040684,25.918636,0.894776,4.22654213,0.0,0.0,-4.47388,24.4,2.9,1.1,0,0,1024,1024,1684,1024,0,0,100,0,0,0,0,37,3.496,3.491,0,0,0,0,6.072,77.18,746.39147040684,25.918636,6,P-GPS,,7.9
626200,2026-01-07 15:44:56,747.04763840684,27.559056,0.0,2.774852451,4.6639109104,17,5,6.984,747.04763840684,26.574804,0.894776,4.22654213,0.0,0.0,-4.47388,24.4,3.3,1.5,0,0,1024,1024,1684,1024,0,0,100,0,0,0,0,37,3.496,3.491,0,0,0,0,6.072,77.18,747.04763840684,26.574804,6,P-GPS,,8.1
626300,2026-01-07 15:44:56,747.70380640684,30.511812,0.0,2.7565289596,4.682250806,17,5,6.984,747.70380640684,27.230972,0.894776,4.22654213,0.0,0.0,-4.47388,24.4,3.1,0.9,0,0,1024,1024,1684,1024,0,0,100,0,0,0,0,37,3.496,3.491,0,0,0,0,6.072,77.18,747.70380640684,27.230972,6,P-GPS,,8.3
626400,2026-01-07 15:44:57,748.35997440684,31.496064,0.0,2.75957029828,4.7229988388,17,5,6.984,748.35997440684,27.88714,0.894776,4.22654213,0.0,0.0,-4.47388,24.5,2.5,1.0,0,0,1024,1024,1684,1024,0,0,100,0,0,0,0,37,3.496,3.491,0,0,0,0,6.072,77.18,748.35997440684,27.88714,6,P-GPS,,8.5
626500,2026-01-07 15:44:57,749.01614240684,32.152232,0.0,2.79111229404,4.8615815204,17,5,6.984,749.01614240684,28.543308,0.894776,4.22654213,0.0,0.0,-4.47388,24.4,2.7,0.8,0,0,1024,1024,1684,1024,0,0,100,0,0,0,0,37,3.496,3.491,0,0,0,0,6.072,77.18,749.01614240684,28.543308,6,P-GPS,,8.7
626600,2026-01-07 15:44:57,749.67231040684,32.8084,0.0,2.80823171716,4.8829069804,17,5,6.984,749.67231040684,29.199476,0.894776,4.22654213,0.0,0.0,-4.47388,24.4,2.9,0.9,0,0,1024,1024,1684,1024,0,0,100,0,0,0,0,37,3.496,3.491,0,0,0,0,6.072,77.18,749.67231040684,29.199476,6,P-GPS,,8.9
626700,2026-01-07 15:44:57,750.32847840684,33.464568,0.0,2.8209318488,4.8972114428,17,5,6.986,750.32847840684,29.855644,0.894776,4.22654213,0.0,0.0,-4.47388,24.5,3.0,0.7,0,0,1024,1024,1684,1024,0,0,100,0,0,0,0,37,3.489,3.488,0,0,0,0,5.891,77.18,750.32847840684,29.855644,6,P-GPS,,9.1
626800,2026-01-07 15:44:57,750.98464640684,34.120736,0.0,2.76367790996,4.9850395296,17,5,6.986,750.98464640684,30.511812,0.894776,4.22654213,0.0,0.0,-4.250186,24.6,2.5,2.1,0,0,1024,1024,1684,1024,0,0,100,0,0,0,0,37,3.489,3.488,0,0,0,0,5.891,77.18,750.98464640684,30.511812,6,P-GPS,,9.3
626900,2026-01-07 15:44:57,751.64081440684,34.776904,0.0,2.62837278752,5.2048230012,17,5,6.986,751.64081440684,31.16798,0.894776,4.22654213,0.0,0.0,-4.47388,24.4,2.7,2.2,0,0,1024,1024,1684,1024,0,0,100,0,0,0,0,37,3.489,3.488,0,0,0,0,5.891,77.18,751.64081440684,31.16798,6,P-GPS,,9.5
627000,2026-01-07 15:44:57,752.29698240684,35.433072,0.0,2.60361884972,5.254593344,17,5,6.986,752.29698240684,31.824148,0.894776,4.22654213,0.0,0.0,-4.47388,24.4,2.8,2.6,0,0,1024,1024,1684,1024,0,0,100,0,0,0,0,37,3.489,3.488,0,0,0,0,5.891,77.18,752.29698240684,31.824148,6,P-GPS,,9.7
627100,2026-01-07 15:44:57,752.95315040684,36.08924,0.0,2.58036753664,5.300525104,17,5,6.986,752.95315040684,32.480316,0.894776,4.22654213,0.0,0.0,-4.47388,24.4,2.8,2.6,0,0,1024,1024,1024,1024,0,0,0,0,0,0,0,37,3.489,3.488,0,0,0,0,5.891,77.18,752.95315040684,32.480316,6,P-GPS,,9.9
627200,2026-01-07 15:44:57,753.28123440684,36.745408,0.0,2.5719489012,5.3452757616,17,5,6.986,753.28123440684,32.8084,0.894776,4.22654213,0.0,0.0,-4.47388,24.5,3.3,2.8,0,0,1024,1024,1024,1024,0,0,0,0,0,0,0,37,3.489,3.488,0,0,0,0,5.891,77.18,753.28123440684,32.8084,6,P-GPS,,10.0
627300,2026-01-07 15:44:58,753.93740240684,37.401576,0.0,2.54946858552,5.4573164476,17,5,6.986,753.93740240684,33.464568,0.894776,4.22654213,0.0,0.0,-4.250186,24.4,3.2,2.7,0,0,1024,1024,1024,1024,0,0,0,0,0,0,0,37,3.489,3.488,0,0,0,0,5.891,77.18,753.93740240684,33.464568,6,P-GPS,,10.2
627400,2026-01-07 15:44:58,754.59357040684,38.057744,0.0,2.50734259992,5.5015749792,17,5,6.986,754.59357040684,34.120736,0.894776,4.22654213,0.0,0.0,-4.026492,24.3,2.8,2.4,0,0,1024,1024,1024,1024,0,0,0,0,0,0,0,37,3.489,3.488,0,0,0,0,5.891,77.18,754.59357040684,34.120736,6,P-GPS,,10.4
627500,2026-01-07 15:44:58,754.92165440684,38.713912,0.0,2.46773629944,5.5429135632,17,5,6.986,754.92165440684,34.44882,0.894776,4.22654213,0.0,0.0,-3.35541,24.3,3.3,2.5,0,0,1024,1024,1024,1024,0,0,0,0,0,0,0,37,3.489,3.488,0,0,0,0,5.891,77.18,754.92165440684,34.44882,6,P-GPS,,10.5
627600,2026-01-07 15:44:58,755.57782240684,39.041996,0.0,2.4655676642,5.5528873168,17,5,6.986,755.57782240684,35.104988,0.894776,4.22654213,0.0,0.0,-2.684328,24.3,3.0,2.6,0,0,1024,1024,1024,1024,0,0,0,0,0,0,0,37,3.489,3.488,0,0,0,0,5.891,77.18,755.57782240684,35.104988,6,P-GPS,,10.7
627700,2026-01-07 15:44:58,755.57782240684,39.041996,0.0,2.45247055092,5.577099916,17,5,6.986,755.57782240684,35.104988,0.894776,4.22654213,0.0,0.0,-1.789552,24.2,3.0,2.6,0,0,1024,1024,1024,1024,0,0,0,0,0,0,0,37,3.489,3.488,0,0,0,0,5.891,77.18,755.57782240684,35.104988,6,P-GPS,,10.7
627800,2026-01-07 15:44:58,755.90590640684,39.041996,0.0,2.4628937796,5.588418814,17,5,7.058,755.90590640684,35.433072,0.894776,4.22654213,0.0,0.0,-1.11847,24.2,2.7,2.6,0,0,1024,1024,1024,1024,0,0,0,0,0,0,0,37,3.545,3.544,0,0,0,0,4.947,77.18,755.90590640684,35.433072,6,P-GPS,,10.8
627900,2026-01-07 15:44:58,755.90590640684,39.041996,0.0,2.4699475856,5.5961615964,17,5,7.058,755.90590640684,35.433072,0.894776,4.22654213,0.0,0.0,-0.447388,24.2,3.0,2.5,0,0,1024,1024,1024,1024,0,0,0,0,0,0,0,37,3.545,3.544,0,0,0,0,4.947,77.18,755.90590640684,35.433072,6,P-GPS,,10.8
628000,2026-01-07 15:44:58,755.90590640684,39.041996,0.0,2.45233275564,5.6137797072,17,5,7.058,755.90590640684,35.433072,0.894776,4.22654213,0.0,0.0,0.0,24.2,2.9,2.7,0,0,1024,1024,1024,1024,0,0,0,0,0,0,0,37,3.545,3.544,0,0,0,0,4.947,77.18,755.90590640684,35.433072,6,P-GPS,,10.8
628100,2026-01-07 15:44:58,756.23399040684,39.041996,0.0,2.43589902808,5.6305447996,17,5,7.058,756.23399040684,35.761156,0.894776,4.22654213,0.0,0.0,0.0,24.2,3.0,3.0,0,0,1024,1024,1024,1024,0,0,0,0,0,0,0,37,3.545,3.544,0,0,0,0,4.947,77.18,756.23399040684,35.761156,6,P-GPS,,10.9
628200,2026-01-07 15:44:58,756.23399040684,39.041996,0.0,2.433891154,5.7163387656,17,5,7.058,756.23399040684,35.761156,0.894776,4.22654213,0.0,0.0,0.0,24.3,3.2,3.1,0,0,1024,1024,1024,1024,0,0,0,0,0,0,0,37,3.545,3.544,0,0,0,0,4.947,77.18,756.23399040684,35.761156,6,P-GPS,,10.9
628300,2026-01-07 15:44:58,756.23399040684,39.041996,0.0,2.42639771544,5.7692587148,17,5,7.058,756.23399040684,35.761156,0.894776,4.22654213,0.0,0.0,0.0,24.3,3.0,3.0,0,0,1024,1024,1024,1024,0,0,0,0,0,0,0,37,3.545,3.544,0,0,0,0,4.947,77.18,756.23399040684,35.761156,6,P-GPS,,10.9
628400,2026-01-07 15:44:59,756.23399040684,39.041996,0.0,2.43173892296,5.7825133084,17,5,7.058,756.23399040684,35.761156,0.894776,4.22654213,0.0,0.0,0.0,24.3,2.8,3.1,0,0,1024,1024,1024,1024,0,0,0,0,0,0,0,37,3.545,3.544,0,0,0,0,4.947,77.18,756.23399040684,35.761156,6,P-GPS,,10.9
628500,2026-01-07 15:44:59,756.23399040684,39.041996,0.0,2.43808734836,5.7929463796,17,5,7.058,756.23399040684,35.761156,0.894776,4.22654213,0.0,0.0,0.0,24.3,2.9,3.0,0,0,1024,1024,1024,1024,0,0,0,0,0,0,0,37,3.545,3.544,0,0,0,0,4.947,77.18,756.23399040684,35.761156,6,P-GPS,,10.9
628600,2026-01-07 15:44:59,756.23399040684,39.041996,0.0,2.49175204824,5.8570868016,17,5,7.058,756.23399040684,35.761156,0.894776,4.22654213,0.0,0.0,0.0,24.3,2.9,2.9,0,0,1024,1024,1024,1024,0,0,0,0,0,0,0,37,3.545,3.544,0,0,0,0,4.947,77.18,756.23399040684,35.761156,6,P-GPS,,10.9
628700,2026-01-07 15:44:59,756.23399040684,39.041996,0.0,2.5091208152,5.8746064872,17,5,7.058,756.23399040684,35.761156,0.894776,4.22654213,0.0,0.0,0.0,24.3,2.8,2.8,0,0,1024,1024,1024,1024,0,0,0,0,0,0,0,37,3.545,3.544,0,0,0,0,4.947,77.18,756.23399040684,35.761156,6,P-GPS,,10.9
628800,2026-01-07 15:44:59,755.90590640684,39.041996,0.0,2.52014115676,5.9059385092,17,5,7.058,756.23399040684,35.761156,0.894776,4.22654213,0.0,0.0,0.0,24.2,2.7,2.9,0,0,1024,1024,1024,1024,0,0,0,0,0,0,0,37,3.545,3.544,0,0,0,0,4.947,77.18,755.90590640684,35.433072,6,P-GPS,,10.8
628900,2026-01-07 15:44:59,755.90590640684,39.041996,0.0,2.53183735136,5.9387469092,17,5,7.011,756.23399040684,35.761156,0.894776,4.22654213,0.0,0.0,0.0,24.3,2.5,3.0,0,0,1024,1024,1024,1024,0,0,0,0,0,0,0,37,3.509,3.503,0,0,0,0,4.924,77.18,755.90590640684,35.433072,6,P-GPS,,10.8
629000,2026-01-07 15:44:59,755.90590640684,39.041996,0.0,2.53051517284,6.0676183044,17,5,7.011,756.23399040684,35.761156,0.894776,4.22654213,0.0,0.0,0.0,24.3,2.1,2.9,0,0,1024,1024,1024,1024,0,0,0,0,0,0,0,37,3.509,3.503,0,0,0,0,4.924,77.18,755.90590640684,35.433072,6,P-GPS,,10.8
629100,2026-01-07 15:44:59,755.90590640684,39.041996,0.0,2.53493446432,6.1066931088,16,5,7.011,756.23399040684,35.761156,0.894776,4.22654213,0.0,0.0,0.0,24.3,1.6,2.5,0,0,1024,1024,1024,1024,0,0,0,0,0,0,0,37,3.509,3.503,0,0,0,0,4.924,77.18,755.90590640684,35.433072,6,P-GPS,,10.8
629200,2026-01-07 15:44:59,755.90590640684,39.041996,0.0,2.53170611776,6.141404396,16,5,7.011,756.23399040684,35.761156,0.894776,4.22654213,0.0,0.0,0.0,24.4,1.7,2.5,0,0,1024,1024,1024,1024,0,0,0,0,0,0,0,37,3.509,3.503,0,0,0,0,4.924,77.18,755.90590640684,35.433072,6,P-GPS,,10.8
629300,2026-01-07 15:45:00,755.90590640684,39.041996,0.0,2.5266897134,6.1745080716,16,5,7.011,756.23399040684,35.761156,0.894776,4.22654213,0.0,0.0,0.0,24.4,1.8,2.3,0,0,1024,1024,1024,1024,0,0,0,0,0,0,0,37,3.509,3.503,0,0,0,0,4.924,77.18,755.90590640684,35.433072,6,P-GPS,,10.8
629400,2026-01-07 15:45:00,755.90590640684,39.041996,0.0,2.49036097208,6.2112534796,16,5,7.011,756.23399040684,35.761156,0.894776,4.22654213,0.0,0.0,0.0,24.4,1.8,2.1,0,0,1024,1024,1024,1024,0,0,0,0,0,0,0,37,3.509,3.503,0,0,0,0,4.924,77.18,755.90590640684,35.433072,6,P-GPS,,10.8
629500,2026-01-07 15:45:00,755.90590640684,39.041996,0.0,2.47927829456,6.2294293332,17,5,7.011,756.23399040684,35.761156,0.894776,4.22654213,0.0,0.0,0.0,24.3,1.7,1.9,0,0,1024,1024,1024,1024,0,0,0,0,0,0,0,37,3.509,3.503,0,0,0,0,4.924,77.18,755.90590640684,35.433072,6,P-GPS,,10.8
629600,2026-01-07 15:45:00,755.90590640684,39.041996,0.0,2.48074483004,6.2358269712,17,5,7.011,756.23399040684,35.761156,0.894776,4.22654213,0.0,0.0,0.0,24.3,1.8,1.9,0,0,1024,1024,1024,1024,0,0,0,0,0,0,0,37,3.509,3.503,0,0,0,0,4.924,77.18,755.90590640684,35.433072,6,P-GPS,,10.8
629700,2026-01-07 15:45:00,755.57782240684,39.041996,0.0,2.4781988982,6.2417652916,16,5,7.011,756.23399040684,35.761156,0.894776,4.22654213,0.0,0.0,0.0,24.3,1.9,1.7,0,0,1024,1024,1024,1024,0,0,0,0,0,0,0,37,3.509,3.503,0,0,0,0,4.924,77.18,755.57782240684,35.104988,6,P-GPS,,10.7
629800,2026-01-07 15:45:00,755.57782240684,39.041996,0.0,2.44586950084,6.275262668,16,5,7.011,756.23399040684,35.761156,0.894776,4.22654213,0.0,0.0,0.0,24.3,1.9,1.7,0,0,1024,1024,1024,1024,0,0,0,0,0,0,0,37,3.509,3.503,0,0,0,0,4.924,77.18,755.57782240684,35.104988,6,P-GPS,,10.7
629900,2026-01-07 15:45:00,755.57782240684,39.041996,0.0,2.39651910556,6.3482941664,17,5,7.011,756.23399040684,35.761156,0.894776,4.22654213,0.0,0.0,0.0,24.4,1.9,1.8,0,0,1024,1024,1024,1024,0,0,0,0,0,0,0,37,3.509,3.503,0,0,0,0,4.924,77.18,755.57782240684,35.104988,6,P-GPS,,10.7
630000,2026-01-07 15:45:00,755.57782240684,39.041996,0.0,2.3565781594,6.3893702832,17,5,7.012,756.23399040684,35.761156,0.894776,4.22654213,0.0,0.0,0.0,24.4,1.9,1.9,0,0,1024,1024,1024,1024,0,0,0,0,0,0,0,37,3.508,3.503,0,0,0,0,4.975,77.18,755.57782240684,35.104988,6,P-GPS,,10.7
630100,2026-01-07 15:45:00,755.57782240684,39.041996,0.0,2.3176509928,6.429298106,17,5,7.012,756.23399040684,35.761156,0.894776,4.22654213,0.0,0.0,0.0,24.3,2.1,1.9,0,0,1024,1024,1024,1024,0,0,0,0,0,0,0,37,3.508,3.503,0,0,0,0,4.975,77.18,755.57782240684,35.104988,6,P-GPS,,10.7
630200,2026-01-07 15:45:00,755.57782240684,39.041996,0.0,2.28222776332,6.4647967948,17,5,7.012,756.23399040684,35.761156,0.894776,4.22654213,0.0,0.0,0.0,24.4,2.1,1.8,0,0,1024,1024,1024,1024,0,0,0,0,0,0,0,37,3.508,3.503,0,0,0,0,4.975,77.18,755.57782240684,35.104988,6,P-GPS,,10.7
630300,2026-01-07 15:45:00,755.57782240684,39.041996,0.0,2.20965230168,6.5422574272,17,5,7.012,756.23399040684,35.761156,0.894776,4.22654213,0.0,0.0,0.0,24.4,2.4,1.9,0,0,1024,1024,1024,1024,0,0,0,0,0,0,0,37,3.508,3.503,0,0,0,0,4.975,77.18,755.57782240684,35.104988,6,P-GPS,,10.7
630400,2026-01-07 15:45:01,755.57782240684,39.041996,0.0,2.18541345576,6.566929344,17,5,7.012,756.23399040684,35.761156,0.894776,4.22654213,0.0,0.0,0.0,24.3,2.5,1.7,0,0,1024,1024,1024,1024,0,0,0,0,0,0,0,37,3.508,3.503,0,0,0,0,4.975,77.18,755.57782240684,35.104988,6,P-GPS,,10.7
630500,2026-01-07 15:45:01,755.24973840684,39.041996,0.0,2.1636155548,6.5893046728,16,5,7.012,756.23399040684,35.761156,0.894776,4.22654213,0.0,0.0,0.0,24.3,2.5,1.5,0,0,1024,1024,1024,1024,0,0,0,0,0,0,0,37,3.508,3.503,0,0,0,0,4.975,77.18,755.24973840684,34.776904,6,P-GPS,,10.6
630600,2026-01-07 15:45:01,755.24973840684,39.041996,0.0,2.1265256586,6.6303479812,16,5,7.012,756.23399040684,35.761156,0.894776,4.22654213,0.0,0.0,0.0,24.3,2.5,1.6,0,0,1024,1024,1024,1024,0,0,0,0,0,0,0,37,3.508,3.503,0,0,0,0,4.975,77.18,755.24973840684,34.776904,6,P-GPS,,10.6
630700,2026-01-07 15:45:01,755.24973840684,39.041996,0.0,2.09485242924,6.68635192,16,5,7.012,756.23399040684,35.761156,0.894776,4.22654213,0.0,0.0,0.0,24.3,2.7,1.5,0,0,1024,1024,1024,1024,0,0,0,0,0,0,0,37,3.508,3.503,0,0,0,0,4.975,77.18,755.24973840684,34.776904,6,P-GPS,,10.6
630800,2026-01-07 15:45:01,755.24973840684,39.041996,0.0,2.07561030264,6.7194227872,16,5,7.012,756.23399040684,35.761156,0.894776,4.22654213,0.0,0.0,0.0,24.3,2.7,1.6,0,0,1024,1024,1024,1024,0,0,0,0,0,0,0,37,3.508,3.503,0,0,0,0,4.975,77.18,755.24973840684,34.776904,6,P-GPS,,10.6
630900,2026-01-07 15:45:01,755.24973840684,39.041996,0.0,2.05966870108,6.748031712,16,5,7.012,756.23399040684,35.761156,0.894776,4.22654213,0.0,0.0,0.0,24.3,2.7,1.6,0,0,1024,1024,1024,1024,0,0,0,0,0,0,0,37,3.508,3.503,0,0,0,0,4.975,77.18,755.24973840684,34.776904,6,P-GPS,,10.6
631000,2026-01-07 15:45:01,755.24973840684,39.041996,0.0,2.05149940948,6.7612863056,16,5,7.012,756.23399040684,35.761156,0.894776,4.22654213,0.0,0.0,0.0,24.3,2.7,1.5,0,0,1024,1024,1024,1024,0,0,0,0,0,0,0,37,3.508,3.503,0,0,0,0,4.975,77.18,755.24973840684,34.776904,6,P-GPS,,10.6
631100,2026-01-07 15:45:01,755.24973840684,39.041996,0.0,2.07209980384,6.8054136036,16,5,7.006,756.23399040684,35.761156,0.894776,4.22654213,0.0,0.0,0.0,24.3,2.8,1.4,0,0,1024,1024,1024,1024,0,0,0,0,0,0,0,37,3.507,3.5,0,0,0,0,5.053,77.18,755.24973840684,34.776904,6,P-GPS,,10.6
631200,2026-01-07 15:45:01,755.24973840684,39.041996,0.0,2.04646332008,6.831036964,16,5,7.006,756.23399040684,35.761156,0.894776,4.22654213,0.0,0.0,0.0,24.3,2.8,1.6,0,0,1024,1024,1024,1024,0,0,0,0,0,0,0,37,3.507,3.5,0,0,0,0,5.053,77.18,755.24973840684,34.776904,6,P-GPS,,10.6
631300,2026-01-07 15:45:02,755.24973840684,39.041996,0.0,2.02375662644,6.8539700356,16,5,7.006,756.23399040684,35.761156,0.894776,4.22654213,0.0,0.0,0.0,24.3,2.5,1.8,0,0,1024,1024,1024,1024,0,0,0,0,0,0,0,37,3.507,3.5,0,0,0,0,5.053,77.18,755.24973840684,34.776904,6,P-GPS,,10.6
631400,2026-01-07 15:45:02,755.24973840684,39.041996,0.0,1.99213917136,6.8856301416,16,5,7.006,756.23399040684,35.761156,0.894776,4.22654213,0.0,0.0,0.0,24.3,2.5,1.9,0,0,1024,1024,1024,1024,0,0,0,0,0,0,0,37,3.507,3.5,0,0,0,0,5.053,77.18,755.24973840684,34.776904,6,P-GPS,,10.6
631500,2026-01-07 15:45:02,755.24973840684,39.041996,0.0,1.96301187384,6.9148952344,16,5,7.006,756.23399040684,35.761156,0.894776,4.22654213,0.0,0.0,0.0,24.3,2.5,1.9,0,0,1024,1024,1024,1024,0,0,0,0,0,0,0,37,3.507,3.5,0,0,0,0,5.053,77.18,755.24973840684,34.776904,6,P-GPS,,10.6
631600,2026-01-07 15:45:02,755.24973840684,39.041996,0.0,1.90779533664,6.9761485172,16,5,7.006,756.23399040684,35.761156,0.894776,4.22654213,0.0,0.0,0.0,24.3,2.5,1.9,0,0,1024,1024,1024,1024,0,0,0,0,0,0,0,37,3.507,3.5,0,0,0,0,5.053,77.18,755.24973840684,34.776904,6,P-GPS,,10.6
631700,2026-01-07 15:45:02,755.24973840684,39.041996,0.0,1.8925361498,6.995078964,16,5,7.006,756.23399040684,35.761156,0.894776,4.22654213,0.0,0.0,0.0,24.3,2.5,1.9,0,0,1024,1024,1024,1024,0,0,0,0,0,0,0,37,3.507,3.5,0,0,0,0,5.053,77.18,755.24973840684,34.776904,6,P-GPS,,10.6
631800,2026-01-07 15:45:02,755.24973840684,39.041996,0.0,1.86362538772,7.0324149232,16,5,7.006,756.23399040684,35.761156,0.894776,4.22654213,0.0,0.0,0.0,24.3,2.5,1.8,0,0,1024,1024,1024,1024,0,0,0,0,0,0,0,37,3.507,3.5,0,0,0,0,5.053,77.18,755.24973840684,34.776904,6,P-GPS,,10.6
631900,2026-01-07 15:45:02,755.24973840684,39.041996,0.0,1.8356955968,7.067257444,17,5,7.006,756.23399040684,35.761156,0.894776,4.22654213,0.0,0.0,0.0,24.3,2.5,1.6,0,0,1024,1024,1024,1024,0,0,0,0,0,0,0,37,3.507,3.5,0,0,0,0,5.053,77.18,755.24973840684,34.776904,6,P-GPS,,10.6
632000,2026-01-07 15:45:02,755.24973840684,39.041996,0.0,1.74375661748,7.1592521976,17,5,7.006,756.23399040684,35.761156,0.894776,4.22654213,0.0,0.0,0.0,24.3,2.8,1.4,0,0,1024,1024,1024,1024,0,0,0,0,0,0,0,37,3.507,3.5,0,0,0,0,5.053,77.18,755.24973840684,34.776904,6,P-GPS,,10.6
632100,2026-01-07 15:45:02,755.24973840684,39.041996,0.0,1.70396330912,7.1990815952,17,5,7.006,756.23399040684,35.761156,0.894776,4.22654213,0.0,0.0,0.0,24.4,2.9,1.6,0,0,1024,1024,1024,1024,0,0,0,0,0,0,0,37,3.507,3.5,0,0,0,0,5.053,77.18,755.24973840684,34.776904,6,P-GPS,,10.6
632200,2026-01-07 15:45:02,755.24973840684,39.041996,0.0,1.67947183852,7.2237207036,17,5,7.001,756.23399040684,35.761156,0.894776,4.22654213,0.0,0.0,0.0,24.4,2.9,1.8,0,0,1024,1024,1024,1024,0,0,0,0,0,0,0,37,3.504,3.497,0,0,0,0,5.062,77.18,755.24973840684,34.776904,6,P-GPS,,10.6
632300,2026-01-07 15:45:03,755.24973840684,39.041996,0.0,1.65699808452,7.2465225416,17,5,7.001,756.23399040684,35.761156,0.894776,4.22654213,0.0,0.0,0.0,24.4,3.0,1.8,0,0,1024,1024,1024,1024,0,0,0,0,0,0,0,37,3.504,3.497,0,0,0,0,5.062,77.18,755.24973840684,34.776904,6,P-GPS,,10.6
632400,2026-01-07 15:45:03,755.24973840684,39.041996,0.0,1.61227695448,7.3055448532,17,5,7.001,756.23399040684,35.761156,0.894776,4.22654213,0.0,0.0,0.0,24.5,3.0,1.9,0,0,1024,1024,1024,1024,0,0,0,0,0,0,0,37,3.504,3.497,0,0,0,0,5.062,77.18,755.24973840684,34.776904,6,P-GPS,,10.6
632500,2026-01-07 15:45:03,755.24973840684,39.041996,0.0,1.58279532624,7.3351052216,17,5,7.001,756.23399040684,35.761156,0.894776,4.22654213,0.0,0.0,0.0,24.5,2.9,1.8,0,0,1024,1024,1024,1024,0,0,0,0,0,0,0,37,3.504,3.497,0,0,0,0,5.062,77.18,755.24973840684,34.776904,6,P-GPS,,10.6
632600,2026-01-07 15:45:03,755.24973840684,39.041996,0.0,1.56754926276,7.357939868,17,5,7.001,756.23399040684,35.761156,0.894776,4.22654213,0.0,0.0,0.0,24.5,3.0,1.7,0,0,1024,1024,1024,1024,0,0,0,0,0,0,0,37,3.504,3.497,0,0,0,0,5.062,77.18,755.24973840684,34.776904,6,P-GPS,,10.6
632700,2026-01-07 15:45:03,755.24973840684,39.041996,0.0,1.55508207076,7.37614853,17,5,7.001,756.23399040684,35.761156,0.894776,4.22654213,0.0,0.0,0.0,24.5,3.0,1.7,0,0,1024,1024,1024,1024,0,0,0,0,0,0,0,37,3.504,3.497,0,0,0,0,5.062,77.18,755.24973840684,34.776904,6,P-GPS,,10.6
632800,2026-01-07 15:45:03,755.24973840684,39.041996,0.0,1.53221461596,7.4121393448,17,5,7.001,756.23399040684,35.761156,0.894776,4.22654213,0.0,0.0,0.0,24.4,2.6,2.0,0,0,1024,1024,1024,1024,0,0,0,0,0,0,0,37,3.504,3.497,0,0,0,0,5.062,77.18,755.24973840684,34.776904,6,P-GPS,,10.6
632900,2026-01-07 15:45:03,755.24973840684,39.041996,0.0,1.50955713492,7.4371065372,17,5,7.001,756.23399040684,35.761156,0.894776,4.22654213,0.0,0.0,0.0,24.3,2.9,2.1,0,0,1024,1024,1024,1024,0,0,0,0,0,0,0,37,3.504,3.497,0,0,0,0,5.062,77.18,755.24973840684,34.776904,6,P-GPS,,10.6
633000,2026-01-07 15:45:03,755.24973840684,39.041996,0.0,1.47730319688,7.4733270108,17,5,7.001,756.23399040684,35.761156,0.894776,4.22654213,0.0,0.0,0.0,24.3,2.6,2.1,0,0,1024,1024,1024,1024,0,0,0,0,0,0,0,37,3.504,3.497,0,0,0,0,5.062,77.18,755.24973840684,34.776904,6,P-GPS,,10.6
633100,2026-01-07 15:45:03,755.24973840684,39.041996,0.0,1.4453904662,7.5093178256,17,5,7.001,756.23399040684,35.761156,0.894776,4.22654213,0.0,0.0,0.0,24.4,2.8,2.2,0,0,1024,1024,1024,1024,0,0,0,0,0,0,0,37,3.504,3.497,0,0,0,0,5.062,77.18,755.24973840684,34.776904,6,P-GPS,,10.6
633200,2026-01-07 15:45:03,755.24973840684,39.041996,0.0,1.42302497992,7.5437010288,17,5,7.001,756.23399040684,35.761156,0.894776,4.22654213,0.0,0.0,0.0,24.4,3.2,2.1,0,0,1024,1024,1024,1024,0,0,0,0,0,0,0,37,3.504,3.497,0,0,0,0,5.062,77.18,755.24973840684,34.776904,6,P-GPS,,10.6
633300,2026-01-07 15:45:03,755.24973840684,39.041996,0.0,1.39105647496,7.6071852828,17,5,6.999,756.23399040684,35.761156,0.894776,4.22654213,0.0,0.0,0.0,24.5,3.6,2.3,0,0,1024,1024,1024,1024,0,0,0,0,0,0,0,37,3.505,3.497,0,0,0,0,5.049,77.18,755.24973840684,34.776904,6,P-GPS,,10.6
633400,2026-01-07 15:45:04,755.57782240684,39.041996,0.0,1.37376644816,7.6376642864,17,5,6.999,756.23399040684,35.761156,0.894776,4.22654213,0.0,0.0,0.0,24.5,3.9,2.3,0,0,1024,1024,1024,1024,0,0,0,0,0,0,0,37,3.505,3.497,0,0,0,0,5.049,77.18,755.57782240684,35.104988,6,P-GPS,,10.7
633500,2026-01-07 15:45:04,755.57782240684,39.041996,0.0,1.3621391512,7.6655514264,17,5,6.999,756.23399040684,35.761156,0.894776,4.22654213,0.0,0.0,0.0,24.4,3.7,2.2,0,0,1024,1024,1024,1024,0,0,0,0,0,0,0,37,3.505,3.497,0,0,0,0,5.049,77.18,755.57782240684,35.104988,6,P-GPS,,10.7
633600,2026-01-07 15:45:04,755.57782240684,39.041996,0.0,1.35625988592,7.6898624508,17,5,6.999,756.23399040684,35.761156,0.894776,4.22654213,0.0,0.0,0.0,24.3,3.4,2.3,0,0,1024,1024,1024,1024,0,0,0,0,0,0,0,37,3.505,3.497,0,0,0,0,5.049,77.18,755.57782240684,35.104988,6,P-GPS,,10.7
633700,2026-01-07 15:45:04,755.57782240684,39.041996,0.0,1.37008206484,7.7147968348,17,5,6.999,756.23399040684,35.761156,0.894776,4.22654213,0.0,0.0,0.0,24.3,3.4,2.5,0,0,1024,1024,1024,1024,0,0,0,0,0,0,0,37,3.505,3.497,0,0,0,0,5.049,77.18,755.57782240684,35.104988,6,P-GPS,,10.7
633800,2026-01-07 15:45:04,755.57782240684,39.041996,0.0,1.37408797048,7.7370737384,17,5,6.999,756.23399040684,35.761156,0.894776,4.22654213,0.0,0.0,0.0,24.2,3.4,2.3,0,0,1024,1024,1024,1024,0,0,0,0,0,0,0,37,3.505,3.497,0,0,0,0,5.049,77.18,755.57782240684,35.104988,6,P-GPS,,10.7
633900,2026-01-07 15:45:04,755.57782240684,39.041996,0.0,1.3791339024,7.7572509044,17,5,6.999,756.23399040684,35.761156,0.894776,4.22654213,0.0,0.0,0.0,24.2,2.7,2.3,0,0,1024,1024,1024,1024,0,0,0,0,0,0,0,37,3.505,3.497,0,0,0,0,5.049,77.18,755.57782240684,35.104988,6,P-GPS,,10.7
634000,2026-01-07 15:45:04,755.57782240684,39.041996,0.0,1.37945870556,7.7750002488,17,5,6.999,756.23399040684,35.761156,0.894776,4.22654213,0.0,0.0,0.0,24.3,2.9,2.3,0,0,1024,1024,1024,1024,0,0,0,0,0,0,0,37,3.505,3.497,0,0,0,0,5.049,77.18,755.57782240684,35.104988,6,P-GPS,,10.7
634100,2026-01-07 15:45:04,755.57782240684,39.041996,0.0,1.39089899464,7.7864831888,17,5,6.999,756.23399040684,35.761156,0.894776,4.22654213,0.0,0.0,0.0,24.3,3.1,2.2,0,0,1024,1024,1024,1024,0,0,0,0,0,0,0,37,3.505,3.497,0,0,0,0,5.049,77.18,755.57782240684,35.104988,6,P-GPS,,10.7
634200,2026-01-07 15:45:04,755.57782240684,39.041996,0.0,1.37846461104,7.8050855516,17,5,6.999,756.23399040684,35.761156,0.894776,4.22654213,0.0,0.0,0.0,24.4,3.3,1.9,0,0,1024,1024,1024,1024,0,0,0,0,0,0,0,37,3.505,3.497,0,0,0,0,5.049,77.18,755.57782240684,35.104988,6,P-GPS,,10.7
634300,2026-01-07 15:45:05,755.57782240684,39.041996,0.0,1.36890424328,7.8212272844,17,5,6.999,756.23399040684,35.761156,0.894776,4.22654213,0.0,0.0,0.0,24.4,3.0,2.0,0,0,1024,1024,1024,1024,0,0,0,0,0,0,0,37,3.505,3.497,0,0,0,0,5.049,77.18,755.57782240684,35.104988,6,P-GPS,,10.7
634400,2026-01-07 15:45:05,755.57782240684,39.041996,0.0,1.37003613308,7.831036996,17,5,6.993,756.23399040684,35.761156,0.894776,4.22654213,0.0,0.0,0.0,24.4,2.9,2.1,0,0,1024,1024,1024,1024,0,0,0,0,0,0,0,36,3.5,3.493,0,0,0,0,5.113,77.36,755.57782240684,35.104988,6,P-GPS,,10.7
634500,2026-01-07 15:45:05,755.57782240684,39.041996,0.0,1.35218508264,7.8515094376,17,5,6.993,756.23399040684,35.761156,0.894776,4.22654213,0.0,0.0,0.0,24.5,3.0,1.9,0,0,1024,1024,1024,1024,0,0,0,0,0,0,0,36,3.5,3.493,0,0,0,0,5.113,77.36,755.57782240684,35.104988,6,P-GPS,,10.7
634600,2026-01-07 15:45:05,755.57782240684,39.041996,0.0,1.344652274,7.8714569448,17,5,6.993,756.23399040684,35.761156,0.894776,4.22654213,0.0,0.0,0.0,24.4,2.6,1.9,0,0,1024,1024,1024,1024,0,0,0,0,0,0,0,36,3.5,3.493,0,0,0,0,5.113,77.36,755.57782240684,35.104988,6,P-GPS,,10.7
634700,2026-01-07 15:45:05,755.57782240684,39.041996,0.0,1.33902891424,7.8924871292,17,5,6.993,756.23399040684,35.761156,0.894776,4.22654213,0.0,0.0,0.0,24.5,2.3,2.4,0,0,1024,1024,1024,1024,0,0,0,0,0,0,0,36,3.5,3.493,0,0,0,0,5.113,77.36,755.57782240684,35.104988,6,P-GPS,,10.7
634800,2026-01-07 15:45:05,755.57782240684,39.041996,0.0,1.33353678808,7.9183401484,17,5,6.993,756.23399040684,35.761156,0.894776,4.22654213,0.0,0.0,0.0,24.5,2.2,2.7,0,0,1024,1024,1024,1024,0,0,0,0,0,0,0,36,3.5,3.493,0,0,0,0,5.113,77.36,755.57782240684,35.104988,6,P-GPS,,10.7
634900,2026-01-07 15:45:05,755.57782240684,39.041996,0.0,1.32844164356,7.9389110152,17,5,6.993,756.23399040684,35.761156,0.894776,4.22654213,0.0,0.0,0.0,24.4,2.1,2.1,0,0,1024,1024,1024,1024,0,0,0,0,0,0,0,36,3.5,3.493,0,0,0,0,5.113,77.36,755.57782240684,35.104988,6,P-GPS,,10.7
635000,2026-01-07 15:45:05,755.57782240684,39.041996,0.0,1.32319886124,7.9555120656,17,5,6.993,756.23399040684,35.761156,0.894776,4.22654213,0.0,0.0,0.0,24.4,2.3,1.7,0,0,1024,1024,1024,1024,0,0,0,0,0,0,0,36,3.5,3.493,0,0,0,0,5.113,77.36,755.57782240684,35.104988,6,P-GPS,,10.7
635100,2026-01-07 15:45:05,755.57782240684,39.041996,0.0,1.32725726032,7.9673887064,17,5,6.993,756.23399040684,35.761156,0.894776,4.22654213,0.0,0.0,0.0,24.5,2.7,1.7,0,0,1024,1024,1024,1024,0,0,0,0,0,0,0,36,3.5,3.493,0,0,0,0,5.113,77.36,755.57782240684,35.104988,6,P-GPS,,10.7
635200,2026-01-07 15:45:05,755.57782240684,39.041996,0.0,1.33155187988,7.975229914,17,5,6.993,756.23399040684,35.761156,0.894776,4.22654213,0.0,0.0,0.0,24.6,2.7,1.7,0,0,1024,1024,1024,1024,0,0,0,0,0,0,0,36,3.5,3.493,0,0,0,0,5.113,77.36,755.57782240684,35.104988,6,P-GPS,,10.7
635300,2026-01-07 15:45:05,755.57782240684,39.041996,0.0,1.33710306116,7.9823493368,17,5,6.993,756.23399040684,35.761156,0.894776,4.22654213,0.0,0.0,0.0,24.5,2.6,1.3,0,0,1024,1024,1024,1024,0,0,0,0,0,0,0,36,3.5,3.493,0,0,0,0,5.113,77.36,755.57782240684,35.104988,6,P-GPS,,10.7
635400,2026-01-07 15:45:06,755.57782240684,39.041996,0.0,1.33862537092,8.0340881836,17,5,6.993,756.23399040684,35.761156,0.894776,4.22654213,0.0,0.0,0.0,24.4,2.6,0.9,0,0,1024,1024,1024,1024,0,0,0,0,0,0,0,36,3.5,3.493,0,0,0,0,5.113,77.36,755.57782240684,35.104988,6,P-GPS,,10.7
635500,2026-01-07 15:45:06,755.57782240684,39.041996,0.0,1.33797904544,8.0373690236,17,5,6.993,756.23399040684,35.761156,0.894776,4.22654213,0.0,0.0,0.0,24.3,2.5,1.2,0,0,1024,1024,1024,1024,0,0,0,0,0,0,0,36,3.5,3.493,0,0,0,0,5.113,77.36,755.57782240684,35.104988,6,P-GPS,,10.7
635600,2026-01-07 15:45:06,755.57782240684,39.041996,0.0,1.32447838884,8.064140678,17,5,7.0,756.23399040684,35.761156,0.894776,4.22654213,0.0,0.0,0.0,24.3,2.6,1.5,0,0,1024,1024,1024,1024,0,0,0,0,0,0,0,36,3.501,3.495,0,0,0,0,4.917,77.36,755.57782240684,35.104988,6,P-GPS,,10.7
635700,2026-01-07 15:45:06,755.57782240684,39.041996,0.0,1.31088586872,8.0921590516,17,5,7.0,756.23399040684,35.761156,0.894776,4.22654213,0.0,0.0,0.0,24.3,2.7,1.8,0,0,1024,1024,1024,1024,0,0,0,0,0,0,0,36,3.501,3.495,0,0,0,0,4.917,77.36,755.57782240684,35.104988,6,P-GPS,,10.7
635800,2026-01-07 15:45:06,755.90590640684,39.041996,0.0,1.2871063404,8.12992152,17,5,7.0,756.23399040684,35.761156,0.894776,4.22654213,0.0,0.0,0.0,24.4,2.9,1.8,0,0,1024,1024,1024,1024,0,0,0,0,0,0,0,36,3.501,3.495,0,0,0,0,4.917,77.36,755.90590640684,35.433072,6,P-GPS,,10.8
635900,2026-01-07 15:45:06,755.90590640684,39.041996,0.0,1.2851378364,8.1483926492,17,5,7.0,756.23399040684,35.761156,0.894776,4.22654213,0.0,0.0,0.0,24.3,3.0,1.6,0,0,1024,1024,1024,1024,0,0,0,0,0,0,0,36,3.501,3.495,0,0,0,0,4.917,77.36,755.90590640684,35.433072,6,P-GPS,,10.8
636000,2026-01-07 15:45:06,755.90590640684,39.041996,0.0,1.29238521196,8.1762141724,17,5,7.0,756.23399040684,35.761156,0.894776,4.22654213,0.0,0.0,0.0,24.3,2.8,1.8,0,0,1024,1024,1024,1024,0,0,0,0,0,0,0,36,3.501,3.495,0,0,0,0,4.917,77.36,755.90590640684,35.433072,6,P-GPS,,10.8
636100,2026-01-07 15:45:06,755.90590640684,39.041996,0.0,1.30122379492,8.20538084,17,5,7.0,756.23399040684,35.761156,0.894776,4.22654213,0.0,0.0,0.0,24.3,2.6,2.1,0,0,1024,1024,1024,1024,0,0,0,0,0,0,0,36,3.501,3.495,0,0,0,0,4.917,77.36,755.90590640684,35.433072,6,P-GPS,,10.8
636200,2026-01-07 15:45:06,755.90590640684,39.041996,0.0,1.3103182834,8.2797574828,17,5,7.0,756.23399040684,35.761156,0.894776,4.22654213,0.0,0.0,0.0,24.3,2.5,2.1,0,0,1024,1024,1024,1024,0,0,0,0,0,0,0,36,3.501,3.495,0,0,0,0,4.917,77.36,755.90590640684,35.433072,6,P-GPS,,10.8
636300,2026-01-07 15:45:07,755.90590640684,39.041996,0.0,1.31395673496,8.321686618,17,5,7.0,756.23399040684,35.761156,0.894776,4.22654213,0.0,0.0,0.0,24.2,2.4,2.4,0,0,1024,1024,1024,1024,0,0,0,0,0,0,0,36,3.501,3.495,0,0,0,0,4.917,77.36,755.90590640684,35.433072,6,P-GPS,,10.8
636400,2026-01-07 15:45:07,755.90590640684,39.041996,0.0,1.3144849502,8.3639438372,17,5,7.0,756.23399040684,35.761156,0.894776,4.22654213,0.0,0.0,0.0,24.0,2.6,2.4,0,0,1024,1024,1024,1024,0,0,0,0,0,0,0,36,3.501,3.495,0,0,0,0,4.917,77.36,755.90590640684,35.433072,6,P-GPS,,10.8
636500,2026-01-07 15:45:07,755.90590640684,39.041996,0.0,1.31152235168,8.403543576,16,5,7.0,756.23399040684,35.761156,0.894776,4.22654213,0.0,0.0,0.0,24.1,2.6,2.4,0,0,1024,1024,1024,1024,0,0,0,0,0,0,0,36,3.501,3.495,0,0,0,0,4.917,77.36,755.90590640684,35.433072,6,P-GPS,,10.8
636600,2026-01-07 15:45:07,756.23399040684,39.041996,0.0,1.30101054032,8.4416997452,16,5,7.0,756.23399040684,35.761156,0.894776,4.22654213,0.0,0.0,0.0,24.4,3.0,2.5,0,0,1024,1024,1024,1024,0,0,0,0,0,0,0,36,3.499,3.495,0,0,0,0,4.917,77.36,756.23399040684,35.761156,6,P-GPS,,10.9
636700,2026-01-07 15:45:07,756.23399040684,39.041996,0.0,1.27171263912,8.5034123456,15,5,7.0,756.23399040684,35.761156,0.894776,4.22654213,0.0,0.0,0.0,24.3,3.5,1.9,0,0,1024,1024,1024,1024,0,0,0,0,0,0,0,36,3.499,3.495,0,0,0,0,4.917,77.36,756.23399040684,35.761156,6,P-GPS,,10.9
636800,2026-01-07 15:45:07,756.23399040684,39.041996,0.0,1.25483271732,8.5424215332,15,5,7.0,756.23399040684,35.761156,0.894776,4.22654213,0.0,0.0,0.0,24.4,3.6,2.3,0,0,1024,1024,1024,1024,0,0,0,0,0,0,0,36,3.499,3.495,0,0,0,0,4.917,77.36,756.23399040684,35.761156,6,P-GPS,,10.9
636900,2026-01-07 15:45:07,756.23399040684,39.041996,0.0,1.23996723128,8.5796918756,15,5,7.0,756.23399040684,35.761156,0.894776,4.22654213,0.0,0.0,0.0,24.4,3.7,2.6,0,0,1024,1024,1024,1024,0,0,0,0,0,0,0,36,3.499,3.495,0,0,0,0,4.917,77.36,756.23399040684,35.761156,6,P-GPS,,10.9
637000,2026-01-07 15:45:07,756.23399040684,39.041996,0.0,1.22202759816,8.611712874,15,5,7.0,756.23399040684,35.761156,0.894776,4.22654213,0.0,0.0,0.0,24.4,3.8,2.6,0,0,1024,1024,1024,1024,0,0,0,0,0,0,0,36,3.499,3.495,0,0,0,0,4.917,77.36,756.23399040684,35.761156,6,P-GPS,,10.9
637100,2026-01-07 15:45:07,756.23399040684,39.041996,0.0,1.1829396704,8.6515422716,16,5,7.0,756.23399040684,35.761156,0.894776,4.22654213,0.0,0.0,0.0,24.5,3.8,2.8,0,0,1024,1024,1024,1024,0,0,0,0,0,0,0,36,3.499,3.495,0,0,0,0,4.917,77.36,756.23399040684,35.761156,6,P-GPS,,10.9
637200,2026-01-07 15:45:07,756.23399040684,39.041996,0.0,1.18747051044,8.6815291492,16,5,7.0,756.23399040684,35.761156,0.894776,4.22654213,0.0,0.0,0.0,24.5,3.8,2.7,0,0,1024,1024,1024,1024,0,0,0,0,0,0,0,36,3.499,3.495,0,0,0,0,4.917,77.36,756.23399040684,35.761156,6,P-GPS,,10.9
637300,2026-01-07 15:45:08,756.56207440684,39.041996,0.0,1.19243114052,8.7103677328,16,5,7.0,756.56207440684,36.08924,0.894776,4.22654213,0.0,0.0,0.0,24.4,3.9,2.7,0,0,1024,1024,1024,1024,0,0,0,0,0,0,0,36,3.499,3.495,0,0,0,0,4.917,77.36,756.56207440684,36.08924,6,P-GPS,,11.0
637400,2026-01-07 15:45:08,756.56207440684,39.041996,0.0,1.1872375708,8.744914978,16,5,7.0,756.56207440684,36.08924,0.894776,4.22654213,0.0,0.0,0.0,24.4,3.5,2.9,0,0,1024,1024,1024,1024,0,0,0,0,0,0,0,36,3.499,3.495,0,0,0,0,4.917,77.36,756.56207440684,36.08924,6,P-GPS,,11.0
637500,2026-01-07 15:45:08,756.56207440684,39.041996,0.0,1.19069229532,8.7736551364,16,5,7.0,756.56207440684,36.08924,0.894776,4.22654213,0.0,0.0,0.0,24.3,4.1,2.9,0,0,1024,1024,1024,1024,0,0,0,0,0,0,0,36,3.499,3.495,0,0,0,0,4.917,77.36,756.56207440684,36.08924,6,P-GPS,,11.0
637600,2026-01-07 15:45:08,756.56207440684,39.041996,0.0,1.19995410664,8.8024609116,16,5,7.0,756.56207440684,36.08924,0.894776,4.22654213,0.0,0.0,0.0,24.3,4.5,2.8,0,0,1024,1024,1024,1024,0,0,0,0,0,0,0,36,3.499,3.495,0,0,0,0,4.917,77.36,756.56207440684,36.08924,6,P-GPS,,11.0
637700,2026-01-07 15:45:08,756.56207440684,39.041996,0.0,1.20899282084,8.8261813848,17,5,7.0,756.56207440684,36.08924,0.894776,4.22654213,0.0,0.0,0.0,24.5,4.3,2.9,0,0,1024,1024,1024,1024,0,0,0,0,0,0,0,36,3.499,3.495,0,0,0,0,4.917,77.36,756.56207440684,36.08924,6,P-GPS,,11.0
637800,2026-01-07 15:45:08,756.56207440684,39.041996,0.0,1.19999019588,8.8511157688,17,5,6.999,756.56207440684,36.08924,0.894776,4.22654213,0.0,0.0,0.0,24.4,4.0,2.8,0,0,1024,1024,1024,1024,0,0,0,0,0,0,0,36,3.502,3.497,0,0,0,0,4.922,77.36,756.56207440684,36.08924,6,P-GPS,,11.0
637900,2026-01-07 15:45:08,756.56207440684,39.041996,0.0,1.18662077288,8.8803808616,17,5,6.999,756.56207440684,36.08924,0.894776,4.22654213,0.0,0.0,0.0,24.3,3.8,2.4,0,0,1024,1024,1024,1024,0,0,0,0,0,0,0,36,3.502,3.497,0,0,0,0,4.922,77.36,756.56207440684,36.08924,6,P-GPS,,11.0
638000,2026-01-07 15:45:08,756.56207440684,39.041996,0.0,1.17754596944,8.9078743008,17,5,6.999,756.56207440684,36.08924,0.894776,4.22654213,0.0,0.0,0.0,24.2,4.0,1.7,0,0,1024,1024,1024,1024,0,0,0,0,0,0,0,36,3.502,3.497,0,0,0,0,4.922,77.36,756.56207440684,36.08924,6,P-GPS,,11.0
638100,2026-01-07 15:45:08,756.56207440684,39.041996,0.0,1.16824478804,8.9354333568,17,5,6.999,756.56207440684,36.08924,0.894776,4.22654213,0.0,0.0,0.0,24.3,3.9,1.2,0,0,1024,1024,1024,1024,0,0,0,0,0,0,0,36,3.502,3.497,0,0,0,0,4.922,77.36,756.56207440684,36.08924,6,P-GPS,,11.0
638200,2026-01-07 15:45:08,756.56207440684,39.041996,0.0,1.16258861988,8.952428108,17,5,6.999,756.56207440684,36.08924,0.894776,4.22654213,0.0,0.0,0.0,24.3,4.5,0.9,0,0,1024,1024,1024,1024,0,0,0,0,0,0,0,36,3.502,3.497,0,0,0,0,4.922,77.36,756.56207440684,36.08924,6,P-GPS,,11.0
638300,2026-01-07 15:45:08,756.56207440684,39.041996,0.0,1.16229662512,8.9717522556,17,5,6.999,756.56207440684,36.08924,0.894776,4.22654213,0.0,0.0,0.0,24.2,4.7,1.5,0,0,1024,1024,1024,1024,0,0,0,0,0,0,0,36,3.502,3.497,0,0,0,0,4.922,77.36,756.56207440684,36.08924,6,P-GPS,,11.0
638400,2026-01-07 15:45:09,756.56207440684,39.041996,0.0,1.145177202,8.999836246,17,5,6.999,756.56207440684,36.08924,0.894776,4.22654213,0.0,0.0,0.0,24.4,5.0,2.3,0,0,1024,1024,1024,1024,0,0,0,0,0,0,0,36,3.502,3.497,0,0,0,0,4.922,77.36,756.56207440684,36.08924,6,P-GPS,,11.0
638500,2026-01-07 15:45:09,756.56207440684,39.041996,0.0,1.1568405882,9.0226052756,17,5,6.999,756.56207440684,36.08924,0.894776,4.22654213,0.0,0.0,0.0,24.5,4.8,2.6,0,0,1024,1024,1024,1024,0,0,0,0,0,0,0,36,3.502,3.497,0,0,0,0,4.922,77.36,756.56207440684,36.08924,6,P-GPS,,11.0
