time(millisecond),timestamp,altitude_above_seaLevel(feet),height_sonar(feet),speed(mph),distance(feet),mileage(feet),satellites,gpslevel,voltage(v),max_altitude(feet),max_ascent(feet),max_speed(mph),max_distance(feet), xSpeed(mph), ySpeed(mph), zSpeed(mph), compass_heading(degrees), pitch(degrees), roll(degrees),isPhoto,isVideo,rc_elevator,rc_aileron,rc_throttle,rc_rudder,rc_elevator(percent),rc_aileron(percent),rc_throttle(percent),rc_rudder(percent),gimbal_heading(degrees),gimbal_pitch(degrees),gimbal_roll(degrees),battery_percent,voltageCell1,voltageCell2,voltageCell3,voltageCell4,voltageCell5,voltageCell6,current(A),battery_temperature(f),altitude(feet),ascent(feet),flycStateRaw,flycState,message,height_above_takeoff(meters)
142900,2026-01-09 12:39:15,720.98977110317,0.656168,0.0,0.0,0.0,17,5,0.0,720.98977110317,0.0,0.0,0.0,0.0,0.0,0.0,25.2,2.0,0.5,0,0,1024,1024,1024,1024,0,0,0,0,0,0,0,89,4.007,4.003,0,0,0,0,0.0,67.82,720.98977110317,0.0,41,Motors_Started,SD card speed low. Setting new Return-To-Home altitude to 90m (295 ft). Data Recorder File Index is 31. Setting new Maximum Flight Altitude to 90m (295 ft) SD card speed low. Normal use may be affected. Replace SD card (Code: 10028). Gimbal stuck. Make sure gimbal cover is removed and manually check whether gimbal can rotate freely (Code: 40002),0.0
143000,2026-01-09 12:39:15,720.98977110317,0.656168,0.0,10.033464888,0.0191823168868,17,5,0.0,720.98977110317,0.0,0.0,10.033464888,0.0,0.0,0.0,25.2,2.0,0.5,0,0,1024,1024,1024,1024,0,0,0,0,0,0,0,89,4.007,4.003,0,0,0,0,0.0,67.82,720.98977110317,0.0,41,Motors_Started,,0.0
143100,2026-01-09 12:39:15,720.98977110317,0.328084,0.0,10.013615806,0.039602035388,17,5,0.0,720.98977110317,0.0,0.0,10.033464888,0.0,0.0,0.0,25.2,2.0,0.5,0,0,1024,1024,1024,1024,0,0,0,0,0,0,0,89,4.007,4.003,0,0,0,0,0.0,67.82,720.98977110317,0.0,41,Motors_Started,,0.0
143200,2026-01-09 12:39:16,720.98977110317,0.328084,0.0,10.0246394284,0.05065781002,17,5,0.0,720.98977110317,0.0,0.0,10.033464888,0.0,0.0,0.0,25.2,2.0,0.5,0,0,1024,1024,1024,1024,0,0,0,0,0,0,0,89,4.007,4.003,0,0,0,0,0.0,67.82,720.98977110317,0.0,41,Motors_Started,,0.0
143300,2026-01-09 12:39:16,720.98977110317,0.328084,0.0,10.0425856232,0.069979661032,17,5,0.0,720.98977110317,0.0,0.0,10.0425856232,0.0,0.0,0.0,25.2,1.9,0.5,0,0,1024,1024,1024,1024,0,0,0,0,0,0,0,89,4.007,4.003,0,0,0,0,0.0,67.82,720.98977110317,0.0,41,Motors_Started,,0.0
143400,2026-01-09 12:39:16,720.98977110317,0.328084,0.0,10.0302496648,0.082735566952,17,5,0.0,720.98977110317,0.0,0.0,10.0425856232,0.0,0.0,0.0,25.0,1.9,0.6,0,0,1024,1024,1024,1024,0,0,0,0,0,0,0,89,4.007,4.003,0,0,0,0,0.0,67.82,720.98977110317,0.0,41,Motors_Started,,0.0
143500,2026-01-09 12:39:16,720.98977110317,0.328084,0.0,10.0155186932,0.098038388964,17,5,0.0,720.98977110317,0.0,0.0,10.0425856232,0.0,0.0,0.0,24.9,2.0,0.5,0,0,1024,1024,1024,1024,0,0,0,0,0,0,0,89,4.007,4.003,0,0,0,0,0.0,67.82,720.98977110317,0.0,41,Motors_Started,,0.0
143600,2026-01-09 12:39:16,720.98977110317,0.328084,0.0,10.0094819476,0.104816604404,17,5,0.0,720.98977110317,0.0,0.0,10.0425856232,0.0,0.0,0.0,24.8,1.9,0.5,0,0,1024,1024,1024,1024,0,0,0,0,0,0,0,89,4.007,4.003,0,0,0,0,0.0,67.82,720.98977110317,0.0,41,Motors_Started,,0.0
143700,2026-01-09 12:39:16,720.98977110317,0.328084,0.0,9.9875003196,0.127188652364,17,5,0.0,720.98977110317,0.0,0.0,10.0425856232,0.0,0.0,0.0,24.8,1.9,0.5,0,0,1024,1024,1024,1024,0,0,0,0,0,0,0,89,4.007,4.003,0,0,0,0,0.0,67.82,720.98977110317,0.0,41,Motors_Started,,0.0
143800,2026-01-09 12:39:16,720.98977110317,0.328084,0.0,9.9668966444,0.148330713408,17,5,0.0,720.98977110317,0.0,0.0,10.0425856232,0.0,0.0,0.0,24.8,2.0,0.5,0,0,1024,1024,1024,1024,0,0,0,0,0,0,0,89,4.007,4.003,0,0,0,0,0.0,67.82,720.98977110317,0.0,41,Motors_Started,,0.0
143900,2026-01-09 12:39:16,720.98977110317,0.328084,0.0,9.9451446752,0.17082841754,17,5,0.0,720.98977110317,0.0,0.0,10.0425856232,0.0,0.0,0.0,24.9,2.0,0.5,0,0,1024,1024,1024,1024,0,0,0,0,0,0,0,89,4.007,4.003,0,0,0,0,0.0,67.82,720.98977110317,0.0,41,Motors_Started,,0.0
144000,2026-01-09 12:39:16,720.98977110317,0.328084,0.0,9.9381892944,0.178618115952,17,5,7.985,720.98977110317,0.0,0.0,10.0425856232,0.0,0.0,0.0,24.8,1.9,0.5,0,0,1024,1024,1024,1024,0,0,0,0,0,0,0,89,3.999,4.002,0,0,0,0,1.214,67.82,720.98977110317,0.0,11,AutoTakeoff,,0.0
144100,2026-01-09 12:39:16,720.98977110317,0.328084,0.0,9.93110268,0.186937013856,17,5,7.985,720.98977110317,0.0,0.0,10.0425856232,0.0,0.0,0.0,24.9,1.9,0.5,0,0,1024,1024,1024,1024,0,0,0,0,0,0,0,89,3.999,4.002,0,0,0,0,1.214,67.82,720.98977110317,0.0,11,AutoTakeoff,,0.0
144200,2026-01-09 12:39:17,720.98977110317,0.328084,0.0,9.8953087156,0.223844167268,17,5,7.985,720.98977110317,0.0,0.0,10.0425856232,0.0,0.0,0.0,24.9,2.0,0.5,0,0,1024,1024,1024,1024,0,0,0,0,0,0,0,89,3.999,4.002,0,0,0,0,1.214,67.82,720.98977110317,0.0,11,AutoTakeoff,,0.0
144300,2026-01-09 12:39:17,720.98977110317,0.328084,0.0,9.8759189512,0.244041018308,17,5,7.985,720.98977110317,0.0,0.0,10.0425856232,0.0,0.0,0.0,24.8,2.0,0.5,0,0,1024,1024,1024,1024,0,0,0,0,0,0,0,89,3.999,4.002,0,0,0,0,1.214,67.82,720.98977110317,0.0,11,AutoTakeoff,,0.0
144400,2026-01-09 12:39:17,720.98977110317,0.328084,0.0,9.8713257752,0.24969488988,17,5,7.985,720.98977110317,0.0,0.0,10.0425856232,0.0,0.0,0.0,24.8,1.9,0.5,0,0,1024,1024,1024,1024,0,0,0,0,0,0,0,89,3.999,4.002,0,0,0,0,1.214,67.82,720.98977110317,0.0,11,AutoTakeoff,,0.0
144500,2026-01-09 12:39:17,720.98977110317,0.328084,0.0,9.8666669824,0.256121399272,17,5,7.985,720.98977110317,0.0,0.0,10.0425856232,0.0,0.0,0.0,24.8,2.0,0.5,0,0,1024,1024,1024,1024,0,0,0,0,0,0,0,89,3.999,4.002,0,0,0,0,1.214,67.82,720.98977110317,0.0,11,AutoTakeoff,,0.0
144600,2026-01-09 12:39:17,720.98977110317,0.328084,0.0,9.9071853564,0.298435377004,17,5,7.985,720.98977110317,0.0,0.0,10.0425856232,0.0,0.0,0.0,25.2,2.6,-0.2,0,0,1024,1024,1024,1024,0,0,0,0,0,0,0,89,3.999,4.002,0,0,0,0,1.214,67.82,720.98977110317,0.0,11,AutoTakeoff,,0.0
144700,2026-01-09 12:39:17,720.98977110317,0.328084,0.0,9.9134845692,0.3138861649,17,5,7.985,720.98977110317,0.0,0.0,10.0425856232,0.0,0.0,0.0,25.3,2.7,-0.7,0,0,1024,1024,1212,1024,0,0,28,0,0,0,0,89,3.999,4.002,0,0,0,0,1.214,67.82,720.98977110317,0.0,11,AutoTakeoff,,0.0
144800,2026-01-09 12:39:17,720.98977110317,0.328084,0.223694,9.9102365376,0.34213255688,17,5,7.985,720.98977110317,0.0,0.223694,10.0425856232,0.0,-0.223694,-0.223694,25.4,2.7,0.0,0,0,1024,1024,1212,1024,0,0,28,0,0,0,0,89,3.999,4.002,0,0,0,0,1.214,67.82,720.98977110317,0.0,11,AutoTakeoff,,0.0
144900,2026-01-09 12:39:17,720.98977110317,0.328084,0.223694,9.9133205272,0.38243439544,17,5,7.985,720.98977110317,0.0,0.223694,10.0425856232,0.0,-0.223694,-0.671082,25.6,1.3,0.9,0,0,1024,1024,1583,1024,0,0,85,0,0,0,0,89,3.999,4.002,0,0,0,0,1.214,67.82,720.98977110317,0.0,11,AutoTakeoff,,0.0
145000,2026-01-09 12:39:17,721.31785510317,0.656168,0.223694,9.9294294516,0.41380578752,17,5,7.985,721.31785510317,0.328084,0.223694,10.0425856232,0.0,-0.223694,-1.11847,25.9,0.2,1.3,0,0,1024,1024,1684,1024,0,0,100,0,0,0,0,89,3.999,4.002,0,0,0,0,1.214,67.82,721.31785510317,0.328084,11,AutoTakeoff,Home Point updated. RTH altitude adjusted to 90 m (Code: 120852),0.1
145100,2026-01-09 12:39:17,721.31785510317,0.656168,0.223694,9.9480646228,0.45573820356,16,5,7.985,721.31785510317,0.328084,0.223694,10.0425856232,0.0,-0.223694,-1.342164,26.2,0.0,1.1,0,0,1024,1024,1684,1024,0,0,100,0,0,0,0,89,3.999,4.002,0,0,0,0,1.214,67.82,721.31785510317,0.328084,11,AutoTakeoff,,0.1
145200,2026-01-09 12:39:18,721.64593910317,0.984252,0.223694,9.9884845716,0.51176510824,16,5,7.985,721.64593910317,0.656168,0.223694,10.0425856232,0.0,-0.223694,-1.789552,25.9,0.1,1.7,0,0,1024,1024,1684,1024,0,0,100,0,0,0,0,89,3.999,4.002,0,0,0,0,1.214,67.82,721.64593910317,0.656168,11,AutoTakeoff,,0.2
145300,2026-01-09 12:39:18,721.97402310317,1.312336,0.223694,10.0340554392,0.57233925716,16,5,7.985,721.97402310317,0.984252,0.223694,10.0425856232,0.0,-0.223694,-2.460634,25.8,-0.6,1.3,0,0,1024,1024,1684,1024,0,0,100,0,0,0,0,89,3.999,4.002,0,0,0,0,1.214,67.82,721.97402310317,0.984252,11,AutoTakeoff,,0.3
145400,2026-01-09 12:39:18,722.30210710317,1.64042,0.223694,10.1854990136,0.73139109952,16,5,7.985,722.30210710317,1.312336,0.223694,10.1854990136,0.0,-0.223694,-2.908022,25.6,-1.0,1.4,0,0,1024,1024,1684,1024,0,0,100,0,0,0,0,89,3.999,4.002,0,0,0,0,1.214,67.82,722.30210710317,1.312336,11,AutoTakeoff,,0.4
145500,2026-01-09 12:39:18,722.95827510317,1.968504,0.0,10.2423231624,0.80052824084,16,5,7.985,722.95827510317,1.968504,0.223694,10.2423231624,0.0,0.0,-3.579104,25.5,-1.2,1.4,0,0,1024,1024,1684,1024,0,0,100,0,0,0,0,89,3.999,4.002,0,0,0,0,1.214,67.82,722.95827510317,1.968504,11,AutoTakeoff,,0.6
145600,2026-01-09 12:39:18,723.61444310317,2.624672,0.0,10.3008861564,0.86014110364,16,5,7.985,723.61444310317,2.624672,0.223694,10.3008861564,0.0,0.0,-4.026492,25.5,-1.2,1.8,0,0,1024,1024,1684,1024,0,0,100,0,0,0,0,89,3.999,4.002,0,0,0,0,1.214,67.82,723.61444310317,2.624672,11,AutoTakeoff,,0.8
145700,2026-01-09 12:39:18,724.27061110317,2.952756,0.0,10.3561026936,0.91583992432,17,5,7.985,724.27061110317,3.28084,0.223694,10.3561026936,0.0,0.0,-4.47388,25.4,-1.1,1.6,0,0,1024,1024,1684,1024,0,0,100,0,0,0,0,89,3.999,4.002,0,0,0,0,1.214,67.82,724.27061110317,3.28084,6,P-GPS,,1.0
145800,2026-01-09 12:39:18,724.92677910317,3.608924,0.0,10.4039373408,0.9637303458,17,5,7.766,724.92677910317,3.937008,0.223694,10.4039373408,0.0,0.0,-4.697574,25.6,-1.3,1.6,0,0,1024,1024,1684,1024,0,0,100,0,0,0,0,89,3.887,3.88,0,0,0,0,4.2,67.82,724.92677910317,3.937008,6,P-GPS,,1.2
145900,2026-01-09 12:39:18,725.58294710317,4.265092,0.0,10.5263782896,1.104412765,17,5,7.766,725.58294710317,4.593176,0.223694,10.5263782896,0.0,0.0,-4.697574,25.6,-1.2,1.7,0,0,1024,1024,1684,1024,0,0,100,0,0,0,0,89,3.887,3.88,0,0,0,0,4.2,67.82,725.58294710317,4.593176,6,P-GPS,,1.4
146000,2026-01-09 12:39:18,726.23911510317,4.92126,0.0,10.6372050648,1.21522969768,17,5,7.766,726.23911510317,5.249344,0.223694,10.6372050648,0.0,0.0,-4.47388,25.7,-0.8,1.9,0,0,1024,1024,1684,1024,0,0,100,0,0,0,0,89,3.887,3.88,0,0,0,0,4.2,67.82,726.23911510317,5.249344,6,P-GPS,,1.6
146100,2026-01-09 12:39:18,726.89528310317,5.577428,0.0,10.7540029688,1.33222117124,17,5,7.766,726.89528310317,5.905512,0.223694,10.7540029688,0.0,0.0,-4.250186,25.7,0.3,1.4,0,0,1024,1024,1684,1024,0,0,100,0,0,0,0,89,3.887,3.88,0,0,0,0,4.2,67.82,726.89528310317,5.905512,6,P-GPS,,1.8
146200,2026-01-09 12:39:19,727.55145110317,6.233596,0.0,10.7768048068,1.37462930908,17,5,7.766,727.55145110317,6.56168,0.223694,10.7768048068,0.0,0.0,-4.250186,25.6,0.2,0.6,0,0,1024,1024,1684,1024,0,0,100,0,0,0,0,89,3.887,3.88,0,0,0,0,4.2,67.82,727.55145110317,6.56168,6,P-GPS,,2.0
146300,2026-01-09 12:39:19,728.20761910317,6.889764,0.0,10.860892736,1.49908469364,17,5,7.766,728.20761910317,7.217848,0.223694,10.860892736,0.0,0.0,-4.250186,25.6,-0.2,0.3,0,0,1024,1024,1684,1024,0,0,100,0,0,0,0,89,3.887,3.88,0,0,0,0,4.2,67.82,728.20761910317,7.217848,6,P-GPS,,2.2
146400,2026-01-09 12:39:19,728.86378710317,7.545932,0.0,10.9051512676,1.55504926236,17,5,7.766,728.86378710317,7.874016,0.223694,10.9051512676,0.0,0.0,-4.250186,25.6,-0.5,0.5,0,0,1024,1024,1684,1024,0,0,100,0,0,0,0,89,3.887,3.88,0,0,0,0,4.2,67.82,728.86378710317,7.874016,6,P-GPS,,2.4
146500,2026-01-09 12:39:19,729.51995510317,7.874016,0.223694,10.961942608,1.62195215164,17,5,7.766,729.51995510317,8.530184,0.223694,10.961942608,-0.223694,0.0,-4.250186,25.5,-1.8,-0.2,0,0,1024,1024,1684,1024,0,0,100,0,0,0,0,89,3.887,3.88,0,0,0,0,4.2,67.82,729.51995510317,8.530184,6,P-GPS,,2.6
146600,2026-01-09 12:39:19,730.17612310317,8.530184,0.223694,11.0470475976,1.71604008116,17,5,7.766,730.17612310317,9.186352,0.223694,11.0470475976,-0.223694,0.0,-4.47388,25.5,-2.7,-0.9,0,0,1024,1024,1684,1024,0,0,100,0,0,0,0,89,3.887,3.88,0,0,0,0,4.2,67.82,730.17612310317,9.186352,6,P-GPS,,2.8
146700,2026-01-09 12:39:19,730.83229110317,9.514436,0.0,11.1116473372,1.84246725056,17,5,7.766,730.83229110317,9.84252,0.223694,11.1116473372,0.0,0.0,-4.47388,25.5,-2.9,-1.0,0,0,1024,1024,1684,1024,0,0,100,0,0,0,0,89,3.887,3.88,0,0,0,0,4.2,67.82,730.83229110317,9.84252,6,P-GPS,,3.0
146800,2026-01-09 12:39:19,731.48845910317,10.170604,0.0,11.1365489128,1.86738523036,17,5,7.746,731.48845910317,10.498688,0.223694,11.1365489128,0.0,0.0,-4.47388,25.6,-3.2,-0.2,0,0,1024,1024,1684,1024,0,0,100,0,0,0,0,89,3.875,3.871,0,0,0,0,6.207,67.82,731.48845910317,10.498688,6,P-GPS,,3.2
146900,2026-01-09 12:39:19,732.14462710317,10.826772,0.0,11.1599084936,1.89097118912,17,5,7.746,732.14462710317,11.154856,0.223694,11.1599084936,0.0,0.0,-4.47388,25.5,-3.1,-0.4,0,0,1024,1024,1684,1024,0,0,100,0,0,0,0,89,3.875,3.871,0,0,0,0,6.207,67.82,732.14462710317,11.154856,6,P-GPS,,3.4
147000,2026-01-09 12:39:19,733.12887910317,11.48294,0.0,11.17700167,1.91684389336,17,5,7.746,733.12887910317,12.139108,0.223694,11.17700167,0.0,0.0,-4.47388,25.5,-3.6,-0.3,0,0,1024,1024,1684,1024,0,0,100,0,0,0,0,89,3.875,3.871,0,0,0,0,6.207,67.82,733.12887910317,12.139108,6,P-GPS,,3.7
147100,2026-01-09 12:39:19,733.78504710317,12.139108,0.223694,11.0921591476,2.03118116736,17,5,7.746,733.78504710317,12.795276,0.223694,11.17700167,-0.223694,0.0,-4.47388,25.6,-4.9,-0.4,0,0,1024,1024,1684,1024,0,0,100,0,0,0,0,89,3.875,3.871,0,0,0,0,6.207,67.82,733.78504710317,12.795276,6,P-GPS,,3.9
147200,2026-01-09 12:39:20,734.44121510317,12.795276,0.223694,11.1700462892,2.11344166868,17,5,7.746,734.44121510317,13.451444,0.223694,11.17700167,-0.223694,0.0,-4.250186,25.7,-6.5,-0.6,0,0,1024,1024,1684,1024,0,0,100,0,0,0,0,89,3.875,3.871,0,0,0,0,6.207,67.82,734.44121510317,13.451444,6,P-GPS,,4.1
147300,2026-01-09 12:39:20,735.09738310317,13.779528,0.0,11.2315292308,2.17901253692,18,5,7.746,735.09738310317,14.107612,0.223694,11.2315292308,0.0,0.0,-4.250186,25.7,-6.5,0.0,0,0,1024,1024,1684,1024,0,0,100,0,0,0,0,89,3.875,3.871,0,0,0,0,6.207,67.82,735.09738310317,14.107612,6,P-GPS,,4.3
147400,2026-01-09 12:39:20,735.75355110317,14.435696,0.0,11.2287733252,2.19958012288,18,5,7.746,735.75355110317,14.76378,0.223694,11.2315292308,0.0,0.0,-4.250186,25.6,-4.6,-0.5,0,0,1024,1024,1684,1024,0,0,100,0,0,0,0,89,3.875,3.871,0,0,0,0,6.207,67.82,735.75355110317,14.76378,6,P-GPS,,4.5
147500,2026-01-09 12:39:20,736.40971910317,15.091864,0.223694,11.2072182064,2.2262467904,18,5,7.746,736.40971910317,15.419948,0.223694,11.2315292308,0.223694,0.0,-4.250186,25.6,-2.1,-0.3,0,0,1024,1024,1684,1024,0,0,100,0,0,0,0,89,3.875,3.871,0,0,0,0,6.207,67.82,736.40971910317,15.419948,6,P-GPS,,4.7
147600,2026-01-09 12:39:20,737.06588710317,15.748032,0.223694,11.1117785708,2.33451779124,18,5,7.746,737.06588710317,16.076116,0.223694,11.2315292308,0.223694,0.0,-4.47388,25.4,-2.0,-0.3,0,0,1024,1024,1684,1024,0,0,100,0,0,0,0,89,3.875,3.871,0,0,0,0,6.207,67.82,737.06588710317,16.076116,6,P-GPS,,4.9
147700,2026-01-09 12:39:20,737.72205510317,16.4042,0.223694,11.0442260752,2.40207028684,18,5,7.746,737.72205510317,16.732284,0.223694,11.2315292308,0.223694,0.0,-4.250186,25.5,-1.4,-0.4,0,0,1024,1024,1684,1024,0,0,100,0,0,0,0,89,3.875,3.871,0,0,0,0,6.207,67.82,737.72205510317,16.732284,6,P-GPS,,5.1
147800,2026-01-09 12:39:20,738.70630710317,17.060368,0.223694,10.95390455,2.4924213396,18,5,7.746,738.70630710317,17.716536,0.223694,11.2315292308,0.223694,0.0,-4.250186,25.7,-0.3,0.3,0,0,1024,1024,1684,1024,0,0,100,0,0,0,0,89,3.875,3.871,0,0,0,0,6.207,67.82,738.70630710317,17.716536,6,P-GPS,,5.4
147900,2026-01-09 12:39:20,739.36247510317,17.716536,0.0,10.8642720012,2.58211294352,18,5,7.732,739.36247510317,18.372704,0.223694,11.2315292308,0.0,0.0,-4.250186,25.8,0.0,0.1,0,0,1024,1024,1684,1024,0,0,100,0,0,0,0,89,3.868,3.864,0,0,0,0,5.585,67.82,739.36247510317,18.372704,6,P-GPS,,5.6
148000,2026-01-09 12:39:20,740.01864310317,18.04462,0.223694,10.8177824984,2.6451936542,18,5,7.732,740.01864310317,19.028872,0.223694,11.2315292308,0.223694,0.0,-4.250186,26.0,-0.7,0.0,0,0,1024,1024,1684,1024,0,0,100,0,0,0,0,89,3.868,3.864,0,0,0,0,5.585,67.82,740.01864310317,19.028872,6,P-GPS,,5.8
148100,2026-01-09 12:39:20,740.67481110317,18.700788,0.223694,10.7946525764,2.66867134524,18,5,7.732,740.67481110317,19.68504,0.223694,11.2315292308,0.223694,0.0,-4.250186,25.9,0.1,0.9,0,0,1024,1024,1684,1024,0,0,100,0,0,0,0,89,3.868,3.864,0,0,0,0,5.585,67.82,740.67481110317,19.68504,6,P-GPS,,6.0
148200,2026-01-09 12:39:21,741.33097910317,19.356956,0.0,10.7779531008,2.70170940404,18,5,7.732,741.33097910317,20.341208,0.223694,11.2315292308,0.0,0.0,-4.250186,25.7,-1.0,0.3,0,0,1024,1024,1684,1024,0,0,100,0,0,0,0,89,3.868,3.864,0,0,0,0,5.585,67.82,741.33097910317,20.341208,6,P-GPS,,6.2
148300,2026-01-09 12:39:21,741.98714710317,20.341208,0.0,10.76279562,2.73742134744,18,5,7.732,741.98714710317,20.997376,0.223694,11.2315292308,0.0,0.0,-4.47388,25.4,-1.2,-0.1,0,0,1024,1024,1684,1024,0,0,100,0,0,0,0,89,3.868,3.864,0,0,0,0,5.585,67.82,741.98714710317,20.997376,6,P-GPS,,6.4
148400,2026-01-09 12:39:21,742.64331510317,20.997376,0.0,10.7932746236,2.92147647144,18,5,7.732,742.64331510317,21.653544,0.223694,11.2315292308,0.0,0.0,-4.47388,25.4,-0.5,-0.3,0,0,1024,1024,1684,1024,0,0,100,0,0,0,0,89,3.868,3.864,0,0,0,0,5.585,67.82,742.64331510317,21.653544,6,P-GPS,,6.6
148500,2026-01-09 12:39:21,743.29948310317,21.653544,0.0,10.7829399776,2.97832030528,18,5,7.732,743.29948310317,22.309712,0.223694,11.2315292308,0.0,0.0,-4.47388,25.7,0.0,0.4,0,0,1024,1024,1684,1024,0,0,100,0,0,0,0,89,3.868,3.864,0,0,0,0,5.585,67.82,743.29948310317,22.309712,6,P-GPS,,6.8
148600,2026-01-09 12:39:21,743.95565110317,22.637796,0.0,10.7789701612,2.98942922952,18,5,7.732,743.95565110317,22.96588,0.223694,11.2315292308,0.0,0.0,-4.47388,25.6,-0.2,0.4,0,0,1024,1024,1684,1024,0,0,100,0,0,0,0,89,3.868,3.864,0,0,0,0,5.585,67.82,743.95565110317,22.96588,6,P-GPS,,7.0
148700,2026-01-09 12:39:21,744.61181910317,23.293964,0.0,10.7775594,2.99607621136,18,5,7.732,744.61181910317,23.622048,0.223694,11.2315292308,0.0,0.0,-4.47388,25.6,0.0,0.2,0,0,1024,1024,1684,1024,0,0,100,0,0,0,0,89,3.868,3.864,0,0,0,0,5.585,67.82,744.61181910317,23.622048,6,P-GPS,,7.2
148800,2026-01-09 12:39:21,745.26798710317,24.278216,0.0,10.7821853844,3.0120407788,18,5,7.732,745.26798710317,24.278216,0.223694,11.2315292308,0.0,0.0,-4.47388,25.3,0.2,-0.7,0,0,1024,1024,1684,1024,0,0,100,0,0,0,0,89,3.868,3.864,0,0,0,0,5.585,67.82,745.26798710317,24.278216,6,P-GPS,,7.4
148900,2026-01-09 12:39:21,745.92415510317,25.262468,0.0,10.7697181924,3.05403881164,18,5,7.697,745.92415510317,24.934384,0.223694,11.2315292308,0.0,0.0,-4.47388,25.3,0.5,-0.7,0,0,1024,1024,1684,1024,0,0,100,0,0,0,0,89,3.849,3.847,0,0,0,0,5.977,68.0,745.92415510317,24.934384,6,P-GPS,,7.6
149000,2026-01-09 12:39:21,746.58032310317,25.918636,0.0,10.7406171416,3.09026584692,18,5,7.697,746.58032310317,25.590552,0.223694,11.2315292308,0.0,0.0,-4.250186,25.2,0.7,-1.7,0,0,1024,1024,1684,1024,0,0,100,0,0,0,0,89,3.849,3.847,0,0,0,0,5.977,68.0,746.58032310317,25.590552,6,P-GPS,,7.8
149100,2026-01-09 12:39:21,747.23649110317,26.574804,0.0,10.711286432,3.12446860392,18,5,7.697,747.23649110317,26.24672,0.223694,11.2315292308,0.0,0.0,-4.250186,25.2,1.3,-1.7,0,0,1024,1024,1684,1024,0,0,100,0,0,0,0,89,3.849,3.847,0,0,0,0,5.977,68.0,747.23649110317,26.24672,6,P-GPS,,8.0
149200,2026-01-09 12:39:22,747.89265910317,27.559056,0.0,10.7174544112,3.15153881476,18,5,7.697,747.89265910317,26.902888,0.223694,11.2315292308,0.0,0.0,-4.250186,25.3,0.8,-1.5,0,0,1024,1024,1684,1024,0,0,100,0,0,0,0,89,3.849,3.847,0,0,0,0,5.977,68.0,747.89265910317,26.902888,6,P-GPS,,8.2
149300,2026-01-09 12:39:22,748.54882710317,28.215224,0.0,10.744586958,3.17938986552,18,5,7.697,748.54882710317,27.559056,0.223694,11.2315292308,0.0,0.0,-4.250186,25.3,0.6,-1.4,0,0,1024,1024,1684,1024,0,0,100,0,0,0,0,89,3.849,3.847,0,0,0,0,5.977,68.0,748.54882710317,27.559056,6,P-GPS,,8.4
149400,2026-01-09 12:39:22,749.20499510317,28.871392,0.0,10.7727037568,3.20765758296,18,5,7.697,749.20499510317,28.215224,0.223694,11.2315292308,0.0,0.0,-4.250186,25.2,0.4,-1.2,0,0,1024,1024,1684,1024,0,0,100,0,0,0,0,89,3.849,3.847,0,0,0,0,5.977,68.0,749.20499510317,28.215224,6,P-GPS,,8.6
149500,2026-01-09 12:39:22,749.86116310317,28.871392,0.0,10.8080055952,3.2438813374,18,5,7.697,749.86116310317,28.871392,0.223694,11.2315292308,0.0,0.0,-4.250186,25.2,0.0,-1.2,0,0,1024,1024,1684,1024,0,0,100,0,0,0,0,89,3.849,3.847,0,0,0,0,5.977,68.0,749.86116310317,28.871392,6,P-GPS,,8.8
149600,2026-01-09 12:39:22,750.51733110317,32.480316,0.0,10.8180449656,3.25416020912,18,5,7.697,750.51733110317,29.52756,0.223694,11.2315292308,0.0,0.0,-4.250186,25.3,-0.3,-1.2,0,0,1024,1024,1684,1024,0,0,100,0,0,0,0,89,3.849,3.847,0,0,0,0,5.977,68.0,750.51733110317,29.52756,6,P-GPS,,9.0
149700,2026-01-09 12:39:22,751.17349910317,33.136484,0.223694,10.8442260688,3.28074485564,18,5,7.697,751.17349910317,30.183728,0.223694,11.2315292308,-0.223694,0.0,-4.250186,25.5,-1.3,-0.2,0,0,1024,1024,1684,1024,0,0,100,0,0,0,0,89,3.849,3.847,0,0,0,0,5.977,68.0,751.17349910317,30.183728,6,P-GPS,,9.2
149800,2026-01-09 12:39:22,751.82966710317,33.464568,0.0,10.9133205592,3.3505906584,18,5,7.697,751.82966710317,30.839896,0.223694,11.2315292308,0.0,0.0,-4.250186,25.4,-0.9,-0.9,0,0,1024,1024,1684,1024,0,0,100,0,0,0,0,89,3.849,3.847,0,0,0,0,5.977,68.0,751.82966710317,30.839896,6,P-GPS,,9.4
149900,2026-01-09 12:39:22,752.48583510317,34.120736,0.0,10.9822181992,3.4198163824,18,5,7.735,752.48583510317,31.496064,0.223694,11.2315292308,0.0,0.0,-4.47388,25.4,-0.7,-1.3,0,0,1024,1024,1684,1024,0,0,100,0,0,0,0,89,3.869,3.862,0,0,0,0,5.468,68.0,752.48583510317,31.496064,6,P-GPS,,9.6
150000,2026-01-09 12:39:22,753.14200310317,34.776904,0.0,11.0184386728,3.4564633652,18,5,7.735,753.14200310317,32.152232,0.223694,11.2315292308,0.0,0.0,-4.47388,25.4,-0.2,-1.2,0,0,1024,1024,1684,1024,0,0,100,0,0,0,0,89,3.869,3.862,0,0,0,0,5.468,68.0,753.14200310317,32.152232,6,P-GPS,,9.8
150100,2026-01-09 12:39:23,753.79817110317,34.44882,0.0,11.0974084916,3.535433184,17,5,7.735,753.79817110317,32.8084,0.223694,11.2315292308,0.0,0.0,-4.250186,25.5,0.0,-0.8,0,0,1024,1024,1684,1024,0,0,100,0,0,0,0,89,3.869,3.862,0,0,0,0,5.468,68.0,753.79817110317,32.8084,6,P-GPS,,10.0
150200,2026-01-09 12:39:23,754.45433910317,34.44882,0.0,11.0879924808,3.5453085124,17,5,7.735,754.45433910317,33.464568,0.223694,11.2315292308,0.0,0.0,-4.47388,25.5,0.1,-0.7,0,0,1024,1024,1024,1024,0,0,0,0,0,0,0,89,3.869,3.862,0,0,0,0,5.468,68.0,754.45433910317,33.464568,6,P-GPS,,10.2
150300,2026-01-09 12:39:23,755.11050710317,35.104988,0.0,11.083333688,3.5526247856,18,5,7.735,755.11050710317,34.120736,0.223694,11.2315292308,0.0,0.0,-4.47388,25.5,0.0,-0.9,0,0,1024,1024,1024,1024,0,0,0,0,0,0,0,89,3.869,3.862,0,0,0,0,5.468,68.0,755.11050710317,34.120736,6,P-GPS,,10.4
150400,2026-01-09 12:39:23,756.09475910317,35.761156,0.0,11.0899609848,3.5600722924,18,5,7.735,756.09475910317,35.104988,0.223694,11.2315292308,0.0,0.0,-4.250186,25.5,-0.6,-0.8,0,0,1024,1024,1024,1024,0,0,0,0,0,0,0,89,3.869,3.862,0,0,0,0,5.468,68.0,756.09475910317,35.104988,6,P-GPS,,10.7
150500,2026-01-09 12:39:23,756.42284310317,36.417324,0.0,11.0193901164,3.6345801688,18,5,7.735,756.42284310317,35.433072,0.223694,11.2315292308,0.0,0.0,-3.802798,25.4,-0.6,-0.6,0,0,1024,1024,1024,1024,0,0,0,0,0,0,0,89,3.869,3.862,0,0,0,0,5.468,68.0,756.42284310317,35.433072,6,P-GPS,,10.8
150600,2026-01-09 12:39:23,757.07901110317,36.745408,0.0,11.0268048148,3.6595801696,18,5,7.735,757.07901110317,36.08924,0.223694,11.2315292308,0.0,0.0,-3.131716,25.4,-0.8,-0.4,0,0,1024,1024,1024,1024,0,0,0,0,0,0,0,89,3.869,3.862,0,0,0,0,5.468,68.0,757.07901110317,36.08924,6,P-GPS,,11.0
150700,2026-01-09 12:39:23,757.40709510317,37.073492,0.0,11.0357286996,3.684875446,18,5,7.735,757.40709510317,36.417324,0.223694,11.2315292308,0.0,0.0,-2.460634,25.4,-0.9,-0.4,0,0,1024,1024,1024,1024,0,0,0,0,0,0,0,89,3.869,3.862,0,0,0,0,5.468,68.0,757.40709510317,36.417324,6,P-GPS,,11.1
150800,2026-01-09 12:39:23,757.73517910317,37.401576,0.0,11.110400618,3.7606956584,18,5,7.802,757.73517910317,36.745408,0.223694,11.2315292308,0.0,0.0,-1.565858,25.4,-0.7,-0.6,0,0,1024,1024,1024,1024,0,0,0,0,0,0,0,89,3.889,3.913,0,0,0,0,4.832,68.0,757.73517910317,36.745408,6,P-GPS,,11.2
150900,2026-01-09 12:39:23,758.06326310317,37.72966,0.0,11.1894032452,3.8417652148,18,5,7.802,758.06326310317,37.073492,0.223694,11.2315292308,0.0,0.0,-0.894776,25.3,-0.2,-0.8,0,0,1024,1024,1024,1024,0,0,0,0,0,0,0,89,3.889,3.913,0,0,0,0,4.832,68.0,758.06326310317,37.073492,6,P-GPS,,11.3
151000,2026-01-09 12:39:23,758.39134710317,37.72966,0.0,11.355315324,4.009350522,18,5,7.802,758.39134710317,37.401576,0.223694,11.355315324,0.0,0.0,-0.447388,25.3,0.2,-1.4,0,0,1024,1024,1024,1024,0,0,0,0,0,0,0,89,3.889,3.913,0,0,0,0,4.832,68.0,758.39134710317,37.401576,6,P-GPS,,11.4
151100,2026-01-09 12:39:23,758.39134710317,37.72966,0.0,11.4183402604,4.0729660096,18,5,7.802,758.39134710317,37.401576,0.223694,11.4183402604,0.0,0.0,-0.223694,25.2,-0.3,-1.7,0,0,1024,1024,1024,1024,0,0,0,0,0,0,0,89,3.889,3.913,0,0,0,0,4.832,68.0,758.39134710317,37.401576,6,P-GPS,,11.4
151200,2026-01-09 12:39:24,758.39134710317,37.72966,0.0,11.4439636208,4.1018374016,18,5,7.802,758.39134710317,37.401576,0.223694,11.4439636208,0.0,0.0,0.0,25.3,-0.7,-1.6,0,0,1024,1024,1024,1024,0,0,0,0,0,0,0,89,3.889,3.913,0,0,0,0,4.832,68.0,758.39134710317,37.401576,6,P-GPS,,11.4
151300,2026-01-09 12:39:24,758.39134710317,37.72966,0.0,11.4659780572,4.1281497384,18,5,7.802,758.39134710317,37.401576,0.223694,11.4659780572,0.0,0.0,0.0,25.4,-0.6,-1.6,0,0,1024,1024,1024,1024,0,0,0,0,0,0,0,89,3.889,3.913,0,0,0,0,4.832,68.0,758.39134710317,37.401576,6,P-GPS,,11.4
151400,2026-01-09 12:39:24,758.71943110317,37.72966,0.0,11.4807746456,4.1953085332,18,5,7.802,758.71943110317,37.72966,0.223694,11.4807746456,0.0,0.0,0.0,25.4,-0.2,-1.8,0,0,1024,1024,1024,1024,0,0,0,0,0,0,0,89,3.889,3.913,0,0,0,0,4.832,68.0,758.71943110317,37.72966,6,P-GPS,,11.5
151500,2026-01-09 12:39:24,758.71943110317,37.72966,0.0,11.5122050928,4.2395342564,18,5,7.802,758.71943110317,37.72966,0.223694,11.5122050928,0.0,0.0,0.0,25.4,0.2,-1.9,0,0,1024,1024,1024,1024,0,0,0,0,0,0,0,89,3.889,3.913,0,0,0,0,4.832,68.0,758.71943110317,37.72966,6,P-GPS,,11.5
151600,2026-01-09 12:39:24,758.71943110317,37.72966,0.0,11.5314308152,4.2636484304,18,5,7.802,758.71943110317,37.72966,0.223694,11.5314308152,0.0,0.0,0.0,25.3,0.6,-2.3,0,0,1024,1024,1024,1024,0,0,0,0,0,0,0,89,3.889,3.913,0,0,0,0,4.832,68.0,758.71943110317,37.72966,6,P-GPS,,11.5
151700,2026-01-09 12:39:24,758.71943110317,37.72966,0.0,11.5537405272,4.290682552,18,5,7.802,758.71943110317,37.72966,0.223694,11.5537405272,0.0,0.0,0.0,25.3,0.7,-2.6,0,0,1024,1024,1024,1024,0,0,0,0,0,0,0,89,3.889,3.913,0,0,0,0,4.832,68.0,758.71943110317,37.72966,6,P-GPS,,11.5
151800,2026-01-09 12:39:24,759.04751510317,37.72966,0.0,11.468504304,4.375984392,18,5,7.802,759.04751510317,38.057744,0.223694,11.5537405272,0.0,0.0,0.0,25.5,0.0,-2.5,0,0,1024,1024,1024,1024,0,0,0,0,0,0,0,89,3.889,3.88,0,0,0,0,4.832,68.0,759.04751510317,38.057744,6,P-GPS,,11.6
151900,2026-01-09 12:39:24,759.04751510317,37.72966,0.0,11.4532812064,4.400098566,18,5,7.802,759.04751510317,38.057744,0.223694,11.5537405272,0.0,0.0,0.0,25.5,-0.2,-3.0,0,0,1024,1024,1024,1024,0,0,0,0,0,0,0,89,3.889,3.88,0,0,0,0,4.832,68.0,759.04751510317,38.057744,6,P-GPS,,11.6
152000,2026-01-09 12:39:24,759.04751510317,37.72966,0.0,11.45341244,4.4206366244,18,5,7.802,759.04751510317,38.057744,0.223694,11.5537405272,0.0,0.0,0.0,25.5,0.0,-3.2,0,0,1024,1024,1024,1024,0,0,0,0,0,0,0,89,3.889,3.88,0,0,0,0,4.832,68.0,759.04751510317,38.057744,6,P-GPS,,11.6
152100,2026-01-09 12:39:25,759.04751510317,37.72966,0.0,11.4576447236,4.4455053916,18,5,7.802,759.04751510317,38.057744,0.223694,11.5537405272,0.0,0.0,0.0,25.3,0.0,-3.5,0,0,1024,1024,1024,1024,0,0,0,0,0,0,0,89,3.889,3.88,0,0,0,0,4.832,68.0,759.04751510317,38.057744,6,P-GPS,,11.6
152200,2026-01-09 12:39:25,759.37559910317,37.72966,0.0,11.5295607364,4.5359581504,18,5,7.802,759.37559910317,38.385828,0.223694,11.5537405272,-0.223694,0.0,0.0,25.3,0.1,-4.2,0,0,1024,1024,1024,1024,0,0,0,0,0,0,0,89,3.889,3.88,0,0,0,0,4.832,68.0,759.37559910317,38.385828,6,P-GPS,,11.7
152300,2026-01-09 12:39:25,759.37559910317,37.72966,0.223694,11.581857326,4.6011156328,18,5,7.802,759.37559910317,38.385828,0.223694,11.581857326,-0.223694,0.0,0.0,25.3,-1.0,-4.8,0,0,1024,1024,1024,1024,0,0,0,0,0,0,0,89,3.889,3.88,0,0,0,0,4.832,68.0,759.37559910317,38.385828,6,P-GPS,,11.7
152400,2026-01-09 12:39:25,759.70368310317,37.72966,0.223694,11.6567589032,4.6860893888,18,5,7.802,759.70368310317,38.713912,0.223694,11.6567589032,-0.223694,0.0,0.0,25.3,-1.5,-5.1,0,0,1024,1024,1024,1024,0,0,0,0,0,0,0,89,3.889,3.88,0,0,0,0,4.832,68.0,759.70368310317,38.713912,6,P-GPS,,11.8
152500,2026-01-09 12:39:25,759.70368310317,37.72966,0.223694,11.7319229476,4.7720145884,18,5,7.802,759.70368310317,38.713912,0.223694,11.7319229476,-0.223694,0.0,0.0,25.4,-2.3,-5.6,0,0,1024,1024,1024,1024,0,0,0,0,0,0,0,89,3.889,3.88,0,0,0,0,4.832,68.0,759.70368310317,38.713912,6,P-GPS,,11.8
152600,2026-01-09 12:39:25,760.03176710317,37.72966,0.0,11.7815620568,4.8313977924,18,5,7.802,760.03176710317,39.041996,0.223694,11.7815620568,0.0,0.0,0.0,25.3,-1.8,-6.0,0,0,1024,1024,1024,1024,0,0,0,0,0,0,0,89,3.889,3.88,0,0,0,0,4.832,68.0,760.03176710317,39.041996,6,P-GPS,,11.9
152700,2026-01-09 12:39:25,760.03176710317,37.72966,0.0,11.8981959188,4.9560697124,18,5,7.802,760.03176710317,39.041996,0.223694,11.8981959188,0.0,0.0,0.0,25.6,-2.1,-6.1,0,0,1024,1024,1024,1024,0,0,0,0,0,0,0,89,3.889,3.88,0,0,0,0,4.832,68.0,760.03176710317,39.041996,6,P-GPS,,11.9
152800,2026-01-09 12:39:25,760.03176710317,37.72966,0.0,11.9153875204,4.988845304,18,5,7.802,760.03176710317,39.041996,0.223694,11.9153875204,0.0,0.0,0.0,25.8,-1.3,-5.6,0,0,1024,1024,1024,1024,0,0,0,0,0,0,0,89,3.889,3.88,0,0,0,0,4.832,68.0,760.03176710317,39.041996,6,P-GPS,,11.9
152900,2026-01-09 12:39:25,760.03176710317,37.72966,0.0,11.915518754,5.01312352,18,5,7.779,760.03176710317,39.041996,0.223694,11.915518754,0.0,0.0,0.0,25.8,-0.5,-5.5,0,0,1024,1024,1024,1024,0,0,0,0,0,0,0,89,3.883,3.878,0,0,0,0,4.053,68.0,760.03176710317,39.041996,6,P-GPS,,11.9
153000,2026-01-09 12:39:25,760.03176710317,37.72966,0.223694,11.897474134,5.031824308,18,5,7.779,760.03176710317,39.041996,0.223694,11.915518754,0.223694,0.0,0.0,25.7,-0.3,-5.1,0,0,1024,1024,1024,1024,0,0,0,0,0,0,0,89,3.883,3.878,0,0,0,0,4.053,68.0,760.03176710317,39.041996,6,P-GPS,,11.9
153100,2026-01-09 12:39:25,760.03176710317,37.72966,0.223694,11.881726102,5.0513124976,18,5,7.779,760.03176710317,39.041996,0.223694,11.915518754,0.223694,0.0,0.0,25.6,0.5,-4.5,0,0,1024,1024,1024,1024,0,0,0,0,0,0,0,89,3.883,3.878,0,0,0,0,4.053,68.0,760.03176710317,39.041996,6,P-GPS,,11.9
153200,2026-01-09 12:39:26,760.03176710317,37.72966,0.223694,11.8247379112,5.1099083,18,5,7.779,760.03176710317,39.041996,0.223694,11.915518754,0.223694,0.0,0.0,25.6,1.0,-3.8,0,0,1024,1024,1024,1024,0,0,0,0,0,0,0,89,3.883,3.878,0,0,0,0,4.053,68.0,760.03176710317,39.041996,6,P-GPS,,11.9
153300,2026-01-09 12:39:26,759.70368310317,37.72966,0.223694,11.761647358,5.17634531,18,5,7.779,760.03176710317,39.041996,0.223694,11.915518754,0.223694,0.0,0.0,25.6,1.1,-3.1,0,0,1024,1024,1024,1024,0,0,0,0,0,0,0,89,3.883,3.878,0,0,0,0,4.053,68.0,759.70368310317,38.713912,6,P-GPS,,11.8
153400,2026-01-09 12:39:26,759.70368310317,37.72966,0.223694,11.7059715032,5.2340224772,18,5,7.779,760.03176710317,39.041996,0.223694,11.915518754,0.223694,0.0,0.0,25.5,1.7,-2.6,0,0,1024,1024,1024,1024,0,0,0,0,0,0,0,89,3.883,3.878,0,0,0,0,4.053,68.0,759.70368310317,38.713912,6,P-GPS,,11.8
153500,2026-01-09 12:39:26,759.70368310317,37.72966,0.223694,11.6104662508,5.3312665748,18,5,7.779,760.03176710317,39.041996,0.223694,11.915518754,0.223694,0.0,0.0,25.7,1.9,-1.6,0,0,1024,1024,1024,1024,0,0,0,0,0,0,0,89,3.883,3.878,0,0,0,0,4.053,68.0,759.70368310317,38.713912,6,P-GPS,,11.8
153600,2026-01-09 12:39:26,759.70368310317,37.72966,0.223694,11.5588258292,5.3886812748,18,5,7.779,760.03176710317,39.041996,0.223694,11.915518754,0.223694,0.0,0.0,25.6,2.2,-1.6,0,0,1024,1024,1024,1024,0,0,0,0,0,0,0,89,3.883,3.878,0,0,0,0,4.053,68.0,759.70368310317,38.713912,6,P-GPS,,11.8
153700,2026-01-09 12:39:26,759.70368310317,37.72966,0.223694,11.510335014,5.4425526676,18,5,7.779,760.03176710317,39.041996,0.223694,11.915518754,0.223694,0.0,0.0,25.6,2.0,-2.3,0,0,1024,1024,1024,1024,0,0,0,0,0,0,0,89,3.883,3.878,0,0,0,0,4.053,68.0,759.70368310317,38.713912,6,P-GPS,,11.8
153800,2026-01-09 12:39:26,759.70368310317,37.72966,0.0,11.5028218904,5.4653545056,18,5,7.779,760.03176710317,39.041996,0.223694,11.915518754,0.0,0.0,0.0,25.5,1.3,-2.3,0,0,1024,1024,1024,1024,0,0,0,0,0,0,0,89,3.883,3.878,0,0,0,0,4.053,68.0,759.70368310317,38.713912,6,P-GPS,,11.8
153900,2026-01-09 12:39:26,759.70368310317,37.72966,0.0,11.5391079808,5.5147311476,18,5,7.779,760.03176710317,39.041996,0.223694,11.915518754,0.0,0.0,0.0,25.0,1.8,-2.8,0,0,1024,1024,1024,1024,0,0,0,0,0,0,0,89,3.883,3.878,0,0,0,0,4.053,68.0,759.70368310317,38.713912,6,P-GPS,,11.8
154000,2026-01-09 12:39:26,759.37559910317,37.72966,0.0,11.5442260912,5.532152408,18,5,7.757,760.03176710317,39.041996,0.223694,11.915518754,0.0,0.0,0.0,24.8,0.9,-3.3,0,0,1024,1024,1024,1024,0,0,0,0,0,0,0,89,3.88,3.873,0,0,0,0,4.952,68.0,759.37559910317,38.385828,6,P-GPS,,11.7
154100,2026-01-09 12:39:26,759.37559910317,37.72966,0.223694,11.5550856716,5.56266422,18,5,7.757,760.03176710317,39.041996,0.223694,11.915518754,0.0,-0.223694,0.0,25.1,0.7,-2.2,0,0,1024,1024,1024,1024,0,0,0,0,0,0,0,89,3.88,3.873,0,0,0,0,4.952,68.0,759.37559910317,38.385828,6,P-GPS,,11.7
154200,2026-01-09 12:39:27,759.37559910317,37.72966,0.223694,11.5813323916,5.6053807568,18,5,7.757,760.03176710317,39.041996,0.223694,11.915518754,0.0,-0.223694,0.0,25.4,-0.2,-1.4,0,0,1024,1024,1024,1024,0,0,0,0,0,0,0,89,3.88,3.873,0,0,0,0,4.952,68.0,759.37559910317,38.385828,6,P-GPS,,11.7
154300,2026-01-09 12:39:27,759.37559910317,37.72966,0.223694,11.614665726,5.654855824,18,5,7.757,760.03176710317,39.041996,0.223694,11.915518754,0.0,-0.223694,0.0,25.5,-0.5,-0.9,0,0,1024,1024,1024,1024,0,0,0,0,0,0,0,89,3.88,3.873,0,0,0,0,4.952,68.0,759.37559910317,38.385828,6,P-GPS,,11.7
154400,2026-01-09 12:39:27,759.37559910317,37.72966,0.223694,11.7414045752,5.7815946732,18,5,7.757,760.03176710317,39.041996,0.223694,11.915518754,0.0,-0.223694,0.0,25.5,-1.4,-1.1,0,0,1024,1024,1024,1024,0,0,0,0,0,0,0,89,3.88,3.873,0,0,0,0,4.952,68.0,759.37559910317,38.385828,6,P-GPS,,11.7
154500,2026-01-09 12:39:27,759.37559910317,37.72966,0.223694,11.788222162,5.8361878508,18,5,7.757,760.03176710317,39.041996,0.223694,11.915518754,0.0,-0.223694,0.0,25.5,-1.8,-1.7,0,0,1024,1024,1024,1024,0,0,0,0,0,0,0,89,3.88,3.873,0,0,0,0,4.952,68.0,759.37559910317,38.385828,6,P-GPS,,11.7
154600,2026-01-09 12:39:27,759.37559910317,37.72966,0.0,11.817257596,5.8764109492,18,5,7.757,760.03176710317,39.041996,0.223694,11.915518754,0.0,0.0,0.0,25.5,-1.6,-2.0,0,0,1024,1024,1024,1024,0,0,0,0,0,0,0,89,3.88,3.873,0,0,0,0,4.952,68.0,759.37559910317,38.385828,6,P-GPS,,11.7
154700,2026-01-09 12:39:27,759.37559910317,37.72966,0.0,11.8419951296,5.9131891656,18,5,7.757,760.03176710317,39.041996,0.223694,11.915518754,0.0,0.0,0.0,25.5,-1.5,-1.9,0,0,1024,1024,1024,1024,0,0,0,0,0,0,0,89,3.88,3.873,0,0,0,0,4.952,68.0,759.37559910317,38.385828,6,P-GPS,,11.7
154800,2026-01-09 12:39:27,759.37559910317,37.72966,0.0,11.8520673084,5.9410763056,18,5,7.757,760.03176710317,39.041996,0.223694,11.915518754,0.0,0.0,0.0,25.5,-1.5,-1.8,0,0,1024,1024,1024,1024,0,0,0,0,0,0,0,89,3.88,3.873,0,0,0,0,4.952,68.0,759.37559910317,38.385828,6,P-GPS,,11.7
154900,2026-01-09 12:39:27,759.04751510317,37.72966,0.0,11.8650594348,5.9651904796,18,5,7.757,760.03176710317,39.041996,0.223694,11.915518754,0.0,0.0,0.0,25.6,-1.7,-2.0,0,0,1024,1024,1024,1024,0,0,0,0,0,0,0,89,3.88,3.873,0,0,0,0,4.952,68.0,759.04751510317,38.057744,6,P-GPS,,11.6
155000,2026-01-09 12:39:27,759.04751510317,37.72966,0.0,11.8782156032,5.9805448108,18,5,7.757,760.03176710317,39.041996,0.223694,11.915518754,0.0,0.0,0.0,25.5,-1.1,-2.1,0,0,1024,1024,1024,1024,0,0,0,0,0,0,0,89,3.88,3.873,0,0,0,0,4.952,68.0,759.04751510317,38.057744,6,P-GPS,,11.6
155100,2026-01-09 12:39:27,759.04751510317,37.72966,0.0,11.8882549736,5.993438512,18,5,7.734,760.03176710317,39.041996,0.223694,11.915518754,0.0,0.0,0.0,25.6,-0.8,-1.5,0,0,1024,1024,1024,1024,0,0,0,0,0,0,0,89,3.867,3.867,0,0,0,0,5.215,68.18,759.04751510317,38.057744,6,P-GPS,,11.6
155200,2026-01-09 12:39:28,759.04751510317,37.72966,0.0,11.879593556,6.02772329,18,5,7.734,760.03176710317,39.041996,0.223694,11.915518754,0.0,0.0,0.0,25.5,-0.3,-2.1,0,0,1024,1024,1024,1024,0,0,0,0,0,0,0,89,3.867,3.867,0,0,0,0,5.215,68.18,759.04751510317,38.057744,6,P-GPS,,11.6
155300,2026-01-09 12:39:28,759.04751510317,37.72966,0.0,11.8760502488,6.0328742088,18,5,7.734,760.03176710317,39.041996,0.223694,11.915518754,0.0,0.0,0.0,25.6,-0.2,-1.3,0,0,1024,1024,1024,1024,0,0,0,0,0,0,0,89,3.867,3.867,0,0,0,0,5.215,68.18,759.04751510317,38.057744,6,P-GPS,,11.6
155400,2026-01-09 12:39:28,759.04751510317,37.72966,0.0,11.8648625844,6.0471786712,18,5,7.734,760.03176710317,39.041996,0.223694,11.915518754,0.0,0.0,0.0,25.5,-0.6,-1.4,0,0,1024,1024,1024,1024,0,0,0,0,0,0,0,89,3.867,3.867,0,0,0,0,5.215,68.18,759.04751510317,38.057744,6,P-GPS,,11.6
155500,2026-01-09 12:39:28,758.71943110317,37.72966,0.0,11.8581368624,6.0581038684,18,5,7.734,760.03176710317,39.041996,0.223694,11.915518754,0.0,0.0,0.0,25.4,-0.7,-1.9,0,0,1024,1024,1024,1024,0,0,0,0,0,0,0,89,3.867,3.867,0,0,0,0,5.215,68.18,758.71943110317,37.72966,6,P-GPS,,11.5
155600,2026-01-09 12:39:28,758.71943110317,37.72966,0.0,11.8272313496,6.0930448144,18,5,7.734,760.03176710317,39.041996,0.223694,11.915518754,0.0,0.0,0.0,25.4,-1.0,-2.3,0,0,1024,1024,1024,1024,0,0,0,0,0,0,0,89,3.867,3.867,0,0,0,0,5.215,68.18,758.71943110317,37.72966,6,P-GPS,,11.5
155700,2026-01-09 12:39:28,758.71943110317,37.72966,0.0,11.83234946,6.0996393028,18,5,7.734,760.03176710317,39.041996,0.223694,11.915518754,0.0,0.0,0.0,25.3,-1.3,-2.4,0,0,1024,1024,1024,1024,0,0,0,0,0,0,0,89,3.867,3.867,0,0,0,0,5.215,68.18,758.71943110317,37.72966,6,P-GPS,,11.5
155800,2026-01-09 12:39:28,758.71943110317,37.72966,0.0,11.8432418488,6.1112534764,18,5,7.734,760.03176710317,39.041996,0.223694,11.915518754,0.0,0.0,0.0,25.4,-1.5,-2.1,0,0,1024,1024,1024,1024,0,0,0,0,0,0,0,89,3.867,3.867,0,0,0,0,5.215,68.18,758.71943110317,37.72966,6,P-GPS,,11.5
155900,2026-01-09 12:39:28,758.71943110317,37.72966,0.0,11.8533796444,6.1237206684,18,5,7.734,760.03176710317,39.041996,0.223694,11.915518754,0.0,0.0,0.0,25.4,-1.5,-1.9,0,0,1024,1024,1024,1024,0,0,0,0,0,0,0,89,3.867,3.867,0,0,0,0,5.215,68.18,758.71943110317,37.72966,6,P-GPS,,11.5
156000,2026-01-09 12:39:28,758.71943110317,37.72966,0.0,11.8597116656,6.1435697504,18,5,7.734,760.03176710317,39.041996,0.223694,11.915518754,0.0,0.0,0.0,25.3,-1.6,-2.2,0,0,1024,1024,1024,1024,0,0,0,0,0,0,0,89,3.867,3.867,0,0,0,0,5.215,68.18,758.71943110317,37.72966,6,P-GPS,,11.5
156100,2026-01-09 12:39:29,758.71943110317,37.72966,0.0,11.8725725584,6.1671261816,18,5,7.734,760.03176710317,39.041996,0.223694,11.915518754,0.0,0.0,0.0,25.6,-2.5,-1.7,0,0,1024,1024,1024,1024,0,0,0,0,0,0,0,89,3.867,3.867,0,0,0,0,5.215,68.18,758.71943110317,37.72966,6,P-GPS,,11.5
156200,2026-01-09 12:39:29,758.71943110317,37.72966,0.0,11.8844820076,6.1834319564,18,5,7.761,760.03176710317,39.041996,0.223694,11.915518754,0.0,0.0,0.0,25.6,-2.5,-1.4,0,0,1024,1024,1024,1024,0,0,0,0,0,0,0,89,3.881,3.88,0,0,0,0,4.873,68.0,758.71943110317,37.72966,6,P-GPS,,11.5
156300,2026-01-09 12:39:29,758.71943110317,37.72966,0.0,11.8912077296,6.1925198832,18,5,7.761,760.03176710317,39.041996,0.223694,11.915518754,0.0,0.0,0.0,25.5,-1.9,-1.7,0,0,1024,1024,1024,1024,0,0,0,0,0,0,0,89,3.881,3.88,0,0,0,0,4.873,68.0,758.71943110317,37.72966,6,P-GPS,,11.5
156400,2026-01-09 12:39:29,758.71943110317,37.72966,0.0,11.8803153408,6.2065618784,18,5,7.761,760.03176710317,39.041996,0.223694,11.915518754,0.0,0.0,0.0,25.5,-1.5,-1.5,0,0,1024,1024,1024,1024,0,0,0,0,0,0,0,89,3.881,3.88,0,0,0,0,4.873,68.0,758.71943110317,37.72966,6,P-GPS,,11.5
156500,2026-01-09 12:39:29,758.71943110317,37.72966,0.0,11.8707024796,6.2168309076,18,5,7.761,760.03176710317,39.041996,0.223694,11.915518754,0.0,0.0,0.0,25.4,-1.8,-1.3,0,0,1024,1024,1024,1024,0,0,0,0,0,0,0,89,3.881,3.88,0,0,0,0,4.873,68.0,758.71943110317,37.72966,6,P-GPS,,11.5
156600,2026-01-09 12:39:29,758.71943110317,37.72966,0.0,11.8716211148,6.2198492804,18,5,7.761,760.03176710317,39.041996,0.223694,11.915518754,0.0,0.0,0.0,25.5,-1.6,-1.0,0,0,1024,1024,1024,1024,0,0,0,0,0,0,0,89,3.881,3.88,0,0,0,0,4.873,68.0,758.71943110317,37.72966,6,P-GPS,,11.5
156700,2026-01-09 12:39:29,758.71943110317,37.72966,0.0,11.873524002,6.2218834012,18,5,7.761,760.03176710317,39.041996,0.223694,11.915518754,0.0,0.0,0.0,25.5,-1.5,-1.5,0,0,1024,1024,1024,1024,0,0,0,0,0,0,0,89,3.881,3.88,0,0,0,0,4.873,68.0,758.71943110317,37.72966,6,P-GPS,,11.5
156800,2026-01-09 12:39:29,758.39134710317,37.72966,0.0,11.8668967052,6.2392718532,18,5,7.761,760.03176710317,39.041996,0.223694,11.915518754,0.0,0.0,0.0,25.5,-1.4,-2.1,0,0,1024,1024,1024,1024,0,0,0,0,0,0,0,89,3.881,3.88,0,0,0,0,4.873,68.0,758.39134710317,37.401576,6,P-GPS,,11.4
156900,2026-01-09 12:39:29,758.39134710317,37.72966,0.0,11.8735896188,6.280840096,18,5,7.761,760.03176710317,39.041996,0.223694,11.915518754,0.0,0.0,0.0,25.4,-1.2,-2.2,0,0,1024,1024,1024,1024,0,0,0,0,0,0,0,89,3.881,3.88,0,0,0,0,4.873,68.0,758.39134710317,37.401576,6,P-GPS,,11.4
157000,2026-01-09 12:39:29,758.39134710317,37.72966,0.0,11.8695541856,6.2974411464,18,5,7.761,760.03176710317,39.041996,0.223694,11.915518754,0.0,0.0,0.0,25.4,-1.2,-2.6,0,0,1024,1024,1024,1024,0,0,0,0,0,0,0,89,3.881,3.88,0,0,0,0,4.873,68.0,758.39134710317,37.401576,6,P-GPS,,11.4
157100,2026-01-09 12:39:29,758.39134710317,37.72966,0.0,11.8620738704,6.3148295984,18,5,7.761,760.03176710317,39.041996,0.223694,11.915518754,0.0,0.0,0.0,25.3,-0.6,-3.0,0,0,1024,1024,1024,1024,0,0,0,0,0,0,0,89,3.881,3.88,0,0,0,0,4.873,68.0,758.39134710317,37.401576,6,P-GPS,,11.4
157200,2026-01-09 12:39:30,758.39134710317,37.72966,0.0,11.8559386996,6.3217521708,18,5,7.761,760.03176710317,39.041996,0.223694,11.915518754,0.0,0.0,0.0,25.3,-0.1,-2.6,0,0,1024,1024,1024,1024,0,0,0,0,0,0,0,89,3.881,3.88,0,0,0,0,4.873,68.0,758.39134710317,37.401576,6,P-GPS,,11.4
157300,2026-01-09 12:39:30,758.39134710317,37.72966,0.0,11.8607615344,6.3288715936,18,5,7.747,760.03176710317,39.041996,0.223694,11.915518754,0.0,0.0,0.0,25.4,-0.1,-2.2,0,0,1024,1024,1024,1024,0,0,0,0,0,0,0,89,3.876,3.871,0,0,0,0,4.966,68.0,758.39134710317,37.401576,6,P-GPS,,11.4
157400,2026-01-09 12:39:30,758.06326310317,37.72966,0.0,11.8517392244,6.3425855048,18,5,7.747,760.03176710317,39.041996,0.223694,11.915518754,0.0,0.0,0.0,25.6,-0.5,-1.3,0,0,1024,1024,1024,1024,0,0,0,0,0,0,0,89,3.876,3.871,0,0,0,0,4.966,68.0,758.06326310317,37.073492,6,P-GPS,,11.3
157500,2026-01-09 12:39:30,758.06326310317,37.72966,0.0,11.8440620588,6.358760046,18,5,7.747,760.03176710317,39.041996,0.223694,11.915518754,0.0,0.0,0.0,25.6,-0.5,-0.7,0,0,1024,1024,1024,1024,0,0,0,0,0,0,0,89,3.876,3.871,0,0,0,0,4.966,68.0,758.06326310317,37.073492,6,P-GPS,,11.3
157600,2026-01-09 12:39:30,758.06326310317,37.72966,0.0,11.823983318,6.381725926,18,5,7.747,760.03176710317,39.041996,0.223694,11.915518754,0.0,0.0,0.0,25.5,-0.7,-0.9,0,0,1024,1024,1024,1024,0,0,0,0,0,0,0,89,3.876,3.871,0,0,0,0,4.966,68.0,758.06326310317,37.073492,6,P-GPS,,11.3
157700,2026-01-09 12:39:30,758.06326310317,37.72966,0.0,11.8041998528,6.4024608348,18,5,7.747,760.03176710317,39.041996,0.223694,11.915518754,0.0,0.0,0.0,25.4,-0.5,-1.3,0,0,1024,1024,1024,1024,0,0,0,0,0,0,0,89,3.876,3.871,0,0,0,0,4.966,68.0,758.06326310317,37.073492,6,P-GPS,,11.3
157800,2026-01-09 12:39:30,758.06326310317,37.72966,0.0,11.7620410588,6.4628610992,18,5,7.747,760.03176710317,39.041996,0.223694,11.915518754,0.0,0.0,0.0,25.4,-0.6,-1.5,0,0,1024,1024,1024,1024,0,0,0,0,0,0,0,89,3.876,3.871,0,0,0,0,4.966,68.0,758.06326310317,37.073492,6,P-GPS,,11.3
157900,2026-01-09 12:39:30,758.06326310317,37.72966,0.0,11.747375704,6.4887797352,18,5,7.747,760.03176710317,39.041996,0.223694,11.915518754,0.0,0.0,0.0,25.5,-0.7,-1.5,0,0,1024,1024,1024,1024,0,0,0,0,0,0,0,89,3.876,3.871,0,0,0,0,4.966,68.0,758.06326310317,37.073492,6,P-GPS,,11.3
158000,2026-01-09 12:39:30,758.06326310317,37.72966,0.0,11.7539701924,6.4993768484,18,5,7.747,760.03176710317,39.041996,0.223694,11.915518754,0.0,0.0,0.0,25.4,-0.7,-1.5,0,0,1024,1024,1024,1024,0,0,0,0,0,0,0,89,3.876,3.871,0,0,0,0,4.966,68.0,758.06326310317,37.073492,6,P-GPS,,11.3
158100,2026-01-09 12:39:30,757.73517910317,37.72966,0.0,11.7593179616,6.5068243552,18,5,7.747,760.03176710317,39.041996,0.223694,11.915518754,0.0,0.0,0.0,25.5,-1.0,-1.4,0,0,1024,1024,1024,1024,0,0,0,0,0,0,0,89,3.876,3.871,0,0,0,0,4.966,68.0,757.73517910317,36.745408,6,P-GPS,,11.2
158200,2026-01-09 12:39:31,757.73517910317,37.72966,0.0,11.764928198,6.5478348552,18,5,7.747,760.03176710317,39.041996,0.223694,11.915518754,0.0,0.0,0.0,25.4,-0.8,-1.9,0,0,1024,1024,1024,1024,0,0,0,0,0,0,0,89,3.876,3.871,0,0,0,0,4.966,68.0,757.73517910317,36.745408,6,P-GPS,,11.2
158300,2026-01-09 12:39:31,757.73517910317,37.72966,0.0,11.7496066752,6.5711616276,18,5,7.747,760.03176710317,39.041996,0.223694,11.915518754,0.0,0.0,0.0,25.5,-0.4,-2.2,0,0,1024,1024,1024,1024,0,0,0,0,0,0,0,89,3.876,3.871,0,0,0,0,4.966,68.0,757.73517910317,36.745408,6,P-GPS,,11.2
158400,2026-01-09 12:39:31,757.73517910317,37.72966,0.0,11.7604006388,6.5898296072,18,5,7.755,760.03176710317,39.041996,0.223694,11.915518754,0.0,0.0,0.0,25.4,-0.1,-2.1,0,0,1024,1024,1024,1024,0,0,0,0,0,0,0,89,3.879,3.875,0,0,0,0,4.66,68.18,757.73517910317,36.745408,6,P-GPS,,11.2
158500,2026-01-09 12:39:31,757.73517910317,37.72966,0.0,11.7737536576,6.6083663532,18,5,7.755,760.03176710317,39.041996,0.223694,11.915518754,0.0,0.0,0.0,25.4,-0.2,-2.1,0,0,1024,1024,1024,1024,0,0,0,0,0,0,0,89,3.879,3.875,0,0,0,0,4.66,68.18,757.73517910317,36.745408,6,P-GPS,,11.2
158600,2026-01-09 12:39:31,757.73517910317,37.72966,0.0,11.8212602208,6.6800527072,18,5,7.755,760.03176710317,39.041996,0.223694,11.915518754,0.0,0.0,0.0,25.4,-0.3,-2.0,0,0,1024,1024,1024,1024,0,0,0,0,0,0,0,89,3.879,3.875,0,0,0,0,4.66,68.18,757.73517910317,36.745408,6,P-GPS,,11.2
158700,2026-01-09 12:39:31,757.73517910317,37.72966,0.0,11.8280515596,6.6946852536,18,5,7.755,760.03176710317,39.041996,0.223694,11.915518754,0.0,0.0,0.0,25.5,-0.5,-1.9,0,0,1024,1024,1024,1024,0,0,0,0,0,0,0,89,3.879,3.875,0,0,0,0,4.66,68.18,757.73517910317,36.745408,6,P-GPS,,11.2
158800,2026-01-09 12:39:31,757.73517910317,37.72966,0.0,11.8165686196,6.7066603196,18,5,7.755,760.03176710317,39.041996,0.223694,11.915518754,0.0,0.0,0.0,25.5,-0.8,-1.7,0,0,1024,1024,1024,1024,0,0,0,0,0,0,0,89,3.879,3.875,0,0,0,0,4.66,68.18,757.73517910317,36.745408,6,P-GPS,,11.2
158900,2026-01-09 12:39:31,757.40709510317,37.72966,0.0,11.80446232,6.718832236,18,5,7.755,760.03176710317,39.041996,0.223694,11.915518754,0.0,0.0,0.0,25.5,-1.1,-1.6,0,0,1024,1024,1024,1024,0,0,0,0,0,0,0,89,3.879,3.875,0,0,0,0,4.66,68.18,757.40709510317,36.417324,6,P-GPS,,11.1
159000,2026-01-09 12:39:31,757.40709510317,37.72966,0.0,11.7823494584,6.755577644,18,5,7.755,760.03176710317,39.041996,0.223694,11.915518754,0.0,0.0,0.0,25.4,-1.2,-1.6,0,0,1024,1024,1024,1024,0,0,0,0,0,0,0,89,3.879,3.875,0,0,0,0,4.66,68.18,757.40709510317,36.417324,6,P-GPS,,11.1
159100,2026-01-09 12:39:31,757.40709510317,37.72966,0.0,11.782644734,6.7689306628,18,5,7.755,760.03176710317,39.041996,0.223694,11.915518754,0.0,0.0,0.0,25.4,-1.1,-1.5,0,0,1024,1024,1024,1024,0,0,0,0,0,0,0,89,3.879,3.875,0,0,0,0,4.66,68.18,757.40709510317,36.417324,6,P-GPS,,11.1
159200,2026-01-09 12:39:32,757.40709510317,37.72966,0.0,11.8014439472,6.7879923432,18,5,7.755,760.03176710317,39.041996,0.223694,11.915518754,0.0,0.0,0.0,25.4,-1.3,-1.5,0,0,1024,1024,1024,1024,0,0,0,0,0,0,0,89,3.879,3.875,0,0,0,0,4.66,68.18,757.40709510317,36.417324,6,P-GPS,,11.1
159300,2026-01-09 12:39:32,757.40709510317,37.72966,0.0,11.8195869924,6.8068571732,18,5,7.755,760.03176710317,39.041996,0.223694,11.915518754,0.0,0.0,0.0,25.4,-1.5,-1.6,0,0,1024,1024,1024,1024,0,0,0,0,0,0,0,89,3.879,3.875,0,0,0,0,4.66,68.18,757.40709510317,36.417324,6,P-GPS,,11.1
159400,2026-01-09 12:39:32,757.40709510317,37.72966,0.0,11.8194885672,6.809875546,18,5,7.755,760.03176710317,39.041996,0.223694,11.915518754,0.0,0.0,0.0,25.4,-1.5,-1.7,0,0,1024,1024,1024,1024,0,0,0,0,0,0,0,89,3.879,3.875,0,0,0,0,4.66,68.18,757.40709510317,36.417324,6,P-GPS,,11.1
159500,2026-01-09 12:39:32,757.40709510317,37.72966,0.0,11.8461946048,6.8439634736,18,5,7.752,760.03176710317,39.041996,0.223694,11.915518754,0.0,0.0,0.0,25.3,-1.1,-1.5,0,0,1024,1024,1024,1024,0,0,0,0,0,0,0,89,3.876,3.867,0,0,0,0,4.679,68.18,757.40709510317,36.417324,6,P-GPS,,11.1
159600,2026-01-09 12:39:32,757.40709510317,37.72966,0.0,11.8497707204,6.85203434,18,5,7.752,760.03176710317,39.041996,0.223694,11.915518754,0.0,0.0,0.0,25.3,-1.1,-1.3,0,0,1024,1024,1024,1024,0,0,0,0,0,0,0,89,3.876,3.867,0,0,0,0,4.679,68.18,757.40709510317,36.417324,6,P-GPS,,11.1
159700,2026-01-09 12:39:32,757.07901110317,37.72966,0.0,11.8510174396,6.8585304032,18,5,7.752,760.03176710317,39.041996,0.223694,11.915518754,0.0,0.0,0.0,25.3,-0.5,-1.5,0,0,1024,1024,1024,1024,0,0,0,0,0,0,0,89,3.876,3.867,0,0,0,0,4.679,68.18,757.07901110317,36.08924,6,P-GPS,,11.0
159800,2026-01-09 12:39:32,757.07901110317,37.72966,0.0,11.839075182,6.8704726608,18,5,7.752,760.03176710317,39.041996,0.223694,11.915518754,0.0,0.0,0.0,25.3,-0.3,-1.6,0,0,1024,1024,1024,1024,0,0,0,0,0,0,0,89,3.876,3.867,0,0,0,0,4.679,68.18,757.07901110317,36.08924,6,P-GPS,,11.0
159900,2026-01-09 12:39:32,757.07901110317,37.72966,0.0,11.8341211136,6.8850395904,18,5,7.752,760.03176710317,39.041996,0.223694,11.915518754,0.0,0.0,0.0,25.3,-0.1,-1.8,0,0,1024,1024,1024,1024,0,0,0,0,0,0,0,89,3.876,3.867,0,0,0,0,4.679,68.18,757.07901110317,36.08924,6,P-GPS,,11.0
160000,2026-01-09 12:39:32,757.07901110317,37.72966,0.0,11.8048888292,6.9143046832,18,5,7.752,760.03176710317,39.041996,0.223694,11.915518754,0.0,0.0,0.0,25.5,-0.2,-1.6,0,0,1024,1024,1024,1024,0,0,0,0,0,0,0,89,3.876,3.867,0,0,0,0,4.679,68.18,757.07901110317,36.08924,6,P-GPS,,11.0
160100,2026-01-09 12:39:32,757.07901110317,37.72966,0.0,11.77411455,6.9451773876,18,5,7.752,760.03176710317,39.041996,0.223694,11.915518754,0.0,0.0,0.0,25.5,0.0,-1.4,0,0,1024,1024,1024,1024,0,0,0,0,0,0,0,89,3.876,3.867,0,0,0,0,4.679,68.18,757.07901110317,36.08924,6,P-GPS,,11.0
160200,2026-01-09 12:39:33,757.07901110317,37.72966,0.0,11.7671263608,6.9528873616,18,5,7.752,760.03176710317,39.041996,0.223694,11.915518754,0.0,0.0,0.0,25.4,0.2,-1.7,0,0,1024,1024,1024,1024,0,0,0,0,0,0,0,89,3.876,3.867,0,0,0,0,4.679,68.18,757.07901110317,36.08924,6,P-GPS,,11.0
160300,2026-01-09 12:39:33,757.07901110317,37.72966,0.0,11.7429137616,6.9777889372,18,5,7.752,760.03176710317,39.041996,0.223694,11.915518754,0.0,0.0,0.0,25.4,0.2,-1.6,0,0,1024,1024,1024,1024,0,0,0,0,0,0,0,89,3.876,3.867,0,0,0,0,4.679,68.18,757.07901110317,36.08924,6,P-GPS,,11.0
160400,2026-01-09 12:39:33,756.75092710317,37.72966,0.0,11.7384846276,6.9889766016,18,5,7.752,760.03176710317,39.041996,0.223694,11.915518754,0.0,0.0,0.0,25.5,-0.2,-1.5,0,0,1024,1024,1024,1024,0,0,0,0,0,0,0,89,3.876,3.867,0,0,0,0,4.679,68.18,756.75092710317,35.761156,6,P-GPS,,10.9
160500,2026-01-09 12:39:33,756.75092710317,37.72966,0.0,11.7357943388,7.0020343448,18,5,7.752,760.03176710317,39.041996,0.223694,11.915518754,0.0,0.0,0.0,25.5,-0.4,-1.6,0,0,1024,1024,1024,1024,0,0,0,0,0,0,0,89,3.876,3.867,0,0,0,0,4.679,68.18,756.75092710317,35.761156,6,P-GPS,,10.9
160600,2026-01-09 12:39:33,756.75092710317,37.72966,0.0,11.7299216352,7.0151577048,18,5,7.753,760.03176710317,39.041996,0.223694,11.915518754,0.0,0.0,0.0,25.5,-0.8,-1.5,0,0,1024,1024,1024,1024,0,0,0,0,0,0,0,89,3.879,3.875,0,0,0,0,4.823,68.18,756.75092710317,35.761156,6,P-GPS,,10.9
160700,2026-01-09 12:39:33,756.75092710317,37.72966,0.0,11.713090926,7.035433296,18,5,7.753,760.03176710317,39.041996,0.223694,11.915518754,0.0,0.0,0.0,25.6,-0.9,-0.9,0,0,1024,1024,1024,1024,0,0,0,0,0,0,0,89,3.879,3.875,0,0,0,0,4.823,68.18,756.75092710317,35.761156,6,P-GPS,,10.9
160800,2026-01-09 12:39:33,756.75092710317,37.72966,0.0,11.6993442064,7.0502626928,18,5,7.753,760.03176710317,39.041996,0.223694,11.915518754,0.0,0.0,0.0,25.5,-0.6,-1.1,0,0,1024,1024,1024,1024,0,0,0,0,0,0,0,89,3.879,3.875,0,0,0,0,4.823,68.18,756.75092710317,35.761156,6,P-GPS,,10.9
160900,2026-01-09 12:39:33,756.75092710317,37.72966,0.0,11.6829400064,7.0670277852,18,5,7.753,760.03176710317,39.041996,0.223694,11.915518754,0.0,0.0,0.0,25.4,-0.4,-1.3,0,0,1024,1024,1024,1024,0,0,0,0,0,0,0,89,3.879,3.875,0,0,0,0,4.823,68.18,756.75092710317,35.761156,6,P-GPS,,10.9
161000,2026-01-09 12:39:33,756.75092710317,37.72966,0.0,11.6749675652,7.0756892028,18,5,7.753,760.03176710317,39.041996,0.223694,11.915518754,0.0,0.0,0.0,25.3,-0.1,-1.4,0,0,1024,1024,1024,1024,0,0,0,0,0,0,0,89,3.879,3.875,0,0,0,0,4.823,68.18,756.75092710317,35.761156,6,P-GPS,,10.9
161100,2026-01-09 12:39:33,756.75092710317,37.72966,0.0,11.6671263576,7.083825686,18,5,7.753,760.03176710317,39.041996,0.223694,11.915518754,0.0,0.0,0.0,25.5,-0.4,-1.1,0,0,1024,1024,1024,1024,0,0,0,0,0,0,0,89,3.879,3.875,0,0,0,0,4.823,68.18,756.75092710317,35.761156,6,P-GPS,,10.9
161200,2026-01-09 12:39:34,756.75092710317,37.72966,0.0,11.6723428932,7.094160332,18,5,7.753,760.03176710317,39.041996,0.223694,11.915518754,0.0,0.0,0.0,25.6,-0.6,-1.1,0,0,1024,1024,1024,1024,0,0,0,0,0,0,0,89,3.879,3.875,0,0,0,0,4.823,68.18,756.75092710317,35.761156,6,P-GPS,,10.9
161300,2026-01-09 12:39:34,756.75092710317,37.72966,0.0,11.6665686148,7.1018046892,18,5,7.753,760.03176710317,39.041996,0.223694,11.915518754,0.0,0.0,0.0,25.6,-0.2,-1.0,0,0,1024,1024,1024,1024,0,0,0,0,0,0,0,89,3.879,3.875,0,0,0,0,4.823,68.18,756.75092710317,35.761156,6,P-GPS,,10.9
161400,2026-01-09 12:39:34,756.75092710317,37.72966,0.0,11.647310084,7.1213584956,18,5,7.753,760.03176710317,39.041996,0.223694,11.915518754,0.0,0.0,0.0,25.6,0.2,-1.3,0,0,1024,1024,1024,1024,0,0,0,0,0,0,0,89,3.879,3.875,0,0,0,0,4.823,68.18,756.75092710317,35.761156,6,P-GPS,,10.9
161500,2026-01-09 12:39:34,756.75092710317,37.72966,0.0,11.6284124456,7.1416340868,18,5,7.753,760.03176710317,39.041996,0.223694,11.915518754,0.0,0.0,0.0,25.5,0.5,-1.5,0,0,1024,1024,1024,1024,0,0,0,0,0,0,0,89,3.879,3.875,0,0,0,0,4.823,68.18,756.75092710317,35.761156,6,P-GPS,,10.9
161600,2026-01-09 12:39:34,756.75092710317,37.72966,0.0,11.6269032592,7.1613191268,18,5,7.753,760.03176710317,39.041996,0.223694,11.915518754,0.0,0.0,0.0,25.3,0.3,-2.1,0,0,1024,1024,1024,1024,0,0,0,0,0,0,0,89,3.879,3.875,0,0,0,0,4.823,68.18,756.75092710317,35.761156,6,P-GPS,,10.9
161700,2026-01-09 12:39:34,756.75092710317,37.72966,0.0,11.6322838368,7.1697508856,18,5,7.745,760.03176710317,39.041996,0.223694,11.915518754,0.0,0.0,0.0,25.2,0.1,-2.3,0,0,1024,1024,1024,1024,0,0,0,0,0,0,0,88,3.875,3.87,0,0,0,0,4.763,68.18,756.75092710317,35.761156,6,P-GPS,,10.9
161800,2026-01-09 12:39:34,756.75092710317,37.72966,0.0,11.6290029968,7.1731301508,18,5,7.745,760.03176710317,39.041996,0.223694,11.915518754,0.0,0.0,0.0,25.3,-0.3,-2.0,0,0,1024,1024,1024,1024,0,0,0,0,0,0,0,88,3.875,3.87,0,0,0,0,4.763,68.18,756.75092710317,35.761156,6,P-GPS,,10.9
161900,2026-01-09 12:39:34,756.42284310317,37.72966,0.0,11.6250987972,7.1810041668,18,5,7.745,760.03176710317,39.041996,0.223694,11.915518754,0.0,0.0,0.0,25.4,-0.6,-1.8,0,0,1024,1024,1024,1024,0,0,0,0,0,0,0,88,3.875,3.87,0,0,0,0,4.763,68.18,756.42284310317,35.433072,6,P-GPS,,10.8
162000,2026-01-09 12:39:34,756.42284310317,37.72966,0.0,11.6357943356,7.1970474744,18,5,7.745,760.03176710317,39.041996,0.223694,11.915518754,0.0,0.0,0.0,25.6,-0.7,-1.4,0,0,1024,1024,1024,1024,0,0,0,0,0,0,0,88,3.875,3.87,0,0,0,0,4.763,68.18,756.42284310317,35.433072,6,P-GPS,,10.8
162100,2026-01-09 12:39:34,756.42284310317,37.72966,0.0,11.6424544408,7.206857186,19,5,7.745,760.03176710317,39.041996,0.223694,11.915518754,0.0,0.0,0.0,25.6,-0.6,-0.9,0,0,1024,1024,1024,1024,0,0,0,0,0,0,0,88,3.875,3.87,0,0,0,0,4.763,68.18,756.42284310317,35.433072,6,P-GPS,,10.8
162200,2026-01-09 12:39:35,756.42284310317,37.72966,0.0,11.647966252,7.2258532496,19,5,7.745,760.03176710317,39.041996,0.223694,11.915518754,0.0,0.0,0.0,25.5,-0.6,-1.1,0,0,1024,1024,1024,1024,0,0,0,0,0,0,0,88,3.875,3.87,0,0,0,0,4.763,68.18,756.42284310317,35.433072,6,P-GPS,,10.8
162300,2026-01-09 12:39:35,756.42284310317,37.72966,0.0,11.6511814752,7.2458663736,19,5,7.745,760.03176710317,39.041996,0.223694,11.915518754,0.0,0.0,0.0,25.4,-0.8,-1.2,0,0,1024,1024,1024,1024,0,0,0,0,0,0,0,88,3.875,3.87,0,0,0,0,4.763,68.18,756.42284310317,35.433072,6,P-GPS,,10.8
162400,2026-01-09 12:39:35,756.42284310317,37.72966,0.0,11.6940292456,7.2924543016,19,5,7.745,760.03176710317,39.041996,0.223694,11.915518754,0.0,0.0,0.0,25.4,-0.7,-0.9,0,0,1024,1024,1024,1024,0,0,0,0,0,0,0,88,3.875,3.87,0,0,0,0,4.763,68.18,756.42284310317,35.433072,6,P-GPS,,10.8
162500,2026-01-09 12:39:35,756.42284310317,37.72966,0.0,11.7072510308,7.3110566644,19,5,7.745,760.03176710317,39.041996,0.223694,11.915518754,0.0,0.0,0.0,25.4,-0.4,-0.4,0,0,1024,1024,1024,1024,0,0,0,0,0,0,0,88,3.875,3.87,0,0,0,0,4.763,68.18,756.42284310317,35.433072,6,P-GPS,,10.8
162600,2026-01-09 12:39:35,756.42284310317,37.72966,0.0,11.7085633668,7.3125986592,19,5,7.745,760.03176710317,39.041996,0.223694,11.915518754,0.0,0.0,0.0,25.4,-0.8,-0.7,0,0,1024,1024,1024,1024,0,0,0,0,0,0,0,88,3.875,3.87,0,0,0,0,4.763,68.18,756.42284310317,35.433072,6,P-GPS,,10.8
162700,2026-01-09 12:39:35,756.42284310317,37.72966,0.0,11.708005624,7.3151905228,19,5,7.745,760.03176710317,39.041996,0.223694,11.915518754,0.0,0.0,0.0,25.4,-0.7,-0.8,0,0,1024,1024,1024,1024,0,0,0,0,0,0,0,88,3.875,3.87,0,0,0,0,4.763,68.18,756.42284310317,35.433072,6,P-GPS,,10.8
162800,2026-01-09 12:39:35,756.42284310317,37.72966,0.0,11.7022969624,7.3208991844,19,5,7.752,760.03176710317,39.041996,0.223694,11.915518754,0.0,0.0,0.0,25.5,-0.3,-1.0,0,0,1024,1024,1024,1024,0,0,0,0,0,0,0,88,3.882,3.875,0,0,0,0,4.542,68.18,756.42284310317,35.433072,6,P-GPS,,10.8
162900,2026-01-09 12:39:35,756.42284310317,37.72966,0.0,11.6789045732,7.353346692,19,5,7.752,760.03176710317,39.041996,0.223694,11.915518754,0.0,0.0,0.0,25.6,-0.7,-0.9,0,0,1024,1024,1024,1024,0,0,0,0,0,0,0,88,3.882,3.875,0,0,0,0,4.542,68.18,756.42284310317,35.433072,6,P-GPS,,10.8
163000,2026-01-09 12:39:35,756.42284310317,37.72966,0.0,11.6878612664,7.3720802884,19,5,7.752,760.03176710317,39.041996,0.223694,11.915518754,0.0,0.0,0.0,25.6,-0.4,-1.6,0,0,1024,1024,1024,1024,0,0,0,0,0,0,0,88,3.882,3.875,0,0,0,0,4.542,68.18,756.42284310317,35.433072,6,P-GPS,,10.8
163100,2026-01-09 12:39:36,756.42284310317,37.72966,0.0,11.6952431564,7.3925199216,19,5,7.752,760.03176710317,39.041996,0.223694,11.915518754,0.0,0.0,0.0,25.6,-0.4,-1.7,0,0,1024,1024,1024,1024,0,0,0,0,0,0,0,88,3.882,3.875,0,0,0,0,4.542,68.18,756.42284310317,35.433072,6,P-GPS,,10.8
163200,2026-01-09 12:39:36,756.42284310317,37.72966,0.0,11.6882221588,7.4114831768,19,5,7.752,760.03176710317,39.041996,0.223694,11.915518754,0.0,0.0,0.0,25.7,0.0,-1.7,0,0,1024,1024,1024,1024,0,0,0,0,0,0,0,88,3.882,3.875,0,0,0,0,4.542,68.18,756.42284310317,35.433072,6,P-GPS,,10.8
163300,2026-01-09 12:39:36,756.42284310317,37.72966,0.0,11.700951818,7.4568900024,19,5,7.752,760.03176710317,39.041996,0.223694,11.915518754,0.0,0.0,0.0,25.7,0.2,-1.7,0,0,1024,1024,1024,1024,0,0,0,0,0,0,0,88,3.882,3.875,0,0,0,0,4.542,68.18,756.42284310317,35.433072,6,P-GPS,,10.8
163400,2026-01-09 12:39:36,756.42284310317,37.72966,0.0,11.6851381692,7.4743768796,19,5,7.752,760.03176710317,39.041996,0.223694,11.915518754,0.0,0.0,0.0,25.6,0.6,-1.8,0,0,1024,1024,1024,1024,0,0,0,0,0,0,0,88,3.882,3.875,0,0,0,0,4.542,68.18,756.42284310317,35.433072,6,P-GPS,,10.8
163500,2026-01-09 12:39:36,756.42284310317,37.72966,0.0,11.668963628,7.4912732056,19,5,7.752,760.03176710317,39.041996,0.223694,11.915518754,0.0,0.0,0.0,25.5,0.6,-1.6,0,0,1024,1024,1024,1024,0,0,0,0,0,0,0,88,3.882,3.875,0,0,0,0,4.542,68.18,756.42284310317,35.433072,6,P-GPS,,10.8
