time(millisecond),timestamp,altitude_above_seaLevel(feet),height_sonar(feet),speed(mph),distance(feet),mileage(feet),satellites,gpslevel,voltage(v),max_altitude(feet),max_ascent(feet),max_speed(mph),max_distance(feet), xSpeed(mph), ySpeed(mph), zSpeed(mph), compass_heading(degrees), pitch(degrees), roll(degrees),isPhoto,isVideo,rc_elevator,rc_aileron,rc_throttle,rc_rudder,rc_elevator(percent),rc_aileron(percent),rc_throttle(percent),rc_rudder(percent),gimbal_heading(degrees),gimbal_pitch(degrees),gimbal_roll(degrees),battery_percent,voltageCell1,voltageCell2,voltageCell3,voltageCell4,voltageCell5,voltageCell6,current(A),battery_temperature(f),altitude(feet),ascent(feet),flycStateRaw,flycState,message,height_above_takeoff(meters)
0,2026-01-13 12:19:10,720.87142529886,0.328084,0.0,0.0,0.0,13,2,0.0,720.87142529886,0.0,0.0,0.0,0.0,0.0,0.0,346.7,3.1,0.5,0,0,1024,1024,1024,1024,0,0,0,0,0,0,0,98,4.085,4.071,0,0,0,0,0.0,62.42,720.87142529886,0.0,41,Motors_Started,SD card speed low SD card speed low. Normal use may be affected. Replace SD card (Code: 10028). Gimbal stuck. Make sure gimbal cover is removed and manually check whether gimbal can rotate freely (Code: 40002). Satellite positioning signal weak. Hovering unstable. Fly,0.0
100,2026-01-13 12:19:10,720.87142529886,0.328084,0.0,0.0180284782672,0.0180284782672,13,2,0.0,720.87142529886,0.0,0.0,0.0180284782672,0.0,0.0,0.0,346.7,3.2,0.5,0,0,1024,1024,1024,1024,0,0,0,0,0,0,0,98,4.085,4.071,0,0,0,0,0.0,62.42,720.87142529886,0.0,41,Motors_Started,,0.0
200,2026-01-13 12:19:10,720.87142529886,0.328084,0.0,0.208583340008,0.242932094388,13,2,0.0,720.87142529886,0.0,0.0,0.208583340008,0.0,0.0,0.0,346.7,3.2,0.5,0,0,1024,1024,1024,1024,0,0,0,0,0,0,0,98,4.085,4.071,0,0,0,0,0.0,62.42,720.87142529886,0.0,41,Motors_Started,,0.0
300,2026-01-13 12:19:10,720.87142529886,0.328084,0.0,1.15425528628,1.18888127164,13,2,0.0,720.87142529886,0.0,0.0,1.15425528628,0.0,0.0,0.0,346.7,3.1,0.5,0,0,1024,1024,1024,1024,0,0,0,0,0,0,0,98,4.085,4.071,0,0,0,0,0.0,62.42,720.87142529886,0.0,41,Motors_Started,,0.0
400,2026-01-13 12:19:10,720.87142529886,0.328084,0.0,1.92677499604,1.96174218876,13,2,0.0,720.87142529886,0.0,0.0,1.92677499604,0.0,0.0,0.0,346.6,3.1,0.5,0,0,1024,1024,1024,1024,0,0,0,0,0,0,0,98,4.085,4.071,0,0,0,0,0.0,62.42,720.87142529886,0.0,41,Motors_Started,,0.0
500,2026-01-13 12:19:10,720.87142529886,0.328084,0.0,2.05277893708,2.11643051392,13,2,0.0,720.87142529886,0.0,0.0,2.05277893708,0.0,0.0,0.0,346.7,3.2,0.4,0,0,1024,1024,1024,1024,0,0,0,0,0,0,0,98,4.085,4.071,0,0,0,0,0.0,62.42,720.87142529886,0.0,41,Motors_Started,,0.0
600,2026-01-13 12:19:10,720.87142529886,0.328084,0.0,2.16608602732,2.25190624004,13,2,0.0,720.87142529886,0.0,0.0,2.16608602732,0.0,0.0,0.0,347.1,3.2,0.4,0,0,1024,1024,1024,1024,0,0,0,0,0,0,0,98,4.085,4.071,0,0,0,0,0.0,62.42,720.87142529886,0.0,41,Motors_Started,,0.0
700,2026-01-13 12:19:10,720.87142529886,0.328084,0.0,2.24149941556,2.34006569168,13,2,0.0,720.87142529886,0.0,0.0,2.24149941556,0.0,0.0,0.0,347.1,3.1,0.5,0,0,1024,1024,1024,1024,0,0,0,0,0,0,0,98,4.085,4.071,0,0,0,0,0.0,62.42,720.87142529886,0.0,41,Motors_Started,,0.0
800,2026-01-13 12:19:11,720.87142529886,0.328084,0.0,2.64938328688,2.80160113952,13,2,0.0,720.87142529886,0.0,0.0,2.64938328688,0.0,0.0,0.0,347.1,3.1,0.5,0,0,1024,1024,1024,1024,0,0,0,0,0,0,0,98,4.085,4.071,0,0,0,0,0.0,62.42,720.87142529886,0.0,41,Motors_Started,,0.0
900,2026-01-13 12:19:11,720.87142529886,0.328084,0.0,2.723343263,2.88337935736,13,2,0.0,720.87142529886,0.0,0.0,2.723343263,0.0,0.0,0.0,347.1,3.1,0.5,0,0,1024,1024,1024,1024,0,0,0,0,0,0,0,98,4.085,4.071,0,0,0,0,0.0,62.42,720.87142529886,0.0,41,Motors_Started,Setting new Return-To-Home altitude to 90m (295 ft). Data Recorder File Index is 36. Setting new Maximum Flight Altitude to 90m (295 ft),0.0
1000,2026-01-13 12:19:11,720.87142529886,0.328084,0.0,2.79307095552,2.96003290312,13,2,0.0,720.87142529886,0.0,0.0,2.79307095552,0.0,0.0,0.0,347.0,3.1,0.5,0,0,1024,1024,1024,1024,0,0,0,0,0,0,0,98,4.085,4.071,0,0,0,0,0.0,62.42,720.87142529886,0.0,41,Motors_Started,SD card speed low. Normal use may be affected. Replace SD card (Code: 10028). Satellite positioning signal weak. Hovering unstable. Fly with caution (Code: 30002),0.0
1100,2026-01-13 12:19:11,720.87142529886,0.328084,0.0,2.8623032412,3.03598434912,13,2,0.0,720.87142529886,0.0,0.0,2.8623032412,0.0,0.0,0.0,347.1,3.1,0.5,0,0,1024,1024,1024,1024,0,0,0,0,0,0,0,98,4.085,4.071,0,0,0,0,0.0,62.42,720.87142529886,0.0,11,AutoTakeoff,,0.0
1200,2026-01-13 12:19:11,720.87142529886,0.328084,0.0,2.92998040872,3.10984918088,13,2,0.0,720.87142529886,0.0,0.0,2.92998040872,0.0,0.0,0.0,347.1,3.1,0.5,0,0,1024,1024,1024,1024,0,0,0,0,0,0,0,98,4.085,4.071,0,0,0,0,0.0,62.42,720.87142529886,0.0,11,AutoTakeoff,,0.0
1300,2026-01-13 12:19:11,720.87142529886,0.328084,0.0,3.01098762916,3.19787083724,13,4,0.0,720.87142529886,0.0,0.0,3.01098762916,0.0,0.0,0.0,347.0,3.1,0.5,0,0,1024,1024,1024,1024,0,0,0,0,0,0,0,98,4.085,4.071,0,0,0,0,0.0,62.42,720.87142529886,0.0,11,AutoTakeoff,SD card speed low. Normal use may be affected. Replace SD card (Code: 10028),0.0
1400,2026-01-13 12:19:11,720.87142529886,0.328084,0.0,3.08406834016,3.2766897374,13,4,8.156,720.87142529886,0.0,0.0,3.08406834016,0.0,0.0,0.0,347.0,3.1,0.5,0,0,1024,1024,1024,1024,0,0,0,0,0,0,0,98,4.085,4.071,0,0,0,0,1.68,62.42,720.87142529886,0.0,11,AutoTakeoff,,0.0
1500,2026-01-13 12:19:11,720.87142529886,0.328084,0.0,3.16021007488,3.3581365904,13,4,8.156,720.87142529886,0.0,0.0,3.16021007488,0.0,0.0,0.0,347.2,3.0,0.4,0,0,1024,1024,1024,1024,0,0,0,0,0,0,0,98,4.085,4.071,0,0,0,0,1.68,62.42,720.87142529886,0.0,11,AutoTakeoff,,0.0
1600,2026-01-13 12:19:11,720.87142529886,0.328084,0.0,3.228428581,3.431102472,13,4,8.156,720.87142529886,0.0,0.0,3.228428581,0.0,0.0,0.0,347.7,3.1,0.4,0,0,1024,1024,1024,1024,0,0,0,0,0,0,0,98,4.085,4.071,0,0,0,0,1.68,62.42,720.87142529886,0.0,11,AutoTakeoff,,0.0
1700,2026-01-13 12:19:11,720.87142529886,0.328084,0.0,3.25886493368,3.4661090348,13,4,8.156,720.87142529886,0.0,0.0,3.25886493368,0.0,0.0,0.0,348.6,2.7,0.4,0,0,1024,1024,1024,1024,0,0,0,0,0,0,0,98,4.085,4.071,0,0,0,0,1.68,62.42,720.87142529886,0.0,11,AutoTakeoff,,0.0
1800,2026-01-13 12:19:12,720.87142529886,0.328084,0.0,3.3216536496,3.5293964384,13,4,8.156,720.87142529886,0.0,0.0,3.3216536496,0.0,0.0,0.0,349.5,1.5,1.0,0,0,1024,1024,1024,1024,0,0,0,0,0,0,0,98,4.085,4.071,0,0,0,0,1.68,62.42,720.87142529886,0.0,11,AutoTakeoff,,0.0
1900,2026-01-13 12:19:12,720.87142529886,0.328084,0.223694,3.399442366,3.6073163884,13,4,8.156,720.87142529886,0.0,0.223694,3.399442366,0.0,0.223694,-0.447388,349.7,0.6,-0.8,0,0,1024,1024,1024,1024,0,0,0,0,0,0,0,98,4.085,4.071,0,0,0,0,1.68,62.42,720.87142529886,0.0,11,AutoTakeoff,,0.0
2000,2026-01-13 12:19:12,720.87142529886,0.328084,0.223694,3.4755906624,3.6848098292,13,4,8.156,720.87142529886,0.0,0.223694,3.4755906624,0.0,0.223694,-0.671082,349.7,0.5,-1.3,0,0,1024,1024,1530,1024,0,0,77,0,0,0,0,98,4.085,4.071,0,0,0,0,1.68,62.42,720.87142529886,0.0,11,AutoTakeoff,Home Point updated. RTH altitude adjusted to 90 m (Code: 120852),0.0
2100,2026-01-13 12:19:12,721.19950929886,0.656168,0.223694,3.567257332,3.7856300424,13,4,8.156,721.19950929886,0.328084,0.223694,3.567257332,0.0,0.223694,-0.894776,349.8,0.1,-0.9,0,0,1024,1024,1530,1024,0,0,77,0,0,0,0,98,4.085,4.071,0,0,0,0,1.68,62.42,721.19950929886,0.328084,11,AutoTakeoff,,0.1
2200,2026-01-13 12:19:12,721.19950929886,0.656168,0.223694,3.6355972292,3.8552166588,13,4,8.156,721.19950929886,0.328084,0.223694,3.6355972292,0.0,0.223694,-1.342164,349.7,0.8,-0.4,0,0,1024,1024,1684,1024,0,0,100,0,0,0,0,98,4.085,4.071,0,0,0,0,1.68,62.42,721.19950929886,0.328084,11,AutoTakeoff,,0.1
2300,2026-01-13 12:19:12,721.52759329886,0.984252,0.223694,3.6930447376,3.9139108864,13,4,8.156,721.52759329886,0.656168,0.223694,3.6930447376,0.0,0.223694,-1.789552,349.8,1.6,-0.7,0,0,1024,1024,1684,1024,0,0,100,0,0,0,0,98,4.085,4.071,0,0,0,0,1.68,62.42,721.52759329886,0.656168,11,AutoTakeoff,,0.2
2400,2026-01-13 12:19:12,721.85567729886,0.984252,0.0,3.7438977576,3.966043434,13,4,8.156,721.85567729886,0.984252,0.223694,3.7438977576,0.0,0.0,-2.23694,350.0,0.7,-2.6,0,0,1024,1024,1684,1024,0,0,100,0,0,0,0,98,4.085,4.071,0,0,0,0,1.68,62.42,721.85567729886,0.984252,11,AutoTakeoff,,0.3
2500,2026-01-13 12:19:12,722.51184529886,1.312336,0.223694,3.8244095712,4.0480316256,13,4,7.816,722.51184529886,1.64042,0.223694,3.8244095712,0.223694,0.0,-2.908022,350.2,1.1,-2.0,0,0,1024,1024,1684,1024,0,0,100,0,0,0,0,98,3.88,3.871,0,0,0,0,5.07,62.42,722.51184529886,1.64042,11,AutoTakeoff,,0.5
2600,2026-01-13 12:19:12,722.83992929886,1.968504,0.223694,3.8628282076,4.0906169288,13,4,7.816,722.83992929886,1.968504,0.223694,3.8628282076,0.223694,0.0,-3.579104,350.1,1.7,-1.5,0,0,1024,1024,1684,1024,0,0,100,0,0,0,0,98,3.88,3.871,0,0,0,0,5.07,62.42,722.83992929886,1.968504,11,AutoTakeoff,,0.6
2700,2026-01-13 12:19:12,723.82418129886,2.296588,0.447388,3.8985565552,4.1330709984,13,4,7.816,723.82418129886,2.952756,0.447388,3.8985565552,0.447388,0.0,-4.026492,349.9,2.8,-1.4,0,0,1024,1024,1684,1024,0,0,100,0,0,0,0,98,3.88,3.871,0,0,0,0,5.07,62.42,723.82418129886,2.952756,11,AutoTakeoff,,0.9
2800,2026-01-13 12:19:13,724.48034929886,2.952756,0.447388,3.9154856896,4.1572179808,13,4,7.816,724.48034929886,3.608924,0.447388,3.9154856896,0.447388,0.0,-4.47388,349.7,3.6,-1.4,0,0,1024,1024,1684,1024,0,0,100,0,0,0,0,98,3.88,3.871,0,0,0,0,5.07,62.42,724.48034929886,3.608924,6,P-GPS,,1.1
2900,2026-01-13 12:19:13,725.13651729886,3.608924,0.447388,3.909612986,4.1630906844,13,4,7.816,725.13651729886,4.265092,0.447388,3.9154856896,0.447388,0.0,-4.697574,349.5,5.6,-0.9,0,0,1024,1024,1684,1024,0,0,100,0,0,0,0,98,3.88,3.871,0,0,0,0,5.07,62.42,725.13651729886,4.265092,6,P-GPS,,1.3
3000,2026-01-13 12:19:13,726.12076929886,4.593176,0.671082,3.9282481572,4.204560502,13,4,7.816,726.12076929886,5.249344,0.671082,3.9282481572,0.671082,0.0,-4.697574,349.6,7.2,-0.1,0,0,1024,1024,1684,1024,0,0,100,0,0,0,0,98,3.88,3.871,0,0,0,0,5.07,62.42,726.12076929886,5.249344,6,P-GPS,,1.6
3100,2026-01-13 12:19:13,726.77693729886,5.249344,0.671082,3.8042652136,4.3338584064,13,4,7.816,726.77693729886,5.905512,0.671082,3.9282481572,0.671082,0.0,-4.697574,349.5,7.1,0.0,0,0,1024,1024,1684,1024,0,0,100,0,0,0,0,98,3.88,3.871,0,0,0,0,5.07,62.42,726.77693729886,5.905512,6,P-GPS,,1.8
3200,2026-01-13 12:19:13,727.43310529886,6.233596,0.447388,3.697178596,4.4414699584,13,4,7.816,727.43310529886,6.56168,0.671082,3.9282481572,0.447388,0.0,-4.47388,349.3,7.8,-0.6,0,0,1024,1024,1684,1024,0,0,100,0,0,0,0,98,3.88,3.871,0,0,0,0,5.07,62.42,727.43310529886,6.56168,6,P-GPS,,2.0
3300,2026-01-13 12:19:13,728.41735729886,6.889764,0.447388,3.627132662,4.5296261292,13,4,7.816,728.41735729886,7.545932,0.671082,3.9282481572,0.447388,0.0,-4.250186,349.3,7.8,-0.6,0,0,1024,1024,1684,1024,0,0,100,0,0,0,0,98,3.88,3.871,0,0,0,0,5.07,62.42,728.41735729886,7.545932,6,P-GPS,,2.3
3400,2026-01-13 12:19:13,729.07352529886,7.874016,0.447388,3.3649607376,4.8356956928,14,4,7.816,729.07352529886,8.2021,0.671082,3.9282481572,0.447388,0.0,-4.250186,349.3,8.8,-0.5,0,0,1024,1024,1684,1024,0,0,100,0,0,0,0,98,3.88,3.871,0,0,0,0,5.07,62.42,729.07352529886,8.2021,6,P-GPS,,2.5
3500,2026-01-13 12:19:13,730.05777729886,8.530184,0.223694,3.3167323896,4.9359253548,14,4,7.816,730.05777729886,9.186352,0.671082,3.9282481572,0.223694,0.0,-4.250186,349.1,7.5,-1.5,0,0,1024,1024,1684,1024,0,0,100,0,0,0,0,98,3.88,3.871,0,0,0,0,5.07,62.42,730.05777729886,9.186352,6,P-GPS,,2.8
3600,2026-01-13 12:19:13,730.71394529886,9.186352,0.0,3.3133859328,5.0195539664,14,4,7.816,730.71394529886,9.84252,0.671082,3.9282481572,0.0,0.0,-4.250186,349.2,6.7,-2.2,0,0,1024,1024,1684,1024,0,0,100,0,0,0,0,98,3.917,3.916,0,0,0,0,5.07,62.42,730.71394529886,9.84252,6,P-GPS,,3.0
3700,2026-01-13 12:19:13,731.37011329886,9.84252,0.0,3.391240266,5.1161747044,14,4,7.816,731.37011329886,10.498688,0.671082,3.9282481572,0.0,0.0,-4.47388,349.3,6.0,-2.1,0,0,1024,1024,1684,1024,0,0,100,0,0,0,0,98,3.917,3.916,0,0,0,0,5.07,62.42,731.37011329886,10.498688,6,P-GPS,,3.2
3800,2026-01-13 12:19:14,732.02628129886,10.498688,0.223694,3.5120407948,5.292158962,14,5,7.816,732.02628129886,11.154856,0.671082,3.9282481572,0.0,0.223694,-4.250186,349.3,5.3,-2.3,0,0,1024,1024,1684,1024,0,0,100,0,0,0,0,98,3.917,3.916,0,0,0,0,5.07,62.42,732.02628129886,11.154856,6,P-GPS,,3.4
3900,2026-01-13 12:19:14,732.68244929886,10.826772,0.0,3.624015864,5.4143374436,14,5,7.816,732.68244929886,11.811024,0.671082,3.9282481572,0.0,0.0,-4.250186,349.1,5.4,-3.0,0,0,1024,1024,1684,1024,0,0,100,0,0,0,0,98,3.917,3.916,0,0,0,0,5.07,62.42,732.68244929886,11.811024,6,P-GPS,,3.6
4000,2026-01-13 12:19:14,733.33861729886,11.48294,0.223694,3.7471785976,5.5436681564,14,5,7.816,733.33861729886,12.467192,0.671082,3.9282481572,-0.223694,0.0,-4.026492,349.2,2.6,-2.6,0,0,1024,1024,1684,1024,0,0,100,0,0,0,0,98,3.917,3.916,0,0,0,0,5.07,62.42,733.33861729886,12.467192,6,P-GPS,,3.8
4100,2026-01-13 12:19:14,733.99478529886,11.811024,0.223694,3.884022434,5.6846786596,14,5,7.816,733.99478529886,13.12336,0.671082,3.9282481572,-0.223694,0.0,-4.026492,349.2,1.2,-2.4,0,0,1024,1024,1684,1024,0,0,100,0,0,0,0,98,3.917,3.916,0,0,0,0,5.07,62.42,733.99478529886,13.12336,6,P-GPS,,4.0
4200,2026-01-13 12:19:14,734.97903729886,12.139108,0.223694,3.9576444836,5.8002626528,14,5,7.816,734.97903729886,14.107612,0.671082,3.9576444836,-0.223694,0.0,-4.026492,349.3,0.7,-2.4,0,0,1024,1024,1684,1024,0,0,100,0,0,0,0,98,3.917,3.916,0,0,0,0,5.07,62.42,734.97903729886,14.107612,6,P-GPS,,4.3
4300,2026-01-13 12:19:14,735.63520529886,12.795276,0.223694,4.024114302,5.868930634,14,5,7.816,735.63520529886,14.76378,0.671082,4.024114302,-0.223694,0.0,-4.026492,349.4,0.7,-1.9,0,0,1024,1024,1684,1024,0,0,100,0,0,0,0,98,3.917,3.916,0,0,0,0,5.07,62.42,735.63520529886,14.76378,6,P-GPS,,4.5
4400,2026-01-13 12:19:14,736.29137329886,13.12336,0.223694,4.0811681096,5.929134048,14,5,7.816,736.29137329886,15.419948,0.671082,4.0811681096,-0.223694,0.0,-4.250186,349.4,0.6,-2.3,0,0,1024,1024,1684,1024,0,0,100,0,0,0,0,98,3.917,3.916,0,0,0,0,5.07,62.42,736.29137329886,15.419948,6,P-GPS,,4.7
4500,2026-01-13 12:19:14,736.94754129886,13.779528,0.0,4.145505382,5.999344024,14,5,7.816,736.94754129886,16.076116,0.671082,4.145505382,0.0,0.0,-4.250186,349.5,0.9,-2.3,0,0,1024,1024,1684,1024,0,0,100,0,0,0,0,98,3.917,3.916,0,0,0,0,5.07,62.42,736.94754129886,16.076116,6,P-GPS,,4.9
4600,2026-01-13 12:19:14,737.60370929886,14.435696,0.0,4.1924542024,6.0614503252,14,5,7.816,737.60370929886,16.732284,0.671082,4.1924542024,0.0,0.0,-4.250186,349.5,0.9,-2.1,0,0,1024,1024,1684,1024,0,0,100,0,0,0,0,98,3.917,3.916,0,0,0,0,5.07,62.42,737.60370929886,16.732284,6,P-GPS,,5.1
4700,2026-01-13 12:19:14,738.25987729886,15.091864,0.0,4.1347114184,6.3025264484,14,5,7.816,738.25987729886,17.388452,0.671082,4.1924542024,0.0,0.0,-4.250186,349.6,1.4,-1.6,0,0,1024,1024,1684,1024,0,0,100,0,0,0,0,98,3.917,3.916,0,0,0,0,5.07,62.42,738.25987729886,17.388452,6,P-GPS,,5.3
4800,2026-01-13 12:19:15,739.24412929886,15.748032,0.0,4.1298229668,6.3703086028,14,5,7.816,739.24412929886,18.372704,0.671082,4.1924542024,0.0,0.0,-4.47388,349.7,2.1,-1.7,0,0,1024,1024,1684,1024,0,0,100,0,0,0,0,98,3.917,3.916,0,0,0,0,5.07,62.42,739.24412929886,18.372704,6,P-GPS,,5.6
4900,2026-01-13 12:19:15,739.90029729886,16.4042,0.0,4.0508859564,6.4730317032,14,5,7.755,739.90029729886,19.028872,0.671082,4.1924542024,0.0,0.0,-4.47388,349.9,2.7,-2.1,0,0,1024,1024,1684,1024,0,0,100,0,0,0,0,98,3.881,3.875,0,0,0,0,6.489,62.42,739.90029729886,19.028872,6,P-GPS,,5.8
5000,2026-01-13 12:19:15,740.55646529886,17.060368,0.0,3.9955381856,6.552985774,14,5,7.755,740.55646529886,19.68504,0.671082,4.1924542024,0.0,0.0,-4.250186,350.0,3.0,-1.8,0,0,1024,1024,1684,1024,0,0,100,0,0,0,0,98,3.881,3.875,0,0,0,0,6.489,62.42,740.55646529886,19.68504,6,P-GPS,,6.0
5100,2026-01-13 12:19:15,741.21263329886,17.716536,0.0,3.8918636416,6.6701445704,14,5,7.755,741.21263329886,20.341208,0.671082,4.1924542024,0.0,0.0,-4.47388,349.8,3.3,-1.5,0,0,1024,1024,1684,1024,0,0,100,0,0,0,0,98,3.881,3.875,0,0,0,0,6.489,62.42,741.21263329886,20.341208,6,P-GPS,,6.2
5200,2026-01-13 12:19:15,741.86880129886,18.372704,0.0,3.9343505196,6.72408158,14,5,7.755,741.86880129886,20.997376,0.671082,4.1924542024,0.0,0.0,-4.47388,349.7,3.2,-0.7,0,0,1024,1024,1684,1024,0,0,100,0,0,0,0,98,3.881,3.875,0,0,0,0,6.489,62.42,741.86880129886,20.997376,6,P-GPS,,6.4
5300,2026-01-13 12:19:15,742.52496929886,19.356956,0.0,4.0377954048,6.8335960192,14,5,7.755,742.52496929886,21.653544,0.671082,4.1924542024,0.0,0.0,-4.47388,349.7,3.8,-0.5,0,0,1024,1024,1684,1024,0,0,100,0,0,0,0,98,3.881,3.875,0,0,0,0,6.489,62.42,742.52496929886,21.653544,6,P-GPS,,6.6
5400,2026-01-13 12:19:15,743.18113729886,20.013124,0.0,4.1306431768,6.9318899856,14,5,7.755,743.18113729886,22.309712,0.671082,4.1924542024,0.0,0.0,-4.47388,349.6,3.2,-0.1,0,0,1024,1024,1684,1024,0,0,100,0,0,0,0,98,3.881,3.875,0,0,0,0,6.489,62.42,743.18113729886,22.309712,6,P-GPS,,6.8
5500,2026-01-13 12:19:15,743.83730529886,20.997376,0.0,4.3780513212,7.1812010172,14,5,7.755,743.83730529886,22.96588,0.671082,4.3780513212,0.0,0.0,-4.47388,349.6,3.0,0.3,0,0,1024,1024,1684,1024,0,0,100,0,0,0,0,98,3.881,3.875,0,0,0,0,6.489,62.42,743.83730529886,22.96588,6,P-GPS,,7.0
5600,2026-01-13 12:19:15,744.82155729886,21.653544,0.0,4.414698304,7.227362436,14,5,7.755,744.82155729886,23.950132,0.671082,4.414698304,0.0,0.0,-4.47388,349.6,3.5,0.3,0,0,1024,1024,1684,1024,0,0,100,0,0,0,0,98,3.881,3.875,0,0,0,0,6.489,62.42,744.82155729886,23.950132,6,P-GPS,,7.3
5700,2026-01-13 12:19:15,745.47772529886,22.309712,0.0,4.3931431852,7.269193146,14,5,7.755,745.47772529886,24.6063,0.671082,4.414698304,0.0,0.0,-4.47388,349.8,4.0,0.4,0,0,1024,1024,1684,1024,0,0,100,0,0,0,0,98,3.881,3.875,0,0,0,0,6.489,62.42,745.47772529886,24.6063,6,P-GPS,,7.5
5800,2026-01-13 12:19:16,746.13389329886,22.637796,0.0,4.361712738,7.3066275304,14,5,7.755,746.13389329886,25.262468,0.671082,4.414698304,0.0,0.0,-4.47388,349.8,4.3,-0.1,0,0,1024,1024,1684,1024,0,0,100,0,0,0,0,98,3.881,3.875,0,0,0,0,6.489,62.42,746.13389329886,25.262468,6,P-GPS,,7.7
5900,2026-01-13 12:19:16,746.79006129886,25.918636,0.0,4.1267389772,7.54183095,14,5,7.755,746.79006129886,25.918636,0.671082,4.414698304,0.0,0.0,-4.47388,349.9,4.4,-0.7,0,0,1024,1024,1684,1024,0,0,100,0,0,0,0,98,3.881,3.875,0,0,0,0,6.489,62.42,746.79006129886,25.918636,6,P-GPS,,7.9
6000,2026-01-13 12:19:16,747.44622929886,26.902888,0.0,4.0893045928,7.5799215024,14,5,7.755,747.44622929886,26.574804,0.671082,4.414698304,0.0,0.0,-4.47388,349.9,4.1,-1.0,0,0,1024,1024,1684,1024,0,0,100,0,0,0,0,98,3.881,3.875,0,0,0,0,6.489,62.42,747.44622929886,26.574804,6,P-GPS,,8.1
6100,2026-01-13 12:19:16,748.43048129886,27.88714,0.0,4.0848754588,7.5958335764,14,5,7.83,748.43048129886,27.559056,0.671082,4.414698304,0.0,0.0,-4.47388,350.0,4.5,-1.0,0,0,1024,1024,1684,1024,0,0,100,0,0,0,0,98,3.918,3.912,0,0,0,0,5.58,62.42,748.43048129886,27.559056,6,P-GPS,,8.4
6200,2026-01-13 12:19:16,749.08664929886,28.871392,0.0,4.0893045928,7.6165356768,14,5,7.83,749.08664929886,28.215224,0.671082,4.414698304,0.0,0.0,-4.47388,350.1,3.9,-0.8,0,0,1024,1024,1684,1024,0,0,100,0,0,0,0,98,3.918,3.912,0,0,0,0,5.58,62.42,749.08664929886,28.215224,6,P-GPS,,8.6
6300,2026-01-13 12:19:16,749.74281729886,29.52756,0.0,4.1057087928,7.6498362028,14,5,7.83,749.74281729886,28.871392,0.671082,4.414698304,0.0,0.0,-4.47388,350.1,3.3,-1.1,0,0,1024,1024,1684,1024,0,0,100,0,0,0,0,98,3.918,3.912,0,0,0,0,5.58,62.42,749.74281729886,28.871392,6,P-GPS,,8.8
6400,2026-01-13 12:19:16,750.39898529886,30.183728,0.0,4.138123492,7.7187338428,14,5,7.83,750.39898529886,29.52756,0.671082,4.414698304,0.0,0.0,-4.47388,350.1,3.1,-1.7,0,0,1024,1024,1684,1024,0,0,100,0,0,0,0,98,3.918,3.912,0,0,0,0,5.58,62.42,750.39898529886,29.52756,6,P-GPS,,9.0
6500,2026-01-13 12:19:16,751.05515329886,30.183728,0.0,4.195210108,7.7760501176,14,5,7.83,751.05515329886,30.183728,0.671082,4.414698304,0.0,0.0,-4.250186,350.1,3.5,-1.6,0,0,1024,1024,1684,1024,0,0,100,0,0,0,0,98,3.918,3.912,0,0,0,0,5.58,62.42,751.05515329886,30.183728,6,P-GPS,,9.2
6600,2026-01-13 12:19:16,751.71132129886,30.183728,0.0,4.2636812388,7.8453742668,14,5,7.83,751.71132129886,30.839896,0.671082,4.414698304,0.0,0.0,-4.250186,350.2,3.5,-1.8,0,0,1024,1024,1684,1024,0,0,100,0,0,0,0,98,3.918,3.912,0,0,0,0,5.58,62.42,751.71132129886,30.839896,6,P-GPS,,9.4
6700,2026-01-13 12:19:16,752.36748929886,30.839896,0.0,4.3683400348,7.9520343752,14,5,7.83,752.36748929886,31.496064,0.671082,4.414698304,0.0,0.0,-4.47388,350.3,2.4,-1.7,0,0,1024,1024,1684,1024,0,0,100,0,0,0,0,98,3.918,3.912,0,0,0,0,5.58,62.42,752.36748929886,31.496064,6,P-GPS,,9.6
6800,2026-01-13 12:19:16,753.35174129886,31.496064,0.0,4.6259844,8.2249674548,14,5,7.83,753.35174129886,32.480316,0.671082,4.6259844,0.0,0.0,-4.47388,350.2,2.6,-2.0,0,0,1024,1024,1684,1024,0,0,100,0,0,0,0,98,3.918,3.912,0,0,0,0,5.58,62.42,753.35174129886,32.480316,6,P-GPS,,9.9
6900,2026-01-13 12:19:17,754.00790929886,31.824148,0.0,4.6646326952,8.2643375348,14,5,7.83,754.00790929886,33.136484,0.671082,4.6646326952,0.0,0.0,-4.250186,350.1,2.8,-1.8,0,0,1024,1024,1024,1024,0,0,0,0,0,0,0,98,3.918,3.912,0,0,0,0,5.58,62.42,754.00790929886,33.136484,6,P-GPS,,10.1
7000,2026-01-13 12:19:17,754.66407729886,32.152232,0.0,4.7054135364,8.3051511844,14,5,7.83,754.66407729886,33.792652,0.671082,4.7054135364,0.0,0.0,-4.47388,350.1,2.6,-1.6,0,0,1024,1024,1024,1024,0,0,0,0,0,0,0,98,3.918,3.912,0,0,0,0,5.58,62.42,754.66407729886,33.792652,6,P-GPS,,10.3
7100,2026-01-13 12:19:17,755.32024529886,32.8084,0.0,4.7660106512,8.3660435748,14,5,7.83,755.32024529886,34.44882,0.671082,4.7660106512,0.0,0.0,-4.250186,350.0,3.9,-1.1,0,0,1024,1024,1024,1024,0,0,0,0,0,0,0,98,3.918,3.912,0,0,0,0,5.58,62.42,755.32024529886,34.44882,6,P-GPS,,10.5
7200,2026-01-13 12:19:17,755.97641329886,33.464568,0.0,4.8280185272,8.4328742856,14,5,7.807,755.97641329886,35.104988,0.671082,4.8280185272,0.0,0.0,-3.579104,350.0,4.4,-0.5,0,0,1024,1024,1024,1024,0,0,0,0,0,0,0,98,3.906,3.901,0,0,0,0,5.389,62.42,755.97641329886,35.104988,6,P-GPS,,10.7
7300,2026-01-13 12:19:17,756.30449729886,33.792652,0.0,4.8474411,8.4722443656,14,5,7.807,756.30449729886,35.433072,0.671082,4.8474411,0.0,0.0,-2.908022,349.9,4.0,-0.1,0,0,1024,1024,1024,1024,0,0,0,0,0,0,0,98,3.906,3.901,0,0,0,0,5.389,62.42,756.30449729886,35.433072,6,P-GPS,,10.8
7400,2026-01-13 12:19:17,756.63258129886,34.120736,0.0,4.8771655104,8.517388724,14,5,7.807,756.63258129886,35.761156,0.671082,4.8771655104,0.0,0.0,-2.013246,349.8,3.1,-0.2,0,0,1024,1024,1024,1024,0,0,0,0,0,0,0,98,3.906,3.901,0,0,0,0,5.389,62.42,756.63258129886,35.761156,6,P-GPS,,10.9
7500,2026-01-13 12:19:17,756.96066529886,34.44882,0.0,4.932414856,8.5878939756,14,5,7.807,756.96066529886,36.08924,0.671082,4.932414856,0.0,0.0,-1.342164,349.8,2.4,-0.4,0,0,1024,1024,1024,1024,0,0,0,0,0,0,0,98,3.906,3.901,0,0,0,0,5.389,62.42,756.96066529886,36.08924,6,P-GPS,,11.0
7600,2026-01-13 12:19:17,756.96066529886,34.44882,0.0,4.8795605236,8.7190947672,14,5,7.807,756.96066529886,36.08924,0.671082,4.932414856,0.0,0.0,-0.671082,349.9,2.3,-0.5,0,0,1024,1024,1024,1024,0,0,0,0,0,0,0,98,3.906,3.901,0,0,0,0,5.389,62.42,756.96066529886,36.08924,6,P-GPS,,11.0
7700,2026-01-13 12:19:17,757.28874929886,34.776904,0.0,4.90075475,8.7594819076,14,5,7.807,757.28874929886,36.417324,0.671082,4.932414856,0.0,0.0,-0.223694,349.9,2.5,-0.3,0,0,1024,1024,1024,1024,0,0,0,0,0,0,0,98,3.906,3.901,0,0,0,0,5.389,62.42,757.28874929886,36.417324,6,P-GPS,,11.1
7800,2026-01-13 12:19:18,757.28874929886,34.776904,0.0,4.921588084,8.7946853208,14,5,7.807,757.28874929886,36.417324,0.671082,4.932414856,0.0,0.0,0.0,349.8,1.9,-0.6,0,0,1024,1024,1024,1024,0,0,0,0,0,0,0,98,3.906,3.901,0,0,0,0,5.389,62.42,757.28874929886,36.417324,6,P-GPS,,11.1
7900,2026-01-13 12:19:18,757.28874929886,34.776904,0.0,4.9433400532,8.823163012,14,5,7.807,757.28874929886,36.417324,0.671082,4.9433400532,0.0,0.0,0.0,349.7,1.4,-0.6,0,0,1024,1024,1024,1024,0,0,0,0,0,0,0,98,3.906,3.901,0,0,0,0,5.389,62.42,757.28874929886,36.417324,6,P-GPS,,11.1
8000,2026-01-13 12:19:18,757.28874929886,34.776904,0.223694,4.9774279808,8.8603021208,14,5,7.807,757.28874929886,36.417324,0.671082,4.9774279808,-0.223694,0.0,0.0,349.8,1.2,-0.3,0,0,1024,1024,1024,1024,0,0,0,0,0,0,0,98,3.906,3.901,0,0,0,0,5.389,62.42,757.28874929886,36.417324,6,P-GPS,,11.1
8100,2026-01-13 12:19:18,757.28874929886,34.776904,0.223694,5.0709647292,8.9538716776,14,5,7.807,757.28874929886,36.417324,0.671082,5.0709647292,-0.223694,0.0,0.0,349.7,0.6,-0.6,0,0,1024,1024,1024,1024,0,0,0,0,0,0,0,98,3.906,3.901,0,0,0,0,5.389,62.42,757.28874929886,36.417324,6,P-GPS,,11.1
8200,2026-01-13 12:19:18,757.28874929886,34.776904,0.223694,5.140912238,9.0245737796,13,5,7.807,757.28874929886,36.417324,0.671082,5.140912238,-0.223694,0.0,0.0,349.8,0.6,-0.9,0,0,1024,1024,1024,1024,0,0,0,0,0,0,0,98,3.906,3.901,0,0,0,0,5.389,62.42,757.28874929886,36.417324,6,P-GPS,,11.1
8300,2026-01-13 12:19:18,757.28874929886,34.776904,0.0,5.2082678832,9.0937995036,13,5,7.825,757.28874929886,36.417324,0.671082,5.2082678832,0.0,0.0,0.0,349.7,0.4,-0.5,0,0,1024,1024,1024,1024,0,0,0,0,0,0,0,98,3.904,3.897,0,0,0,0,5.006,62.42,757.28874929886,36.417324,6,P-GPS,,11.1
8400,2026-01-13 12:19:18,757.61683329886,34.776904,0.0,5.2621064676,9.1500659096,14,5,7.825,757.61683329886,36.745408,0.671082,5.2621064676,0.0,0.0,0.0,349.6,0.3,0.0,0,0,1024,1024,1024,1024,0,0,0,0,0,0,0,98,3.904,3.897,0,0,0,0,5.006,62.42,757.61683329886,36.745408,6,P-GPS,,11.2
8500,2026-01-13 12:19:18,757.61683329886,34.776904,0.0,5.3069883588,9.195046226,14,5,7.825,757.61683329886,36.745408,0.671082,5.3069883588,0.0,0.0,0.0,349.3,0.3,0.0,0,0,1024,1024,1024,1024,0,0,0,0,0,0,0,98,3.904,3.897,0,0,0,0,5.006,62.42,757.61683329886,36.745408,6,P-GPS,,11.2
8600,2026-01-13 12:19:18,757.61683329886,34.776904,0.0,5.3364174936,9.2257876968,14,5,7.825,757.61683329886,36.745408,0.671082,5.3364174936,0.0,0.0,0.0,349.5,0.0,-0.4,0,0,1024,1024,1024,1024,0,0,0,0,0,0,0,98,3.904,3.897,0,0,0,0,5.006,62.42,757.61683329886,36.745408,6,P-GPS,,11.2
8700,2026-01-13 12:19:18,757.94491729886,34.776904,0.0,5.3719161824,9.2653218188,14,5,7.825,757.94491729886,37.073492,0.671082,5.3719161824,0.0,0.0,0.0,349.6,-0.8,-1.1,0,0,1024,1024,1024,1024,0,0,0,0,0,0,0,98,3.904,3.897,0,0,0,0,5.006,62.42,757.94491729886,37.073492,6,P-GPS,,11.3
8800,2026-01-13 12:19:18,757.94491729886,34.776904,0.0,5.404035606,9.3011485916,15,5,7.825,757.94491729886,37.073492,0.671082,5.404035606,0.0,0.0,0.0,349.6,-1.4,-1.3,0,0,1024,1024,1024,1024,0,0,0,0,0,0,0,98,3.904,3.897,0,0,0,0,5.006,62.42,757.94491729886,37.073492,6,P-GPS,,11.3
8900,2026-01-13 12:19:19,758.27300129886,34.776904,0.0,5.4513125104,9.3542981996,15,5,7.825,758.27300129886,37.401576,0.671082,5.4513125104,0.0,0.0,0.0,349.7,-1.3,-0.9,0,0,1024,1024,1024,1024,0,0,0,0,0,0,0,98,3.904,3.897,0,0,0,0,5.006,62.42,758.27300129886,37.401576,6,P-GPS,,11.4
9000,2026-01-13 12:19:19,758.27300129886,34.776904,0.0,5.47818259,9.387795576,15,5,7.825,758.27300129886,37.401576,0.671082,5.47818259,0.0,0.0,0.0,349.8,-0.9,-1.1,0,0,1024,1024,1024,1024,0,0,0,0,0,0,0,98,3.904,3.897,0,0,0,0,5.006,62.42,758.27300129886,37.401576,6,P-GPS,,11.4
9100,2026-01-13 12:19:19,758.60108529886,34.776904,0.0,5.5077757668,9.42503311,15,5,7.825,758.60108529886,37.72966,0.671082,5.5077757668,0.0,0.0,0.0,349.5,-0.1,-1.3,0,0,1024,1024,1024,1024,0,0,0,0,0,0,0,98,3.904,3.897,0,0,0,0,5.006,62.42,758.60108529886,37.72966,6,P-GPS,,11.5
9200,2026-01-13 12:19:19,758.60108529886,34.776904,0.0,5.536909626,9.464239148,15,5,7.825,758.60108529886,37.72966,0.671082,5.536909626,0.0,0.0,0.0,349.4,0.3,-0.8,0,0,1024,1024,1024,1024,0,0,0,0,0,0,0,98,3.904,3.897,0,0,0,0,5.006,62.42,758.60108529886,37.72966,6,P-GPS,,11.5
9300,2026-01-13 12:19:19,758.92916929886,34.776904,0.0,5.6246392876,9.552001618,15,5,7.825,758.92916929886,38.057744,0.671082,5.6246392876,0.0,0.0,0.0,349.3,-0.2,0.0,0,0,1024,1024,1024,1024,0,0,0,0,0,0,0,98,3.904,3.897,0,0,0,0,5.006,62.42,758.92916929886,38.057744,6,P-GPS,,11.6
9400,2026-01-13 12:19:19,758.92916929886,34.776904,0.0,5.654363698,9.5928808844,15,5,7.825,758.92916929886,38.057744,0.671082,5.654363698,0.0,0.0,0.0,349.3,0.0,0.6,0,0,1024,1024,1024,1024,0,0,0,0,0,0,0,98,3.913,3.912,0,0,0,0,5.34,62.6,758.92916929886,38.057744,6,P-GPS,,11.6
9500,2026-01-13 12:19:19,759.25725329886,34.776904,0.0,5.6660434884,9.6253612004,15,5,7.825,759.25725329886,38.385828,0.671082,5.6660434884,0.0,0.0,0.0,349.2,-0.2,0.4,0,0,1024,1024,1024,1024,0,0,0,0,0,0,0,98,3.913,3.912,0,0,0,0,5.34,62.6,759.25725329886,38.385828,6,P-GPS,,11.7
9600,2026-01-13 12:19:19,759.25725329886,34.776904,0.0,5.6660762968,9.6431433532,15,5,7.825,759.25725329886,38.385828,0.671082,5.6660762968,0.0,0.0,0.0,349.2,-0.2,0.2,0,0,1024,1024,1024,1024,0,0,0,0,0,0,0,98,3.913,3.912,0,0,0,0,5.34,62.6,759.25725329886,38.385828,6,P-GPS,,11.7
9700,2026-01-13 12:19:19,759.25725329886,34.776904,0.0,5.6365487368,9.6727693384,15,5,7.825,759.25725329886,38.385828,0.671082,5.6660762968,0.0,0.0,0.0,349.1,-0.1,0.0,0,0,1024,1024,1024,1024,0,0,0,0,0,0,0,98,3.913,3.912,0,0,0,0,5.34,62.6,759.25725329886,38.385828,6,P-GPS,,11.7
9800,2026-01-13 12:19:20,759.58533729886,34.776904,0.0,5.5195539824,9.8005580564,15,5,7.825,759.58533729886,38.713912,0.671082,5.6660762968,0.0,0.0,0.223694,349.1,-2.7,0.5,0,0,1024,1024,1024,1024,0,0,0,0,0,0,0,98,3.913,3.912,0,0,0,0,5.34,62.6,759.58533729886,38.713912,6,P-GPS,,11.8
9900,2026-01-13 12:19:20,759.58533729886,34.776904,0.0,5.4816930888,9.8463585828,15,5,7.825,759.58533729886,38.713912,0.671082,5.6660762968,0.0,0.0,0.223694,349.4,-2.0,0.0,0,0,1024,1024,1024,1024,0,0,0,0,0,0,0,98,3.913,3.912,0,0,0,0,5.34,62.6,759.58533729886,38.713912,6,P-GPS,,11.8
10000,2026-01-13 12:19:20,759.58533729886,34.776904,0.223694,5.4345146096,9.9078415244,15,5,7.825,759.58533729886,38.713912,0.671082,5.6660762968,0.0,0.223694,0.223694,349.2,-1.4,-1.9,0,0,1024,1024,1024,1024,0,0,0,0,0,0,0,98,3.913,3.912,0,0,0,0,5.34,62.6,759.58533729886,38.713912,6,P-GPS,,11.8
10100,2026-01-13 12:19:20,759.91342129886,34.776904,0.3131716,5.3910106712,9.977362524,15,5,7.825,759.91342129886,39.041996,0.671082,5.6660762968,0.223694,0.223694,0.223694,349.4,-1.3,-2.9,0,0,1024,1024,1024,1024,0,0,0,0,0,0,0,98,3.913,3.912,0,0,0,0,5.34,62.6,759.91342129886,39.041996,6,P-GPS,,11.9
10200,2026-01-13 12:19:20,759.91342129886,34.776904,0.3131716,5.3412403284,10.1004924492,15,5,7.825,759.91342129886,39.041996,0.671082,5.6660762968,0.223694,0.0,0.0,349.3,-0.1,-3.2,0,0,1024,1024,1024,1024,0,0,0,0,0,0,0,98,3.913,3.912,0,0,0,0,5.34,62.6,759.91342129886,39.041996,6,P-GPS,,11.9
10300,2026-01-13 12:19:20,759.91342129886,34.776904,0.223694,5.3016077812,10.1560698788,15,5,7.825,759.91342129886,39.041996,0.671082,5.6660762968,0.223694,0.0,0.0,349.4,0.5,-3.4,0,0,1024,1024,1024,1024,0,0,0,0,0,0,0,98,3.913,3.912,0,0,0,0,5.34,62.6,759.91342129886,39.041996,6,P-GPS,,11.9
10400,2026-01-13 12:19:20,759.91342129886,34.776904,0.223694,5.2604660476,10.2164045264,15,5,7.825,759.91342129886,39.041996,0.671082,5.6660762968,0.223694,0.0,0.0,349.6,0.6,-4.0,0,0,1024,1024,1024,1024,0,0,0,0,0,0,0,98,3.913,3.912,0,0,0,0,5.34,62.6,759.91342129886,39.041996,6,P-GPS,,11.9
10500,2026-01-13 12:19:20,759.91342129886,34.776904,0.223694,5.2056432112,10.3073166028,15,5,7.812,759.91342129886,39.041996,0.671082,5.6660762968,0.223694,0.0,0.0,349.9,0.6,-4.0,0,0,1024,1024,1024,1024,0,0,0,0,0,0,0,98,3.903,3.911,0,0,0,0,5.052,62.6,759.91342129886,39.041996,6,P-GPS,,11.9
10600,2026-01-13 12:19:20,759.58533729886,34.776904,0.223694,5.1963912424,10.4454071584,15,5,7.812,759.91342129886,39.041996,0.671082,5.6660762968,0.223694,0.0,0.0,350.0,0.5,-3.3,0,0,1024,1024,1024,1024,0,0,0,0,0,0,0,98,3.903,3.911,0,0,0,0,5.052,62.6,759.58533729886,38.713912,6,P-GPS,,11.8
10700,2026-01-13 12:19:20,759.58533729886,34.776904,0.223694,5.113025098,10.5434058492,15,5,7.812,759.91342129886,39.041996,0.671082,5.6660762968,0.223694,0.0,0.0,350.2,1.5,-2.9,0,0,1024,1024,1024,1024,0,0,0,0,0,0,0,98,3.903,3.911,0,0,0,0,5.052,62.6,759.58533729886,38.713912,6,P-GPS,,11.8
10800,2026-01-13 12:19:21,759.58533729886,34.776904,0.223694,5.0412731272,10.6282483716,15,5,7.812,759.91342129886,39.041996,0.671082,5.6660762968,0.223694,0.0,0.0,350.4,0.9,-2.5,0,0,1024,1024,1024,1024,0,0,0,0,0,0,0,98,3.903,3.911,0,0,0,0,5.052,62.6,759.58533729886,38.713912,6,P-GPS,,11.8
10900,2026-01-13 12:19:21,759.25725329886,34.776904,0.223694,4.992454228,10.6915357752,15,5,7.812,759.91342129886,39.041996,0.671082,5.6660762968,0.223694,0.0,0.0,350.6,1.3,-2.1,0,0,1024,1024,1024,1024,0,0,0,0,0,0,0,98,3.903,3.911,0,0,0,0,5.052,62.6,759.25725329886,38.385828,6,P-GPS,,11.7
11000,2026-01-13 12:19:21,759.25725329886,34.776904,0.223694,4.9394358536,10.7562011316,15,5,7.812,759.91342129886,39.041996,0.671082,5.6660762968,0.223694,0.0,0.0,350.7,2.2,-1.5,0,0,1024,1024,1024,1024,0,0,0,0,0,0,0,98,3.903,3.911,0,0,0,0,5.052,62.6,759.25725329886,38.385828,6,P-GPS,SD card speed low. Normal use may be affected. Replace SD card (Code: 10028). Gimbal stuck. Make sure gimbal cover is removed and manually check whether gimbal can rotate freely (Code: 40002),11.7
11100,2026-01-13 12:19:21,759.25725329886,34.776904,0.223694,4.8687009432,10.8373034964,15,5,7.812,759.91342129886,39.041996,0.671082,5.6660762968,0.223694,0.0,0.0,350.8,3.1,-1.4,0,0,1024,1024,1024,1024,0,0,0,0,0,0,0,98,3.903,3.911,0,0,0,0,5.052,62.6,759.25725329886,38.385828,6,P-GPS,,11.7
11200,2026-01-13 12:19:21,758.92916929886,34.776904,0.223694,4.8016077652,10.914862554,15,5,7.812,759.91342129886,39.041996,0.671082,5.6660762968,0.223694,0.0,0.0,350.7,4.0,-1.5,0,0,1024,1024,1024,1024,0,0,0,0,0,0,0,98,3.903,3.911,0,0,0,0,5.052,62.6,758.92916929886,38.057744,6,P-GPS,,11.6
11300,2026-01-13 12:19:21,758.92916929886,34.776904,0.223694,4.7392061884,10.9835305352,15,5,7.812,759.91342129886,39.041996,0.671082,5.6660762968,0.223694,0.0,0.0,350.9,4.1,-1.6,0,0,1024,1024,1024,1024,0,0,0,0,0,0,0,98,3.903,3.911,0,0,0,0,5.052,62.6,758.92916929886,38.057744,6,P-GPS,,11.6
11400,2026-01-13 12:19:21,758.92916929886,34.776904,0.223694,4.6808400448,11.0496066528,15,5,7.812,759.91342129886,39.041996,0.671082,5.6660762968,0.223694,0.0,0.0,350.9,5.0,-1.8,0,0,1024,1024,1024,1024,0,0,0,0,0,0,0,98,3.903,3.911,0,0,0,0,5.052,62.6,758.92916929886,38.057744,6,P-GPS,,11.6
11500,2026-01-13 12:19:21,758.92916929886,34.776904,0.223694,4.58825474,11.1423231912,15,5,7.812,759.91342129886,39.041996,0.671082,5.6660762968,0.223694,0.0,0.0,350.8,5.3,-1.6,0,0,1024,1024,1024,1024,0,0,0,0,0,0,0,98,3.903,3.911,0,0,0,0,5.052,62.6,758.92916929886,38.057744,6,P-GPS,,11.6
11600,2026-01-13 12:19:21,758.92916929886,34.776904,0.223694,4.5376969956,11.2085305424,15,5,7.812,759.91342129886,39.041996,0.671082,5.6660762968,0.223694,0.0,0.0,350.9,4.9,-2.2,0,0,1024,1024,1024,1024,0,0,0,0,0,0,0,98,3.931,3.927,0,0,0,0,5.052,62.6,758.92916929886,38.057744,6,P-GPS,,11.6
11700,2026-01-13 12:19:21,758.60108529886,34.776904,0.0,4.4995736348,11.280184088,15,5,7.812,759.91342129886,39.041996,0.671082,5.6660762968,0.0,0.0,0.0,350.8,4.9,-2.5,0,0,1024,1024,1024,1024,0,0,0,0,0,0,0,98,3.931,3.927,0,0,0,0,5.052,62.6,758.60108529886,37.72966,6,P-GPS,,11.5
11800,2026-01-13 12:19:21,758.60108529886,34.776904,0.0,4.4798885948,11.3390423576,15,5,7.812,759.91342129886,39.041996,0.671082,5.6660762968,0.0,0.0,0.0,350.6,5.6,-2.2,0,0,1024,1024,1024,1024,0,0,0,0,0,0,0,98,3.931,3.927,0,0,0,0,5.052,62.6,758.60108529886,37.72966,6,P-GPS,,11.5
11900,2026-01-13 12:19:22,758.60108529886,34.776904,0.0,4.4954725848,11.3670279228,15,5,7.812,759.91342129886,39.041996,0.671082,5.6660762968,0.0,0.0,0.0,350.6,5.7,-1.9,0,0,1024,1024,1024,1024,0,0,0,0,0,0,0,98,3.931,3.927,0,0,0,0,5.052,62.6,758.60108529886,37.72966,6,P-GPS,,11.5
12000,2026-01-13 12:19:22,758.60108529886,34.776904,0.0,4.5289371528,11.4224413104,15,5,7.812,759.91342129886,39.041996,0.671082,5.6660762968,0.0,0.0,0.0,350.6,4.1,-1.8,0,0,1024,1024,1024,1024,0,0,0,0,0,0,0,98,3.931,3.927,0,0,0,0,5.052,62.6,758.60108529886,37.72966,6,P-GPS,,11.5
12100,2026-01-13 12:19:22,758.60108529886,34.776904,0.223694,4.5770014588,11.4964898692,15,5,7.812,759.91342129886,39.041996,0.671082,5.6660762968,-0.223694,0.0,0.0,350.5,2.1,-2.4,0,0,1024,1024,1024,1024,0,0,0,0,0,0,0,98,3.931,3.927,0,0,0,0,5.052,62.6,758.60108529886,37.72966,6,P-GPS,,11.5
12200,2026-01-13 12:19:22,758.60108529886,34.776904,0.3131716,4.6233269196,11.5712602128,15,5,7.812,759.91342129886,39.041996,0.671082,5.6660762968,-0.223694,0.223694,0.0,350.5,1.6,-3.6,0,0,1024,1024,1024,1024,0,0,0,0,0,0,0,98,3.931,3.927,0,0,0,0,5.052,62.6,758.60108529886,37.72966,6,P-GPS,,11.5
12300,2026-01-13 12:19:22,758.60108529886,34.776904,0.3131716,4.5989830868,11.6036092952,15,5,7.812,759.91342129886,39.041996,0.671082,5.6660762968,-0.223694,0.223694,0.0,350.5,2.8,-4.0,0,0,1024,1024,1024,1024,0,0,0,0,0,0,0,98,3.931,3.927,0,0,0,0,5.052,62.6,758.60108529886,37.72966,6,P-GPS,,11.5
12400,2026-01-13 12:19:22,758.60108529886,34.776904,0.3131716,4.6373689148,11.6609911868,15,5,7.812,759.91342129886,39.041996,0.671082,5.6660762968,-0.223694,0.223694,0.0,350.5,3.2,-4.0,0,0,1024,1024,1024,1024,0,0,0,0,0,0,0,98,3.931,3.927,0,0,0,0,5.052,62.6,758.60108529886,37.72966,6,P-GPS,,11.5
12500,2026-01-13 12:19:22,758.60108529886,34.776904,0.3131716,4.7069883396,11.7378940764,15,5,7.812,759.91342129886,39.041996,0.671082,5.6660762968,-0.223694,0.223694,0.0,350.9,0.8,-4.3,0,0,1024,1024,1024,1024,0,0,0,0,0,0,0,98,3.931,3.927,0,0,0,0,5.052,62.6,758.60108529886,37.72966,6,P-GPS,,11.5
12600,2026-01-13 12:19:22,758.60108529886,34.776904,0.4921268,4.7837271872,11.821030562,15,5,7.812,759.91342129886,39.041996,0.671082,5.6660762968,-0.447388,0.223694,0.0,351.1,-1.1,-5.0,0,0,1024,1024,1024,1024,0,0,0,0,0,0,0,98,3.931,3.927,0,0,0,0,5.052,62.6,758.60108529886,37.72966,6,P-GPS,,11.5
12700,2026-01-13 12:19:22,758.92916929886,34.776904,0.3131716,4.8742783712,11.9167654732,15,5,7.812,759.91342129886,39.041996,0.671082,5.6660762968,-0.223694,0.223694,0.0,351.3,-2.0,-5.5,0,0,1024,1024,1024,1024,0,0,0,0,0,0,0,98,3.931,3.927,0,0,0,0,5.052,62.6,758.92916929886,38.057744,6,P-GPS,,11.6
12800,2026-01-13 12:19:23,758.92916929886,34.776904,0.3131716,4.938976536,11.9906171816,15,5,7.83,759.91342129886,39.041996,0.671082,5.6660762968,-0.223694,0.223694,0.0,351.3,-1.0,-6.2,0,0,1024,1024,1024,1024,0,0,0,0,0,0,0,98,3.917,3.914,0,0,0,0,4.729,62.6,758.92916929886,38.057744,6,P-GPS,,11.6
12900,2026-01-13 12:19:23,758.92916929886,34.776904,0.223694,4.9860893984,12.0456368684,15,5,7.83,759.91342129886,39.041996,0.671082,5.6660762968,0.0,0.223694,0.0,351.3,0.0,-6.4,0,0,1024,1024,1024,1024,0,0,0,0,0,0,0,98,3.917,3.914,0,0,0,0,4.729,62.6,758.92916929886,38.057744,6,P-GPS,,11.6
13000,2026-01-13 12:19:23,758.92916929886,34.776904,0.0,5.0311025232,12.094160492,15,5,7.83,759.91342129886,39.041996,0.671082,5.6660762968,0.0,0.0,0.0,351.6,-0.4,-6.5,0,0,1024,1024,1024,1024,0,0,0,0,0,0,0,98,3.917,3.914,0,0,0,0,4.729,62.6,758.92916929886,38.057744,6,P-GPS,,11.6
13100,2026-01-13 12:19:23,758.92916929886,34.776904,0.0,5.0870080368,12.150098814,15,5,7.83,759.91342129886,39.041996,0.671082,5.6660762968,0.0,0.0,0.0,351.8,-0.2,-6.1,0,0,1024,1024,1024,1024,0,0,0,0,0,0,0,98,3.917,3.914,0,0,0,0,4.729,62.6,758.92916929886,38.057744,6,P-GPS,,11.6
13200,2026-01-13 12:19:23,758.60108529886,34.776904,0.0,5.1515421596,12.2468179772,15,5,7.83,759.91342129886,39.041996,0.671082,5.6660762968,0.0,0.0,0.0,352.1,0.8,-6.0,0,0,1024,1024,1024,1024,0,0,0,0,0,0,0,98,3.917,3.914,0,0,0,0,4.729,62.6,758.60108529886,37.72966,6,P-GPS,,11.5
13300,2026-01-13 12:19:23,758.60108529886,34.776904,0.0,5.1507875664,12.2640095788,15,5,7.83,759.91342129886,39.041996,0.671082,5.6660762968,0.0,0.0,0.0,352.0,2.2,-5.8,0,0,1024,1024,1024,1024,0,0,0,0,0,0,0,98,3.917,3.914,0,0,0,0,4.729,62.6,758.60108529886,37.72966,6,P-GPS,,11.5
13400,2026-01-13 12:19:23,758.60108529886,34.776904,0.0,5.1382547576,12.2905843828,15,5,7.83,759.91342129886,39.041996,0.671082,5.6660762968,0.0,0.0,0.0,352.1,2.9,-5.3,0,0,1024,1024,1024,1024,0,0,0,0,0,0,0,98,3.917,3.914,0,0,0,0,4.729,62.6,758.60108529886,37.72966,6,P-GPS,,11.5
13500,2026-01-13 12:19:23,758.27300129886,34.776904,0.0,5.103510662,12.3281828092,15,5,7.83,759.91342129886,39.041996,0.671082,5.6660762968,0.0,0.0,0.0,352.2,3.3,-4.2,0,0,1024,1024,1024,1024,0,0,0,0,0,0,0,98,3.917,3.914,0,0,0,0,4.729,62.6,758.27300129886,37.401576,6,P-GPS,,11.4
13600,2026-01-13 12:19:23,758.27300129886,34.776904,0.0,5.0049870368,12.4267392428,15,5,7.83,759.91342129886,39.041996,0.671082,5.6660762968,0.0,0.0,0.0,352.2,4.1,-4.3,0,0,1024,1024,1024,1024,0,0,0,0,0,0,0,98,3.917,3.914,0,0,0,0,4.729,62.6,758.27300129886,37.401576,6,P-GPS,,11.4
13700,2026-01-13 12:19:23,757.94491729886,34.776904,0.0,4.9491799484,12.4856631292,15,5,7.83,759.91342129886,39.041996,0.671082,5.6660762968,0.0,0.0,0.0,352.2,3.6,-4.0,0,0,1024,1024,1024,1024,0,0,0,0,0,0,0,98,3.917,3.914,0,0,0,0,4.729,62.6,757.94491729886,37.073492,6,P-GPS,,11.3
13800,2026-01-13 12:19:23,757.94491729886,34.776904,0.0,4.8965552748,12.5413717924,15,5,7.83,759.91342129886,39.041996,0.671082,5.6660762968,0.0,0.0,0.0,352.4,3.8,-3.5,0,0,1024,1024,1024,1024,0,0,0,0,0,0,0,98,3.917,3.914,0,0,0,0,4.729,62.6,757.94491729886,37.073492,6,P-GPS,,11.3
13900,2026-01-13 12:19:24,757.94491729886,34.776904,0.0,4.8470473992,12.5934387232,15,5,7.813,759.91342129886,39.041996,0.671082,5.6660762968,0.0,0.0,0.0,352.4,4.2,-3.2,0,0,1024,1024,1024,1024,0,0,0,0,0,0,0,98,3.909,3.905,0,0,0,0,4.974,62.6,757.94491729886,37.073492,6,P-GPS,,11.3
14000,2026-01-13 12:19:24,757.61683329886,34.776904,0.0,4.6780513308,12.7697182564,15,5,7.813,759.91342129886,39.041996,0.671082,5.6660762968,0.0,0.0,0.0,352.4,4.8,-2.4,0,0,1024,1024,1024,1024,0,0,0,0,0,0,0,98,3.909,3.905,0,0,0,0,4.974,62.6,757.61683329886,36.745408,6,P-GPS,,11.2
14100,2026-01-13 12:19:24,757.61683329886,34.776904,0.0,4.6429791512,12.805282562,15,5,7.813,759.91342129886,39.041996,0.671082,5.6660762968,0.0,0.0,0.0,352.3,3.6,-3.4,0,0,1024,1024,1024,1024,0,0,0,0,0,0,0,98,3.909,3.905,0,0,0,0,4.974,62.6,757.61683329886,36.745408,6,P-GPS,,11.2
14200,2026-01-13 12:19:24,757.61683329886,34.776904,0.0,4.6268374184,12.822014846,15,5,7.813,759.91342129886,39.041996,0.671082,5.6660762968,0.0,0.0,0.0,352.4,3.0,-4.4,0,0,1024,1024,1024,1024,0,0,0,0,0,0,0,98,3.909,3.905,0,0,0,0,4.974,62.6,757.61683329886,36.745408,6,P-GPS,,11.2
14300,2026-01-13 12:19:24,757.61683329886,34.776904,0.0,4.6322508044,12.834810122,15,5,7.813,759.91342129886,39.041996,0.671082,5.6660762968,0.0,0.0,0.0,352.5,2.4,-4.7,0,0,1024,1024,1024,1024,0,0,0,0,0,0,0,98,3.909,3.905,0,0,0,0,4.974,62.6,757.61683329886,36.745408,6,P-GPS,,11.2
14400,2026-01-13 12:19:24,757.61683329886,34.776904,0.223694,4.6321195708,12.8512471304,15,5,7.813,759.91342129886,39.041996,0.671082,5.6660762968,-0.223694,0.0,0.0,352.6,2.0,-4.8,0,0,1024,1024,1024,1024,0,0,0,0,0,0,0,98,3.909,3.905,0,0,0,0,4.974,62.6,757.61683329886,36.745408,6,P-GPS,,11.2
14500,2026-01-13 12:19:24,757.61683329886,34.776904,0.223694,4.5942586772,12.9109912268,15,5,7.813,759.91342129886,39.041996,0.671082,5.6660762968,-0.223694,0.0,0.0,352.8,1.6,-4.4,0,0,1024,1024,1024,1024,0,0,0,0,0,0,0,98,3.909,3.905,0,0,0,0,4.974,62.6,757.61683329886,36.745408,6,P-GPS,,11.2
14600,2026-01-13 12:19:24,757.61683329886,34.776904,0.223694,4.5763780992,12.9442589444,15,5,7.813,759.91342129886,39.041996,0.671082,5.6660762968,-0.223694,0.0,0.0,353.0,1.4,-4.4,0,0,1024,1024,1024,1024,0,0,0,0,0,0,0,98,3.909,3.905,0,0,0,0,4.974,62.6,757.61683329886,36.745408,6,P-GPS,,11.2
14700,2026-01-13 12:19:24,757.28874929886,34.776904,0.223694,4.6216208828,12.9983271876,15,5,7.813,759.91342129886,39.041996,0.671082,5.6660762968,-0.223694,0.0,0.0,353.2,0.1,-3.6,0,0,1024,1024,1024,1024,0,0,0,0,0,0,0,98,3.909,3.905,0,0,0,0,4.974,62.6,757.28874929886,36.417324,6,P-GPS,,11.1
14800,2026-01-13 12:19:25,757.28874929886,34.776904,0.223694,4.6528216712,13.0414374252,15,5,7.813,759.91342129886,39.041996,0.671082,5.6660762968,-0.223694,0.0,0.0,353.3,0.4,-3.6,0,0,1024,1024,1024,1024,0,0,0,0,0,0,0,98,3.909,3.905,0,0,0,0,4.974,62.6,757.28874929886,36.417324,6,P-GPS,,11.1
14900,2026-01-13 12:19:25,757.28874929886,34.776904,0.0,4.701115636,13.1611552768,15,5,7.813,759.91342129886,39.041996,0.671082,5.6660762968,0.0,0.0,0.0,353.3,1.2,-3.6,0,0,1024,1024,1024,1024,0,0,0,0,0,0,0,98,3.909,3.905,0,0,0,0,4.974,62.6,757.28874929886,36.417324,6,P-GPS,,11.1
15000,2026-01-13 12:19:25,756.96066529886,34.776904,0.0,4.7057416204,13.2021657768,15,5,7.82,759.91342129886,39.041996,0.671082,5.6660762968,0.0,0.0,0.0,353.4,1.2,-3.4,0,0,1024,1024,1024,1024,0,0,0,0,0,0,0,98,3.913,3.911,0,0,0,0,4.909,62.78,756.96066529886,36.08924,6,P-GPS,,11.0
15100,2026-01-13 12:19:25,756.96066529886,34.776904,0.0,4.7108597308,13.2507550172,15,5,7.82,759.91342129886,39.041996,0.671082,5.6660762968,0.0,0.0,0.0,353.5,1.4,-3.1,0,0,1024,1024,1024,1024,0,0,0,0,0,0,0,98,3.913,3.911,0,0,0,0,4.909,62.78,756.96066529886,36.08924,6,P-GPS,,11.0
15200,2026-01-13 12:19:25,756.96066529886,34.776904,0.223694,4.7192914896,13.295768142,15,5,7.82,759.91342129886,39.041996,0.671082,5.6660762968,-0.223694,0.0,0.0,353.7,0.5,-3.0,0,0,1024,1024,1024,1024,0,0,0,0,0,0,0,98,3.913,3.911,0,0,0,0,4.909,62.78,756.96066529886,36.08924,6,P-GPS,,11.0
15300,2026-01-13 12:19:25,756.96066529886,34.776904,0.223694,4.7070867648,13.3794951788,15,5,7.82,759.91342129886,39.041996,0.671082,5.6660762968,-0.223694,0.0,0.0,353.8,0.2,-2.7,0,0,1024,1024,1024,1024,0,0,0,0,0,0,0,98,3.913,3.911,0,0,0,0,4.909,62.78,756.96066529886,36.08924,6,P-GPS,,11.0
15400,2026-01-13 12:19:25,756.63258129886,34.776904,0.0,4.7065946388,13.4167327128,15,5,7.82,759.91342129886,39.041996,0.671082,5.6660762968,0.0,0.0,0.0,354.0,0.0,-2.3,0,0,1024,1024,1024,1024,0,0,0,0,0,0,0,98,3.913,3.911,0,0,0,0,4.909,62.78,756.63258129886,35.761156,6,P-GPS,,10.9
15500,2026-01-13 12:19:25,756.63258129886,34.776904,0.0,4.6926182604,13.4556106668,15,5,7.82,759.91342129886,39.041996,0.671082,5.6660762968,0.0,0.0,0.0,354.0,0.3,-2.6,0,0,1024,1024,1024,1024,0,0,0,0,0,0,0,98,3.913,3.911,0,0,0,0,4.909,62.78,756.63258129886,35.761156,6,P-GPS,,10.9
15600,2026-01-13 12:19:25,756.63258129886,34.776904,0.0,4.6723426692,13.48917366,15,5,7.82,759.91342129886,39.041996,0.671082,5.6660762968,0.0,0.0,0.0,354.1,1.0,-3.7,0,0,1024,1024,1024,1024,0,0,0,0,0,0,0,98,3.913,3.911,0,0,0,0,4.909,62.78,756.63258129886,35.761156,6,P-GPS,,10.9
15700,2026-01-13 12:19:25,756.63258129886,34.776904,0.0,4.612532956,13.5645017464,15,5,7.82,759.91342129886,39.041996,0.671082,5.6660762968,0.0,0.0,0.0,354.1,1.2,-3.6,0,0,1024,1024,1024,1024,0,0,0,0,0,0,0,98,3.913,3.911,0,0,0,0,4.909,62.78,756.63258129886,35.761156,6,P-GPS,,10.9
15800,2026-01-13 12:19:25,756.63258129886,34.776904,0.0,4.5873689132,13.5978678892,15,5,7.82,759.91342129886,39.041996,0.671082,5.6660762968,0.0,0.0,0.0,354.1,1.7,-4.2,0,0,1024,1024,1024,1024,0,0,0,0,0,0,0,98,3.913,3.911,0,0,0,0,4.909,62.78,756.63258129886,35.761156,6,P-GPS,,10.9
15900,2026-01-13 12:19:26,756.63258129886,34.776904,0.0,4.5597770488,13.6404860008,15,5,7.82,759.91342129886,39.041996,0.671082,5.6660762968,0.0,0.0,0.0,354.2,1.9,-4.5,0,0,1024,1024,1024,1024,0,0,0,0,0,0,0,98,3.913,3.911,0,0,0,0,4.909,62.78,756.63258129886,35.761156,6,P-GPS,,10.9
16000,2026-01-13 12:19:26,756.63258129886,34.776904,0.0,4.5329069692,13.67946238,15,5,7.82,759.91342129886,39.041996,0.671082,5.6660762968,0.0,0.0,0.0,354.4,1.2,-4.2,0,0,1024,1024,1024,1024,0,0,0,0,0,0,0,98,3.913,3.911,0,0,0,0,4.909,62.78,756.63258129886,35.761156,6,P-GPS,,10.9
16100,2026-01-13 12:19:26,756.30449729886,34.776904,0.0,4.4705382008,13.752789154,15,5,7.794,759.91342129886,39.041996,0.671082,5.6660762968,0.0,0.0,0.0,354.6,1.2,-4.0,0,0,1024,1024,1024,1024,0,0,0,0,0,0,0,98,3.901,3.893,0,0,0,0,5.07,62.78,756.30449729886,35.433072,6,P-GPS,,10.8
16200,2026-01-13 12:19:26,756.30449729886,34.776904,0.0,4.4389109032,13.7874348244,15,5,7.794,759.91342129886,39.041996,0.671082,5.6660762968,0.0,0.0,0.0,354.5,2.1,-3.8,0,0,1024,1024,1024,1024,0,0,0,0,0,0,0,98,3.901,3.893,0,0,0,0,5.07,62.78,756.30449729886,35.433072,6,P-GPS,,10.8
16300,2026-01-13 12:19:26,756.30449729886,34.776904,0.0,4.4263124776,13.8021986044,15,5,7.794,759.91342129886,39.041996,0.671082,5.6660762968,0.0,0.0,0.0,354.6,2.5,-3.7,0,0,1024,1024,1024,1024,0,0,0,0,0,0,0,98,3.901,3.893,0,0,0,0,5.07,62.78,756.30449729886,35.433072,6,P-GPS,,10.8
16400,2026-01-13 12:19:26,756.30449729886,34.776904,0.0,4.4155841308,13.8142064788,15,5,7.794,759.91342129886,39.041996,0.671082,5.6660762968,0.0,0.0,0.0,354.3,1.5,-3.6,0,0,1024,1024,1024,1024,0,0,0,0,0,0,0,98,3.901,3.893,0,0,0,0,5.07,62.78,756.30449729886,35.433072,6,P-GPS,,10.8
16500,2026-01-13 12:19:26,756.30449729886,34.776904,0.0,4.4000001408,13.8303154032,15,5,7.794,759.91342129886,39.041996,0.671082,5.6660762968,0.0,0.0,0.0,354.4,1.6,-3.4,0,0,1024,1024,1024,1024,0,0,0,0,0,0,0,98,3.901,3.893,0,0,0,0,5.07,62.78,756.30449729886,35.433072,6,P-GPS,,10.8
16600,2026-01-13 12:19:26,756.30449729886,34.776904,0.0,4.4220473856,13.8645673728,15,5,7.794,759.91342129886,39.041996,0.671082,5.6660762968,0.0,0.0,0.0,354.6,1.8,-3.5,0,0,1024,1024,1024,1024,0,0,0,0,0,0,0,98,3.901,3.893,0,0,0,0,5.07,62.78,756.30449729886,35.433072,6,P-GPS,,10.8
16700,2026-01-13 12:19:26,756.30449729886,34.776904,0.0,4.4053807184,13.883530628,15,5,7.794,759.91342129886,39.041996,0.671082,5.6660762968,0.0,0.0,0.0,354.7,1.7,-3.9,0,0,1024,1024,1024,1024,0,0,0,0,0,0,0,98,3.901,3.893,0,0,0,0,5.07,62.78,756.30449729886,35.433072,6,P-GPS,,10.8
16800,2026-01-13 12:19:27,756.30449729886,34.776904,0.0,4.3924542088,13.900755038,15,5,7.794,759.91342129886,39.041996,0.671082,5.6660762968,0.0,0.0,0.0,354.8,2.1,-4.2,0,0,1024,1024,1024,1024,0,0,0,0,0,0,0,98,3.901,3.893,0,0,0,0,5.07,62.78,756.30449729886,35.433072,6,P-GPS,,10.8
16900,2026-01-13 12:19:27,756.30449729886,34.776904,0.0,4.3949148388,13.9118442772,15,5,7.794,759.91342129886,39.041996,0.671082,5.6660762968,0.0,0.0,0.0,354.9,2.3,-4.2,0,0,1024,1024,1024,1024,0,0,0,0,0,0,0,98,3.901,3.893,0,0,0,0,5.07,62.78,756.30449729886,35.433072,6,P-GPS,,10.8
17000,2026-01-13 12:19:27,756.30449729886,34.776904,0.0,4.4323820316,13.9535109452,15,5,7.794,759.91342129886,39.041996,0.671082,5.6660762968,0.0,0.0,0.0,354.9,2.7,-4.5,0,0,1024,1024,1024,1024,0,0,0,0,0,0,0,98,3.901,3.893,0,0,0,0,5.07,62.78,756.30449729886,35.433072,6,P-GPS,,10.8
17100,2026-01-13 12:19:27,756.30449729886,34.776904,0.0,4.4262796692,13.981135618,15,5,7.794,759.91342129886,39.041996,0.671082,5.6660762968,0.0,0.0,0.0,355.1,1.6,-3.6,0,0,1024,1024,1024,1024,0,0,0,0,0,0,0,98,3.901,3.893,0,0,0,0,5.07,62.78,756.30449729886,35.433072,6,P-GPS,,10.8
17200,2026-01-13 12:19:27,756.30449729886,34.776904,0.0,4.4076773064,14.009022758,15,5,7.81,759.91342129886,39.041996,0.671082,5.6660762968,0.0,0.0,0.0,354.9,2.3,-3.3,0,0,1024,1024,1024,1024,0,0,0,0,0,0,0,98,3.898,3.905,0,0,0,0,5.178,62.78,756.30449729886,35.433072,6,P-GPS,,10.8
17300,2026-01-13 12:19:27,756.30449729886,34.776904,0.0,4.3647311108,14.0550201348,15,5,7.81,759.91342129886,39.041996,0.671082,5.6660762968,0.0,0.0,0.0,354.9,3.2,-3.3,0,0,1024,1024,1024,1024,0,0,0,0,0,0,0,98,3.898,3.905,0,0,0,0,5.178,62.78,756.30449729886,35.433072,6,P-GPS,,10.8
17400,2026-01-13 12:19:27,756.30449729886,34.776904,0.0,4.2881234968,14.15190334,15,5,7.81,759.91342129886,39.041996,0.671082,5.6660762968,0.0,0.0,0.0,354.9,3.6,-3.6,0,0,1024,1024,1024,1024,0,0,0,0,0,0,0,98,3.898,3.905,0,0,0,0,5.178,62.78,756.30449729886,35.433072,6,P-GPS,,10.8
17500,2026-01-13 12:19:27,756.30449729886,34.776904,0.0,4.2608597164,14.1803482228,15,5,7.81,759.91342129886,39.041996,0.671082,5.6660762968,0.0,0.0,0.0,355.0,3.2,-3.3,0,0,1024,1024,1024,1024,0,0,0,0,0,0,0,98,3.898,3.905,0,0,0,0,5.178,62.78,756.30449729886,35.433072,6,P-GPS,,10.8
17600,2026-01-13 12:19:27,756.30449729886,34.776904,0.0,4.2384187708,14.2039702708,15,5,7.81,759.91342129886,39.041996,0.671082,5.6660762968,0.0,0.0,0.0,355.1,3.5,-3.4,0,0,1024,1024,1024,1024,0,0,0,0,0,0,0,98,3.898,3.905,0,0,0,0,5.178,62.78,756.30449729886,35.433072,6,P-GPS,,10.8
17700,2026-01-13 12:19:27,756.30449729886,34.776904,0.0,4.2193898988,14.2239505864,15,5,7.81,759.91342129886,39.041996,0.671082,5.6660762968,0.0,0.0,0.0,355.0,3.5,-3.3,0,0,1024,1024,1024,1024,0,0,0,0,0,0,0,98,3.898,3.905,0,0,0,0,5.178,62.78,756.30449729886,35.433072,6,P-GPS,,10.8
17800,2026-01-13 12:19:27,756.30449729886,34.776904,0.0,4.2107612896,14.2428482248,15,5,7.81,759.91342129886,39.041996,0.671082,5.6660762968,0.0,0.0,0.0,354.7,4.3,-3.3,0,0,1024,1024,1024,1024,0,0,0,0,0,0,0,98,3.898,3.905,0,0,0,0,5.178,62.78,756.30449729886,35.433072,6,P-GPS,,10.8
17900,2026-01-13 12:19:28,756.30449729886,34.776904,0.0,4.2177166704,14.2499020308,15,5,7.81,759.91342129886,39.041996,0.671082,5.6660762968,0.0,0.0,0.0,354.8,3.2,-3.3,0,0,1024,1024,1024,1024,0,0,0,0,0,0,0,98,3.898,3.905,0,0,0,0,5.178,62.78,756.30449729886,35.433072,6,P-GPS,,10.8
18000,2026-01-13 12:19:28,756.30449729886,34.776904,0.0,4.2348426552,14.267388908,15,5,7.81,759.91342129886,39.041996,0.671082,5.6660762968,0.0,0.0,0.0,354.7,2.4,-3.5,0,0,1024,1024,1024,1024,0,0,0,0,0,0,0,98,3.898,3.905,0,0,0,0,5.178,62.78,756.30449729886,35.433072,6,P-GPS,,10.8
18100,2026-01-13 12:19:28,756.30449729886,34.776904,0.0,4.2612206088,14.2940621372,15,5,7.81,759.91342129886,39.041996,0.671082,5.6660762968,0.0,0.0,0.0,354.5,2.2,-3.4,0,0,1024,1024,1024,1024,0,0,0,0,0,0,0,98,3.898,3.905,0,0,0,0,5.178,62.78,756.30449729886,35.433072,6,P-GPS,,10.8
18200,2026-01-13 12:19:28,756.30449729886,34.776904,0.223694,4.2995080116,14.3328744744,15,5,7.81,759.91342129886,39.041996,0.671082,5.6660762968,-0.223694,0.0,0.0,354.6,1.8,-3.6,0,0,1024,1024,1024,1024,0,0,0,0,0,0,0,98,3.898,3.905,0,0,0,0,5.178,62.78,756.30449729886,35.433072,6,P-GPS,,10.8
18300,2026-01-13 12:19:28,756.30449729886,34.776904,0.223694,4.3896654948,14.4237865508,15,5,7.81,759.91342129886,39.041996,0.671082,5.6660762968,-0.223694,0.0,0.0,354.8,0.8,-3.5,0,0,1024,1024,1024,1024,0,0,0,0,0,0,0,98,3.898,3.905,0,0,0,0,5.178,62.78,756.30449729886,35.433072,6,P-GPS,,10.8
18400,2026-01-13 12:19:28,756.30449729886,34.776904,0.223694,4.4504266516,14.4850070252,15,5,7.816,759.91342129886,39.041996,0.671082,5.6660762968,-0.223694,0.0,0.0,354.9,0.4,-3.5,0,0,1024,1024,1024,1024,0,0,0,0,0,0,0,98,3.909,3.908,0,0,0,0,4.793,62.78,756.30449729886,35.433072,6,P-GPS,,10.8
18500,2026-01-13 12:19:28,756.30449729886,34.776904,0.223694,4.506069698,14.5411421976,15,5,7.816,759.91342129886,39.041996,0.671082,5.6660762968,-0.223694,0.0,0.0,354.9,0.0,-3.3,0,0,1024,1024,1024,1024,0,0,0,0,0,0,0,98,3.909,3.908,0,0,0,0,4.793,62.78,756.30449729886,35.433072,6,P-GPS,,10.8
18600,2026-01-13 12:19:28,756.30449729886,34.776904,0.223694,4.5627626132,14.5979007296,15,5,7.816,759.91342129886,39.041996,0.671082,5.6660762968,-0.223694,0.0,0.0,355.1,-1.2,-3.2,0,0,1024,1024,1024,1024,0,0,0,0,0,0,0,98,3.909,3.908,0,0,0,0,4.793,62.78,756.30449729886,35.433072,6,P-GPS,,10.8
18700,2026-01-13 12:19:28,756.30449729886,34.776904,0.223694,4.6232941112,14.6790687112,15,5,7.816,759.91342129886,39.041996,0.671082,5.6660762968,-0.223694,0.0,0.0,355.0,-0.8,-3.3,0,0,1024,1024,1024,1024,0,0,0,0,0,0,0,98,3.909,3.908,0,0,0,0,4.793,62.78,756.30449729886,35.433072,6,P-GPS,,10.8
18800,2026-01-13 12:19:29,756.30449729886,34.776904,0.223694,4.6697179972,14.7264768492,15,5,7.816,759.91342129886,39.041996,0.671082,5.6660762968,-0.223694,0.0,0.0,355.0,-0.6,-3.4,0,0,1024,1024,1024,1024,0,0,0,0,0,0,0,98,3.909,3.908,0,0,0,0,4.793,62.78,756.30449729886,35.433072,6,P-GPS,,10.8
18900,2026-01-13 12:19:29,756.30449729886,34.776904,0.223694,4.6989502816,14.760663202,15,5,7.816,759.91342129886,39.041996,0.671082,5.6660762968,-0.223694,0.0,0.0,355.0,-0.4,-3.4,0,0,1024,1024,1024,1024,0,0,0,0,0,0,0,98,3.909,3.908,0,0,0,0,4.793,62.78,756.30449729886,35.433072,6,P-GPS,,10.8
19000,2026-01-13 12:19:29,756.30449729886,34.776904,0.0,4.7228676052,14.7917983736,15,5,7.816,759.91342129886,39.041996,0.671082,5.6660762968,0.0,0.0,0.0,355.1,-0.3,-3.5,0,0,1024,1024,1024,1024,0,0,0,0,0,0,0,98,3.909,3.908,0,0,0,0,4.793,62.78,756.30449729886,35.433072,6,P-GPS,,10.8
19100,2026-01-13 12:19:29,756.30449729886,34.776904,0.0,4.7270998888,14.8801513948,15,5,7.816,759.91342129886,39.041996,0.671082,5.6660762968,0.0,0.0,0.0,355.1,-0.5,-3.4,0,0,1024,1024,1024,1024,0,0,0,0,0,0,0,98,3.909,3.908,0,0,0,0,4.793,62.78,756.30449729886,35.433072,6,P-GPS,,10.8
19200,2026-01-13 12:19:29,756.30449729886,34.776904,0.0,4.7435697056,14.9098429968,15,5,7.816,759.91342129886,39.041996,0.671082,5.6660762968,0.0,0.0,0.0,355.1,-0.2,-3.2,0,0,1024,1024,1024,1024,0,0,0,0,0,0,0,98,3.909,3.908,0,0,0,0,4.793,62.78,756.30449729886,35.433072,6,P-GPS,,10.8
19300,2026-01-13 12:19:29,756.30449729886,34.776904,0.0,4.7492127504,14.9372708192,15,5,7.816,759.91342129886,39.041996,0.671082,5.6660762968,0.0,0.0,0.0,355.1,0.0,-3.1,0,0,1024,1024,1024,1024,0,0,0,0,0,0,0,98,3.909,3.908,0,0,0,0,4.793,62.78,756.30449729886,35.433072,6,P-GPS,,10.8
19400,2026-01-13 12:19:29,756.30449729886,34.776904,0.0,4.7546261364,14.967520164,15,5,7.816,759.91342129886,39.041996,0.671082,5.6660762968,0.0,0.0,0.0,355.2,-0.6,-2.9,0,0,1024,1024,1024,1024,0,0,0,0,0,0,0,98,3.909,3.908,0,0,0,0,4.793,62.78,756.30449729886,35.433072,6,P-GPS,,10.8
19500,2026-01-13 12:19:29,756.30449729886,34.776904,0.0,4.7509187872,15.0590556,15,5,7.815,759.91342129886,39.041996,0.671082,5.6660762968,0.0,0.0,0.0,355.2,-0.8,-3.1,0,0,1024,1024,1024,1024,0,0,0,0,0,0,0,98,3.907,3.906,0,0,0,0,4.819,62.96,756.30449729886,35.433072,6,P-GPS,,10.8
19600,2026-01-13 12:19:29,756.30449729886,34.776904,0.0,4.749508026,15.0935700368,15,5,7.815,759.91342129886,39.041996,0.671082,5.6660762968,0.0,0.0,0.0,355.2,-0.6,-3.2,0,0,1024,1024,1024,1024,0,0,0,0,0,0,0,98,3.907,3.906,0,0,0,0,4.819,62.96,756.30449729886,35.433072,6,P-GPS,,10.8
19700,2026-01-13 12:19:29,756.30449729886,34.776904,0.0,4.7352035636,15.1228351296,15,5,7.815,759.91342129886,39.041996,0.671082,5.6660762968,0.0,0.0,0.0,355.2,-0.2,-3.4,0,0,1024,1024,1024,1024,0,0,0,0,0,0,0,98,3.907,3.906,0,0,0,0,4.819,62.96,756.30449729886,35.433072,6,P-GPS,,10.8
19800,2026-01-13 12:19:30,756.30449729886,34.776904,0.0,4.7161090748,15.155676338,15,5,7.815,759.91342129886,39.041996,0.671082,5.6660762968,0.0,0.0,0.0,355.2,0.0,-3.1,0,0,1024,1024,1024,1024,0,0,0,0,0,0,0,98,3.907,3.906,0,0,0,0,4.819,62.96,756.30449729886,35.433072,6,P-GPS,,10.8
19900,2026-01-13 12:19:30,756.30449729886,34.776904,0.0,4.6939634048,15.1930122972,15,5,7.815,759.91342129886,39.041996,0.671082,5.6660762968,0.0,0.0,0.0,355.2,0.7,-3.1,0,0,1024,1024,1024,1024,0,0,0,0,0,0,0,98,3.907,3.906,0,0,0,0,4.819,62.96,756.30449729886,35.433072,6,P-GPS,,10.8
20000,2026-01-13 12:19:30,756.30449729886,34.776904,0.0,4.669947656,15.2272970752,15,5,7.815,759.91342129886,39.041996,0.671082,5.6660762968,0.0,0.0,0.0,355.3,0.7,-2.5,0,0,1024,1024,1024,1024,0,0,0,0,0,0,0,98,3.907,3.906,0,0,0,0,4.819,62.96,756.30449729886,35.433072,6,P-GPS,,10.8
20100,2026-01-13 12:19:30,756.63258129886,34.776904,0.0,4.632874164,15.2657813284,15,5,7.815,759.91342129886,39.041996,0.671082,5.6660762968,0.0,0.0,0.0,355.1,2.0,-2.6,0,0,1024,1024,1024,1024,0,0,0,0,0,0,0,98,3.907,3.906,0,0,0,0,4.819,62.96,756.63258129886,35.761156,6,P-GPS,,10.9
20200,2026-01-13 12:19:30,756.63258129886,34.776904,0.0,4.5984581524,15.3002301484,15,5,7.815,759.91342129886,39.041996,0.671082,5.6660762968,0.0,0.0,0.0,355.0,0.9,-3.4,0,0,1024,1024,1024,1024,0,0,0,0,0,0,0,98,3.907,3.906,0,0,0,0,4.819,62.96,756.63258129886,35.761156,6,P-GPS,,10.9
20300,2026-01-13 12:19:30,756.63258129886,34.776904,0.0,4.5569555264,15.3439637456,15,5,7.815,759.91342129886,39.041996,0.671082,5.6660762968,0.0,0.0,0.0,355.0,0.7,-3.8,0,0,1024,1024,1024,1024,0,0,0,0,0,0,0,98,3.907,3.906,0,0,0,0,4.819,62.96,756.63258129886,35.761156,6,P-GPS,,10.9
20400,2026-01-13 12:19:30,756.63258129886,34.776904,0.0,4.4907809836,15.4308075804,15,5,7.815,759.91342129886,39.041996,0.671082,5.6660762968,0.0,0.0,0.0,355.0,1.1,-4.8,0,0,1024,1024,1024,1024,0,0,0,0,0,0,0,98,3.907,3.906,0,0,0,0,4.819,62.96,756.63258129886,35.761156,6,P-GPS,,10.9
