time(millisecond),timestamp,altitude_above_seaLevel(feet),height_sonar(feet),speed(mph),distance(feet),mileage(feet),satellites,gpslevel,voltage(v),max_altitude(feet),max_ascent(feet),max_speed(mph),max_distance(feet), xSpeed(mph), ySpeed(mph), zSpeed(mph), compass_heading(degrees), pitch(degrees), roll(degrees),isPhoto,isVideo,rc_elevator,rc_aileron,rc_throttle,rc_rudder,rc_elevator(percent),rc_aileron(percent),rc_throttle(percent),rc_rudder(percent),gimbal_heading(degrees),gimbal_pitch(degrees),gimbal_roll(degrees),battery_percent,voltageCell1,voltageCell2,voltageCell3,voltageCell4,voltageCell5,voltageCell6,current(A),battery_temperature(f),altitude(feet),ascent(feet),flycStateRaw,flycState,message,height_above_takeoff(meters)
440300,2026-01-11 15:37:32,720.63373270595,0.656168,0.0,0.0,0.0,17,5,0.0,720.63373270595,0.0,0.0,0.0,0.0,0.0,0.0,11.5,2.1,0.7,0,0,1024,1024,1024,1024,0,0,0,0,0,0,0,70,3.842,3.842,0,0,0,0,0.0,64.94,720.63373270595,0.0,41,Motors_Started,SD card speed low SD card speed low. Normal use may be affected. Replace SD card (Code: 10028). Gimbal stuck. Make sure gimbal cover is removed and manually check whether gimbal can rotate freely (Code: 40002),0.0
440400,2026-01-11 15:37:32,720.63373270595,0.656168,0.0,0.0250656832168,0.0250656832168,17,5,0.0,720.63373270595,0.0,0.0,0.0250656832168,0.0,0.0,0.0,11.5,2.1,0.7,0,0,1024,1024,1024,1024,0,0,0,0,0,0,0,70,3.842,3.842,0,0,0,0,0.0,64.94,720.63373270595,0.0,41,Motors_Started,,0.0
440500,2026-01-11 15:37:32,720.63373270595,0.656168,0.0,0.033540355404,0.037696195432,17,5,0.0,720.63373270595,0.0,0.0,0.033540355404,0.0,0.0,0.0,11.5,2.1,0.7,0,0,1024,1024,1024,1024,0,0,0,0,0,0,0,70,3.842,3.842,0,0,0,0,0.0,64.94,720.63373270595,0.0,41,Motors_Started,Setting new Return-To-Home altitude to 90m (295 ft). Data Recorder File Index is 33. Setting new Maximum Flight Altitude to 90m (295 ft),0.0
440600,2026-01-11 15:37:32,720.63373270595,0.656168,0.0,1.47578416796,0.05116962106,17,5,0.0,720.63373270595,0.0,0.0,1.47578416796,0.0,0.0,0.0,11.5,2.1,0.7,0,0,1024,1024,1024,1024,0,0,0,0,0,0,0,70,3.842,3.842,0,0,0,0,0.0,64.94,720.63373270595,0.0,41,Motors_Started,,0.0
440700,2026-01-11 15:37:32,720.63373270595,0.656168,0.0,1.49261487716,0.068018702964,17,5,0.0,720.63373270595,0.0,0.0,1.49261487716,0.0,0.0,0.0,11.5,2.1,0.7,0,0,1024,1024,1024,1024,0,0,0,0,0,0,0,70,3.842,3.842,0,0,0,0,0.0,64.94,720.63373270595,0.0,41,Motors_Started,,0.0
440800,2026-01-11 15:37:32,720.63373270595,0.656168,0.0,1.4990650086,0.104461617516,17,5,7.684,720.63373270595,0.0,0.0,1.4990650086,0.0,0.0,0.0,11.6,2.1,0.7,0,0,1024,1024,1024,1024,0,0,0,0,0,0,0,70,3.842,3.842,0,0,0,0,0.79,64.94,720.63373270595,0.0,41,Motors_Started,,0.0
440900,2026-01-11 15:37:33,720.63373270595,0.656168,0.0,1.50995411656,0.124795279584,17,5,7.684,720.63373270595,0.0,0.0,1.50995411656,0.0,0.0,0.0,11.5,2.1,0.7,0,0,1024,1024,1024,1024,0,0,0,0,0,0,0,70,3.842,3.842,0,0,0,0,0.79,64.94,720.63373270595,0.0,41,Motors_Started,,0.0
441000,2026-01-11 15:37:33,720.63373270595,0.656168,0.0,1.52150923504,0.1467437711,17,5,7.684,720.63373270595,0.0,0.0,1.52150923504,0.0,0.0,0.0,11.5,2.1,0.7,0,0,1024,1024,1024,1024,0,0,0,0,0,0,0,70,3.842,3.842,0,0,0,0,0.79,64.94,720.63373270595,0.0,41,Motors_Started,,0.0
441100,2026-01-11 15:37:33,720.63373270595,0.656168,0.0,1.53758535104,0.1683563046,17,5,7.684,720.63373270595,0.0,0.0,1.53758535104,0.0,0.0,0.0,11.7,2.2,0.7,0,0,1024,1024,1024,1024,0,0,0,0,0,0,0,70,3.842,3.842,0,0,0,0,0.79,64.94,720.63373270595,0.0,41,Motors_Started,,0.0
441200,2026-01-11 15:37:33,720.63373270595,0.656168,0.0,1.55422577152,0.190917657028,17,5,7.684,720.63373270595,0.0,0.0,1.55422577152,0.0,0.0,0.0,11.7,2.2,0.7,0,0,1024,1024,1024,1024,0,0,0,0,0,0,0,70,3.842,3.842,0,0,0,0,0.79,64.94,720.63373270595,0.0,41,Motors_Started,,0.0
441300,2026-01-11 15:37:33,720.63373270595,0.656168,0.0,1.57679466988,0.218767067368,17,5,7.684,720.63373270595,0.0,0.0,1.57679466988,0.0,0.0,0.0,11.6,2.1,0.7,0,0,1024,1024,1024,1024,0,0,0,0,0,0,0,70,3.842,3.842,0,0,0,0,0.79,64.94,720.63373270595,0.0,41,Motors_Started,,0.0
441400,2026-01-11 15:37:33,720.63373270595,0.656168,0.0,1.60025267588,0.247724417376,17,5,7.684,720.63373270595,0.0,0.0,1.60025267588,0.0,0.0,0.0,11.6,2.1,0.7,0,0,1024,1024,1024,1024,0,0,0,0,0,0,0,70,3.842,3.842,0,0,0,0,0.79,64.94,720.63373270595,0.0,11,AutoTakeoff,,0.0
441500,2026-01-11 15:37:33,720.63373270595,0.656168,0.0,1.59466212452,0.260187672368,17,5,7.684,720.63373270595,0.0,0.0,1.60025267588,0.0,0.0,0.0,11.6,2.1,0.7,0,0,1024,1024,1024,1024,0,0,0,0,0,0,0,70,3.842,3.842,0,0,0,0,0.79,64.94,720.63373270595,0.0,11,AutoTakeoff,,0.0
441600,2026-01-11 15:37:33,720.63373270595,0.656168,0.0,1.58894690124,0.273179470684,17,5,7.684,720.63373270595,0.0,0.0,1.60025267588,0.0,0.0,0.0,11.6,2.1,0.7,0,0,1024,1024,1024,1024,0,0,0,0,0,0,0,70,3.842,3.842,0,0,0,0,0.79,64.94,720.63373270595,0.0,11,AutoTakeoff,,0.0
441700,2026-01-11 15:37:33,720.63373270595,0.656168,0.0,1.5670440134,0.297155193236,17,5,7.684,720.63373270595,0.0,0.0,1.60025267588,0.0,0.0,0.0,11.6,2.1,0.7,0,0,1024,1024,1036,1024,0,0,2,0,0,0,0,70,3.842,3.842,0,0,0,0,0.79,64.94,720.63373270595,0.0,11,AutoTakeoff,,0.0
441800,2026-01-11 15:37:33,720.63373270595,0.656168,0.0,1.57666015544,0.311976387936,17,5,7.684,720.63373270595,0.0,0.0,1.60025267588,0.0,0.0,0.0,11.7,2.1,0.7,0,0,1024,1024,1041,1024,0,0,3,0,0,0,0,70,3.842,3.842,0,0,0,0,0.79,64.94,720.63373270595,0.0,11,AutoTakeoff,,0.0
441900,2026-01-11 15:37:34,720.63373270595,0.656168,0.0,1.57815621848,0.313948172776,17,5,7.648,720.63373270595,0.0,0.0,1.60025267588,0.0,0.0,0.0,11.9,2.1,0.8,0,0,1024,1024,1033,1024,0,0,1,0,0,0,0,70,3.807,3.805,0,0,0,0,1.467,64.94,720.63373270595,0.0,11,AutoTakeoff,,0.0
442000,2026-01-11 15:37:34,720.63373270595,0.656168,0.0,1.58252629736,0.320764774044,17,5,7.648,720.63373270595,0.0,0.0,1.60025267588,0.0,0.0,0.0,13.6,1.9,0.8,0,0,1024,1024,1033,1024,0,0,1,0,0,0,0,70,3.807,3.805,0,0,0,0,1.467,64.94,720.63373270595,0.0,11,AutoTakeoff,,0.0
442100,2026-01-11 15:37:34,720.63373270595,0.656168,0.0,1.60213587804,0.35849410596,17,5,7.648,720.63373270595,0.0,0.0,1.60213587804,0.0,0.0,0.0,15.1,0.5,0.7,0,0,1024,1024,1163,1024,0,0,21,0,0,0,0,70,3.807,3.805,0,0,0,0,1.467,64.94,720.63373270595,0.0,11,AutoTakeoff,,0.0
442200,2026-01-11 15:37:34,720.63373270595,0.656168,0.223694,1.63082682384,0.39368111496,17,5,7.648,720.63373270595,0.0,0.223694,1.63082682384,0.0,0.223694,-0.223694,16.8,0.8,0.9,0,0,1024,1024,1684,1024,0,0,100,0,0,0,0,70,3.807,3.805,0,0,0,0,1.467,64.94,720.63373270595,0.0,11,AutoTakeoff,,0.0
442300,2026-01-11 15:37:34,720.63373270595,0.656168,0.223694,1.65376645712,0.438976392,17,5,7.648,720.63373270595,0.0,0.223694,1.65376645712,0.0,0.223694,-0.447388,17.4,0.6,0.3,0,0,1024,1024,1684,1024,0,0,100,0,0,0,0,70,3.807,3.805,0,0,0,0,1.467,64.94,720.63373270595,0.0,6,P-GPS,,0.0
442400,2026-01-11 15:37:34,720.63373270595,0.328084,0.223694,1.685695592,0.49997048844,17,5,7.648,720.63373270595,0.0,0.223694,1.685695592,0.0,0.223694,-0.671082,17.5,1.4,-1.4,0,0,1024,1024,1684,1024,0,0,100,0,0,0,0,70,3.807,3.805,0,0,0,0,1.467,64.94,720.63373270595,0.0,6,P-GPS,,0.0
442500,2026-01-11 15:37:34,720.96181670595,0.328084,0.447388,1.75171921616,0.59049870656,17,5,7.648,720.96181670595,0.328084,0.447388,1.75171921616,0.0,0.447388,-1.11847,17.8,1.2,-1.3,0,0,1024,1024,1684,1024,0,0,100,0,0,0,0,70,3.807,3.805,0,0,0,0,1.467,64.94,720.96181670595,0.328084,6,P-GPS,,0.1
442600,2026-01-11 15:37:34,720.96181670595,0.656168,0.447388,1.82229664624,0.67468178012,17,5,7.648,720.96181670595,0.328084,0.447388,1.82229664624,0.0,0.447388,-1.565858,17.8,1.5,-1.7,0,0,1024,1024,1684,1557,0,0,100,81,0,0,0,70,3.807,3.805,0,0,0,0,1.467,64.94,720.96181670595,0.328084,6,P-GPS,Home Point updated. RTH altitude adjusted to 90 m (Code: 120852),0.1
442700,2026-01-11 15:37:34,721.28990070595,0.984252,0.447388,1.89395019184,0.75800855444,17,5,7.648,721.28990070595,0.656168,0.447388,1.89395019184,0.0,0.447388,-2.013246,17.8,2.7,-2.2,0,0,1024,1024,1684,1684,0,0,100,100,0,0,0,70,3.807,3.805,0,0,0,0,1.467,64.94,721.28990070595,0.656168,6,P-GPS,,0.2
442800,2026-01-11 15:37:34,721.61798470595,1.312336,0.4921268,1.97574809472,0.8468504208,17,5,7.648,721.61798470595,0.984252,0.4921268,1.97574809472,0.223694,0.447388,-2.684328,26.2,3.8,-3.2,0,0,1024,1024,1684,998,0,0,100,-4,0,0,0,70,3.807,3.805,0,0,0,0,1.467,64.94,721.61798470595,0.984252,6,P-GPS,,0.3
442900,2026-01-11 15:37:35,721.94606870595,1.64042,0.3131716,2.03693247988,0.92591538396,17,5,7.648,721.94606870595,1.312336,0.4921268,2.03693247988,0.223694,0.223694,-3.131716,39.1,5.1,-1.7,0,0,1024,1024,1684,964,0,0,100,-9,0,0,0,70,3.807,3.805,0,0,0,0,1.467,64.94,721.94606870595,1.312336,6,P-GPS,,0.4
443000,2026-01-11 15:37:35,722.60223670595,1.968504,0.3131716,2.0717028222,1.04836945612,17,5,7.391,722.60223670595,1.968504,0.4921268,2.0717028222,0.223694,0.223694,-3.802798,40.8,5.2,-0.2,0,0,1024,1024,1684,1024,0,0,100,0,0,0,0,70,3.696,3.695,0,0,0,0,5.85,64.94,722.60223670595,1.968504,6,P-GPS,,0.6
443100,2026-01-11 15:37:35,722.93032070595,2.624672,0.3131716,2.13663392664,1.114173264,17,5,7.391,722.93032070595,2.296588,0.4921268,2.13663392664,0.223694,0.223694,-4.026492,40.6,4.8,-1.1,0,0,1024,1024,1684,1024,0,0,100,0,0,0,0,70,3.696,3.695,0,0,0,0,5.85,64.94,722.93032070595,2.296588,6,P-GPS,,0.7
443200,2026-01-11 15:37:35,723.58648870595,3.28084,0.3131716,2.20327434872,1.18164045776,17,5,7.391,723.58648870595,2.952756,0.4921268,2.20327434872,0.0,0.223694,-4.47388,40.4,5.2,-1.4,0,0,1024,1024,1684,1024,0,0,100,0,0,0,0,70,3.696,3.695,0,0,0,0,5.85,64.94,723.58648870595,2.952756,6,P-GPS,,0.9
443300,2026-01-11 15:37:35,724.24265670595,3.937008,0.0,2.23471791928,1.24874675912,17,5,7.391,724.24265670595,3.608924,0.4921268,2.23471791928,0.0,0.0,-4.47388,40.4,5.2,-1.2,0,0,1024,1024,1684,1024,0,0,100,0,0,0,0,70,3.696,3.695,0,0,0,0,5.85,64.94,724.24265670595,3.608924,6,P-GPS,,1.1
443400,2026-01-11 15:37:35,724.89882470595,4.593176,0.0,2.2364830112,1.36049545036,17,5,7.391,724.89882470595,4.265092,0.4921268,2.2364830112,0.0,0.0,-4.47388,40.5,4.7,-0.9,0,0,1024,1024,1684,1024,0,0,100,0,0,0,0,70,3.696,3.695,0,0,0,0,5.85,64.94,724.89882470595,4.265092,6,P-GPS,,1.3
443500,2026-01-11 15:37:35,725.55499270595,4.92126,0.0,2.25409456032,1.38516408632,17,5,7.391,725.55499270595,4.92126,0.4921268,2.25409456032,0.0,0.0,-4.47388,40.6,5.1,-0.6,0,0,1024,1024,1684,1024,0,0,100,0,0,0,0,70,3.696,3.695,0,0,0,0,5.85,64.94,725.55499270595,4.92126,6,P-GPS,,1.5
443600,2026-01-11 15:37:35,726.53924470595,5.577428,0.0,2.27121726428,1.40884518944,17,5,7.391,726.53924470595,5.905512,0.4921268,2.27121726428,0.0,0.0,-4.47388,40.6,5.2,-0.3,0,0,1024,1024,1684,757,0,0,100,-40,0,0,0,70,3.696,3.695,0,0,0,0,5.85,64.94,726.53924470595,5.905512,6,P-GPS,,1.8
443700,2026-01-11 15:37:35,727.19541270595,6.233596,0.0,2.28819233044,1.42581697476,17,5,7.391,727.19541270595,6.56168,0.4921268,2.28819233044,0.0,0.0,-4.47388,40.3,4.8,0.3,0,0,1024,1024,1684,364,0,0,100,-100,0,0,0,70,3.696,3.695,0,0,0,0,5.85,64.94,727.19541270595,6.56168,6,P-GPS,,2.0
443800,2026-01-11 15:37:35,727.85158070595,6.889764,0.0,2.2473097832,1.48041015236,17,5,7.391,727.85158070595,7.217848,0.4921268,2.28819233044,0.0,0.0,-4.47388,36.3,4.5,1.5,0,0,1024,1024,1684,364,0,0,100,-100,0,0,0,70,3.696,3.695,0,0,0,0,5.85,64.94,727.85158070595,7.217848,6,P-GPS,,2.2
443900,2026-01-11 15:37:36,728.50774870595,7.545932,0.0,2.262057159,1.52066277832,17,5,7.391,728.50774870595,7.874016,0.4921268,2.28819233044,0.0,0.0,-4.47388,25.0,5.2,0.9,0,0,1024,1024,1684,1024,0,0,100,0,0,0,0,70,3.696,3.695,0,0,0,0,5.85,64.94,728.50774870595,7.874016,6,P-GPS,,2.4
444000,2026-01-11 15:37:36,729.16391670595,8.2021,0.0,2.27829403616,1.54743443272,17,5,7.391,729.16391670595,8.530184,0.4921268,2.28819233044,0.0,0.0,-4.47388,13.5,4.7,-1.0,0,0,1024,1024,1684,1024,0,0,100,0,0,0,0,70,3.696,3.695,0,0,0,0,5.85,64.94,729.16391670595,8.530184,6,P-GPS,,2.6
444100,2026-01-11 15:37:36,729.82008470595,8.858268,0.0,2.27245086012,1.62022971064,17,5,7.391,729.82008470595,9.186352,0.4921268,2.28819233044,0.0,0.0,-4.47388,12.5,4.4,-1.8,0,0,1024,1024,1684,1024,0,0,100,0,0,0,0,70,3.723,3.727,0,0,0,0,5.85,64.94,729.82008470595,9.186352,6,P-GPS,,2.8
444200,2026-01-11 15:37:36,730.14816870595,9.514436,0.0,2.21881896864,1.69191606464,16,5,7.391,730.14816870595,9.514436,0.4921268,2.28819233044,0.0,0.0,-4.47388,12.6,3.1,-1.7,0,0,1024,1024,1684,1024,0,0,100,0,0,0,0,70,3.723,3.727,0,0,0,0,5.85,64.94,730.14816870595,9.514436,6,P-GPS,,2.9
444300,2026-01-11 15:37:36,730.80433670595,10.170604,0.0,2.21213261672,1.75006239196,16,5,7.391,730.80433670595,10.170604,0.4921268,2.28819233044,0.0,0.0,-4.250186,12.6,2.4,-1.6,0,0,1024,1024,1684,1024,0,0,100,0,0,0,0,70,3.723,3.727,0,0,0,0,5.85,64.94,730.80433670595,10.170604,6,P-GPS,,3.1
444400,2026-01-11 15:37:36,731.46050470595,10.498688,0.223694,2.20586293148,1.81052827316,16,5,7.391,731.46050470595,10.826772,0.4921268,2.28819233044,-0.223694,0.0,-4.250186,12.6,2.3,-1.8,0,0,1024,1144,1684,1024,0,18,100,0,0,0,0,70,3.723,3.727,0,0,0,0,5.85,64.94,731.46050470595,10.826772,6,P-GPS,,3.3
444500,2026-01-11 15:37:36,732.11667270595,11.154856,0.223694,2.2293963968,1.89733601872,16,5,7.391,732.11667270595,11.48294,0.4921268,2.28819233044,-0.223694,0.0,-4.250186,12.6,2.0,-1.8,0,0,1024,1684,1684,1024,0,100,100,0,0,0,0,70,3.723,3.727,0,0,0,0,5.85,64.94,732.11667270595,11.48294,6,P-GPS,,3.5
444600,2026-01-11 15:37:36,732.77284070595,11.48294,0.0,2.25549875984,1.98725728144,16,5,7.391,732.77284070595,12.139108,0.4921268,2.28819233044,0.0,0.0,-4.250186,12.8,1.6,2.9,0,0,1024,1684,1684,1024,0,100,100,0,0,0,0,70,3.723,3.727,0,0,0,0,5.85,64.94,732.77284070595,12.139108,6,P-GPS,,3.7
444700,2026-01-11 15:37:36,733.42900870595,12.139108,0.0,2.34678813284,2.13118773224,16,5,7.391,733.42900870595,12.795276,0.4921268,2.34678813284,-0.223694,0.447388,-4.250186,12.9,1.0,11.2,0,0,1024,1024,1684,1024,0,0,100,0,0,0,0,70,3.723,3.727,0,0,0,0,5.85,64.94,733.42900870595,12.795276,6,P-GPS,,3.9
444800,2026-01-11 15:37:36,734.08517670595,12.795276,1.006623,2.4991634658,2.34424876268,16,5,7.391,734.08517670595,13.451444,1.006623,2.4991634658,-0.447388,0.894776,-4.250186,12.8,0.5,13.2,0,0,1024,1024,1684,1024,0,0,100,0,0,0,0,70,3.723,3.727,0,0,0,0,5.85,64.94,734.08517670595,13.451444,6,P-GPS,,4.1
444900,2026-01-11 15:37:37,734.74134470595,13.12336,1.4092722,2.66536425852,2.558399032,16,5,7.391,734.74134470595,14.107612,1.4092722,2.66536425852,-0.447388,1.342164,-4.250186,12.2,0.6,-0.7,0,0,1024,1024,1684,1024,0,0,100,0,0,0,0,70,3.723,3.727,0,0,0,0,5.85,64.94,734.74134470595,14.107612,6,P-GPS,,4.3
445000,2026-01-11 15:37:37,735.39751270595,13.779528,1.4092722,2.8594325062,2.79586295036,16,5,7.391,735.39751270595,14.76378,1.4092722,2.8594325062,-0.447388,1.342164,-4.250186,12.2,0.3,-6.8,0,0,1024,1024,1684,1024,0,0,100,0,0,0,0,70,3.723,3.727,0,0,0,0,5.85,64.94,735.39751270595,14.76378,6,P-GPS,,4.5
445100,2026-01-11 15:37:37,736.05368070595,14.76378,1.1408394,3.0112533772,2.97724418976,16,5,7.391,736.05368070595,15.419948,1.4092722,3.0112533772,-0.223694,1.11847,-4.250186,12.2,0.3,-7.6,0,0,1024,1024,1684,1024,0,0,100,0,0,0,0,70,3.723,3.727,0,0,0,0,5.85,64.94,736.05368070595,15.419948,6,P-GPS,,4.7
445200,2026-01-11 15:37:37,736.70984870595,15.419948,1.1408394,3.149032253,3.14577437888,16,5,7.45,736.70984870595,16.076116,1.4092722,3.149032253,-0.223694,0.894776,-4.250186,12.4,0.0,-6.9,0,0,1024,1024,1684,1024,0,0,100,0,0,0,0,70,3.695,3.705,0,0,0,0,5.739,64.94,736.70984870595,16.076116,6,P-GPS,,4.9
445300,2026-01-11 15:37:37,737.36601670595,16.076116,0.671082,3.26623370032,3.27207359552,16,5,7.45,737.36601670595,16.732284,1.4092722,3.26623370032,0.0,0.671082,-4.47388,12.7,0.4,-6.0,0,0,1024,1024,1684,1024,0,0,100,0,0,0,0,70,3.695,3.705,0,0,0,0,5.739,64.94,737.36601670595,16.732284,6,P-GPS,,5.1
445400,2026-01-11 15:37:37,738.02218470595,16.4042,0.447388,3.3689633624,3.3796589008,17,5,7.45,738.02218470595,17.388452,1.4092722,3.3689633624,0.0,0.447388,-4.250186,12.6,1.1,-5.2,0,0,1024,1024,1684,1024,0,0,100,0,0,0,0,70,3.695,3.705,0,0,0,0,5.739,64.94,738.02218470595,17.388452,6,P-GPS,,5.3
445500,2026-01-11 15:37:37,738.67835270595,18.700788,0.223694,3.4745407936,3.4853019488,17,5,7.45,738.67835270595,18.04462,1.4092722,3.4745407936,0.0,0.223694,-4.250186,12.6,1.1,-4.1,0,0,1024,1024,1684,1024,0,0,100,0,0,0,0,70,3.695,3.705,0,0,0,0,5.739,64.94,738.67835270595,18.04462,6,P-GPS,,5.5
445600,2026-01-11 15:37:37,739.33452070595,19.356956,0.0,3.5330381708,3.5496064128,17,5,7.45,739.33452070595,18.700788,1.4092722,3.5330381708,0.0,0.0,-4.250186,12.6,1.2,-2.7,0,0,1024,1024,1024,1024,0,0,0,0,0,0,0,70,3.695,3.705,0,0,0,0,5.739,64.94,739.33452070595,18.700788,6,P-GPS,,5.7
445700,2026-01-11 15:37:37,739.99068870595,19.68504,0.0,3.5408137616,3.5575132372,17,5,7.45,739.99068870595,19.356956,1.4092722,3.5408137616,0.0,0.0,-4.250186,12.5,1.8,-2.2,0,0,1024,1024,1024,1024,0,0,0,0,0,0,0,70,3.695,3.705,0,0,0,0,5.739,64.94,739.99068870595,19.356956,6,P-GPS,,5.9
445800,2026-01-11 15:37:37,740.64685670595,20.341208,0.0,3.5441602184,3.5622048384,17,5,7.45,740.64685670595,20.013124,1.4092722,3.5441602184,0.0,0.0,-3.802798,12.4,1.9,-2.0,0,0,1024,1024,1024,1024,0,0,0,0,0,0,0,70,3.695,3.705,0,0,0,0,5.739,64.94,740.64685670595,20.013124,6,P-GPS,,6.1
445900,2026-01-11 15:37:38,741.30302470595,20.997376,0.0,3.4629594284,3.6489174396,17,5,7.45,741.30302470595,20.669292,1.4092722,3.5441602184,0.0,0.0,-3.131716,12.5,1.4,-1.9,0,0,1024,1024,1684,1024,0,0,100,0,0,0,0,70,3.695,3.705,0,0,0,0,5.739,64.94,741.30302470595,20.669292,6,P-GPS,,6.3
446000,2026-01-11 15:37:38,741.63110870595,21.653544,0.0,3.4700788512,3.6568570724,17,5,7.45,741.63110870595,20.997376,1.4092722,3.5441602184,0.0,0.0,-2.460634,12.5,1.9,-2.5,0,0,1024,1024,1684,1024,0,0,100,0,0,0,0,70,3.695,3.705,0,0,0,0,5.739,64.94,741.63110870595,20.997376,6,P-GPS,,6.4
446100,2026-01-11 15:37:38,742.28727670595,21.981628,0.0,3.4737862004,3.6827100916,17,5,7.45,742.28727670595,21.653544,1.4092722,3.5441602184,0.0,0.0,-1.789552,12.6,1.7,-3.0,0,0,1024,1024,1684,1024,0,0,100,0,0,0,0,70,3.695,3.705,0,0,0,0,5.739,64.94,742.28727670595,21.653544,6,P-GPS,,6.6
446200,2026-01-11 15:37:38,742.28727670595,22.637796,0.223694,3.4776247832,3.7052822708,17,5,7.45,742.28727670595,21.653544,1.4092722,3.5441602184,0.0,0.223694,-1.565858,12.8,2.0,-2.6,0,0,1024,1024,1684,1024,0,0,100,0,0,0,0,70,3.695,3.705,0,0,0,0,5.739,64.94,742.28727670595,21.653544,6,P-GPS,,6.6
446300,2026-01-11 15:37:38,742.61536070595,22.96588,0.223694,3.5184056244,3.762139228,17,5,7.526,742.61536070595,21.981628,1.4092722,3.5441602184,0.0,0.223694,-2.013246,13.1,2.5,-2.1,0,0,1024,1024,1684,1024,0,0,100,0,0,0,0,70,3.758,3.767,0,0,0,0,4.962,64.94,742.61536070595,21.981628,6,P-GPS,,6.7
446400,2026-01-11 15:37:38,743.27152870595,23.622048,0.223694,3.583825574,3.9017717784,17,5,7.526,743.27152870595,22.637796,1.4092722,3.583825574,0.0,0.223694,-2.684328,12.9,2.8,-3.1,0,0,1024,1024,1684,1024,0,0,100,0,0,0,0,70,3.758,3.767,0,0,0,0,4.962,64.94,743.27152870595,22.637796,6,P-GPS,,6.9
446500,2026-01-11 15:37:38,743.59961270595,23.950132,0.0,3.6119423728,3.9441930396,17,5,7.526,743.59961270595,22.96588,1.4092722,3.6119423728,0.0,0.0,-3.131716,12.8,3.4,-3.3,0,0,1024,1024,1684,1024,0,0,100,0,0,0,0,70,3.758,3.767,0,0,0,0,4.962,64.94,743.59961270595,22.96588,6,P-GPS,,7.0
446600,2026-01-11 15:37:38,744.25578070595,24.6063,0.0,3.62860904,3.9797901536,17,5,7.526,744.25578070595,23.622048,1.4092722,3.62860904,0.0,0.0,-3.579104,12.9,3.1,-3.1,0,0,1024,1024,1684,1024,0,0,100,0,0,0,0,70,3.758,3.767,0,0,0,0,4.962,64.94,744.25578070595,23.622048,6,P-GPS,,7.2
446700,2026-01-11 15:37:38,744.91194870595,24.934384,0.0,3.6233268876,3.9898623324,17,5,7.526,744.91194870595,24.278216,1.4092722,3.62860904,0.0,0.0,-4.026492,12.9,3.1,-2.7,0,0,1024,1024,1684,1024,0,0,100,0,0,0,0,70,3.758,3.767,0,0,0,0,4.962,64.94,744.91194870595,24.278216,6,P-GPS,,7.4
446800,2026-01-11 15:37:38,745.89620070595,28.543308,0.0,3.6194883048,4.0243111524,17,5,7.526,745.89620070595,25.262468,1.4092722,3.62860904,0.0,0.0,-4.250186,12.7,2.7,-2.9,0,0,1024,1024,1684,1024,0,0,100,0,0,0,0,70,3.758,3.767,0,0,0,0,4.962,64.94,745.89620070595,25.262468,6,P-GPS,,7.7
446900,2026-01-11 15:37:39,746.55236870595,29.52756,0.0,3.603346572,4.0461615468,17,5,7.526,746.55236870595,25.918636,1.4092722,3.62860904,0.0,0.0,-4.250186,12.6,3.0,-3.0,0,0,1024,1024,1684,1024,0,0,100,0,0,0,0,70,3.758,3.767,0,0,0,0,4.962,64.94,746.55236870595,25.918636,6,P-GPS,,7.9
447000,2026-01-11 15:37:39,747.20853670595,30.511812,0.0,3.5816274112,4.0748688968,17,5,7.526,747.20853670595,26.574804,1.4092722,3.62860904,0.0,0.0,-4.250186,12.6,3.4,-2.2,0,0,1024,1024,1684,1024,0,0,100,0,0,0,0,70,3.758,3.767,0,0,0,0,4.962,64.94,747.20853670595,26.574804,6,P-GPS,,8.1
447100,2026-01-11 15:37:39,747.86470470595,31.16798,0.0,3.5550197988,4.1014437008,17,5,7.526,747.86470470595,27.230972,1.4092722,3.62860904,0.0,0.0,-4.250186,12.6,2.9,-2.5,0,0,1024,1024,1684,1024,0,0,100,0,0,0,0,70,3.758,3.767,0,0,0,0,4.962,64.94,747.86470470595,27.230972,6,P-GPS,,8.3
447200,2026-01-11 15:37:39,748.84895670595,31.824148,0.0,3.5102691412,4.1484909464,17,5,7.526,748.84895670595,28.215224,1.4092722,3.62860904,0.0,0.0,-4.47388,12.6,2.3,-2.1,0,0,1024,1024,1684,1024,0,0,100,0,0,0,0,70,3.758,3.767,0,0,0,0,4.962,64.94,748.84895670595,28.215224,6,P-GPS,,8.6
447300,2026-01-11 15:37:39,749.50512470595,32.152232,0.0,3.4610565412,4.1985893732,17,5,7.526,749.50512470595,28.871392,1.4092722,3.62860904,0.0,0.0,-4.250186,12.5,3.1,-2.1,0,0,1024,1024,1684,1024,0,0,100,0,0,0,0,70,3.758,3.767,0,0,0,0,4.962,64.94,749.50512470595,28.871392,6,P-GPS,,8.8
447400,2026-01-11 15:37:39,750.16129270595,32.152232,0.0,3.4090880356,4.2514437056,17,5,7.371,750.16129270595,29.52756,1.4092722,3.62860904,0.0,0.0,-4.250186,12.6,2.8,-2.1,0,0,1024,1024,1684,1024,0,0,100,0,0,0,0,70,3.687,3.693,0,0,0,0,6.983,64.94,750.16129270595,29.52756,6,P-GPS,,9.0
447500,2026-01-11 15:37:39,751.14554470595,32.480316,0.0,3.3825132316,4.2929463316,17,5,7.371,751.14554470595,30.511812,1.4092722,3.62860904,0.0,0.0,-4.250186,12.5,3.1,-2.2,0,0,1024,1024,1684,1024,0,0,100,0,0,0,0,70,3.687,3.693,0,0,0,0,6.983,64.94,751.14554470595,30.511812,6,P-GPS,,9.3
447600,2026-01-11 15:37:39,751.80171270595,32.480316,0.0,3.3369095556,4.3744752056,17,5,7.371,751.80171270595,31.16798,1.4092722,3.62860904,0.0,0.0,-4.47388,12.5,2.2,-2.5,0,0,1024,1024,1024,1024,0,0,0,0,0,0,0,70,3.687,3.693,0,0,0,0,6.983,64.94,751.80171270595,31.16798,6,P-GPS,,9.5
447700,2026-01-11 15:37:39,752.45788070595,32.8084,0.0,3.27090561648,4.4408794072,17,5,7.371,752.45788070595,31.824148,1.4092722,3.62860904,0.0,0.0,-4.250186,12.5,1.7,-2.5,0,0,1024,1024,1024,1024,0,0,0,0,0,0,0,70,3.687,3.693,0,0,0,0,6.983,64.94,752.45788070595,31.824148,6,P-GPS,,9.7
447800,2026-01-11 15:37:39,753.44213270595,32.8084,0.0,3.201935798,4.5102035564,17,5,7.371,753.44213270595,32.8084,1.4092722,3.62860904,0.0,0.0,-4.250186,12.5,1.6,-2.9,0,0,1024,1024,1024,1024,0,0,0,0,0,0,0,70,3.687,3.693,0,0,0,0,6.983,64.94,753.44213270595,32.8084,6,P-GPS,,10.0
447900,2026-01-11 15:37:40,754.09830070595,33.136484,0.0,3.18778225424,4.556758676,17,5,7.371,754.09830070595,33.464568,1.4092722,3.62860904,0.0,0.0,-3.579104,12.4,2.1,-3.4,0,0,1024,1024,1024,1024,0,0,0,0,0,0,0,70,3.687,3.693,0,0,0,0,6.983,64.94,754.09830070595,33.464568,6,P-GPS,,10.2
448000,2026-01-11 15:37:40,754.42638470595,33.792652,0.0,3.17455390736,4.6039699636,16,5,7.371,754.42638470595,33.792652,1.4092722,3.62860904,0.0,0.0,-2.908022,12.5,2.4,-2.9,0,0,1024,1024,1024,1024,0,0,0,0,0,0,0,70,3.687,3.693,0,0,0,0,6.983,64.94,754.42638470595,33.792652,6,P-GPS,,10.3
448100,2026-01-11 15:37:40,755.08255270595,34.120736,0.0,3.21814642844,4.7027232476,16,5,7.371,755.08255270595,34.44882,1.4092722,3.62860904,0.0,0.0,-2.23694,12.5,2.5,-2.8,0,0,1024,1024,1024,1024,0,0,0,0,0,0,0,70,3.687,3.693,0,0,0,0,6.983,64.94,755.08255270595,34.44882,6,P-GPS,,10.5
448200,2026-01-11 15:37:40,755.41063670595,34.120736,0.0,3.26707359536,4.8054135396,17,5,7.371,755.41063670595,34.776904,1.4092722,3.62860904,0.0,0.0,-1.342164,12.5,2.7,-2.9,0,0,1024,1024,1024,1024,0,0,0,0,0,0,0,70,3.687,3.693,0,0,0,0,6.983,64.94,755.41063670595,34.776904,6,P-GPS,,10.6
448300,2026-01-11 15:37:40,755.73872070595,34.44882,0.0,3.263697611,4.8118111776,17,5,7.371,755.73872070595,35.104988,1.4092722,3.62860904,0.0,0.0,-0.671082,12.5,2.4,-2.9,0,0,1024,1024,1024,1024,0,0,0,0,0,0,0,70,3.687,3.693,0,0,0,0,6.983,64.94,755.73872070595,35.104988,6,P-GPS,,10.7
448400,2026-01-11 15:37:40,755.73872070595,34.44882,0.0,3.25863199404,4.8179791568,17,5,7.371,755.73872070595,35.104988,1.4092722,3.62860904,0.0,0.0,-0.223694,12.4,2.0,-3.2,0,0,1024,1024,1024,1024,0,0,0,0,0,0,0,70,3.687,3.693,0,0,0,0,6.983,64.94,755.73872070595,35.104988,6,P-GPS,,10.7
448500,2026-01-11 15:37:40,756.06680470595,34.44882,0.0,3.222769132,4.856791494,17,5,7.492,756.06680470595,35.433072,1.4092722,3.62860904,0.0,0.0,-0.223694,12.4,2.5,-3.2,0,0,1024,1024,1024,1024,0,0,0,0,0,0,0,70,3.747,3.745,0,0,0,0,4.693,65.12,756.06680470595,35.433072,6,P-GPS,,10.8
448600,2026-01-11 15:37:40,756.06680470595,34.44882,0.0,3.19842858004,4.8983269284,17,5,7.492,756.06680470595,35.433072,1.4092722,3.62860904,0.0,0.0,0.0,12.4,2.5,-3.2,0,0,1024,1024,1024,1024,0,0,0,0,0,0,0,70,3.747,3.745,0,0,0,0,4.693,65.12,756.06680470595,35.433072,6,P-GPS,,10.8
448700,2026-01-11 15:37:40,756.06680470595,34.44882,0.0,3.16769367092,4.9315618376,17,5,7.492,756.06680470595,35.433072,1.4092722,3.62860904,0.0,0.0,0.0,12.5,1.9,-2.9,0,0,1024,1024,1024,1024,0,0,0,0,0,0,0,70,3.747,3.745,0,0,0,0,4.693,65.12,756.06680470595,35.433072,6,P-GPS,,10.8
448800,2026-01-11 15:37:40,756.39488870595,34.44882,0.0,3.13734918176,4.9651248308,17,5,7.492,756.39488870595,35.761156,1.4092722,3.62860904,0.0,0.0,0.0,12.5,1.8,-3.2,0,0,1024,1024,1024,1024,0,0,0,0,0,0,0,70,3.747,3.745,0,0,0,0,4.693,65.12,756.39488870595,35.761156,6,P-GPS,,10.9
448900,2026-01-11 15:37:41,756.39488870595,34.44882,0.0,3.134596557,5.0630250964,17,5,7.492,756.39488870595,35.761156,1.4092722,3.62860904,0.0,0.0,0.0,12.6,1.7,-3.7,0,0,1024,1024,1024,1024,0,0,0,0,0,0,0,70,3.747,3.745,0,0,0,0,4.693,65.12,756.39488870595,35.761156,6,P-GPS,,10.9
449000,2026-01-11 15:37:41,756.39488870595,34.44882,0.0,3.12909130748,5.0808400576,17,5,7.492,756.39488870595,35.761156,1.4092722,3.62860904,0.0,0.0,0.0,12.7,1.5,-4.0,0,0,1024,1024,1024,1024,0,0,0,0,0,0,0,70,3.747,3.745,0,0,0,0,4.693,65.12,756.39488870595,35.761156,6,P-GPS,,10.9
449100,2026-01-11 15:37:41,756.72297270595,34.44882,0.0,3.10233277644,5.1078085624,17,5,7.492,756.72297270595,36.08924,1.4092722,3.62860904,0.0,0.0,0.0,12.6,1.9,-4.1,0,0,1024,1024,1024,1024,0,0,0,0,0,0,0,70,3.747,3.745,0,0,0,0,4.693,65.12,756.72297270595,36.08924,6,P-GPS,,11.0
449200,2026-01-11 15:37:41,756.72297270595,34.44882,0.0,3.06923566252,5.1409778548,17,5,7.492,756.72297270595,36.08924,1.4092722,3.62860904,0.0,0.0,0.0,12.5,2.4,-3.5,0,0,1024,1024,1024,1024,0,0,0,0,0,0,0,70,3.747,3.745,0,0,0,0,4.693,65.12,756.72297270595,36.08924,6,P-GPS,,11.0
449300,2026-01-11 15:37:41,756.72297270595,34.44882,0.0,3.06495088548,5.1708991156,17,5,7.492,756.72297270595,36.08924,1.4092722,3.62860904,0.0,0.0,0.0,12.6,2.2,-3.3,0,0,1024,1024,1024,1024,0,0,0,0,0,0,0,70,3.747,3.745,0,0,0,0,4.693,65.12,756.72297270595,36.08924,6,P-GPS,,11.0
449400,2026-01-11 15:37:41,756.72297270595,34.44882,0.0,3.04846138364,5.192257384,17,5,7.492,756.72297270595,36.08924,1.4092722,3.62860904,0.0,0.0,0.0,12.6,1.7,-3.3,0,0,1024,1024,1024,1024,0,0,0,0,0,0,0,70,3.747,3.745,0,0,0,0,4.693,65.12,756.72297270595,36.08924,6,P-GPS,,11.0
449500,2026-01-11 15:37:41,756.72297270595,34.44882,0.0,3.02532161912,5.2159450488,17,5,7.492,756.72297270595,36.08924,1.4092722,3.62860904,0.0,0.0,0.0,12.5,1.2,-3.1,0,0,1024,1024,1024,1024,0,0,0,0,0,0,0,70,3.747,3.745,0,0,0,0,4.693,65.12,756.72297270595,36.08924,6,P-GPS,,11.0
449600,2026-01-11 15:37:41,756.72297270595,34.44882,0.0,3.00125665772,5.2413715588,17,5,7.446,756.72297270595,36.08924,1.4092722,3.62860904,0.0,0.0,0.0,12.4,1.6,-3.2,0,0,1024,1024,1024,1024,0,0,0,0,0,0,0,70,3.721,3.724,0,0,0,0,4.819,65.12,756.72297270595,36.08924,6,P-GPS,,11.0
449700,2026-01-11 15:37:41,757.05105670595,34.44882,0.0,2.96347122344,5.2888453136,17,5,7.446,757.05105670595,36.417324,1.4092722,3.62860904,0.0,0.0,0.0,12.4,1.3,-3.2,0,0,1024,1024,1024,1024,0,0,0,0,0,0,0,70,3.721,3.724,0,0,0,0,4.819,65.12,757.05105670595,36.417324,6,P-GPS,,11.1
449800,2026-01-11 15:37:41,757.05105670595,34.44882,0.0,2.91067266532,5.3731629016,17,5,7.446,757.05105670595,36.417324,1.4092722,3.62860904,0.0,0.0,0.0,12.3,0.1,-2.9,0,0,1024,1024,1024,1024,0,0,0,0,0,0,0,70,3.721,3.724,0,0,0,0,4.819,65.12,757.05105670595,36.417324,6,P-GPS,,11.1
449900,2026-01-11 15:37:42,757.05105670595,34.44882,0.0,2.88382883244,5.4130907244,17,5,7.446,757.05105670595,36.417324,1.4092722,3.62860904,0.0,0.0,0.0,12.4,0.0,-2.2,0,0,1024,1024,1024,1024,0,0,0,0,0,0,0,70,3.721,3.724,0,0,0,0,4.819,65.12,757.05105670595,36.417324,6,P-GPS,,11.1
450000,2026-01-11 15:37:42,757.05105670595,34.44882,0.0,2.85758867412,5.4508860012,17,5,7.446,757.05105670595,36.417324,1.4092722,3.62860904,0.0,0.0,0.0,12.5,0.0,-2.1,0,0,1024,1024,1024,1024,0,0,0,0,0,0,0,70,3.721,3.724,0,0,0,0,4.819,65.12,757.05105670595,36.417324,6,P-GPS,,11.1
450100,2026-01-11 15:37:42,757.05105670595,34.44882,0.0,2.8317422166,5.484252144,17,5,7.446,757.05105670595,36.417324,1.4092722,3.62860904,0.0,0.0,0.0,12.6,-0.3,-2.1,0,0,1024,1024,1024,1024,0,0,0,0,0,0,0,70,3.721,3.724,0,0,0,0,4.819,65.12,757.05105670595,36.417324,6,P-GPS,,11.1
450200,2026-01-11 15:37:42,757.05105670595,34.44882,0.0,2.83038394884,5.529691778,17,5,7.446,757.05105670595,36.417324,1.4092722,3.62860904,0.0,0.0,0.0,12.6,-1.0,-2.1,0,0,1024,1024,1024,1024,0,0,0,0,0,0,0,70,3.721,3.724,0,0,0,0,4.819,65.12,757.05105670595,36.417324,6,P-GPS,,11.1
450300,2026-01-11 15:37:42,757.05105670595,34.44882,0.0,2.82361885676,5.5545277368,17,5,7.446,757.05105670595,36.417324,1.4092722,3.62860904,0.0,0.0,0.0,12.5,-0.9,-2.0,0,0,1024,1024,1024,1024,0,0,0,0,0,0,0,70,3.721,3.724,0,0,0,0,4.819,65.12,757.05105670595,36.417324,6,P-GPS,,11.1
450400,2026-01-11 15:37:42,757.37914070595,34.44882,0.0,2.81813985396,5.5733925668,17,5,7.446,757.37914070595,36.745408,1.4092722,3.62860904,0.0,0.0,0.0,12.5,-0.7,-2.1,0,0,1024,1024,1024,1024,0,0,0,0,0,0,0,70,3.721,3.724,0,0,0,0,4.819,65.12,757.37914070595,36.745408,6,P-GPS,,11.2
450500,2026-01-11 15:37:42,757.37914070595,34.44882,0.0,2.80792659904,5.5837272128,17,5,7.446,757.37914070595,36.745408,1.4092722,3.62860904,0.0,0.0,0.0,12.5,-0.7,-2.1,0,0,1024,1024,1024,1024,0,0,0,0,0,0,0,70,3.721,3.724,0,0,0,0,4.819,65.12,757.37914070595,36.745408,6,P-GPS,,11.2
450600,2026-01-11 15:37:42,757.37914070595,34.44882,0.0,2.82455389616,5.6057416492,17,5,7.446,757.37914070595,36.745408,1.4092722,3.62860904,0.0,0.0,0.0,12.5,-0.5,-1.8,0,0,1024,1024,1024,1024,0,0,0,0,0,0,0,70,3.721,3.724,0,0,0,0,4.819,65.12,757.37914070595,36.745408,6,P-GPS,,11.2
450700,2026-01-11 15:37:42,757.37914070595,34.44882,0.0,2.82241478848,5.6177495236,17,5,7.445,757.37914070595,36.745408,1.4092722,3.62860904,0.0,0.0,0.0,12.6,-0.4,-1.7,0,0,1024,1024,1024,1024,0,0,0,0,0,0,0,70,3.721,3.724,0,0,0,0,4.974,65.12,757.37914070595,36.745408,6,P-GPS,,11.2
450800,2026-01-11 15:37:42,757.37914070595,34.44882,0.0,2.82283801684,5.63320228,17,5,7.445,757.37914070595,36.745408,1.4092722,3.62860904,0.0,0.0,0.0,12.6,-0.3,-1.7,0,0,1024,1024,1024,1024,0,0,0,0,0,0,0,70,3.721,3.724,0,0,0,0,4.974,65.12,757.37914070595,36.745408,6,P-GPS,,11.2
450900,2026-01-11 15:37:43,757.37914070595,34.44882,0.0,2.81023302956,5.6599739344,17,5,7.445,757.37914070595,36.745408,1.4092722,3.62860904,0.0,0.0,0.0,12.6,0.0,-1.6,0,0,1024,1024,1024,1024,0,0,0,0,0,0,0,70,3.721,3.724,0,0,0,0,4.974,65.12,757.37914070595,36.745408,6,P-GPS,,11.2
451000,2026-01-11 15:37:43,757.37914070595,34.44882,0.0,2.79527568,5.6986878464,17,5,7.445,757.37914070595,36.745408,1.4092722,3.62860904,0.0,0.0,0.0,12.5,-0.5,-1.6,0,0,1024,1024,1024,1024,0,0,0,0,0,0,0,70,3.721,3.724,0,0,0,0,4.974,65.12,757.37914070595,36.745408,6,P-GPS,,11.2
451100,2026-01-11 15:37:43,757.37914070595,34.44882,0.0,2.7917651812,5.7182088444,17,5,7.445,757.37914070595,36.745408,1.4092722,3.62860904,0.0,0.0,0.0,12.4,-0.4,-1.7,0,0,1024,1024,1024,1024,0,0,0,0,0,0,0,70,3.721,3.724,0,0,0,0,4.974,65.12,757.37914070595,36.745408,6,P-GPS,,11.2
451200,2026-01-11 15:37:43,757.37914070595,34.44882,0.0,2.78918644096,5.741798084,17,5,7.445,757.37914070595,36.745408,1.4092722,3.62860904,0.0,0.0,0.0,12.4,0.0,-1.7,0,0,1024,1024,1024,1024,0,0,0,0,0,0,0,70,3.721,3.724,0,0,0,0,4.974,65.12,757.37914070595,36.745408,6,P-GPS,,11.2
451300,2026-01-11 15:37:43,757.37914070595,34.44882,0.0,2.77199155852,5.7627298432,17,5,7.445,757.37914070595,36.745408,1.4092722,3.62860904,0.0,0.0,0.0,12.4,0.4,-1.4,0,0,1024,1024,1024,1024,0,0,0,0,0,0,0,70,3.721,3.724,0,0,0,0,4.974,65.12,757.37914070595,36.745408,6,P-GPS,,11.2
451400,2026-01-11 15:37:43,757.37914070595,34.44882,0.0,2.75510835588,5.7824476916,17,5,7.445,757.37914070595,36.745408,1.4092722,3.62860904,0.0,0.0,0.0,12.5,0.1,-1.2,0,0,1024,1024,1024,1024,0,0,0,0,0,0,0,70,3.721,3.724,0,0,0,0,4.974,65.12,757.37914070595,36.745408,6,P-GPS,,11.2
451500,2026-01-11 15:37:43,757.37914070595,34.44882,0.0,2.74661426112,5.7942587156,17,5,7.445,757.37914070595,36.745408,1.4092722,3.62860904,0.0,0.0,0.0,12.6,0.0,-0.9,0,0,1024,1024,1024,1024,0,0,0,0,0,0,0,70,3.721,3.724,0,0,0,0,4.974,65.12,757.37914070595,36.745408,6,P-GPS,,11.2
451600,2026-01-11 15:37:43,757.37914070595,34.44882,0.0,2.74411754188,5.8014109468,17,5,7.445,757.37914070595,36.745408,1.4092722,3.62860904,0.0,0.0,0.0,12.7,-0.2,-1.2,0,0,1024,1024,1024,1024,0,0,0,0,0,0,0,70,3.721,3.724,0,0,0,0,4.974,65.12,757.37914070595,36.745408,6,P-GPS,,11.2
451700,2026-01-11 15:37:43,757.70722470595,34.44882,0.0,2.74964903812,5.8139437556,17,5,7.445,757.70722470595,37.073492,1.4092722,3.62860904,0.0,0.0,0.0,12.7,-0.4,-1.4,0,0,1024,1024,1024,1024,0,0,0,0,0,0,0,70,3.721,3.724,0,0,0,0,4.974,65.12,757.70722470595,37.073492,6,P-GPS,,11.3
451800,2026-01-11 15:37:43,757.70722470595,34.44882,0.0,2.76125665004,5.8318243336,17,5,7.451,757.70722470595,37.073492,1.4092722,3.62860904,0.0,0.0,0.0,12.7,-0.7,-1.8,0,0,1024,1024,1024,1024,0,0,0,0,0,0,0,70,3.724,3.726,0,0,0,0,4.817,65.12,757.70722470595,37.073492,6,P-GPS,,11.3
451900,2026-01-11 15:37:44,757.70722470595,34.44882,0.0,2.78125665068,5.8547574052,17,5,7.451,757.70722470595,37.073492,1.4092722,3.62860904,0.0,0.0,0.0,13.0,-1.0,-1.6,0,0,1024,1024,1024,1024,0,0,0,0,0,0,0,70,3.724,3.726,0,0,0,0,4.817,65.12,757.70722470595,37.073492,6,P-GPS,,11.3
452000,2026-01-11 15:37:44,757.70722470595,34.44882,0.0,2.80979667784,5.8924214484,17,5,7.451,757.70722470595,37.073492,1.4092722,3.62860904,0.0,0.0,0.0,12.7,0.0,-2.8,0,0,1024,1024,1024,1024,0,0,0,0,0,0,0,70,3.724,3.726,0,0,0,0,4.817,65.12,757.70722470595,37.073492,6,P-GPS,,11.3
452100,2026-01-11 15:37:44,758.03530870595,34.44882,0.0,2.83451780724,5.933727224,17,5,7.451,758.03530870595,37.401576,1.4092722,3.62860904,0.0,0.0,0.0,12.5,0.1,-2.5,0,0,1024,1024,1024,1024,0,0,0,0,0,0,0,70,3.724,3.726,0,0,0,0,4.817,65.12,758.03530870595,37.401576,6,P-GPS,,11.4
452200,2026-01-11 15:37:44,758.03530870595,34.44882,0.0,2.86074812304,5.9781497976,17,5,7.451,758.03530870595,37.401576,1.4092722,3.62860904,0.0,0.0,0.0,12.5,1.4,-2.1,0,0,1024,1024,1024,1024,0,0,0,0,0,0,0,70,3.724,3.726,0,0,0,0,4.817,65.12,758.03530870595,37.401576,6,P-GPS,,11.4
452300,2026-01-11 15:37:44,758.03530870595,34.44882,0.0,2.8866306698,6.0043965176,17,5,7.451,758.03530870595,37.401576,1.4092722,3.62860904,0.0,0.0,0.0,12.6,0.8,-2.2,0,0,1024,1024,1024,1024,0,0,0,0,0,0,0,70,3.724,3.726,0,0,0,0,4.817,65.12,758.03530870595,37.401576,6,P-GPS,,11.4
452400,2026-01-11 15:37:44,758.03530870595,34.44882,0.0,2.91143710104,6.0325133164,17,5,7.451,758.03530870595,37.401576,1.4092722,3.62860904,0.0,0.0,0.0,12.6,0.4,-2.7,0,0,1024,1024,1024,1024,0,0,0,0,0,0,0,70,3.724,3.726,0,0,0,0,4.817,65.12,758.03530870595,37.401576,6,P-GPS,,11.4
452500,2026-01-11 15:37:44,758.03530870595,34.44882,0.0,2.9379594116,6.077920142,17,5,7.451,758.03530870595,37.401576,1.4092722,3.62860904,0.0,0.0,0.0,12.6,0.7,-2.6,0,0,1024,1024,1024,1024,0,0,0,0,0,0,0,70,3.724,3.726,0,0,0,0,4.817,65.12,758.03530870595,37.401576,6,P-GPS,,11.4
452600,2026-01-11 15:37:44,758.03530870595,34.44882,0.0,2.96338920244,6.1251970464,17,5,7.451,758.03530870595,37.401576,1.4092722,3.62860904,0.0,0.0,0.0,12.6,1.1,-2.3,0,0,1024,1024,1024,1024,0,0,0,0,0,0,0,70,3.724,3.726,0,0,0,0,4.817,65.12,758.03530870595,37.401576,6,P-GPS,,11.4
452700,2026-01-11 15:37:44,758.03530870595,34.44882,0.0,2.99487542392,6.1617784124,17,5,7.451,758.03530870595,37.401576,1.4092722,3.62860904,0.0,0.0,0.0,12.6,1.0,-1.8,0,0,1024,1024,1024,1024,0,0,0,0,0,0,0,70,3.724,3.726,0,0,0,0,4.817,65.12,758.03530870595,37.401576,6,P-GPS,,11.4
452800,2026-01-11 15:37:44,758.03530870595,34.44882,0.0,3.0141241122,6.1837928488,17,5,7.451,758.03530870595,37.401576,1.4092722,3.62860904,0.0,0.0,0.0,12.6,1.1,-1.8,0,0,1024,1024,1024,1024,0,0,0,0,0,0,0,70,3.724,3.726,0,0,0,0,4.817,65.12,758.03530870595,37.401576,6,P-GPS,,11.4
452900,2026-01-11 15:37:45,758.03530870595,34.44882,0.0,3.01918972916,6.2064634532,17,5,7.438,758.03530870595,37.401576,1.4092722,3.62860904,0.0,0.0,0.0,12.6,1.0,-1.7,0,0,1024,1024,1024,1024,0,0,0,0,0,0,0,69,3.715,3.72,0,0,0,0,4.94,65.12,758.03530870595,37.401576,6,P-GPS,,11.4
453000,2026-01-11 15:37:45,758.03530870595,34.44882,0.0,3.02424222276,6.2284778896,17,5,7.438,758.03530870595,37.401576,1.4092722,3.62860904,0.0,0.0,0.0,12.6,0.9,-2.0,0,0,1024,1024,1024,1024,0,0,0,0,0,0,0,69,3.715,3.72,0,0,0,0,4.94,65.12,758.03530870595,37.401576,6,P-GPS,,11.4
453100,2026-01-11 15:37:45,758.03530870595,34.44882,0.0,3.02645022808,6.2353348452,17,5,7.438,758.03530870595,37.401576,1.4092722,3.62860904,0.0,0.0,0.0,12.6,0.8,-1.9,0,0,1024,1024,1024,1024,0,0,0,0,0,0,0,69,3.715,3.72,0,0,0,0,4.94,65.12,758.03530870595,37.401576,6,P-GPS,,11.4
453200,2026-01-11 15:37:45,758.03530870595,34.44882,0.0,2.99659786492,6.2670933764,17,5,7.438,758.03530870595,37.401576,1.4092722,3.62860904,0.0,0.0,0.0,12.8,0.7,-1.8,0,0,1024,1024,1024,1024,0,0,0,0,0,0,0,69,3.715,3.72,0,0,0,0,4.94,65.12,758.03530870595,37.401576,6,P-GPS,,11.4
453300,2026-01-11 15:37:45,758.03530870595,34.44882,0.0,2.99091873088,6.2914700176,17,5,7.438,758.03530870595,37.401576,1.4092722,3.62860904,0.0,0.0,0.0,12.8,0.6,-1.6,0,0,1024,1024,1024,1024,0,0,0,0,0,0,0,69,3.715,3.72,0,0,0,0,4.94,65.12,758.03530870595,37.401576,6,P-GPS,,11.4
453400,2026-01-11 15:37:45,757.70722470595,34.44882,0.0,2.98485245772,6.3191274988,17,5,7.438,758.03530870595,37.401576,1.4092722,3.62860904,0.0,0.0,0.0,12.7,0.8,-1.3,0,0,1024,1024,1024,1024,0,0,0,0,0,0,0,69,3.715,3.72,0,0,0,0,4.94,65.12,757.70722470595,37.073492,6,P-GPS,,11.3
453500,2026-01-11 15:37:45,757.70722470595,34.44882,0.0,2.97617463592,6.3283138508,17,5,7.438,758.03530870595,37.401576,1.4092722,3.62860904,0.0,0.0,0.0,12.5,0.8,-1.4,0,0,1024,1024,1024,1024,0,0,0,0,0,0,0,69,3.715,3.72,0,0,0,0,4.94,65.12,757.70722470595,37.073492,6,P-GPS,,11.3
453600,2026-01-11 15:37:45,757.70722470595,34.44882,0.0,2.93655193124,6.367946398,17,5,7.438,758.03530870595,37.401576,1.4092722,3.62860904,0.0,0.0,0.0,12.6,0.9,-1.3,0,0,1024,1024,1024,1024,0,0,0,0,0,0,0,69,3.715,3.72,0,0,0,0,4.94,65.12,757.70722470595,37.073492,6,P-GPS,,11.3
453700,2026-01-11 15:37:45,757.70722470595,34.44882,0.0,2.93481308604,6.3814306504,17,5,7.438,758.03530870595,37.401576,1.4092722,3.62860904,0.0,0.0,0.0,12.6,1.2,-0.9,0,0,1024,1024,1024,1024,0,0,0,0,0,0,0,69,3.715,3.72,0,0,0,0,4.94,65.12,757.70722470595,37.073492,6,P-GPS,,11.3
453800,2026-01-11 15:37:45,757.37914070595,34.44882,0.0,2.93808736436,6.3931432492,17,5,7.438,758.03530870595,37.401576,1.4092722,3.62860904,0.0,0.0,0.0,12.6,1.2,-0.6,0,0,1024,1024,1024,1024,0,0,0,0,0,0,0,69,3.715,3.72,0,0,0,0,4.94,65.12,757.37914070595,36.745408,6,P-GPS,,11.2
453900,2026-01-11 15:37:46,757.37914070595,34.44882,0.0,2.95612214184,6.4132547984,17,5,7.438,758.03530870595,37.401576,1.4092722,3.62860904,0.0,0.0,0.0,12.6,1.2,-1.6,0,0,1024,1024,1024,1024,0,0,0,0,0,0,0,69,3.715,3.72,0,0,0,0,4.94,65.12,757.37914070595,36.745408,6,P-GPS,,11.2
454000,2026-01-11 15:37:46,757.37914070595,34.44882,0.0,2.98989182796,6.4515750096,17,5,7.437,758.03530870595,37.401576,1.4092722,3.62860904,0.0,0.0,0.0,12.7,0.9,-2.8,0,0,1024,1024,1024,1024,0,0,0,0,0,0,0,69,3.718,3.719,0,0,0,0,4.943,65.12,757.37914070595,36.745408,6,P-GPS,,11.2
454100,2026-01-11 15:37:46,757.37914070595,34.44882,0.0,3.03274616004,6.4970802604,17,5,7.437,758.03530870595,37.401576,1.4092722,3.62860904,0.0,0.0,0.0,12.7,0.9,-2.9,0,0,1024,1024,1024,1024,0,0,0,0,0,0,0,69,3.718,3.719,0,0,0,0,4.943,65.12,757.37914070595,36.745408,6,P-GPS,,11.2
454200,2026-01-11 15:37:46,757.37914070595,34.44882,0.223694,3.07908802504,6.5450133328,17,5,7.437,758.03530870595,37.401576,1.4092722,3.62860904,0.0,0.223694,0.0,12.3,1.2,-3.3,0,0,1024,1024,1024,1024,0,0,0,0,0,0,0,69,3.718,3.719,0,0,0,0,4.943,65.12,757.37914070595,36.745408,6,P-GPS,,11.2
454300,2026-01-11 15:37:46,757.37914070595,34.44882,0.223694,3.123933827,6.5898624156,17,5,7.437,758.03530870595,37.401576,1.4092722,3.62860904,0.0,0.223694,0.0,12.3,1.7,-3.5,0,0,1024,1024,1024,1024,0,0,0,0,0,0,0,69,3.718,3.719,0,0,0,0,4.943,65.12,757.37914070595,36.745408,6,P-GPS,,11.2
454400,2026-01-11 15:37:46,757.37914070595,34.44882,0.0,3.20960640192,6.6780842032,17,5,7.437,758.03530870595,37.401576,1.4092722,3.62860904,0.0,0.0,0.0,12.4,1.5,-3.6,0,0,1024,1024,1024,1024,0,0,0,0,0,0,0,69,3.718,3.719,0,0,0,0,4.943,65.12,757.37914070595,36.745408,6,P-GPS,,11.2
454500,2026-01-11 15:37:46,757.37914070595,34.44882,0.0,3.2432415736,6.7131235744,17,5,7.437,758.03530870595,37.401576,1.4092722,3.62860904,0.0,0.0,0.0,12.6,1.4,-3.7,0,0,1024,1024,1024,1024,0,0,0,0,0,0,0,69,3.718,3.719,0,0,0,0,4.943,65.12,757.37914070595,36.745408,6,P-GPS,,11.2
454600,2026-01-11 15:37:46,757.37914070595,34.44882,0.0,3.27674879252,6.7486550716,17,5,7.437,758.03530870595,37.401576,1.4092722,3.62860904,0.0,0.0,0.0,12.5,1.5,-4.4,0,0,1024,1024,1024,1024,0,0,0,0,0,0,0,69,3.718,3.719,0,0,0,0,4.943,65.12,757.37914070595,36.745408,6,P-GPS,,11.2
454700,2026-01-11 15:37:46,757.37914070595,34.44882,0.0,3.30216546,6.7769687208,17,5,7.437,758.03530870595,37.401576,1.4092722,3.62860904,0.0,0.0,0.0,12.6,1.1,-4.3,0,0,1024,1024,1024,1024,0,0,0,0,0,0,0,69,3.718,3.719,0,0,0,0,4.943,65.12,757.37914070595,36.745408,6,P-GPS,,11.2
454800,2026-01-11 15:37:46,757.37914070595,34.44882,0.0,3.3200788464,6.7978348632,17,5,7.437,758.03530870595,37.401576,1.4092722,3.62860904,0.0,0.0,0.0,12.7,1.2,-4.1,0,0,1024,1024,1024,1024,0,0,0,0,0,0,0,69,3.718,3.719,0,0,0,0,4.943,65.12,757.37914070595,36.745408,6,P-GPS,,11.2
454900,2026-01-11 15:37:47,757.37914070595,34.44882,0.0,3.3251641484,6.81430468,17,5,7.437,758.03530870595,37.401576,1.4092722,3.62860904,0.0,0.0,0.0,12.7,1.4,-3.6,0,0,1024,1024,1024,1024,0,0,0,0,0,0,0,69,3.718,3.719,0,0,0,0,4.943,65.12,757.37914070595,36.745408,6,P-GPS,,11.2
455000,2026-01-11 15:37:47,757.05105670595,34.44882,0.0,3.3119095548,6.829724628,17,5,7.437,758.03530870595,37.401576,1.4092722,3.62860904,0.0,0.0,0.0,12.7,0.9,-3.3,0,0,1024,1024,1024,1024,0,0,0,0,0,0,0,69,3.718,3.719,0,0,0,0,4.943,65.12,757.05105670595,36.417324,6,P-GPS,,11.1
455100,2026-01-11 15:37:47,757.05105670595,34.44882,0.0,3.2914371132,6.8565618992,17,5,7.437,758.03530870595,37.401576,1.4092722,3.62860904,0.0,0.0,0.0,12.6,0.7,-2.7,0,0,1024,1024,1024,1024,0,0,0,0,0,0,0,69,3.71,3.714,0,0,0,0,4.943,65.12,757.05105670595,36.417324,6,P-GPS,,11.1
455200,2026-01-11 15:37:47,757.05105670595,34.44882,0.0,3.2693734642,6.8850395904,17,5,7.437,758.03530870595,37.401576,1.4092722,3.62860904,0.0,0.0,0.0,12.6,0.6,-1.9,0,0,1024,1024,1024,1024,0,0,0,0,0,0,0,69,3.71,3.714,0,0,0,0,4.943,65.12,757.05105670595,36.417324,6,P-GPS,,11.1
455300,2026-01-11 15:37:47,757.05105670595,34.44882,0.0,3.2108924912,6.9589241072,17,5,7.437,758.03530870595,37.401576,1.4092722,3.62860904,0.0,0.0,0.0,12.6,0.4,-1.8,0,0,1024,1024,1024,1024,0,0,0,0,0,0,0,69,3.71,3.714,0,0,0,0,4.943,65.12,757.05105670595,36.417324,6,P-GPS,,11.1
455400,2026-01-11 15:37:47,756.72297270595,34.44882,0.0,3.19863199212,6.9838912996,17,5,7.437,758.03530870595,37.401576,1.4092722,3.62860904,0.0,0.0,0.0,12.5,0.4,-1.9,0,0,1024,1024,1024,1024,0,0,0,0,0,0,0,69,3.71,3.714,0,0,0,0,4.943,65.12,756.72297270595,36.08924,6,P-GPS,,11.0
455500,2026-01-11 15:37:47,757.05105670595,34.44882,0.0,3.18973763488,6.9943899876,17,5,7.437,758.03530870595,37.401576,1.4092722,3.62860904,0.0,0.0,0.0,12.5,0.2,-2.2,0,0,1024,1024,1024,1024,0,0,0,0,0,0,0,69,3.71,3.714,0,0,0,0,4.943,65.12,757.05105670595,36.417324,6,P-GPS,,11.1
455600,2026-01-11 15:37:47,757.05105670595,34.44882,0.0,3.19044957716,7.0010172844,17,5,7.437,758.03530870595,37.401576,1.4092722,3.62860904,0.0,0.0,0.0,12.6,0.0,-3.1,0,0,1024,1024,1024,1024,0,0,0,0,0,0,0,69,3.71,3.714,0,0,0,0,4.943,65.12,757.05105670595,36.417324,6,P-GPS,,11.1
455700,2026-01-11 15:37:47,757.05105670595,34.44882,0.223694,3.20912739928,7.0435369708,17,5,7.437,758.03530870595,37.401576,1.4092722,3.62860904,0.0,0.223694,0.0,12.6,0.5,-3.8,0,0,1024,1024,1024,1024,0,0,0,0,0,0,0,69,3.71,3.714,0,0,0,0,4.943,65.12,757.05105670595,36.417324,6,P-GPS,,11.1
455800,2026-01-11 15:37:47,757.05105670595,34.44882,0.223694,3.243520445,7.0779529824,17,5,7.437,758.03530870595,37.401576,1.4092722,3.62860904,0.0,0.223694,0.0,12.5,0.1,-5.1,0,0,1024,1024,1024,1024,0,0,0,0,0,0,0,69,3.71,3.714,0,0,0,0,4.943,65.12,757.05105670595,36.417324,6,P-GPS,,11.1
455900,2026-01-11 15:37:48,757.37914070595,34.44882,0.223694,3.2929462996,7.1275264748,17,5,7.437,758.03530870595,37.401576,1.4092722,3.62860904,0.0,0.223694,0.0,12.4,0.5,-5.5,0,0,1024,1024,1024,1024,0,0,0,0,0,0,0,69,3.71,3.714,0,0,0,0,4.943,65.12,757.37914070595,36.745408,6,P-GPS,,11.2
456000,2026-01-11 15:37:48,757.37914070595,34.44882,0.223694,3.3420604744,7.1770671588,17,5,7.437,758.03530870595,37.401576,1.4092722,3.62860904,0.0,0.223694,0.0,12.4,1.1,-5.8,0,0,1024,1024,1024,1024,0,0,0,0,0,0,0,69,3.71,3.714,0,0,0,0,4.943,65.12,757.37914070595,36.745408,6,P-GPS,,11.2
456100,2026-01-11 15:37:48,757.37914070595,34.44882,0.223694,3.4152888232,7.2511157176,17,5,7.437,758.03530870595,37.401576,1.4092722,3.62860904,0.0,0.0,0.0,12.4,1.5,-5.7,0,0,1024,1024,1024,1024,0,0,0,0,0,0,0,69,3.71,3.714,0,0,0,0,4.943,65.12,757.37914070595,36.745408,6,P-GPS,,11.2
456200,2026-01-11 15:37:48,757.37914070595,34.44882,0.0,3.4474410552,7.2849739864,17,5,7.425,758.03530870595,37.401576,1.4092722,3.62860904,0.0,0.0,0.0,12.6,0.7,-5.6,0,0,1024,1024,1024,1024,0,0,0,0,0,0,0,69,3.716,3.716,0,0,0,0,5.093,65.3,757.37914070595,36.745408,6,P-GPS,,11.2
456300,2026-01-11 15:37:48,757.37914070595,34.44882,0.0,3.478838694,7.3167325176,17,5,7.425,758.03530870595,37.401576,1.4092722,3.62860904,0.0,0.0,0.0,12.6,1.1,-5.4,0,0,1024,1024,1024,1024,0,0,0,0,0,0,0,69,3.716,3.716,0,0,0,0,5.093,65.3,757.37914070595,36.745408,6,P-GPS,,11.2
456400,2026-01-11 15:37:48,757.70722470595,34.44882,0.0,3.5085959128,7.3478676892,17,5,7.425,758.03530870595,37.401576,1.4092722,3.62860904,0.0,0.0,0.0,12.5,1.2,-5.4,0,0,1024,1024,1024,1024,0,0,0,0,0,0,0,69,3.716,3.716,0,0,0,0,5.093,65.3,757.70722470595,37.073492,6,P-GPS,,11.3
456500,2026-01-11 15:37:48,757.70722470595,34.44882,0.0,3.5273623176,7.3685041728,17,5,7.425,758.03530870595,37.401576,1.4092722,3.62860904,0.0,0.0,0.0,12.7,1.3,-5.6,0,0,1024,1024,1024,1024,0,0,0,0,0,0,0,69,3.716,3.716,0,0,0,0,5.093,65.3,757.70722470595,37.073492,6,P-GPS,,11.3
456600,2026-01-11 15:37:48,757.70722470595,34.44882,0.0,3.5563321348,7.4011157224,16,5,7.425,758.03530870595,37.401576,1.4092722,3.62860904,0.0,0.0,0.0,13.1,-0.3,-5.0,0,0,1024,1024,1024,1024,0,0,0,0,0,0,0,69,3.716,3.716,0,0,0,0,5.093,65.3,757.70722470595,37.073492,6,P-GPS,,11.3
456700,2026-01-11 15:37:48,757.70722470595,34.44882,0.0,3.5614830536,7.4062666412,16,5,7.425,758.03530870595,37.401576,1.4092722,3.62860904,0.0,0.0,0.0,12.8,0.7,-4.6,0,0,1024,1024,1024,1024,0,0,0,0,0,0,0,69,3.716,3.716,0,0,0,0,5.093,65.3,757.70722470595,37.073492,6,P-GPS,,11.3
456800,2026-01-11 15:37:48,757.70722470595,34.44882,0.0,3.5696195368,7.4192587676,16,5,7.425,758.03530870595,37.401576,1.4092722,3.62860904,0.0,0.0,0.0,12.2,3.0,-4.9,0,0,1024,1024,1024,1024,0,0,0,0,0,0,0,69,3.716,3.716,0,0,0,0,5.093,65.3,757.70722470595,37.073492,6,P-GPS,,11.3
456900,2026-01-11 15:37:49,757.70722470595,34.44882,0.0,3.555774392,7.4355645424,16,5,7.425,758.03530870595,37.401576,1.4092722,3.62860904,0.0,0.0,0.0,12.3,3.1,-4.6,0,0,1024,1024,1024,1024,0,0,0,0,0,0,0,69,3.716,3.716,0,0,0,0,5.093,65.3,757.70722470595,37.073492,6,P-GPS,,11.3
457000,2026-01-11 15:37:49,757.70722470595,34.44882,0.0,3.4886484056,7.5122705816,17,5,7.425,758.03530870595,37.401576,1.4092722,3.62860904,0.0,0.0,0.0,12.4,2.0,-4.8,0,0,1024,1024,1024,1024,0,0,0,0,0,0,0,69,3.716,3.716,0,0,0,0,5.093,65.3,757.70722470595,37.073492,6,P-GPS,,11.3
457100,2026-01-11 15:37:49,757.70722470595,34.44882,0.0,3.48097124,7.5320540468,17,5,7.425,758.03530870595,37.401576,1.4092722,3.62860904,0.0,0.0,0.0,12.5,1.2,-4.9,0,0,1024,1024,1024,1024,0,0,0,0,0,0,0,69,3.716,3.716,0,0,0,0,5.093,65.3,757.70722470595,37.073492,6,P-GPS,,11.3
457200,2026-01-11 15:37:49,757.70722470595,34.44882,0.0,3.4703413184,7.5630907932,17,5,7.425,758.03530870595,37.401576,1.4092722,3.62860904,0.0,0.0,0.0,12.5,0.0,-4.9,0,0,1024,1024,1024,1024,0,0,0,0,0,0,0,69,3.716,3.716,0,0,0,0,5.093,65.3,757.70722470595,37.073492,6,P-GPS,,11.3
457300,2026-01-11 15:37:49,757.70722470595,34.44882,0.223694,3.4557415804,7.5932745212,17,5,7.435,758.03530870595,37.401576,1.4092722,3.62860904,-0.223694,0.0,0.0,12.6,-0.9,-4.8,0,0,1024,1024,1024,1024,0,0,0,0,0,0,0,69,3.717,3.718,0,0,0,0,4.926,65.48,757.70722470595,37.073492,6,P-GPS,,11.3
457400,2026-01-11 15:37:49,757.70722470595,34.44882,0.223694,3.4322835744,7.6259516876,17,5,7.435,758.03530870595,37.401576,1.4092722,3.62860904,-0.223694,0.0,0.0,12.6,-1.2,-4.8,0,0,1024,1024,1024,1024,0,0,0,0,0,0,0,69,3.717,3.718,0,0,0,0,4.926,65.48,757.70722470595,37.073492,6,P-GPS,,11.3
457500,2026-01-11 15:37:49,757.70722470595,34.44882,0.0,3.4052166444,7.6674215052,17,5,7.435,758.03530870595,37.401576,1.4092722,3.62860904,0.0,0.0,0.0,12.7,-0.9,-4.6,0,0,1024,1024,1024,1024,0,0,0,0,0,0,0,69,3.717,3.718,0,0,0,0,4.926,65.48,757.70722470595,37.073492,6,P-GPS,,11.3
457600,2026-01-11 15:37:49,757.70722470595,34.44882,0.0,3.3788058824,7.7086944724,17,5,7.435,758.03530870595,37.401576,1.4092722,3.62860904,0.0,0.0,0.0,12.7,-1.1,-4.6,0,0,1024,1024,1024,1024,0,0,0,0,0,0,0,69,3.717,3.718,0,0,0,0,4.926,65.48,757.70722470595,37.073492,6,P-GPS,,11.3
457700,2026-01-11 15:37:49,757.70722470595,34.44882,0.0,3.3696523388,7.750492374,17,5,7.435,758.03530870595,37.401576,1.4092722,3.62860904,0.0,0.0,0.0,12.7,-1.9,-3.9,0,0,1024,1024,1024,1024,0,0,0,0,0,0,0,69,3.717,3.718,0,0,0,0,4.926,65.48,757.70722470595,37.073492,6,P-GPS,,11.3
457800,2026-01-11 15:37:49,757.70722470595,34.44882,0.0,3.3636484016,7.82234277,17,5,7.435,758.03530870595,37.401576,1.4092722,3.62860904,0.0,0.0,0.0,12.7,-1.9,-4.1,0,0,1024,1024,1024,1024,0,0,0,0,0,0,0,69,3.717,3.718,0,0,0,0,4.926,65.48,757.70722470595,37.073492,6,P-GPS,,11.3
457900,2026-01-11 15:37:50,757.70722470595,34.44882,0.0,3.369258638,7.8354333216,17,5,7.435,758.03530870595,37.401576,1.4092722,3.62860904,0.0,0.0,0.0,12.6,-0.7,-4.6,0,0,1024,1024,1024,1024,0,0,0,0,0,0,0,69,3.717,3.718,0,0,0,0,4.926,65.48,757.70722470595,37.073492,6,P-GPS,,11.3
458000,2026-01-11 15:37:50,757.70722470595,34.44882,0.0,3.3811352788,7.8477364716,17,5,7.435,758.03530870595,37.401576,1.4092722,3.62860904,0.0,0.0,0.0,12.7,-1.1,-5.3,0,0,1024,1024,1024,1024,0,0,0,0,0,0,0,69,3.717,3.718,0,0,0,0,4.926,65.48,757.70722470595,37.073492,6,P-GPS,,11.3
458100,2026-01-11 15:37:50,757.70722470595,34.44882,0.0,3.38254604,7.8757876536,17,5,7.435,758.03530870595,37.401576,1.4092722,3.62860904,0.0,0.0,0.0,12.5,-1.1,-5.4,0,0,1024,1024,1024,1024,0,0,0,0,0,0,0,69,3.717,3.718,0,0,0,0,4.926,65.48,757.70722470595,37.073492,6,P-GPS,,11.3
458200,2026-01-11 15:37:50,757.70722470595,34.44882,0.223694,3.387959426,7.9226708572,17,5,7.435,758.03530870595,37.401576,1.4092722,3.62860904,0.223694,0.0,0.0,12.4,1.3,-5.6,0,0,1024,1024,1024,1024,0,0,0,0,0,0,0,69,3.717,3.718,0,0,0,0,4.926,65.48,757.70722470595,37.073492,6,P-GPS,,11.3
458300,2026-01-11 15:37:50,757.70722470595,34.44882,0.223694,3.4120079832,7.9915684972,17,5,7.435,758.03530870595,37.401576,1.4092722,3.62860904,0.223694,0.0,0.0,12.2,2.7,-5.7,0,0,1024,1024,1024,1024,0,0,0,0,0,0,0,69,3.717,3.718,0,0,0,0,4.926,65.48,757.70722470595,37.073492,6,P-GPS,,11.3
458400,2026-01-11 15:37:50,757.70722470595,34.44882,0.0,3.4376313436,8.0540356908,17,5,7.433,758.03530870595,37.401576,1.4092722,3.62860904,0.0,0.0,0.0,12.8,2.0,-5.9,0,0,1024,1024,1024,1024,0,0,0,0,0,0,0,69,3.719,3.725,0,0,0,0,4.879,65.48,757.70722470595,37.073492,6,P-GPS,,11.3
458500,2026-01-11 15:37:50,758.03530870595,34.44882,0.0,3.4577428928,8.0868112824,17,5,7.433,758.03530870595,37.401576,1.4092722,3.62860904,0.0,0.0,0.0,12.7,1.2,-5.8,0,0,1024,1024,1024,1024,0,0,0,0,0,0,0,69,3.719,3.725,0,0,0,0,4.879,65.48,758.03530870595,37.401576,6,P-GPS,,11.4
458600,2026-01-11 15:37:50,758.03530870595,34.44882,0.0,3.480479114,8.122867714,17,5,7.433,758.03530870595,37.401576,1.4092722,3.62860904,0.0,0.0,0.0,12.4,2.3,-6.7,0,0,1024,1024,1024,1024,0,0,0,0,0,0,0,69,3.719,3.725,0,0,0,0,4.879,65.48,758.03530870595,37.401576,6,P-GPS,,11.4
458700,2026-01-11 15:37:50,758.03530870595,34.44882,0.0,3.456693024,8.1836288708,17,5,7.433,758.03530870595,37.401576,1.4092722,3.62860904,0.0,0.0,0.0,12.4,3.0,-5.9,0,0,1024,1024,1024,1024,0,0,0,0,0,0,0,69,3.719,3.725,0,0,0,0,4.879,65.48,758.03530870595,37.401576,6,P-GPS,,11.4
458800,2026-01-11 15:37:50,758.03530870595,34.44882,0.0,3.454560478,8.2134517064,16,5,7.433,758.03530870595,37.401576,1.4092722,3.62860904,0.0,0.0,0.0,12.7,1.2,-6.3,0,0,1024,1024,1024,1024,0,0,0,0,0,0,0,69,3.719,3.725,0,0,0,0,4.879,65.48,758.03530870595,37.401576,6,P-GPS,,11.4
458900,2026-01-11 15:37:51,758.03530870595,34.44882,0.0,3.4531825252,8.232775854,16,5,7.433,758.03530870595,37.401576,1.4092722,3.62860904,0.0,0.0,0.0,12.9,0.1,-6.0,0,0,1024,1024,1024,1024,0,0,0,0,0,0,0,69,3.719,3.725,0,0,0,0,4.879,65.48,758.03530870595,37.401576,6,P-GPS,,11.4
459000,2026-01-11 15:37:51,757.70722470595,34.44882,0.223694,3.4544948612,8.2686026268,16,5,7.433,758.03530870595,37.401576,1.4092722,3.62860904,0.223694,0.0,0.0,12.6,0.2,-5.9,0,0,1024,1024,1024,1024,0,0,0,0,0,0,0,69,3.719,3.725,0,0,0,0,4.879,65.48,757.70722470595,37.073492,6,P-GPS,,11.3
459100,2026-01-11 15:37:51,757.70722470595,34.44882,0.223694,3.4182743876,8.308891342,16,5,7.433,758.03530870595,37.401576,1.4092722,3.62860904,0.223694,0.0,0.0,12.2,2.5,-5.8,0,0,1024,1024,1024,1024,0,0,0,0,0,0,0,69,3.719,3.725,0,0,0,0,4.879,65.48,757.70722470595,37.073492,6,P-GPS,,11.3
459200,2026-01-11 15:37:51,757.70722470595,34.44882,0.223694,3.4111877732,8.351050136,17,5,7.433,758.03530870595,37.401576,1.4092722,3.62860904,0.223694,0.0,0.0,12.1,3.6,-5.7,0,0,1024,1024,1024,1024,0,0,0,0,0,0,0,69,3.719,3.725,0,0,0,0,4.879,65.48,757.70722470595,37.073492,6,P-GPS,,11.3
459300,2026-01-11 15:37:51,757.70722470595,34.44882,0.223694,3.4038386916,8.3875658852,17,5,7.433,758.03530870595,37.401576,1.4092722,3.62860904,0.223694,0.0,0.0,12.2,3.0,-5.4,0,0,1024,1024,1024,1024,0,0,0,0,0,0,0,69,3.719,3.725,0,0,0,0,4.879,65.48,757.70722470595,37.073492,6,P-GPS,,11.3
459400,2026-01-11 15:37:51,757.37914070595,34.44882,0.223694,3.393372812,8.4218834716,17,5,7.433,758.03530870595,37.401576,1.4092722,3.62860904,0.223694,0.0,0.0,12.2,3.6,-4.8,0,0,1024,1024,1024,1024,0,0,0,0,0,0,0,69,3.719,3.725,0,0,0,0,4.879,65.48,757.37914070595,36.745408,6,P-GPS,,11.2
459500,2026-01-11 15:37:51,757.37914070595,34.44882,0.0,3.3979987964,8.468996334,17,5,7.443,758.03530870595,37.401576,1.4092722,3.62860904,0.0,0.0,0.0,12.1,4.5,-4.7,0,0,1024,1024,1024,1024,0,0,0,0,0,0,0,69,3.718,3.725,0,0,0,0,4.667,65.48,757.37914070595,36.745408,6,P-GPS,,11.2
459600,2026-01-11 15:37:51,757.37914070595,34.44882,0.0,3.3986549644,8.5008860988,17,5,7.443,758.03530870595,37.401576,1.4092722,3.62860904,0.0,0.0,0.0,12.3,3.7,-5.5,0,0,1024,1024,1024,1024,0,0,0,0,0,0,0,69,3.718,3.725,0,0,0,0,4.667,65.48,757.37914070595,36.745408,6,P-GPS,,11.2
459700,2026-01-11 15:37:51,757.37914070595,34.44882,0.0,3.4023295052,8.530676126,17,5,7.443,758.03530870595,37.401576,1.4092722,3.62860904,0.0,0.0,0.0,12.4,3.9,-5.9,0,0,1024,1024,1024,1024,0,0,0,0,0,0,0,69,3.718,3.725,0,0,0,0,4.667,65.48,757.37914070595,36.745408,6,P-GPS,,11.2
459800,2026-01-11 15:37:52,757.05105670595,34.44882,0.0,3.4054134948,8.555446468,17,5,7.443,758.03530870595,37.401576,1.4092722,3.62860904,0.0,0.0,0.0,12.5,2.9,-5.6,0,0,1024,1024,1024,1024,0,0,0,0,0,0,0,69,3.718,3.725,0,0,0,0,4.667,65.48,757.05105670595,36.417324,6,P-GPS,,11.1
459900,2026-01-11 15:37:52,757.05105670595,34.44882,0.0,3.395341316,8.566109198,17,5,7.443,758.03530870595,37.401576,1.4092722,3.62860904,0.0,0.0,0.0,12.4,2.9,-6.0,0,0,1024,1024,1024,1024,0,0,0,0,0,0,0,69,3.718,3.725,0,0,0,0,4.667,65.48,757.05105670595,36.417324,6,P-GPS,,11.1
460000,2026-01-11 15:37:52,757.05105670595,34.44882,0.0,3.3788714992,8.5837601172,17,5,7.443,758.03530870595,37.401576,1.4092722,3.62860904,0.0,0.0,0.0,12.7,1.2,-6.1,0,0,1024,1024,1024,1024,0,0,0,0,0,0,0,69,3.718,3.725,0,0,0,0,4.667,65.48,757.05105670595,36.417324,6,P-GPS,,11.1
460100,2026-01-11 15:37:52,757.05105670595,34.44882,0.0,3.3800526016,8.5899937132,17,5,7.443,758.03530870595,37.401576,1.4092722,3.62860904,0.0,0.0,0.0,12.6,0.9,-5.8,0,0,1024,1024,1024,1024,0,0,0,0,0,0,0,69,3.718,3.725,0,0,0,0,4.667,65.48,757.05105670595,36.417324,6,P-GPS,,11.1
460200,2026-01-11 15:37:52,757.05105670595,34.44882,0.0,3.38254604,8.5929136608,17,5,7.443,758.03530870595,37.401576,1.4092722,3.62860904,0.0,0.0,0.0,12.6,2.9,-5.3,0,0,1024,1024,1024,1024,0,0,0,0,0,0,0,69,3.718,3.725,0,0,0,0,4.667,65.48,757.05105670595,36.417324,6,P-GPS,,11.1
460300,2026-01-11 15:37:52,756.72297270595,34.44882,0.0,3.3740814728,8.6022312464,17,5,7.443,758.03530870595,37.401576,1.4092722,3.62860904,0.0,0.0,0.0,12.8,1.7,-5.0,0,0,1024,1024,1024,1024,0,0,0,0,0,0,0,69,3.718,3.725,0,0,0,0,4.667,65.48,756.72297270595,36.08924,6,P-GPS,,11.0
460400,2026-01-11 15:37:52,756.72297270595,34.44882,0.0,3.3606628372,8.643044896,17,5,7.443,758.03530870595,37.401576,1.4092722,3.62860904,0.0,0.0,0.0,12.8,1.3,-5.4,0,0,1024,1024,1024,1024,0,0,0,0,0,0,0,69,3.718,3.725,0,0,0,0,4.667,65.48,756.72297270595,36.08924,6,P-GPS,,11.0
460500,2026-01-11 15:37:52,756.72297270595,34.44882,0.223694,3.360892496,8.6724412224,17,5,7.443,758.03530870595,37.401576,1.4092722,3.62860904,0.223694,0.0,0.0,12.7,3.3,-4.8,0,0,1024,1024,1024,1024,0,0,0,0,0,0,0,69,3.718,3.725,0,0,0,0,4.667,65.48,756.72297270595,36.08924,6,P-GPS,,11.0
460600,2026-01-11 15:37:52,756.39488870595,34.44882,0.223694,3.358923992,8.7133861056,17,5,7.442,758.03530870595,37.401576,1.4092722,3.62860904,0.223694,0.0,0.0,12.6,4.8,-4.3,0,0,1024,1024,1024,1024,0,0,0,0,0,0,0,69,3.734,3.734,0,0,0,0,4.778,65.48,756.39488870595,35.761156,6,P-GPS,,10.9
460700,2026-01-11 15:37:52,756.39488870595,34.44882,0.223694,3.354494858,8.7511813824,17,5,7.442,758.03530870595,37.401576,1.4092722,3.62860904,0.223694,0.0,0.0,12.6,5.0,-3.0,0,0,1024,1024,1024,1024,0,0,0,0,0,0,0,69,3.734,3.734,0,0,0,0,4.778,65.48,756.39488870595,35.761156,6,P-GPS,,10.9
460800,2026-01-11 15:37:52,756.06680470595,34.44882,0.0,3.3640421024,8.7783139292,17,5,7.442,758.03530870595,37.401576,1.4092722,3.62860904,0.0,0.0,0.0,12.4,5.9,-3.3,0,0,1024,1024,1024,1024,0,0,0,0,0,0,0,69,3.734,3.734,0,0,0,0,4.778,65.48,756.06680470595,35.433072,6,P-GPS,,10.8
460900,2026-01-11 15:37:53,756.06680470595,34.44882,0.0,3.3500001072,8.7969819088,17,5,7.442,758.03530870595,37.401576,1.4092722,3.62860904,0.0,0.0,0.0,12.3,3.7,-4.3,0,0,1024,1024,1024,1024,0,0,0,0,0,0,0,69,3.734,3.734,0,0,0,0,4.778,65.48,756.06680470595,35.433072,6,P-GPS,,10.8
461000,2026-01-11 15:37:53,756.06680470595,34.44882,0.0,3.33579407,8.811187946,16,5,7.442,758.03530870595,37.401576,1.4092722,3.62860904,0.0,0.0,0.0,12.3,3.8,-4.6,0,0,1024,1024,1024,1024,0,0,0,0,0,0,0,69,3.734,3.734,0,0,0,0,4.778,65.48,756.06680470595,35.433072,6,P-GPS,,10.8
