time(millisecond),timestamp,altitude_above_seaLevel(feet),height_sonar(feet),speed(mph),distance(feet),mileage(feet),satellites,gpslevel,voltage(v),max_altitude(feet),max_ascent(feet),max_speed(mph),max_distance(feet), xSpeed(mph), ySpeed(mph), zSpeed(mph), compass_heading(degrees), pitch(degrees), roll(degrees),isPhoto,isVideo,rc_elevator,rc_aileron,rc_throttle,rc_rudder,rc_elevator(percent),rc_aileron(percent),rc_throttle(percent),rc_rudder(percent),gimbal_heading(degrees),gimbal_pitch(degrees),gimbal_roll(degrees),battery_percent,voltageCell1,voltageCell2,voltageCell3,voltageCell4,voltageCell5,voltageCell6,current(A),battery_temperature(f),altitude(feet),ascent(feet),flycStateRaw,flycState,message,height_above_takeoff(meters)
194000,2026-01-13 17:35:32,720.72734786642,0.328084,0.0,0.0,0.0,16,5,0.0,720.72734786642,0.0,0.0,0.0,0.0,0.0,0.0,32.3,3.3,0.4,0,0,1024,1024,1024,1024,0,0,0,0,0,0,0,85,3.971,3.97,0,0,0,0,0.0,69.26,720.72734786642,0.0,41,Motors_Started,SD card speed low SD card speed low. Normal use may be affected. Replace SD card (Code: 10028). Gimbal stuck. Make sure gimbal cover is removed and manually check whether gimbal can rotate freely (Code: 40002),0.0
194100,2026-01-13 17:35:32,720.72734786642,0.328084,0.0,0.0234666674176,0.0234666674176,16,5,0.0,720.72734786642,0.0,0.0,0.0234666674176,0.0,0.0,0.0,32.3,3.3,0.4,0,0,1024,1024,1024,1024,0,0,0,0,0,0,0,85,3.971,3.97,0,0,0,0,0.0,69.26,720.72734786642,0.0,41,Motors_Started,,0.0
194200,2026-01-13 17:35:32,720.72734786642,0.328084,0.0,0.045702429284,0.047686025148,16,5,7.942,720.72734786642,0.0,0.0,0.045702429284,0.0,0.0,0.0,32.3,3.3,0.4,0,0,1024,1024,1024,1024,0,0,0,0,0,0,0,85,3.971,3.97,0,0,0,0,0.65,69.26,720.72734786642,0.0,41,Motors_Started,,0.0
194300,2026-01-13 17:35:32,720.72734786642,0.328084,0.0,0.066776905024,0.069270343424,16,5,7.942,720.72734786642,0.0,0.0,0.066776905024,0.0,0.0,0.0,32.3,3.3,0.5,0,0,1024,1024,1024,1024,0,0,0,0,0,0,0,85,3.971,3.97,0,0,0,0,0.65,69.26,720.72734786642,0.0,41,Motors_Started,,0.0
194400,2026-01-13 17:35:32,720.72734786642,0.328084,0.0,0.064989831476,0.087610895192,16,5,7.942,720.72734786642,0.0,0.0,0.066776905024,0.0,0.0,0.0,32.4,3.3,0.4,0,0,1024,1024,1024,1024,0,0,0,0,0,0,0,85,3.971,3.97,0,0,0,0,0.65,69.26,720.72734786642,0.0,41,Motors_Started,,0.0
194500,2026-01-13 17:35:32,720.72734786642,0.328084,0.0,0.078819884412,0.101616801152,16,5,7.942,720.72734786642,0.0,0.0,0.078819884412,0.0,0.0,0.0,32.3,3.3,0.4,0,0,1024,1024,1024,1024,0,0,0,0,0,0,0,85,3.971,3.97,0,0,0,0,0.65,69.26,720.72734786642,0.0,41,Motors_Started,,0.0
194600,2026-01-13 17:35:32,720.72734786642,0.328084,0.0,0.097654858768,0.124306434424,16,5,7.942,720.72734786642,0.0,0.0,0.097654858768,0.0,0.0,0.0,32.3,3.2,0.4,0,0,1024,1024,1024,1024,0,0,0,0,0,0,0,85,3.971,3.97,0,0,0,0,0.65,69.26,720.72734786642,0.0,41,Motors_Started,,0.0
194700,2026-01-13 17:35:32,720.72734786642,0.328084,0.0,0.117546919772,0.1470472488,16,5,7.942,720.72734786642,0.0,0.0,0.117546919772,0.0,0.0,0.0,32.3,3.2,0.5,0,0,1024,1024,1024,1024,0,0,0,0,0,0,0,85,3.971,3.97,0,0,0,0,0.65,69.26,720.72734786642,0.0,41,Motors_Started,,0.0
194800,2026-01-13 17:35:32,720.72734786642,0.328084,0.0,0.14666831178,0.187815622808,16,5,7.942,720.72734786642,0.0,0.0,0.14666831178,0.0,0.0,0.0,32.5,3.3,0.4,0,0,1024,1024,1024,1024,0,0,0,0,0,0,0,85,3.971,3.97,0,0,0,0,0.65,69.26,720.72734786642,0.0,41,Motors_Started,,0.0
194900,2026-01-13 17:35:33,720.72734786642,0.328084,0.0,0.170012144548,0.211812342736,16,5,7.942,720.72734786642,0.0,0.0,0.170012144548,0.0,0.0,0.0,32.6,3.3,0.4,0,0,1024,1024,1024,1024,0,0,0,0,0,0,0,85,3.971,3.97,0,0,0,0,0.65,69.26,720.72734786642,0.0,41,Motors_Started,Setting new Return-To-Home altitude to 90m (295 ft). Data Recorder File Index is 37. Setting new Maximum Flight Altitude to 90m (295 ft),0.0
195000,2026-01-13 17:35:33,720.72734786642,0.328084,0.0,1.8834974356,0.225822513788,16,5,7.942,720.72734786642,0.0,0.0,1.8834974356,0.0,0.0,0.0,32.5,3.3,0.5,0,0,1024,1024,1024,1024,0,0,0,0,0,0,0,85,3.971,3.97,0,0,0,0,0.65,69.26,720.72734786642,0.0,41,Motors_Started,,0.0
195100,2026-01-13 17:35:33,720.72734786642,0.328084,0.0,1.8956529478,0.240291346272,16,5,7.942,720.72734786642,0.0,0.0,1.8956529478,0.0,0.0,0.0,32.5,3.3,0.5,0,0,1024,1024,1024,1024,0,0,0,0,0,0,0,85,3.971,3.97,0,0,0,0,0.65,69.26,720.72734786642,0.0,11,AutoTakeoff,,0.0
195200,2026-01-13 17:35:33,720.72734786642,0.328084,0.0,1.91798234484,0.263115822068,16,5,7.942,720.72734786642,0.0,0.0,1.91798234484,0.0,0.0,0.0,32.5,3.3,0.5,0,0,1024,1024,1024,1024,0,0,0,0,0,0,0,85,3.971,3.97,0,0,0,0,0.65,69.26,720.72734786642,0.0,11,AutoTakeoff,,0.0
195300,2026-01-13 17:35:33,720.72734786642,0.328084,0.0,1.91211292208,0.277100730652,16,5,7.937,720.72734786642,0.0,0.0,1.91798234484,0.0,0.0,0.0,32.5,3.3,0.4,0,0,1024,1024,1024,1024,0,0,0,0,0,0,0,85,3.968,3.97,0,0,0,0,1.354,69.26,720.72734786642,0.0,11,AutoTakeoff,,0.0
195400,2026-01-13 17:35:33,720.72734786642,0.328084,0.0,1.92089573076,0.289583998768,16,5,7.937,720.72734786642,0.0,0.0,1.92089573076,0.0,0.0,0.0,32.5,3.2,0.4,0,0,1024,1024,1024,1024,0,0,0,0,0,0,0,85,3.968,3.97,0,0,0,0,1.354,69.26,720.72734786642,0.0,11,AutoTakeoff,,0.0
195500,2026-01-13 17:35:33,720.72734786642,0.328084,0.0,1.92842197772,0.301053487324,16,5,7.937,720.72734786642,0.0,0.0,1.92842197772,0.0,0.0,0.0,32.5,3.2,0.4,0,0,1024,1024,1024,1024,0,0,0,0,0,0,0,85,3.968,3.97,0,0,0,0,1.354,69.26,720.72734786642,0.0,11,AutoTakeoff,,0.0
195600,2026-01-13 17:35:33,720.72734786642,0.328084,0.0,1.9311516366,0.313949813196,16,5,7.937,720.72734786642,0.0,0.0,1.9311516366,0.0,0.0,0.0,32.6,3.3,0.4,0,0,1024,1024,1024,1024,0,0,0,0,0,0,0,85,3.968,3.97,0,0,0,0,1.354,69.26,720.72734786642,0.0,11,AutoTakeoff,,0.0
195700,2026-01-13 17:35:33,720.72734786642,0.328084,0.0,1.89506567744,0.37182415888,16,5,7.937,720.72734786642,0.0,0.0,1.9311516366,0.0,0.0,0.0,33.1,3.5,0.5,0,0,1024,1024,1024,1024,0,0,0,0,0,0,0,85,3.968,3.97,0,0,0,0,1.354,69.26,720.72734786642,0.0,11,AutoTakeoff,,0.0
195800,2026-01-13 17:35:33,721.05543186642,0.328084,0.0,1.89587932576,0.40486549852,16,5,7.937,721.05543186642,0.328084,0.0,1.9311516366,0.0,0.0,0.0,34.4,2.8,0.5,0,0,1024,1024,1024,1024,0,0,0,0,0,0,0,85,3.968,3.97,0,0,0,0,1.354,69.26,721.05543186642,0.328084,11,AutoTakeoff,,0.1
195900,2026-01-13 17:35:33,721.05543186642,0.328084,0.0,1.89786423396,0.43789699564,16,5,7.937,721.05543186642,0.328084,0.0,1.9311516366,0.0,0.0,-0.223694,35.5,-0.5,-0.8,0,0,1024,1024,1024,1024,0,0,0,0,0,0,0,85,3.968,3.97,0,0,0,0,1.354,69.26,721.05543186642,0.328084,11,AutoTakeoff,,0.1
196000,2026-01-13 17:35:34,721.05543186642,0.328084,0.0,1.92306108516,0.47539043516,16,5,7.937,721.05543186642,0.328084,0.0,1.9311516366,0.0,0.0,-0.447388,35.5,-0.2,-1.2,0,0,1024,1024,1024,1024,0,0,0,0,0,0,0,85,3.968,3.97,0,0,0,0,1.354,69.26,721.05543186642,0.328084,11,AutoTakeoff,Home Point updated. RTH altitude adjusted to 90 m (Code: 120852),0.1
196100,2026-01-13 17:35:34,721.05543186642,0.656168,0.0,1.97040360636,0.5555118288,16,5,7.937,721.05543186642,0.328084,0.0,1.97040360636,0.0,0.0,-0.894776,35.8,0.5,1.0,0,0,1024,1024,1024,1024,0,0,0,0,0,0,0,85,3.968,3.97,0,0,0,0,1.354,69.26,721.05543186642,0.328084,11,AutoTakeoff,,0.1
196200,2026-01-13 17:35:34,721.05543186642,0.656168,0.0,1.9896982264,0.59537075396,16,5,7.937,721.05543186642,0.328084,0.0,1.9896982264,0.0,0.0,-1.11847,36.0,1.1,0.2,0,0,1024,1024,1024,1024,0,0,0,0,0,0,0,85,3.968,3.97,0,0,0,0,1.354,69.26,721.05543186642,0.328084,11,AutoTakeoff,,0.1
196300,2026-01-13 17:35:34,721.38351586642,0.656168,0.0,2.02130255812,0.64187009928,16,5,7.937,721.38351586642,0.656168,0.0,2.02130255812,0.0,0.0,-1.342164,35.8,2.4,-0.6,0,0,1024,1024,1024,1024,0,0,0,0,0,0,0,85,3.968,3.97,0,0,0,0,1.354,69.26,721.38351586642,0.656168,11,AutoTakeoff,,0.2
196400,2026-01-13 17:35:34,721.38351586642,0.984252,0.3131716,2.07819560456,0.69997049484,16,5,7.718,721.38351586642,0.656168,0.3131716,2.07819560456,0.223694,0.223694,-1.565858,35.7,2.7,-0.3,0,0,1024,1024,1047,1024,0,0,3,0,0,0,0,85,3.847,3.847,0,0,0,0,4.094,69.26,721.38351586642,0.656168,11,AutoTakeoff,,0.2
196500,2026-01-13 17:35:34,721.71159986642,0.984252,0.3131716,2.09958340052,0.73265422292,15,5,7.718,721.71159986642,0.984252,0.3131716,2.09958340052,0.223694,0.223694,-1.789552,35.6,3.7,-0.2,0,0,1024,1024,1352,1024,0,0,50,0,0,0,0,85,3.847,3.847,0,0,0,0,4.094,69.26,721.71159986642,0.984252,11,AutoTakeoff,,0.3
196600,2026-01-13 17:35:34,722.03968386642,1.312336,0.4921268,2.176181172,0.81162076088,15,5,7.718,722.03968386642,1.312336,0.4921268,2.176181172,0.447388,0.223694,-2.013246,35.5,5.8,0.2,0,0,1024,1024,1352,1024,0,0,50,0,0,0,0,85,3.847,3.847,0,0,0,0,4.094,69.26,722.03968386642,1.312336,11,AutoTakeoff,,0.4
196700,2026-01-13 17:35:34,722.36776786642,1.64042,0.3131716,2.25132553136,0.89044622272,16,5,7.718,722.36776786642,1.64042,0.4921268,2.25132553136,0.223694,0.223694,-2.23694,35.6,6.5,0.5,0,0,1024,1024,1684,1024,0,0,100,0,0,0,0,85,3.847,3.847,0,0,0,0,4.094,69.26,722.36776786642,1.64042,11,AutoTakeoff,,0.5
196800,2026-01-13 17:35:34,722.36776786642,1.968504,0.3131716,2.3334646416,0.98701118644,16,5,7.718,722.36776786642,1.64042,0.4921268,2.3334646416,0.223694,0.223694,-2.23694,35.6,6.7,0.0,0,0,1024,1024,1684,1024,0,0,100,0,0,0,0,85,3.847,3.847,0,0,0,0,4.094,69.26,722.36776786642,1.64042,11,AutoTakeoff,,0.5
196900,2026-01-13 17:35:35,722.69585186642,2.296588,0.3131716,2.401492859,1.074803184,15,5,7.718,722.69585186642,1.968504,0.4921268,2.401492859,0.223694,0.223694,-2.684328,35.6,6.6,-0.6,0,0,1024,1024,1684,1024,0,0,100,0,0,0,0,85,3.847,3.847,0,0,0,0,4.094,69.26,722.69585186642,1.968504,11,AutoTakeoff,,0.6
197000,2026-01-13 17:35:35,723.35201986642,2.624672,0.223694,2.48153223164,1.26796920068,15,5,7.718,723.35201986642,2.624672,0.4921268,2.48153223164,0.0,0.223694,-3.131716,35.6,6.4,-1.5,0,0,1024,1024,1684,1024,0,0,100,0,0,0,0,85,3.847,3.847,0,0,0,0,4.094,69.26,723.35201986642,2.624672,11,AutoTakeoff,,0.8
197100,2026-01-13 17:35:35,723.68010386642,3.28084,0.0,2.52566937216,1.3436024052,16,5,7.718,723.68010386642,2.952756,0.4921268,2.52566937216,0.0,0.0,-3.579104,35.7,5.4,-1.5,0,0,1024,1024,1684,1024,0,0,100,0,0,0,0,85,3.847,3.847,0,0,0,0,4.094,69.26,723.68010386642,2.952756,6,P-GPS,,0.9
197200,2026-01-13 17:35:35,724.00818786642,3.608924,0.0,2.54437672184,1.3711286528,16,5,7.718,724.00818786642,3.28084,0.4921268,2.54437672184,0.0,0.0,-4.026492,35.8,5.7,-1.5,0,0,1024,1024,1684,1024,0,0,100,0,0,0,0,85,3.847,3.847,0,0,0,0,4.094,69.26,724.00818786642,3.28084,6,P-GPS,,1.0
197300,2026-01-13 17:35:35,724.66435586642,4.265092,0.0,2.565370817,1.39476054332,16,5,7.718,724.66435586642,3.937008,0.4921268,2.565370817,0.0,0.0,-4.250186,35.8,5.4,-0.3,0,0,1024,1024,1684,1024,0,0,100,0,0,0,0,85,3.847,3.847,0,0,0,0,4.094,69.26,724.66435586642,3.937008,6,P-GPS,,1.2
197400,2026-01-13 17:35:35,725.32052386642,4.92126,0.223694,2.60848761628,1.49410765936,16,5,7.718,725.32052386642,4.593176,0.4921268,2.60848761628,0.223694,0.0,-4.47388,35.6,6.3,-0.4,0,0,1024,1024,1684,1024,0,0,100,0,0,0,0,85,3.847,3.847,0,0,0,0,4.094,69.26,725.32052386642,4.593176,6,P-GPS,,1.4
197500,2026-01-13 17:35:35,725.97669186642,5.577428,0.223694,2.65775599056,1.54368115176,16,5,7.718,725.97669186642,5.249344,0.4921268,2.65775599056,0.0,0.0,-4.47388,35.5,6.9,0.0,0,0,1024,1024,1684,1024,0,0,100,0,0,0,0,85,3.834,3.83,0,0,0,0,4.094,69.26,725.97669186642,5.249344,6,P-GPS,,1.6
197600,2026-01-13 17:35:35,726.63285986642,6.233596,0.0,2.68039050572,1.57215228128,16,5,7.718,726.63285986642,5.905512,0.4921268,2.68039050572,0.0,0.0,-4.47388,35.5,8.0,-1.1,0,0,1024,1024,1684,1024,0,0,100,0,0,0,0,85,3.834,3.83,0,0,0,0,4.094,69.26,726.63285986642,5.905512,6,P-GPS,,1.8
197700,2026-01-13 17:35:35,727.28902786642,6.889764,0.0,2.69343512556,1.597194933,16,5,7.718,727.28902786642,6.56168,0.4921268,2.69343512556,0.0,0.0,-4.47388,35.7,8.3,-1.4,0,0,1024,1024,1684,1024,0,0,100,0,0,0,0,85,3.834,3.83,0,0,0,0,4.094,69.26,727.28902786642,6.56168,6,P-GPS,,2.0
197800,2026-01-13 17:35:35,727.94519586642,7.217848,0.0,2.64597449412,1.6544948036,16,5,7.718,727.94519586642,7.217848,0.4921268,2.69343512556,0.0,0.0,-4.250186,35.7,8.2,-2.2,0,0,1024,1024,1684,1024,0,0,100,0,0,0,0,85,3.834,3.83,0,0,0,0,4.094,69.26,727.94519586642,7.217848,6,P-GPS,,2.2
197900,2026-01-13 17:35:35,728.60136386642,7.874016,0.0,2.64256570136,1.66380254668,16,5,7.718,728.60136386642,7.874016,0.4921268,2.69343512556,0.0,0.0,-4.250186,35.5,7.3,-2.0,0,0,1024,1024,1684,1024,0,0,100,0,0,0,0,85,3.834,3.83,0,0,0,0,4.094,69.26,728.60136386642,7.874016,6,P-GPS,,2.4
198000,2026-01-13 17:35:36,728.92944786642,8.530184,0.0,2.63758538624,1.6797736758,16,5,7.718,728.92944786642,8.2021,0.4921268,2.69343512556,0.0,0.0,-4.250186,35.5,6.1,-1.7,0,0,1024,1024,1684,1024,0,0,100,0,0,0,0,85,3.834,3.83,0,0,0,0,4.094,69.26,728.92944786642,8.2021,6,P-GPS,,2.5
198100,2026-01-13 17:35:36,729.58561586642,9.186352,0.0,2.62948827312,1.69656173408,17,5,7.718,729.58561586642,8.858268,0.4921268,2.69343512556,0.0,0.0,-4.47388,35.6,5.0,-1.2,0,0,1024,1024,1684,1024,0,0,100,0,0,0,0,85,3.834,3.83,0,0,0,0,4.094,69.26,729.58561586642,8.858268,6,P-GPS,,2.7
198200,2026-01-13 17:35:36,730.24178386642,9.84252,0.0,2.60497711748,1.81349415252,17,5,7.718,730.24178386642,9.514436,0.4921268,2.69343512556,0.0,0.0,-4.697574,35.5,5.5,-1.1,0,0,1024,1024,1684,1024,0,0,100,0,0,0,0,85,3.834,3.83,0,0,0,0,4.094,69.26,730.24178386642,9.514436,6,P-GPS,,2.9
198300,2026-01-13 17:35:36,730.89795186642,10.170604,0.0,2.60278223552,1.8644357552,17,5,7.718,730.89795186642,10.170604,0.4921268,2.69343512556,0.0,0.0,-4.697574,35.4,7.0,-1.5,0,0,1024,1024,1684,1024,0,0,100,0,0,0,0,85,3.834,3.83,0,0,0,0,4.094,69.26,730.89795186642,10.170604,6,P-GPS,,3.1
198400,2026-01-13 17:35:36,731.55411986642,10.826772,0.0,2.64989509792,1.92574809312,17,5,7.718,731.55411986642,10.826772,0.4921268,2.69343512556,0.0,0.0,-4.47388,35.4,8.4,-2.3,0,0,1024,1024,1684,1024,0,0,100,0,0,0,0,85,3.834,3.83,0,0,0,0,4.094,69.26,731.55411986642,10.826772,6,P-GPS,,3.3
198500,2026-01-13 17:35:36,732.21028786642,11.48294,0.0,2.68913722516,1.9831365464,17,5,7.718,732.21028786642,11.48294,0.4921268,2.69343512556,0.0,0.0,-4.250186,35.4,8.5,-2.0,0,0,1024,1024,1684,1024,0,0,100,0,0,0,0,85,3.834,3.83,0,0,0,0,4.094,69.26,732.21028786642,11.48294,6,P-GPS,,3.5
198600,2026-01-13 17:35:36,732.86645586642,12.139108,0.0,2.70385835424,2.05146988192,17,5,7.721,732.86645586642,12.139108,0.4921268,2.70385835424,0.0,0.0,-4.250186,35.5,8.0,-2.4,0,0,1024,1024,1684,1024,0,0,100,0,0,0,0,85,3.86,3.86,0,0,0,0,5.44,69.26,732.86645586642,12.139108,6,P-GPS,,3.7
198700,2026-01-13 17:35:36,733.52262386642,12.467192,0.0,2.81068250464,2.21505256432,17,5,7.721,733.52262386642,12.795276,0.4921268,2.81068250464,0.0,0.0,-4.250186,35.6,7.1,-1.9,0,0,1024,1024,1684,1024,0,0,100,0,0,0,0,85,3.86,3.86,0,0,0,0,5.44,69.26,733.52262386642,12.795276,6,P-GPS,,3.9
198800,2026-01-13 17:35:36,734.17879186642,13.12336,0.0,2.81853355476,2.25653550528,17,5,7.721,734.17879186642,13.451444,0.4921268,2.81853355476,0.0,0.0,-4.250186,35.4,6.7,-3.3,0,0,1024,1024,1684,1024,0,0,100,0,0,0,0,85,3.86,3.86,0,0,0,0,5.44,69.26,734.17879186642,13.451444,6,P-GPS,,4.1
198900,2026-01-13 17:35:37,734.83495986642,13.779528,0.0,2.81332358084,2.2882710706,17,5,7.721,734.83495986642,14.107612,0.4921268,2.81853355476,0.0,0.0,-4.250186,35.4,6.5,-2.8,0,0,1024,1024,1684,1024,0,0,100,0,0,0,0,85,3.86,3.86,0,0,0,0,5.44,69.26,734.83495986642,14.107612,6,P-GPS,,4.3
199000,2026-01-13 17:35:37,735.49112786642,14.435696,0.0,2.74300861796,2.35953747708,17,5,7.721,735.49112786642,14.76378,0.4921268,2.81853355476,0.0,0.0,-4.250186,35.4,6.3,-3.3,0,0,1024,1024,1684,1024,0,0,100,0,0,0,0,85,3.86,3.86,0,0,0,0,5.44,69.26,735.49112786642,14.76378,6,P-GPS,,4.5
199100,2026-01-13 17:35:37,735.81921186642,14.76378,0.0,2.61081701268,2.494340631,17,5,7.721,735.81921186642,15.091864,0.4921268,2.81853355476,0.0,0.0,-4.250186,35.4,6.1,-2.9,0,0,1024,1024,1684,1024,0,0,100,0,0,0,0,85,3.86,3.86,0,0,0,0,5.44,69.26,735.81921186642,15.091864,6,P-GPS,,4.6
199200,2026-01-13 17:35:37,736.47537986642,15.419948,0.223694,2.55409785076,2.5625656988,17,5,7.721,736.47537986642,15.748032,0.4921268,2.81853355476,0.0,-0.223694,-4.026492,35.5,5.8,-2.5,0,0,1024,1024,1684,1024,0,0,100,0,0,0,0,85,3.86,3.86,0,0,0,0,5.44,69.26,736.47537986642,15.748032,6,P-GPS,,4.8
199300,2026-01-13 17:35:37,737.13154786642,16.076116,0.223694,2.49464902996,2.62625336488,17,5,7.721,737.13154786642,16.4042,0.4921268,2.81853355476,0.0,-0.223694,-4.250186,35.7,5.2,-1.9,0,0,1024,1024,1684,1024,0,0,100,0,0,0,0,85,3.86,3.86,0,0,0,0,5.44,69.26,737.13154786642,16.4042,6,P-GPS,,5.0
199400,2026-01-13 17:35:37,737.78771586642,16.732284,0.223694,2.4043964024,2.72081373536,17,5,7.721,737.78771586642,17.060368,0.4921268,2.81853355476,0.0,-0.223694,-4.250186,35.8,5.0,-1.7,0,0,1024,1024,1684,1024,0,0,100,0,0,0,0,85,3.86,3.86,0,0,0,0,5.44,69.26,737.78771586642,17.060368,6,P-GPS,,5.2
199500,2026-01-13 17:35:37,738.77196786642,17.716536,0.223694,2.24608274904,2.88441282196,17,5,7.721,738.77196786642,18.04462,0.4921268,2.81853355476,0.0,-0.223694,-4.250186,35.8,4.3,-1.8,0,0,1024,1024,1684,1024,0,0,100,0,0,0,0,85,3.86,3.86,0,0,0,0,5.44,69.26,738.77196786642,18.04462,6,P-GPS,,5.5
199600,2026-01-13 17:35:37,739.42813586642,18.372704,0.0,2.2023786794,2.93011492316,17,5,7.721,739.42813586642,18.700788,0.4921268,2.81853355476,0.0,0.0,-4.250186,35.5,4.8,-2.8,0,0,1024,1024,1684,1024,0,0,100,0,0,0,0,85,3.86,3.86,0,0,0,0,5.44,69.26,739.42813586642,18.700788,6,P-GPS,,5.7
199700,2026-01-13 17:35:37,740.08430386642,19.028872,0.0,2.17533471528,2.95787082956,17,5,7.721,740.08430386642,19.356956,0.4921268,2.81853355476,0.0,0.0,-4.47388,35.6,4.4,-2.7,0,0,1024,1024,1684,1024,0,0,100,0,0,0,0,85,3.86,3.86,0,0,0,0,5.44,69.26,740.08430386642,19.356956,6,P-GPS,,5.9
199800,2026-01-13 17:35:37,740.74047186642,20.013124,0.0,2.17906503036,2.98315626344,17,5,7.721,740.74047186642,20.013124,0.4921268,2.81853355476,0.0,0.0,-4.250186,35.5,6.7,-2.7,0,0,1024,1024,1684,1024,0,0,100,0,0,0,0,85,3.86,3.86,0,0,0,0,5.44,69.26,740.74047186642,20.013124,6,P-GPS,,6.1
199900,2026-01-13 17:35:37,741.39663986642,20.669292,0.0,2.24428812956,3.0617126964,17,5,7.721,741.39663986642,20.669292,0.4921268,2.81853355476,0.0,0.0,-4.250186,35.5,6.7,-3.1,0,0,1024,1024,1684,1024,0,0,100,0,0,0,0,85,3.86,3.86,0,0,0,0,5.44,69.26,741.39663986642,20.669292,6,P-GPS,,6.3
200000,2026-01-13 17:35:38,742.05280786642,21.32546,0.0,2.24203747332,3.0758531168,17,5,7.721,742.05280786642,21.32546,0.4921268,2.81853355476,0.0,0.0,-4.250186,35.3,6.3,-4.3,0,0,1024,1024,1684,1024,0,0,100,0,0,0,0,85,3.86,3.86,0,0,0,0,5.44,69.26,742.05280786642,21.32546,6,P-GPS,,6.5
200100,2026-01-13 17:35:38,742.70897586642,22.309712,0.223694,2.22309062232,3.09480324864,17,5,7.721,742.70897586642,21.981628,0.4921268,2.81853355476,0.0,-0.223694,-4.250186,35.3,5.7,-3.1,0,0,1024,1024,1684,1024,0,0,100,0,0,0,0,85,3.86,3.86,0,0,0,0,5.44,69.26,742.70897586642,21.981628,6,P-GPS,,6.7
200200,2026-01-13 17:35:38,743.36514386642,22.96588,0.447388,2.17309062072,3.15031834228,17,5,7.721,743.36514386642,22.637796,0.4921268,2.81853355476,0.0,-0.447388,-4.47388,35.4,3.5,-1.6,0,0,1024,1024,1684,1024,0,0,100,0,0,0,0,85,3.86,3.86,0,0,0,0,5.44,69.26,743.36514386642,22.637796,6,P-GPS,,6.9
200300,2026-01-13 17:35:38,744.02131186642,23.622048,0.447388,2.1246555798,3.2079561394,17,5,7.721,744.02131186642,23.293964,0.4921268,2.81853355476,0.0,-0.447388,-4.697574,35.5,2.7,-0.5,0,0,1024,1024,1684,1024,0,0,100,0,0,0,0,85,3.86,3.86,0,0,0,0,5.44,69.26,744.02131186642,23.293964,6,P-GPS,,7.1
200400,2026-01-13 17:35:38,744.67747986642,23.950132,0.223694,2.06129599772,3.3103347516,17,5,7.721,744.67747986642,23.950132,0.4921268,2.81853355476,0.0,-0.223694,-4.697574,35.6,2.1,-0.1,0,0,1024,1024,1684,1024,0,0,100,0,0,0,0,85,3.86,3.86,0,0,0,0,5.44,69.26,744.67747986642,23.950132,6,P-GPS,,7.3
200500,2026-01-13 17:35:38,745.33364786642,26.902888,0.223694,2.03100072116,3.3649607376,17,5,7.618,745.33364786642,24.6063,0.4921268,2.81853355476,0.0,-0.223694,-4.697574,35.5,2.4,-0.5,0,0,1024,1024,1684,1024,0,0,100,0,0,0,0,85,3.81,3.809,0,0,0,0,6.528,69.44,745.33364786642,24.6063,6,P-GPS,,7.5
200600,2026-01-13 17:35:38,745.98981586642,27.88714,0.223694,1.98211620516,3.4310696636,17,5,7.618,745.98981586642,25.262468,0.4921268,2.81853355476,0.0,-0.223694,-4.697574,35.4,2.7,-0.6,0,0,1024,1024,1684,1024,0,0,100,0,0,0,0,85,3.81,3.809,0,0,0,0,6.528,69.44,745.98981586642,25.262468,6,P-GPS,,7.7
200700,2026-01-13 17:35:38,746.31789986642,28.871392,0.0,1.94787735892,3.4827428936,17,5,7.618,746.31789986642,25.590552,0.4921268,2.81853355476,0.0,0.0,-4.47388,35.0,4.6,-0.8,0,0,1024,1024,1684,1024,0,0,100,0,0,0,0,85,3.81,3.809,0,0,0,0,6.528,69.44,746.31789986642,25.590552,6,P-GPS,,7.8
200800,2026-01-13 17:35:38,746.97406786642,29.855644,0.0,1.88484914168,3.59087938,17,5,7.618,746.97406786642,26.24672,0.4921268,2.81853355476,0.0,0.0,-4.250186,35.0,4.3,-1.0,0,0,1024,1024,1684,1024,0,0,100,0,0,0,0,85,3.81,3.809,0,0,0,0,6.528,69.44,746.97406786642,26.24672,6,P-GPS,,8.0
200900,2026-01-13 17:35:39,747.63023586642,30.839896,0.0,1.87062670028,3.6173885672,17,5,7.618,747.63023586642,26.902888,0.4921268,2.81853355476,0.0,0.0,-4.250186,35.2,3.3,-2.4,0,0,1024,1024,1684,1024,0,0,100,0,0,0,0,84,3.81,3.809,0,0,0,0,6.528,69.44,747.63023586642,26.902888,6,P-GPS,,8.2
201000,2026-01-13 17:35:39,748.28640386642,31.496064,0.0,1.8685860178,3.6253610084,17,5,7.618,748.28640386642,27.559056,0.4921268,2.81853355476,0.0,0.0,-4.250186,35.3,3.1,-3.0,0,0,1024,1024,1684,1024,0,0,100,0,0,0,0,84,3.81,3.809,0,0,0,0,6.528,69.44,748.28640386642,27.559056,6,P-GPS,,8.4
201100,2026-01-13 17:35:39,748.94257186642,32.152232,0.0,1.877870795,3.6349082528,17,5,7.618,748.94257186642,28.215224,0.4921268,2.81853355476,0.0,0.0,-4.250186,35.3,4.1,-3.5,0,0,1024,1024,1684,1024,0,0,100,0,0,0,0,84,3.81,3.809,0,0,0,0,6.528,69.44,748.94257186642,28.215224,6,P-GPS,,8.6
201200,2026-01-13 17:35:39,749.27065586642,32.8084,0.0,1.9058891686,3.7054791212,17,5,7.618,749.27065586642,28.543308,0.4921268,2.81853355476,0.0,0.0,-4.250186,35.4,3.8,-3.9,0,0,1024,1024,1684,1024,0,0,100,0,0,0,0,84,3.81,3.809,0,0,0,0,6.528,69.44,749.27065586642,28.543308,6,P-GPS,,8.7
201300,2026-01-13 17:35:39,749.92682386642,33.464568,0.0,1.92521003536,3.7370736104,17,5,7.618,749.92682386642,29.199476,0.4921268,2.81853355476,0.0,0.0,-4.250186,35.2,5.7,-4.1,0,0,1024,1024,1684,1024,0,0,100,0,0,0,0,84,3.81,3.809,0,0,0,0,6.528,69.44,749.92682386642,29.199476,6,P-GPS,,8.9
201400,2026-01-13 17:35:39,750.58299186642,34.120736,0.0,1.9156988802,3.7627297792,17,5,7.618,750.58299186642,29.855644,0.4921268,2.81853355476,0.0,0.0,-4.250186,35.2,6.2,-4.1,0,0,1024,1024,1684,1024,0,0,100,0,0,0,0,84,3.81,3.809,0,0,0,0,6.528,69.44,750.58299186642,29.855644,6,P-GPS,,9.1
201500,2026-01-13 17:35:39,751.23915986642,34.776904,0.0,1.90450137328,3.7776576012,17,5,7.69,751.23915986642,30.511812,0.4921268,2.81853355476,0.0,0.0,-4.250186,35.5,5.0,-3.2,0,0,1024,1024,1024,1024,0,0,0,0,0,0,0,84,3.845,3.845,0,0,0,0,6.011,69.44,751.23915986642,30.511812,6,P-GPS,,9.3
201600,2026-01-13 17:35:39,751.89532786642,35.433072,0.0,1.80975071408,3.8739830636,17,5,7.69,751.89532786642,31.16798,0.4921268,2.81853355476,0.0,0.0,-4.250186,35.6,3.1,-3.3,0,0,1024,1024,1024,1024,0,0,0,0,0,0,0,84,3.845,3.845,0,0,0,0,6.011,69.44,751.89532786642,31.16798,6,P-GPS,,9.5
201700,2026-01-13 17:35:39,752.22341186642,36.08924,0.223694,1.83319231588,3.9064305712,17,5,7.69,752.22341186642,31.496064,0.4921268,2.81853355476,0.223694,0.0,-3.802798,35.3,4.9,-3.2,0,0,1024,1024,1024,1024,0,0,0,0,0,0,0,84,3.845,3.845,0,0,0,0,6.011,69.44,752.22341186642,31.496064,6,P-GPS,,9.6
201800,2026-01-13 17:35:39,752.87957986642,36.417324,0.3131716,1.91259192472,3.9890421224,17,5,7.69,752.87957986642,32.152232,0.4921268,2.81853355476,0.223694,0.223694,-3.131716,34.9,7.5,-4.3,0,0,1024,1024,1024,1024,0,0,0,0,0,0,0,84,3.845,3.845,0,0,0,0,6.011,69.44,752.87957986642,32.152232,6,P-GPS,,9.8
201900,2026-01-13 17:35:40,753.20766386642,37.073492,0.4921268,2.00742460492,4.0873032804,17,5,7.69,753.20766386642,32.480316,0.4921268,2.81853355476,0.447388,0.223694,-2.23694,34.8,9.9,-3.8,0,0,1024,1024,1024,1024,0,0,0,0,0,0,0,84,3.845,3.845,0,0,0,0,6.011,69.44,753.20766386642,32.480316,6,P-GPS,,9.9
202000,2026-01-13 17:35:40,753.53574786642,37.073492,0.4921268,2.12041673452,4.2084318932,17,5,7.69,753.53574786642,32.8084,0.4921268,2.81853355476,0.447388,0.223694,-1.342164,34.6,11.0,-3.5,0,0,1024,1024,1024,1024,0,0,0,0,0,0,0,84,3.845,3.845,0,0,0,0,6.011,69.44,753.53574786642,32.8084,6,P-GPS,,10.0
202100,2026-01-13 17:35:40,753.53574786642,37.401576,0.4921268,2.27141083384,4.3858925288,17,5,7.69,753.53574786642,32.8084,0.4921268,2.81853355476,0.447388,0.223694,-0.671082,34.8,11.8,-3.4,0,0,1024,1024,1024,1024,0,0,0,0,0,0,0,84,3.845,3.845,0,0,0,0,6.011,69.44,753.53574786642,32.8084,6,P-GPS,,10.0
202200,2026-01-13 17:35:40,753.53574786642,37.401576,0.223694,2.372539446,4.4881563116,17,5,7.69,753.53574786642,32.8084,0.4921268,2.81853355476,0.223694,0.0,-0.223694,34.9,10.3,-2.9,0,0,1024,1024,1024,1024,0,0,0,0,0,0,0,84,3.845,3.845,0,0,0,0,6.011,69.44,753.53574786642,32.8084,6,P-GPS,,10.0
202300,2026-01-13 17:35:40,753.86383186642,37.401576,0.223694,2.4659121524,4.5826445036,17,5,7.69,753.86383186642,33.136484,0.4921268,2.81853355476,0.223694,0.0,0.0,35.0,10.3,-3.3,0,0,1024,1024,1024,1024,0,0,0,0,0,0,0,84,3.845,3.845,0,0,0,0,6.011,69.44,753.86383186642,33.136484,6,P-GPS,,10.1
202400,2026-01-13 17:35:40,753.86383186642,37.401576,0.223694,2.59767396764,4.7149607808,17,5,7.69,753.86383186642,33.136484,0.4921268,2.81853355476,0.223694,0.0,0.0,35.0,10.3,-2.8,0,0,1024,1024,1024,1024,0,0,0,0,0,0,0,84,3.845,3.845,0,0,0,0,6.011,69.44,753.86383186642,33.136484,6,P-GPS,,10.1
202500,2026-01-13 17:35:40,753.86383186642,37.401576,0.223694,2.82375665204,4.9427166936,17,5,7.7,753.86383186642,33.136484,0.4921268,2.82375665204,0.223694,0.0,0.0,35.0,10.7,-2.6,0,0,1024,1024,1024,1024,0,0,0,0,0,0,0,84,3.877,3.888,0,0,0,0,5.339,69.44,753.86383186642,33.136484,6,P-GPS,,10.1
202600,2026-01-13 17:35:40,754.19191586642,37.401576,0.0,2.8512796188,4.9878938604,17,5,7.7,754.19191586642,33.464568,0.4921268,2.8512796188,0.0,0.0,0.0,35.0,9.8,-3.5,0,0,1024,1024,1024,1024,0,0,0,0,0,0,0,84,3.877,3.888,0,0,0,0,5.339,69.44,754.19191586642,33.464568,6,P-GPS,,10.2
202700,2026-01-13 17:35:40,754.19191586642,37.401576,0.0,2.87230324152,5.0267061976,17,5,7.7,754.19191586642,33.464568,0.4921268,2.87230324152,0.0,0.0,0.0,35.0,10.5,-3.0,0,0,1024,1024,1024,1024,0,0,0,0,0,0,0,84,3.877,3.888,0,0,0,0,5.339,69.44,754.19191586642,33.464568,6,P-GPS,,10.2
202800,2026-01-13 17:35:40,754.19191586642,37.401576,0.0,2.8975886754,5.053805936,17,5,7.7,754.19191586642,33.464568,0.4921268,2.8975886754,0.0,0.0,0.0,35.1,10.5,-2.6,0,0,1024,1024,1024,1024,0,0,0,0,0,0,0,84,3.877,3.888,0,0,0,0,5.339,69.44,754.19191586642,33.464568,6,P-GPS,,10.2
202900,2026-01-13 17:35:40,754.19191586642,37.401576,0.0,2.81779208492,5.1360894032,17,5,7.7,754.19191586642,33.464568,0.4921268,2.8975886754,0.0,0.0,0.0,35.2,8.8,-3.4,0,0,1024,1024,1024,1024,0,0,0,0,0,0,0,84,3.877,3.888,0,0,0,0,5.339,69.44,754.19191586642,33.464568,6,P-GPS,,10.2
203000,2026-01-13 17:35:41,754.19191586642,37.401576,0.0,2.79525271412,5.1729660448,17,5,7.7,754.19191586642,33.464568,0.4921268,2.8975886754,0.0,0.0,0.0,35.1,9.9,-3.0,0,0,1024,1024,1024,1024,0,0,0,0,0,0,0,84,3.877,3.888,0,0,0,0,5.339,69.44,754.19191586642,33.464568,6,P-GPS,,10.2
203100,2026-01-13 17:35:41,754.19191586642,37.401576,0.223694,2.75272646604,5.2205710332,17,5,7.7,754.19191586642,33.464568,0.4921268,2.8975886754,-0.223694,0.0,0.0,35.1,8.7,-3.8,0,0,1024,1024,1024,1024,0,0,0,0,0,0,0,84,3.877,3.888,0,0,0,0,5.339,69.44,754.19191586642,33.464568,6,P-GPS,,10.2
203200,2026-01-13 17:35:41,754.19191586642,37.401576,0.223694,2.68496399668,5.2889109304,17,5,7.7,754.19191586642,33.464568,0.4921268,2.8975886754,-0.223694,0.0,0.223694,35.1,7.9,-4.5,0,0,1024,1024,1024,1024,0,0,0,0,0,0,0,84,3.877,3.888,0,0,0,0,5.339,69.44,754.19191586642,33.464568,6,P-GPS,,10.2
203300,2026-01-13 17:35:41,754.19191586642,37.401576,0.3131716,2.49396005356,5.480971304,17,5,7.7,754.19191586642,33.464568,0.4921268,2.8975886754,-0.223694,-0.223694,0.223694,35.1,6.8,-4.6,0,0,1024,1024,1024,1024,0,0,0,0,0,0,0,84,3.877,3.888,0,0,0,0,5.339,69.44,754.19191586642,33.464568,6,P-GPS,,10.2
203400,2026-01-13 17:35:41,754.19191586642,37.401576,0.3131716,2.418881311,5.5583007028,17,5,7.7,754.19191586642,33.464568,0.4921268,2.8975886754,-0.223694,-0.223694,0.223694,35.2,6.2,-3.7,0,0,1024,1024,1024,1024,0,0,0,0,0,0,0,84,3.877,3.888,0,0,0,0,5.339,69.44,754.19191586642,33.464568,6,P-GPS,,10.2
203500,2026-01-13 17:35:41,754.19191586642,37.401576,0.3131716,2.34421267344,5.6347770832,17,5,7.708,754.19191586642,33.464568,0.4921268,2.8975886754,-0.223694,-0.223694,0.0,35.4,4.8,-3.7,0,0,1024,1024,1024,1024,0,0,0,0,0,0,0,84,3.854,3.854,0,0,0,0,4.723,69.62,754.19191586642,33.464568,6,P-GPS,,10.2
203600,2026-01-13 17:35:41,754.19191586642,37.401576,0.3131716,2.27312015148,5.705872886,17,5,7.708,754.19191586642,33.464568,0.4921268,2.8975886754,-0.223694,-0.223694,0.0,35.3,4.6,-4.0,0,0,1024,1024,1024,1024,0,0,0,0,0,0,0,84,3.854,3.854,0,0,0,0,4.723,69.62,754.19191586642,33.464568,6,P-GPS,,10.2
203700,2026-01-13 17:35:41,754.19191586642,37.401576,0.3131716,2.2142717244,5.7646983472,17,5,7.708,754.19191586642,33.464568,0.4921268,2.8975886754,-0.223694,-0.223694,0.0,35.4,4.8,-3.3,0,0,1024,1024,1024,1024,0,0,0,0,0,0,0,84,3.854,3.854,0,0,0,0,4.723,69.62,754.19191586642,33.464568,6,P-GPS,,10.2
203800,2026-01-13 17:35:41,754.51999986642,37.401576,0.0,2.13617788988,5.8717521564,17,5,7.708,754.51999986642,33.792652,0.4921268,2.8975886754,0.0,0.0,0.0,35.4,5.5,-3.7,0,0,1024,1024,1024,1024,0,0,0,0,0,0,0,84,3.854,3.854,0,0,0,0,4.723,69.62,754.51999986642,33.792652,6,P-GPS,,10.3
203900,2026-01-13 17:35:42,754.51999986642,37.401576,0.0,2.08653878068,5.9215553076,17,5,7.708,754.51999986642,33.792652,0.4921268,2.8975886754,0.0,0.0,0.0,35.3,5.2,-3.9,0,0,1024,1024,1024,1024,0,0,0,0,0,0,0,84,3.854,3.854,0,0,0,0,4.723,69.62,754.51999986642,33.792652,6,P-GPS,,10.3
204000,2026-01-13 17:35:42,754.51999986642,37.401576,0.0,2.03900268992,5.9812665956,17,5,7.708,754.51999986642,33.792652,0.4921268,2.8975886754,0.0,0.0,0.0,35.4,5.4,-3.3,0,0,1024,1024,1024,1024,0,0,0,0,0,0,0,84,3.854,3.854,0,0,0,0,4.723,69.62,754.51999986642,33.792652,6,P-GPS,,10.3
204100,2026-01-13 17:35:42,754.51999986642,37.401576,0.223694,1.99215557556,6.0394686972,17,5,7.708,754.51999986642,33.792652,0.4921268,2.8975886754,0.0,-0.223694,0.0,35.4,4.6,-3.1,0,0,1024,1024,1024,1024,0,0,0,0,0,0,0,84,3.854,3.854,0,0,0,0,4.723,69.62,754.51999986642,33.792652,6,P-GPS,,10.3
204200,2026-01-13 17:35:42,754.51999986642,37.401576,0.223694,1.9196522924,6.1491471784,17,5,7.708,754.51999986642,33.792652,0.4921268,2.8975886754,0.0,-0.223694,0.0,35.5,4.1,-3.6,0,0,1024,1024,1024,1024,0,0,0,0,0,0,0,84,3.854,3.854,0,0,0,0,4.723,69.62,754.51999986642,33.792652,6,P-GPS,,10.3
204300,2026-01-13 17:35:42,754.51999986642,37.401576,0.0,1.87319231716,6.2031826132,17,5,7.708,754.51999986642,33.792652,0.4921268,2.8975886754,0.0,0.0,0.0,35.6,4.1,-2.5,0,0,1024,1024,1024,1024,0,0,0,0,0,0,0,84,3.854,3.854,0,0,0,0,4.723,69.62,754.51999986642,33.792652,6,P-GPS,,10.3
204400,2026-01-13 17:35:42,754.51999986642,37.401576,0.0,1.86495740876,6.2378939004,17,5,7.708,754.51999986642,33.792652,0.4921268,2.8975886754,0.0,0.0,0.0,35.5,3.7,-2.0,0,0,1024,1024,1024,1024,0,0,0,0,0,0,0,84,3.854,3.854,0,0,0,0,4.723,69.62,754.51999986642,33.792652,6,P-GPS,,10.3
204500,2026-01-13 17:35:42,754.51999986642,37.401576,0.0,1.86543969224,6.2612206728,17,5,7.699,754.51999986642,33.792652,0.4921268,2.8975886754,0.0,0.0,0.0,35.2,2.0,-3.4,0,0,1024,1024,1024,1024,0,0,0,0,0,0,0,84,3.851,3.848,0,0,0,0,5.261,69.62,754.51999986642,33.792652,6,P-GPS,,10.3
204600,2026-01-13 17:35:42,754.51999986642,37.401576,0.0,1.85496397012,6.2960631936,17,5,7.699,754.51999986642,33.792652,0.4921268,2.8975886754,0.0,0.0,-0.223694,34.9,3.7,-3.3,0,0,1024,1024,1024,1024,0,0,0,0,0,0,0,84,3.851,3.848,0,0,0,0,5.261,69.62,754.51999986642,33.792652,6,P-GPS,,10.3
204700,2026-01-13 17:35:42,754.51999986642,37.401576,0.0,1.83631567556,6.315945084,17,5,7.699,754.51999986642,33.792652,0.4921268,2.8975886754,0.0,0.0,0.0,35.0,2.4,-3.7,0,0,1024,1024,1024,1024,0,0,0,0,0,0,0,84,3.851,3.848,0,0,0,0,5.261,69.62,754.51999986642,33.792652,6,P-GPS,,10.3
204800,2026-01-13 17:35:42,754.51999986642,37.401576,0.0,1.83548890388,6.3167981024,17,5,7.699,754.51999986642,33.792652,0.4921268,2.8975886754,0.0,0.0,-0.223694,34.8,4.6,-4.3,0,0,1024,1024,1024,1024,0,0,0,0,0,0,0,84,3.851,3.848,0,0,0,0,5.261,69.62,754.51999986642,33.792652,6,P-GPS,,10.3
204900,2026-01-13 17:35:42,754.51999986642,37.401576,0.0,1.84465557084,6.3270671316,17,5,7.699,754.51999986642,33.792652,0.4921268,2.8975886754,0.0,0.0,0.0,34.8,6.3,-4.5,0,0,1024,1024,1024,1024,0,0,0,0,0,0,0,84,3.851,3.848,0,0,0,0,5.261,69.62,754.51999986642,33.792652,6,P-GPS,,10.3
205000,2026-01-13 17:35:43,754.51999986642,37.401576,0.0,1.9302494056,6.4187338012,17,5,7.699,754.51999986642,33.792652,0.4921268,2.8975886754,0.0,0.0,0.0,34.9,6.9,-4.1,0,0,1024,1024,1024,1024,0,0,0,0,0,0,0,84,3.851,3.848,0,0,0,0,5.261,69.62,754.51999986642,33.792652,6,P-GPS,,10.3
205100,2026-01-13 17:35:43,754.51999986642,37.401576,0.0,1.96395675576,6.4570868208,17,5,7.699,754.51999986642,33.792652,0.4921268,2.8975886754,0.0,0.0,0.0,35.0,6.2,-4.4,0,0,1024,1024,1024,1024,0,0,0,0,0,0,0,84,3.851,3.848,0,0,0,0,5.261,69.62,754.51999986642,33.792652,6,P-GPS,,10.3
205200,2026-01-13 17:35:43,754.84808386642,37.401576,0.0,1.98988523428,6.4908794728,17,5,7.699,754.84808386642,34.120736,0.4921268,2.8975886754,0.0,0.0,0.0,34.9,5.6,-4.5,0,0,1024,1024,1024,1024,0,0,0,0,0,0,0,84,3.851,3.848,0,0,0,0,5.261,69.62,754.84808386642,34.120736,6,P-GPS,,10.4
205300,2026-01-13 17:35:43,754.84808386642,37.401576,0.0,2.014927886,6.5237534896,17,5,7.699,754.84808386642,34.120736,0.4921268,2.8975886754,0.0,0.0,0.0,35.0,5.3,-4.4,0,0,1024,1024,1024,1024,0,0,0,0,0,0,0,84,3.851,3.848,0,0,0,0,5.261,69.62,754.84808386642,34.120736,6,P-GPS,,10.4
205400,2026-01-13 17:35:43,754.84808386642,37.401576,0.0,2.047490223,6.5659122836,17,5,7.699,754.84808386642,34.120736,0.4921268,2.8975886754,0.0,0.0,0.0,34.9,5.2,-4.5,0,0,1024,1024,1024,1024,0,0,0,0,0,0,0,84,3.851,3.848,0,0,0,0,5.261,69.62,754.84808386642,34.120736,6,P-GPS,,10.4
205500,2026-01-13 17:35:43,754.84808386642,37.401576,0.0,2.12003287624,6.6552823652,17,5,7.727,754.84808386642,34.120736,0.4921268,2.8975886754,0.0,0.0,0.0,34.8,5.5,-4.5,0,0,1024,1024,1024,1024,0,0,0,0,0,0,0,84,3.867,3.861,0,0,0,0,4.339,69.62,754.84808386642,34.120736,6,P-GPS,,10.4
205600,2026-01-13 17:35:43,754.51999986642,37.401576,0.0,2.11140754788,6.6715225232,17,5,7.727,754.84808386642,34.120736,0.4921268,2.8975886754,0.0,0.0,0.0,34.7,6.0,-4.1,0,0,1024,1024,1024,1024,0,0,0,0,0,0,0,84,3.867,3.861,0,0,0,0,4.339,69.62,754.51999986642,33.792652,6,P-GPS,,10.3
205700,2026-01-13 17:35:43,754.51999986642,37.401576,0.0,2.09207355776,6.6948164872,17,5,7.727,754.84808386642,34.120736,0.4921268,2.8975886754,0.0,0.0,0.0,35.0,4.8,-4.0,0,0,1024,1024,1024,1024,0,0,0,0,0,0,0,84,3.867,3.861,0,0,0,0,4.339,69.62,754.51999986642,33.792652,6,P-GPS,,10.3
205800,2026-01-13 17:35:43,754.51999986642,37.401576,0.0,2.06449481672,6.724409664,17,5,7.727,754.84808386642,34.120736,0.4921268,2.8975886754,0.0,0.0,0.0,35.0,4.8,-4.8,0,0,1024,1024,1024,1024,0,0,0,0,0,0,0,84,3.867,3.861,0,0,0,0,4.339,69.62,754.51999986642,33.792652,6,P-GPS,,10.3
205900,2026-01-13 17:35:44,754.51999986642,37.401576,0.0,1.98723431556,6.8017718712,17,5,7.727,754.84808386642,34.120736,0.4921268,2.8975886754,0.0,0.0,0.223694,35.0,5.2,-6.0,0,0,1024,1024,1024,1024,0,0,0,0,0,0,0,84,3.867,3.861,0,0,0,0,4.339,69.62,754.51999986642,33.792652,6,P-GPS,,10.3
206000,2026-01-13 17:35:44,754.51999986642,37.401576,0.0,1.97402237288,6.8173230528,17,5,7.727,754.84808386642,34.120736,0.4921268,2.8975886754,0.0,0.0,0.223694,35.3,5.5,-5.8,0,0,1024,1024,1024,1024,0,0,0,0,0,0,0,84,3.867,3.861,0,0,0,0,4.339,69.62,754.51999986642,33.792652,6,P-GPS,,10.3
206100,2026-01-13 17:35:44,754.51999986642,37.401576,0.0,1.96571200516,6.8257220032,17,5,7.727,754.84808386642,34.120736,0.4921268,2.8975886754,0.0,0.0,0.0,35.3,5.7,-5.0,0,0,1024,1024,1024,1024,0,0,0,0,0,0,0,84,3.867,3.861,0,0,0,0,4.339,69.62,754.51999986642,33.792652,6,P-GPS,,10.3
206200,2026-01-13 17:35:44,754.51999986642,37.401576,0.0,1.951443632,6.8405514,17,5,7.727,754.84808386642,34.120736,0.4921268,2.8975886754,0.0,0.0,0.0,35.5,6.1,-4.2,0,0,1024,1024,1024,1024,0,0,0,0,0,0,0,84,3.867,3.861,0,0,0,0,4.339,69.62,754.51999986642,33.792652,6,P-GPS,,10.3
206300,2026-01-13 17:35:44,754.19191586642,37.401576,0.0,1.91052499552,6.8824477268,17,5,7.727,754.84808386642,34.120736,0.4921268,2.8975886754,0.0,0.0,0.0,35.6,4.2,-4.6,0,0,1024,1024,1024,1024,0,0,0,0,0,0,0,84,3.867,3.861,0,0,0,0,4.339,69.62,754.19191586642,33.464568,6,P-GPS,,10.2
206400,2026-01-13 17:35:44,754.19191586642,37.401576,0.0,1.89002302636,6.9036419532,17,5,7.727,754.84808386642,34.120736,0.4921268,2.8975886754,0.0,0.0,-0.223694,35.5,3.0,-4.3,0,0,1024,1024,1024,1024,0,0,0,0,0,0,0,84,3.867,3.861,0,0,0,0,4.339,69.62,754.19191586642,33.464568,6,P-GPS,,10.2
206500,2026-01-13 17:35:44,754.19191586642,37.401576,0.0,1.88586292124,6.9082679376,17,5,7.707,754.84808386642,34.120736,0.4921268,2.8975886754,0.0,0.0,-0.223694,35.4,4.8,-4.1,0,0,1024,1024,1024,1024,0,0,0,0,0,0,0,84,3.853,3.853,0,0,0,0,4.579,69.62,754.19191586642,33.464568,6,P-GPS,,10.2
206600,2026-01-13 17:35:44,754.19191586642,37.401576,0.0,1.90039048076,6.923556652,17,5,7.707,754.84808386642,34.120736,0.4921268,2.8975886754,0.0,0.0,0.0,35.3,4.8,-4.2,0,0,1024,1024,1024,1024,0,0,0,0,0,0,0,84,3.853,3.853,0,0,0,0,4.579,69.62,754.19191586642,33.464568,6,P-GPS,,10.2
206700,2026-01-13 17:35:44,754.19191586642,37.401576,0.0,1.90281502152,6.943241692,17,5,7.707,754.84808386642,34.120736,0.4921268,2.8975886754,0.0,0.0,0.0,35.4,5.3,-3.9,0,0,1024,1024,1024,1024,0,0,0,0,0,0,0,84,3.853,3.853,0,0,0,0,4.579,69.62,754.19191586642,33.464568,6,P-GPS,,10.2
206800,2026-01-13 17:35:44,754.19191586642,37.401576,0.0,1.93285111172,6.9794621656,17,5,7.707,754.84808386642,34.120736,0.4921268,2.8975886754,0.0,0.0,0.0,35.3,7.0,-3.8,0,0,1024,1024,1024,1024,0,0,0,0,0,0,0,84,3.853,3.853,0,0,0,0,4.579,69.62,754.19191586642,33.464568,6,P-GPS,,10.2
206900,2026-01-13 17:35:44,754.19191586642,37.401576,0.0,1.9642881206,7.0151248964,17,5,7.707,754.84808386642,34.120736,0.4921268,2.8975886754,0.0,0.0,0.0,35.2,6.1,-3.9,0,0,1024,1024,1024,1024,0,0,0,0,0,0,0,84,3.853,3.853,0,0,0,0,4.579,69.62,754.19191586642,33.464568,6,P-GPS,,10.2
207000,2026-01-13 17:35:45,754.19191586642,37.401576,0.0,2.01903221684,7.070046158,17,5,7.707,754.84808386642,34.120736,0.4921268,2.8975886754,0.0,0.0,0.0,35.3,5.8,-3.7,0,0,1024,1024,1024,1024,0,0,0,0,0,0,0,84,3.853,3.853,0,0,0,0,4.579,69.62,754.19191586642,33.464568,6,P-GPS,,10.2
207100,2026-01-13 17:35:45,754.19191586642,37.401576,0.0,2.07311686424,7.1241144012,17,5,7.707,754.84808386642,34.120736,0.4921268,2.8975886754,0.0,0.0,0.0,35.3,6.3,-4.2,0,0,1024,1024,1024,1024,0,0,0,0,0,0,0,84,3.853,3.853,0,0,0,0,4.579,69.62,754.19191586642,33.464568,6,P-GPS,,10.2
207200,2026-01-13 17:35:45,754.19191586642,37.401576,0.0,2.13705059332,7.2095474748,17,5,7.707,754.84808386642,34.120736,0.4921268,2.8975886754,0.0,0.0,0.0,35.3,6.7,-4.3,0,0,1024,1024,1024,1024,0,0,0,0,0,0,0,84,3.853,3.853,0,0,0,0,4.579,69.62,754.19191586642,33.464568,6,P-GPS,,10.2
207300,2026-01-13 17:35:45,754.19191586642,37.401576,0.0,2.17552172316,7.2531826468,17,5,7.707,754.84808386642,34.120736,0.4921268,2.8975886754,0.0,0.0,0.0,35.2,7.9,-5.2,0,0,1024,1024,1024,1024,0,0,0,0,0,0,0,84,3.853,3.853,0,0,0,0,4.579,69.62,754.19191586642,33.464568,6,P-GPS,,10.2
207400,2026-01-13 17:35:45,754.19191586642,37.401576,0.0,2.22432421816,7.302001546,17,5,7.723,754.84808386642,34.120736,0.4921268,2.8975886754,0.0,0.0,0.0,35.2,8.9,-4.8,0,0,1024,1024,1024,1024,0,0,0,0,0,0,0,84,3.86,3.856,0,0,0,0,4.62,69.62,754.19191586642,33.464568,6,P-GPS,,10.2
207500,2026-01-13 17:35:45,754.19191586642,37.401576,0.0,2.27078091256,7.3485238572,17,5,7.723,754.84808386642,34.120736,0.4921268,2.8975886754,0.0,0.0,0.0,35.3,8.9,-4.9,0,0,1024,1024,1024,1024,0,0,0,0,0,0,0,84,3.86,3.856,0,0,0,0,4.62,69.62,754.19191586642,33.464568,6,P-GPS,,10.2
207600,2026-01-13 17:35:45,754.19191586642,37.401576,0.0,2.29525597896,7.3732941992,17,5,7.723,754.84808386642,34.120736,0.4921268,2.8975886754,0.0,0.0,0.0,35.3,8.2,-4.7,0,0,1024,1024,1024,1024,0,0,0,0,0,0,0,84,3.86,3.856,0,0,0,0,4.62,69.62,754.19191586642,33.464568,6,P-GPS,,10.2
207700,2026-01-13 17:35:45,754.19191586642,37.401576,0.0,2.33965558668,7.4183729408,17,5,7.723,754.84808386642,34.120736,0.4921268,2.8975886754,0.0,0.0,-0.223694,35.3,8.0,-4.6,0,0,1024,1024,1024,1024,0,0,0,0,0,0,0,84,3.86,3.856,0,0,0,0,4.62,69.62,754.19191586642,33.464568,6,P-GPS,,10.2
207800,2026-01-13 17:35:45,754.19191586642,37.401576,0.0,2.39403550968,7.4729005016,17,5,7.723,754.84808386642,34.120736,0.4921268,2.8975886754,0.0,0.0,-0.223694,35.1,8.2,-4.3,0,0,1024,1024,1024,1024,0,0,0,0,0,0,0,84,3.86,3.856,0,0,0,0,4.62,69.62,754.19191586642,33.464568,6,P-GPS,,10.2
207900,2026-01-13 17:35:46,754.19191586642,37.401576,0.0,2.43977041928,7.519029112,17,5,7.723,754.84808386642,34.120736,0.4921268,2.8975886754,0.0,0.0,-0.223694,34.9,8.5,-4.9,0,0,1024,1024,1024,1024,0,0,0,0,0,0,0,84,3.86,3.856,0,0,0,0,4.62,69.62,754.19191586642,33.464568,6,P-GPS,,10.2
208000,2026-01-13 17:35:46,754.19191586642,37.401576,0.0,2.499261891,7.5809713712,17,5,7.723,754.84808386642,34.120736,0.4921268,2.8975886754,0.0,0.0,0.0,34.9,8.3,-4.7,0,0,1024,1024,1024,1024,0,0,0,0,0,0,0,84,3.86,3.856,0,0,0,0,4.62,69.62,754.19191586642,33.464568,6,P-GPS,,10.2
208100,2026-01-13 17:35:46,754.19191586642,37.401576,0.0,2.52943577648,7.612533052,17,5,7.723,754.84808386642,34.120736,0.4921268,2.8975886754,0.0,0.0,0.0,34.9,9.1,-4.8,0,0,1024,1024,1024,1024,0,0,0,0,0,0,0,84,3.86,3.856,0,0,0,0,4.62,69.62,754.19191586642,33.464568,6,P-GPS,,10.2
208200,2026-01-13 17:35:46,753.86383186642,37.401576,0.0,2.54568905784,7.6319884332,17,5,7.723,754.84808386642,34.120736,0.4921268,2.8975886754,0.0,0.0,0.0,34.9,8.9,-4.6,0,0,1024,1024,1024,1024,0,0,0,0,0,0,0,84,3.86,3.856,0,0,0,0,4.62,69.62,753.86383186642,33.136484,6,P-GPS,,10.1
208300,2026-01-13 17:35:46,753.86383186642,37.401576,0.223694,2.54211950392,7.648786334,17,5,7.723,754.84808386642,34.120736,0.4921268,2.8975886754,-0.223694,0.0,0.0,35.0,7.1,-5.3,0,0,1024,1024,1024,1024,0,0,0,0,0,0,0,84,3.86,3.856,0,0,0,0,4.62,69.62,753.86383186642,33.136484,6,P-GPS,,10.1
208400,2026-01-13 17:35:46,753.86383186642,37.401576,0.223694,2.4824803944,7.7207679636,17,5,7.723,754.84808386642,34.120736,0.4921268,2.8975886754,-0.223694,0.0,0.0,34.9,6.2,-5.5,0,0,1024,1024,1024,1024,0,0,0,0,0,0,0,84,3.86,3.856,0,0,0,0,4.62,69.62,753.86383186642,33.136484,6,P-GPS,,10.1
208500,2026-01-13 17:35:46,753.86383186642,37.401576,0.223694,2.44396005196,7.7636485424,17,5,7.723,754.84808386642,34.120736,0.4921268,2.8975886754,-0.223694,0.0,0.0,34.9,5.3,-5.5,0,0,1024,1024,1024,1024,0,0,0,0,0,0,0,84,3.856,3.857,0,0,0,0,4.62,69.62,753.86383186642,33.136484,6,P-GPS,,10.1
208600,2026-01-13 17:35:46,753.86383186642,37.401576,0.223694,2.39624679584,7.8158138984,17,5,7.723,754.84808386642,34.120736,0.4921268,2.8975886754,-0.223694,0.0,0.0,35.1,3.9,-5.8,0,0,1024,1024,1024,1024,0,0,0,0,0,0,0,84,3.856,3.857,0,0,0,0,4.62,69.62,753.86383186642,33.136484,6,P-GPS,,10.1
208700,2026-01-13 17:35:46,753.86383186642,37.401576,0.223694,2.34582028504,7.8719162624,17,5,7.723,754.84808386642,34.120736,0.4921268,2.8975886754,-0.223694,0.0,0.0,35.5,2.3,-6.0,0,0,1024,1024,1024,1024,0,0,0,0,0,0,0,84,3.856,3.857,0,0,0,0,4.62,69.62,753.86383186642,33.136484,6,P-GPS,,10.1
208800,2026-01-13 17:35:46,753.53574786642,37.401576,0.0,2.2812008604,7.9380579968,17,5,7.723,754.84808386642,34.120736,0.4921268,2.8975886754,0.0,0.0,0.0,35.5,3.6,-5.2,0,0,1024,1024,1024,1024,0,0,0,0,0,0,0,84,3.856,3.857,0,0,0,0,4.62,69.62,753.53574786642,32.8084,6,P-GPS,,10.0
208900,2026-01-13 17:35:47,753.53574786642,37.401576,0.0,2.14799547556,8.0889438284,17,5,7.723,754.84808386642,34.120736,0.4921268,2.8975886754,0.0,0.0,0.0,35.6,3.4,-4.9,0,0,1024,1024,1024,1024,0,0,0,0,0,0,0,84,3.856,3.857,0,0,0,0,4.62,69.62,753.53574786642,32.8084,6,P-GPS,,10.0
209000,2026-01-13 17:35:47,753.53574786642,37.401576,0.0,2.12552172156,8.1157482912,17,5,7.723,754.84808386642,34.120736,0.4921268,2.8975886754,0.0,0.0,0.0,35.4,5.8,-4.7,0,0,1024,1024,1024,1024,0,0,0,0,0,0,0,84,3.856,3.857,0,0,0,0,4.62,69.62,753.53574786642,32.8084,6,P-GPS,,10.0
209100,2026-01-13 17:35:47,753.53574786642,37.401576,0.0,2.11488523828,8.1349412052,17,5,7.723,754.84808386642,34.120736,0.4921268,2.8975886754,0.0,0.0,0.0,35.3,6.3,-4.3,0,0,1024,1024,1024,1024,0,0,0,0,0,0,0,84,3.856,3.857,0,0,0,0,4.62,69.62,753.53574786642,32.8084,6,P-GPS,,10.0
209200,2026-01-13 17:35:47,753.53574786642,37.401576,0.0,2.11260505448,8.1643375316,17,5,7.723,754.84808386642,34.120736,0.4921268,2.8975886754,0.0,0.0,0.0,35.3,6.6,-4.4,0,0,1024,1024,1024,1024,0,0,0,0,0,0,0,84,3.856,3.857,0,0,0,0,4.62,69.62,753.53574786642,32.8084,6,P-GPS,,10.0
209300,2026-01-13 17:35:47,753.20766386642,37.401576,0.0,2.05751975088,8.223589502,17,5,7.723,754.84808386642,34.120736,0.4921268,2.8975886754,0.0,0.0,0.0,35.4,6.7,-4.2,0,0,1024,1024,1024,1024,0,0,0,0,0,0,0,84,3.856,3.857,0,0,0,0,4.62,69.62,753.20766386642,32.480316,6,P-GPS,,9.9
209400,2026-01-13 17:35:47,753.20766386642,37.401576,0.0,2.07440623436,8.2423559068,17,5,7.723,754.84808386642,34.120736,0.4921268,2.8975886754,0.0,0.0,0.0,35.2,7.7,-3.7,0,0,1024,1024,1024,1024,0,0,0,0,0,0,0,84,3.856,3.857,0,0,0,0,4.62,69.62,753.20766386642,32.480316,6,P-GPS,,9.9
209500,2026-01-13 17:35:47,753.20766386642,37.401576,0.0,2.08520675964,8.2568572196,17,5,7.723,754.84808386642,34.120736,0.4921268,2.8975886754,0.0,0.0,0.0,35.3,6.3,-3.1,0,0,1024,1024,1024,1024,0,0,0,0,0,0,0,84,3.856,3.857,0,0,0,0,4.62,69.62,753.20766386642,32.480316,6,P-GPS,,9.9
209600,2026-01-13 17:35:47,752.87957986642,37.401576,0.0,2.10264442424,8.2807745432,17,5,7.702,754.84808386642,34.120736,0.4921268,2.8975886754,0.0,0.0,0.0,35.3,6.1,-3.1,0,0,1024,1024,1024,1024,0,0,0,0,0,0,0,84,3.852,3.851,0,0,0,0,4.773,69.8,752.87957986642,32.152232,6,P-GPS,,9.8
209700,2026-01-13 17:35:47,752.87957986642,37.401576,0.0,2.14081699764,8.323655122,17,5,7.702,754.84808386642,34.120736,0.4921268,2.8975886754,0.0,0.0,0.0,35.3,5.4,-3.4,0,0,1024,1024,1024,1024,0,0,0,0,0,0,0,84,3.852,3.851,0,0,0,0,4.773,69.8,752.87957986642,32.152232,6,P-GPS,,9.8
209800,2026-01-13 17:35:47,752.87957986642,37.401576,0.0,2.12064639332,8.3514110284,17,5,7.702,754.84808386642,34.120736,0.4921268,2.8975886754,0.0,0.0,0.0,35.4,5.0,-3.4,0,0,1024,1024,1024,1024,0,0,0,0,0,0,0,84,3.852,3.851,0,0,0,0,4.773,69.8,752.87957986642,32.152232,6,P-GPS,,9.8
209900,2026-01-13 17:35:47,752.87957986642,37.401576,0.0,2.10671266584,8.373195806,17,5,7.702,754.84808386642,34.120736,0.4921268,2.8975886754,0.0,0.0,0.0,35.2,5.2,-3.0,0,0,1024,1024,1024,1024,0,0,0,0,0,0,0,84,3.852,3.851,0,0,0,0,4.773,69.8,752.87957986642,32.152232,6,P-GPS,,9.8
210000,2026-01-13 17:35:48,752.87957986642,37.401576,0.0,2.08823497496,8.3916997436,17,5,7.702,754.84808386642,34.120736,0.4921268,2.8975886754,0.0,0.0,-0.223694,35.0,5.2,-2.7,0,0,1024,1024,1024,1024,0,0,0,0,0,0,0,84,3.852,3.851,0,0,0,0,4.773,69.8,752.87957986642,32.152232,6,P-GPS,,9.8
210100,2026-01-13 17:35:48,753.20766386642,37.401576,0.0,1.9808235542,8.4994425292,17,5,7.702,754.84808386642,34.120736,0.4921268,2.8975886754,0.0,0.0,-0.223694,34.9,4.7,-3.8,0,0,1024,1024,1024,1024,0,0,0,0,0,0,0,84,3.852,3.851,0,0,0,0,4.773,69.8,753.20766386642,32.480316,6,P-GPS,,9.9
210200,2026-01-13 17:35:48,753.20766386642,37.401576,0.0,1.96015754304,8.5210304564,17,5,7.702,754.84808386642,34.120736,0.4921268,2.8975886754,0.0,0.0,0.0,35.3,4.9,-4.5,0,0,1024,1024,1024,1024,0,0,0,0,0,0,0,84,3.852,3.851,0,0,0,0,4.773,69.8,753.20766386642,32.480316,6,P-GPS,,9.9
210300,2026-01-13 17:35:48,753.20766386642,37.401576,0.0,1.94881896,8.532808672,17,5,7.702,754.84808386642,34.120736,0.4921268,2.8975886754,0.0,0.0,0.0,35.3,6.1,-4.9,0,0,1024,1024,1024,1024,0,0,0,0,0,0,0,84,3.852,3.851,0,0,0,0,4.773,69.8,753.20766386642,32.480316,6,P-GPS,,9.9
210400,2026-01-13 17:35:48,753.20766386642,37.401576,0.0,1.94706042976,8.5450462052,17,5,7.702,754.84808386642,34.120736,0.4921268,2.8975886754,0.0,0.0,0.0,35.3,6.4,-4.0,0,0,1024,1024,1024,1024,0,0,0,0,0,0,0,84,3.852,3.851,0,0,0,0,4.773,69.8,753.20766386642,32.480316,6,P-GPS,,9.9
210500,2026-01-13 17:35:48,753.20766386642,37.401576,0.0,1.94766082348,8.5617128724,17,5,7.702,754.84808386642,34.120736,0.4921268,2.8975886754,0.0,0.0,0.0,35.4,6.1,-2.7,0,0,1024,1024,1024,1024,0,0,0,0,0,0,0,84,3.852,3.851,0,0,0,0,4.773,69.8,753.20766386642,32.480316,6,P-GPS,,9.9
210600,2026-01-13 17:35:48,753.20766386642,37.401576,0.0,1.9272146286,8.63845172,17,5,7.702,754.84808386642,34.120736,0.4921268,2.8975886754,0.0,0.0,-0.223694,35.3,6.0,-3.2,0,0,1024,1024,1024,1024,0,0,0,0,0,0,0,84,3.852,3.851,0,0,0,0,4.773,69.8,753.20766386642,32.480316,6,P-GPS,,9.9
210700,2026-01-13 17:35:48,753.20766386642,37.401576,0.0,1.92886489112,8.6596459464,17,5,7.702,754.84808386642,34.120736,0.4921268,2.8975886754,0.0,0.0,0.0,35.3,6.0,-3.6,0,0,1024,1024,1024,1024,0,0,0,0,0,0,0,84,3.852,3.851,0,0,0,0,4.773,69.8,753.20766386642,32.480316,6,P-GPS,,9.9
210800,2026-01-13 17:35:48,753.20766386642,37.401576,0.0,1.9386647602,8.6934385984,17,5,7.702,754.84808386642,34.120736,0.4921268,2.8975886754,0.0,0.0,0.0,35.2,6.6,-3.9,0,0,1024,1024,1024,1024,0,0,0,0,0,0,0,84,3.852,3.851,0,0,0,0,4.773,69.8,753.20766386642,32.480316,6,P-GPS,,9.9
210900,2026-01-13 17:35:49,753.20766386642,37.401576,0.0,1.95031830388,8.7277889932,17,5,7.702,754.84808386642,34.120736,0.4921268,2.8975886754,0.0,0.0,0.0,35.3,6.7,-3.7,0,0,1024,1024,1024,1024,0,0,0,0,0,0,0,84,3.852,3.851,0,0,0,0,4.773,69.8,753.20766386642,32.480316,6,P-GPS,,9.9
211000,2026-01-13 17:35:49,753.20766386642,37.401576,0.0,1.98899940748,8.810859862,17,5,7.702,754.84808386642,34.120736,0.4921268,2.8975886754,0.0,0.0,0.0,35.5,6.3,-2.8,0,0,1024,1024,1024,1024,0,0,0,0,0,0,0,84,3.852,3.851,0,0,0,0,4.773,69.8,753.20766386642,32.480316,6,P-GPS,,9.9
211100,2026-01-13 17:35:49,753.20766386642,37.401576,0.0,2.00650596972,8.8419294168,17,5,7.702,754.84808386642,34.120736,0.4921268,2.8975886754,0.0,0.0,0.0,35.4,6.4,-3.1,0,0,1024,1024,1024,1024,0,0,0,0,0,0,0,84,3.852,3.851,0,0,0,0,4.773,69.8,753.20766386642,32.480316,6,P-GPS,,9.9
211200,2026-01-13 17:35:49,753.20766386642,37.401576,0.0,2.00332683576,8.8687010712,17,5,7.702,754.84808386642,34.120736,0.4921268,2.8975886754,0.0,0.0,0.0,35.3,6.6,-3.5,0,0,1024,1024,1024,1024,0,0,0,0,0,0,0,84,3.852,3.851,0,0,0,0,4.773,69.8,753.20766386642,32.480316,6,P-GPS,,9.9
211300,2026-01-13 17:35:49,753.20766386642,37.401576,0.0,2.00028221624,8.8970147204,17,5,7.702,754.84808386642,34.120736,0.4921268,2.8975886754,0.0,0.0,0.0,35.4,6.7,-2.7,0,0,1024,1024,1024,1024,0,0,0,0,0,0,0,84,3.852,3.851,0,0,0,0,4.773,69.8,753.20766386642,32.480316,6,P-GPS,,9.9
211400,2026-01-13 17:35:49,753.20766386642,37.401576,0.0,1.97706371156,8.9480317824,17,5,7.702,754.84808386642,34.120736,0.4921268,2.8975886754,0.0,0.0,0.0,35.4,5.0,-2.3,0,0,1024,1024,1024,1024,0,0,0,0,0,0,0,84,3.852,3.851,0,0,0,0,4.773,69.8,753.20766386642,32.480316,6,P-GPS,,9.9
211500,2026-01-13 17:35:49,753.20766386642,37.401576,0.0,1.97865163812,8.9742128856,17,5,7.716,754.84808386642,34.120736,0.4921268,2.8975886754,0.0,0.0,0.0,35.2,5.5,-2.1,0,0,1024,1024,1024,1024,0,0,0,0,0,0,0,84,3.857,3.859,0,0,0,0,4.688,69.8,753.20766386642,32.480316,6,P-GPS,,9.9
211600,2026-01-13 17:35:49,753.53574786642,37.401576,0.0,1.96921922312,8.9874018624,17,5,7.716,754.84808386642,34.120736,0.4921268,2.8975886754,0.0,0.0,0.0,35.3,4.8,-2.7,0,0,1024,1024,1024,1024,0,0,0,0,0,0,0,84,3.857,3.859,0,0,0,0,4.688,69.8,753.53574786642,32.8084,6,P-GPS,,10.0
211700,2026-01-13 17:35:49,753.53574786642,37.401576,0.0,1.96366148016,8.9938323088,17,5,7.716,754.84808386642,34.120736,0.4921268,2.8975886754,0.0,0.0,0.0,35.3,5.1,-3.0,0,0,1024,1024,1024,1024,0,0,0,0,0,0,0,84,3.857,3.859,0,0,0,0,4.688,69.8,753.53574786642,32.8084,6,P-GPS,,10.0
211800,2026-01-13 17:35:49,753.53574786642,37.401576,0.0,1.9561680416,9.0036420204,17,5,7.716,754.84808386642,34.120736,0.4921268,2.8975886754,0.0,0.0,0.0,35.1,6.3,-3.4,0,0,1024,1024,1024,1024,0,0,0,0,0,0,0,84,3.857,3.859,0,0,0,0,4.688,69.8,753.53574786642,32.8084,6,P-GPS,,10.0
211900,2026-01-13 17:35:49,753.53574786642,37.401576,0.0,1.96367132268,9.0166997636,17,5,7.716,754.84808386642,34.120736,0.4921268,2.8975886754,0.0,0.0,0.0,35.1,6.5,-4.0,0,0,1024,1024,1024,1024,0,0,0,0,0,0,0,84,3.857,3.859,0,0,0,0,4.688,69.8,753.53574786642,32.8084,6,P-GPS,,10.0
212000,2026-01-13 17:35:50,753.53574786642,37.401576,0.0,1.96355649328,9.0292653808,17,5,7.716,754.84808386642,34.120736,0.4921268,2.8975886754,0.0,0.0,0.0,35.3,6.4,-3.6,0,0,1024,1024,1024,1024,0,0,0,0,0,0,0,84,3.857,3.859,0,0,0,0,4.688,69.8,753.53574786642,32.8084,6,P-GPS,,10.0
212100,2026-01-13 17:35:50,753.53574786642,37.401576,0.0,1.9634022938,9.0428480584,17,5,7.716,754.84808386642,34.120736,0.4921268,2.8975886754,0.0,0.0,0.0,35.2,6.3,-3.3,0,0,1024,1024,1024,1024,0,0,0,0,0,0,0,84,3.857,3.859,0,0,0,0,4.688,69.8,753.53574786642,32.8084,6,P-GPS,,10.0
212200,2026-01-13 17:35:50,753.53574786642,37.401576,0.0,1.95038063984,9.0570212872,17,5,7.716,754.84808386642,34.120736,0.4921268,2.8975886754,0.0,0.0,0.0,35.1,6.8,-3.3,0,0,1024,1024,1024,1024,0,0,0,0,0,0,0,84,3.857,3.859,0,0,0,0,4.688,69.8,753.53574786642,32.8084,6,P-GPS,,10.0
212300,2026-01-13 17:35:50,753.53574786642,37.401576,0.0,1.88524284248,9.122539662,17,5,7.716,754.84808386642,34.120736,0.4921268,2.8975886754,0.0,0.0,0.0,35.2,6.5,-2.9,0,0,1024,1024,1024,1024,0,0,0,0,0,0,0,84,3.857,3.859,0,0,0,0,4.688,69.8,753.53574786642,32.8084,6,P-GPS,,10.0
212400,2026-01-13 17:35:50,753.53574786642,37.401576,0.0,1.87248365572,9.1357614472,17,5,7.716,754.84808386642,34.120736,0.4921268,2.8975886754,0.0,0.0,0.0,35.3,6.1,-2.9,0,0,1024,1024,1024,1024,0,0,0,0,0,0,0,84,3.857,3.859,0,0,0,0,4.688,69.8,753.53574786642,32.8084,6,P-GPS,,10.0
212500,2026-01-13 17:35:50,753.53574786642,37.401576,0.0,1.85873037444,9.1495409752,17,5,7.717,754.84808386642,34.120736,0.4921268,2.8975886754,0.0,0.0,0.0,35.3,5.6,-3.0,0,0,1024,1024,1024,1024,0,0,0,0,0,0,0,84,3.863,3.853,0,0,0,0,4.733,69.8,753.53574786642,32.8084,6,P-GPS,,10.0
212600,2026-01-13 17:35:50,753.53574786642,37.401576,0.0,1.84966541352,9.1632548864,17,5,7.717,754.84808386642,34.120736,0.4921268,2.8975886754,0.0,0.0,0.0,35.3,5.6,-3.6,0,0,1024,1024,1024,1024,0,0,0,0,0,0,0,84,3.863,3.853,0,0,0,0,4.733,69.8,753.53574786642,32.8084,6,P-GPS,,10.0
212700,2026-01-13 17:35:50,753.53574786642,37.401576,0.0,1.8456693504,9.1962929452,17,5,7.717,754.84808386642,34.120736,0.4921268,2.8975886754,0.0,0.0,0.0,35.2,5.8,-4.2,0,0,1024,1024,1024,1024,0,0,0,0,0,0,0,84,3.863,3.853,0,0,0,0,4.733,69.8,753.53574786642,32.8084,6,P-GPS,,10.0
212800,2026-01-13 17:35:50,753.53574786642,37.401576,0.0,1.84218181748,9.2027562,17,5,7.717,754.84808386642,34.120736,0.4921268,2.8975886754,0.0,0.0,0.0,35.3,5.5,-3.8,0,0,1024,1024,1024,1024,0,0,0,0,0,0,0,84,3.863,3.853,0,0,0,0,4.733,69.8,753.53574786642,32.8084,6,P-GPS,,10.0
212900,2026-01-13 17:35:51,753.53574786642,37.401576,0.0,1.84387145008,9.2075462264,17,5,7.717,754.84808386642,34.120736,0.4921268,2.8975886754,0.0,0.0,0.0,35.2,6.8,-4.1,0,0,1024,1024,1024,1024,0,0,0,0,0,0,0,84,3.863,3.853,0,0,0,0,4.733,69.8,753.53574786642,32.8084,6,P-GPS,,10.0
213000,2026-01-13 17:35:51,753.53574786642,37.401576,0.0,1.85425858952,9.218668274,17,5,7.717,754.84808386642,34.120736,0.4921268,2.8975886754,0.0,0.0,0.0,35.3,6.0,-3.5,0,0,1024,1024,1024,1024,0,0,0,0,0,0,0,84,3.863,3.853,0,0,0,0,4.733,69.8,753.53574786642,32.8084,6,P-GPS,,10.0
213100,2026-01-13 17:35:51,753.53574786642,37.401576,0.0,1.8661910046,9.242290322,17,5,7.717,754.84808386642,34.120736,0.4921268,2.8975886754,0.0,0.0,0.0,35.1,6.9,-3.6,0,0,1024,1024,1024,1024,0,0,0,0,0,0,0,84,3.863,3.853,0,0,0,0,4.733,69.8,753.53574786642,32.8084,6,P-GPS,,10.0
213200,2026-01-13 17:35:51,753.53574786642,37.401576,0.0,1.86229992836,9.2486551516,17,5,7.717,754.84808386642,34.120736,0.4921268,2.8975886754,0.0,0.0,0.0,35.1,7.2,-3.9,0,0,1024,1024,1024,1024,0,0,0,0,0,0,0,84,3.863,3.853,0,0,0,0,4.733,69.8,753.53574786642,32.8084,6,P-GPS,,10.0
213300,2026-01-13 17:35:51,753.53574786642,37.401576,0.0,1.84974415368,9.2612207688,17,5,7.717,754.84808386642,34.120736,0.4921268,2.8975886754,0.0,0.0,0.0,35.2,5.9,-3.7,0,0,1024,1024,1024,1024,0,0,0,0,0,0,0,84,3.863,3.853,0,0,0,0,4.733,69.8,753.53574786642,32.8084,6,P-GPS,,10.0
213400,2026-01-13 17:35:51,753.53574786642,37.401576,0.0,1.83411423192,9.2790685384,17,5,7.717,754.84808386642,34.120736,0.4921268,2.8975886754,0.0,0.0,0.0,35.2,4.5,-3.6,0,0,1024,1024,1024,1024,0,0,0,0,0,0,0,84,3.863,3.853,0,0,0,0,4.733,69.8,753.53574786642,32.8084,6,P-GPS,,10.0
213500,2026-01-13 17:35:51,753.53574786642,37.401576,0.0,1.7995079316,9.3199806132,17,5,7.711,754.84808386642,34.120736,0.4921268,2.8975886754,0.0,0.0,0.0,35.3,4.9,-3.6,0,0,1024,1024,1024,1024,0,0,0,0,0,0,0,84,3.854,3.855,0,0,0,0,4.775,69.8,753.53574786642,32.8084,6,P-GPS,,10.0
213600,2026-01-13 17:35:51,753.53574786642,37.401576,0.0,1.77732289152,9.344816572,17,5,7.711,754.84808386642,34.120736,0.4921268,2.8975886754,0.0,0.0,0.0,35.2,5.2,-4.1,0,0,1024,1024,1024,1024,0,0,0,0,0,0,0,84,3.854,3.855,0,0,0,0,4.775,69.8,753.53574786642,32.8084,6,P-GPS,,10.0
213700,2026-01-13 17:35:51,753.53574786642,37.401576,0.0,1.75680123732,9.3679136856,17,5,7.711,754.84808386642,34.120736,0.4921268,2.8975886754,0.0,0.0,0.0,35.3,5.4,-4.1,0,0,1024,1024,1024,1024,0,0,0,0,0,0,0,84,3.854,3.855,0,0,0,0,4.775,69.8,753.53574786642,32.8084,6,P-GPS,,10.0
213800,2026-01-13 17:35:51,753.53574786642,37.401576,0.0,1.72225399212,9.40698849,17,5,7.711,754.84808386642,34.120736,0.4921268,2.8975886754,0.0,0.0,0.0,35.3,5.4,-3.7,0,0,1024,1024,1024,1024,0,0,0,0,0,0,0,84,3.854,3.855,0,0,0,0,4.775,69.8,753.53574786642,32.8084,6,P-GPS,,10.0
213900,2026-01-13 17:35:51,753.53574786642,37.401576,0.0,1.69001645828,9.4446197248,17,5,7.711,754.84808386642,34.120736,0.4921268,2.8975886754,0.0,0.0,0.0,35.4,5.1,-3.9,0,0,1024,1024,1024,1024,0,0,0,0,0,0,0,84,3.854,3.855,0,0,0,0,4.775,69.8,753.53574786642,32.8084,6,P-GPS,,10.0
214000,2026-01-13 17:35:52,753.53574786642,37.401576,0.0,1.62660110192,9.5161092284,17,5,7.711,754.84808386642,34.120736,0.4921268,2.8975886754,0.0,0.0,0.0,35.5,4.7,-3.4,0,0,1024,1024,1024,1024,0,0,0,0,0,0,0,84,3.854,3.855,0,0,0,0,4.775,69.8,753.53574786642,32.8084,6,P-GPS,,10.0
214100,2026-01-13 17:35:52,753.20766386642,37.401576,0.0,1.6108268232,9.5376971556,17,5,7.711,754.84808386642,34.120736,0.4921268,2.8975886754,0.0,0.0,0.0,35.3,6.2,-3.3,0,0,1024,1024,1024,1024,0,0,0,0,0,0,0,84,3.854,3.855,0,0,0,0,4.775,69.8,753.20766386642,32.480316,6,P-GPS,,9.9
214200,2026-01-13 17:35:52,753.20766386642,37.401576,0.0,1.5853346964,9.563812642,17,5,7.711,754.84808386642,34.120736,0.4921268,2.8975886754,0.0,0.0,0.0,35.5,4.5,-3.0,0,0,1024,1024,1024,1024,0,0,0,0,0,0,0,84,3.854,3.855,0,0,0,0,4.775,69.8,753.20766386642,32.480316,6,P-GPS,,9.9
214300,2026-01-13 17:35:52,753.20766386642,37.401576,0.0,1.56282485316,9.5863192044,17,5,7.711,754.84808386642,34.120736,0.4921268,2.8975886754,0.0,0.0,0.0,35.4,4.7,-3.6,0,0,1024,1024,1024,1024,0,0,0,0,0,0,0,84,3.854,3.855,0,0,0,0,4.775,69.8,753.20766386642,32.480316,6,P-GPS,,9.9
214400,2026-01-13 17:35:52,753.20766386642,37.401576,0.0,1.54768049572,9.6439307548,17,5,7.711,754.84808386642,34.120736,0.4921268,2.8975886754,0.0,0.0,0.0,35.4,5.4,-3.8,0,0,1024,1024,1024,1024,0,0,0,0,0,0,0,84,3.854,3.855,0,0,0,0,4.775,69.8,753.20766386642,32.480316,6,P-GPS,,9.9
214500,2026-01-13 17:35:52,753.20766386642,37.401576,0.0,1.55625661148,9.6664701256,17,5,7.707,754.84808386642,34.120736,0.4921268,2.8975886754,0.0,0.0,0.0,35.4,6.5,-3.6,0,0,1024,1024,1024,1024,0,0,0,0,0,0,0,84,3.855,3.853,0,0,0,0,4.608,69.8,753.20766386642,32.480316,6,P-GPS,,9.9
