time(millisecond),timestamp,altitude_above_seaLevel(feet),height_sonar(feet),speed(mph),distance(feet),mileage(feet),satellites,gpslevel,voltage(v),max_altitude(feet),max_ascent(feet),max_speed(mph),max_distance(feet), xSpeed(mph), ySpeed(mph), zSpeed(mph), compass_heading(degrees), pitch(degrees), roll(degrees),isPhoto,isVideo,rc_elevator,rc_aileron,rc_throttle,rc_rudder,rc_elevator(percent),rc_aileron(percent),rc_throttle(percent),rc_rudder(percent),gimbal_heading(degrees),gimbal_pitch(degrees),gimbal_roll(degrees),battery_percent,voltageCell1,voltageCell2,voltageCell3,voltageCell4,voltageCell5,voltageCell6,current(A),battery_temperature(f),altitude(feet),ascent(feet),flycStateRaw,flycState,message,height_above_takeoff(meters)
463000,2026-01-13 17:40:51,720.7103268685,0.0,0.0,0.0,0.0,16,5,0.0,720.7103268685,0.0,0.0,0.0,0.0,0.0,0.0,31.5,2.1,0.2,0,0,1024,1024,1024,1024,0,0,0,0,0,0,0,66,3.817,3.818,0,0,0,0,0.0,73.94,720.7103268685,0.0,41,Motors_Started,SD card speed low SD card speed low. Normal use may be affected. Replace SD card (Code: 10028),0.0
463100,2026-01-13 17:40:52,720.7103268685,0.0,0.0,0.0110050200372,0.0110050200372,16,5,7.634,720.7103268685,0.0,0.0,0.0110050200372,0.0,0.0,0.0,31.4,2.1,0.2,0,0,1024,1024,1024,1024,0,0,0,0,0,0,0,66,3.817,3.818,0,0,0,0,1.054,73.94,720.7103268685,0.0,41,Motors_Started,,0.0
463200,2026-01-13 17:40:52,720.7103268685,0.328084,0.0,0.0191175202968,0.0218697185476,16,5,7.634,720.7103268685,0.0,0.0,0.0191175202968,0.0,0.0,0.0,31.4,2.1,0.2,0,0,1024,1024,1024,1024,0,0,0,0,0,0,0,66,3.817,3.818,0,0,0,0,1.054,73.94,720.7103268685,0.0,41,Motors_Started,Setting new Return-To-Home altitude to 90m (295 ft). Data Recorder File Index is 37. Setting new Maximum Flight Altitude to 90m (295 ft),0.0
463300,2026-01-13 17:40:52,720.7103268685,0.328084,0.0,1.66006238908,0.058108925744,16,5,7.634,720.7103268685,0.0,0.0,1.66006238908,0.0,0.0,0.0,31.4,2.1,0.2,0,0,1024,1024,1024,1024,0,0,0,0,0,0,0,66,3.817,3.818,0,0,0,0,1.054,73.94,720.7103268685,0.0,41,Motors_Started,,0.0
463400,2026-01-13 17:40:52,720.7103268685,0.328084,0.0,1.66830385916,0.069878283076,16,5,7.634,720.7103268685,0.0,0.0,1.66830385916,0.0,0.0,0.0,31.4,2.1,0.2,0,0,1024,1024,1024,1024,0,0,0,0,0,0,0,66,3.817,3.818,0,0,0,0,1.054,73.94,720.7103268685,0.0,41,Motors_Started,,0.0
463500,2026-01-13 17:40:52,720.7103268685,0.328084,0.0,1.67000005344,0.071892062668,16,5,7.634,720.7103268685,0.0,0.0,1.67000005344,0.0,0.0,0.0,31.4,2.0,0.2,0,0,1024,1024,1024,1024,0,0,0,0,0,0,0,66,3.817,3.818,0,0,0,0,1.054,73.94,720.7103268685,0.0,41,Motors_Started,,0.0
463600,2026-01-13 17:40:52,720.7103268685,0.328084,0.0,1.6643209194,0.07992782408,16,5,7.634,720.7103268685,0.0,0.0,1.67000005344,0.0,0.0,0.0,31.5,2.0,0.1,0,0,1024,1024,1024,1024,0,0,0,0,0,0,0,66,3.817,3.818,0,0,0,0,1.054,73.94,720.7103268685,0.0,41,Motors_Started,,0.0
463700,2026-01-13 17:40:52,720.7103268685,0.328084,0.0,1.63202761128,0.115174872452,16,5,7.634,720.7103268685,0.0,0.0,1.67000005344,0.0,0.0,0.0,31.4,2.1,0.3,0,0,1024,1024,1024,1024,0,0,0,0,0,0,0,66,3.817,3.818,0,0,0,0,1.054,73.94,720.7103268685,0.0,41,Motors_Started,,0.0
463800,2026-01-13 17:40:52,720.7103268685,0.328084,0.0,1.61618771576,0.135383206432,16,5,7.634,720.7103268685,0.0,0.0,1.67000005344,0.0,0.0,0.0,31.5,2.1,0.2,0,0,1024,1024,1024,1024,0,0,0,0,0,0,0,66,3.817,3.818,0,0,0,0,1.054,73.94,720.7103268685,0.0,41,Motors_Started,,0.0
463900,2026-01-13 17:40:52,720.7103268685,0.328084,0.0,1.60623692804,0.148806763292,16,5,7.634,720.7103268685,0.0,0.0,1.67000005344,0.0,0.0,0.0,31.4,2.1,0.2,0,0,1024,1024,1024,1024,0,0,0,0,0,0,0,66,3.817,3.818,0,0,0,0,1.054,73.94,720.7103268685,0.0,41,Motors_Started,,0.0
464000,2026-01-13 17:40:53,720.7103268685,0.328084,0.0,1.60128285964,0.1567175247,16,5,7.634,720.7103268685,0.0,0.0,1.67000005344,0.0,0.0,0.0,31.3,2.1,0.2,0,0,1024,1024,1024,1024,0,0,0,0,0,0,0,66,3.817,3.818,0,0,0,0,1.054,73.94,720.7103268685,0.0,41,Motors_Started,,0.0
464100,2026-01-13 17:40:53,720.7103268685,0.328084,0.0,1.5925033318,0.171050858492,16,5,7.634,720.7103268685,0.0,0.0,1.67000005344,0.0,0.0,0.0,31.3,2.0,0.2,0,0,1024,1024,1024,1024,0,0,0,0,0,0,0,66,3.817,3.818,0,0,0,0,1.054,73.94,720.7103268685,0.0,11,AutoTakeoff,,0.0
464200,2026-01-13 17:40:53,720.7103268685,0.328084,0.0,1.58570871216,0.196553155896,16,5,7.596,720.7103268685,0.0,0.0,1.67000005344,0.0,0.0,0.0,31.3,2.1,0.2,0,0,1024,1024,1024,1024,0,0,0,0,0,0,0,66,3.807,3.81,0,0,0,0,1.612,73.94,720.7103268685,0.0,11,AutoTakeoff,,0.0
464300,2026-01-13 17:40:53,720.7103268685,0.328084,0.0,1.57803154656,0.210820544804,16,5,7.596,720.7103268685,0.0,0.0,1.67000005344,0.0,0.0,0.0,31.3,2.1,0.2,0,0,1024,1024,1024,1024,0,0,0,0,0,0,0,66,3.807,3.81,0,0,0,0,1.612,73.94,720.7103268685,0.0,11,AutoTakeoff,,0.0
464400,2026-01-13 17:40:53,720.7103268685,0.328084,0.0,1.574311074,0.218022972856,16,5,7.596,720.7103268685,0.0,0.0,1.67000005344,0.0,0.0,0.0,31.4,2.1,0.2,0,0,1024,1024,1024,1024,0,0,0,0,0,0,0,66,3.807,3.81,0,0,0,0,1.612,73.94,720.7103268685,0.0,11,AutoTakeoff,,0.0
464500,2026-01-13 17:40:53,720.7103268685,0.328084,0.0,1.57264440728,0.222031503168,16,5,7.596,720.7103268685,0.0,0.0,1.67000005344,0.0,0.0,0.0,31.4,2.1,0.2,0,0,1024,1024,1024,1024,0,0,0,0,0,0,0,66,3.807,3.81,0,0,0,0,1.612,73.94,720.7103268685,0.0,11,AutoTakeoff,,0.0
464600,2026-01-13 17:40:53,720.7103268685,0.328084,0.0,1.59546921116,0.25741142556,16,5,7.596,720.7103268685,0.0,0.0,1.67000005344,0.0,0.0,0.0,31.8,2.1,0.2,0,0,1024,1024,1024,1024,0,0,0,0,0,0,0,66,3.807,3.81,0,0,0,0,1.612,73.94,720.7103268685,0.0,11,AutoTakeoff,,0.0
464700,2026-01-13 17:40:53,720.7103268685,0.328084,0.0,1.60210635048,0.264918315564,16,5,7.596,720.7103268685,0.0,0.0,1.67000005344,0.0,0.0,0.0,32.2,2.1,0.2,0,0,1024,1024,1110,1024,0,0,13,0,0,0,0,66,3.807,3.81,0,0,0,0,1.612,73.94,720.7103268685,0.0,11,AutoTakeoff,,0.0
464800,2026-01-13 17:40:53,720.7103268685,0.328084,0.0,1.61422905428,0.277878289732,16,5,7.596,720.7103268685,0.0,0.0,1.67000005344,0.0,0.0,0.0,33.6,2.2,0.1,0,0,1024,1024,1516,1024,0,0,75,0,0,0,0,66,3.807,3.81,0,0,0,0,1.612,73.94,720.7103268685,0.0,11,AutoTakeoff,,0.0
464900,2026-01-13 17:40:53,720.7103268685,0.328084,0.0,1.62295936952,0.286992791336,16,5,7.596,720.7103268685,0.0,0.0,1.67000005344,0.0,0.0,0.0,36.0,2.3,0.1,0,0,1024,1024,1684,1024,0,0,100,0,0,0,0,66,3.807,3.81,0,0,0,0,1.612,73.94,720.7103268685,0.0,11,AutoTakeoff,,0.0
465000,2026-01-13 17:40:53,720.7103268685,0.328084,0.0,1.6612697382,0.33294948572,16,5,7.596,720.7103268685,0.0,0.0,1.67000005344,0.0,0.0,-0.223694,37.9,1.8,0.0,0,0,1024,1024,1684,1024,0,0,100,0,0,0,0,66,3.807,3.81,0,0,0,0,1.612,73.94,720.7103268685,0.0,11,AutoTakeoff,,0.0
465100,2026-01-13 17:40:54,721.0384108685,0.328084,0.0,1.6589403418,0.35031497184,16,5,7.596,721.0384108685,0.328084,0.0,1.67000005344,0.0,0.0,-0.447388,38.3,1.6,-1.1,0,0,1024,1024,1684,1024,0,0,100,0,0,0,0,66,3.807,3.81,0,0,0,0,1.612,73.94,721.0384108685,0.328084,11,AutoTakeoff,,0.1
465200,2026-01-13 17:40:54,721.0384108685,0.656168,0.0,1.64682748052,0.37265093056,17,5,7.596,721.0384108685,0.328084,0.0,1.67000005344,0.0,0.0,-0.671082,38.3,0.8,-1.6,0,0,1024,1024,1684,1024,0,0,100,0,0,0,0,66,3.807,3.81,0,0,0,0,1.612,73.94,721.0384108685,0.328084,11,AutoTakeoff,Home Point updated. RTH altitude adjusted to 90 m (Code: 120852),0.1
465300,2026-01-13 17:40:54,721.0384108685,0.656168,0.0,1.6319062202,0.39730316232,17,5,7.455,721.0384108685,0.328084,0.0,1.67000005344,0.0,0.0,-1.11847,38.3,1.4,-0.7,0,0,1024,1024,1684,1024,0,0,100,0,0,0,0,66,3.728,3.726,0,0,0,0,4.27,73.94,721.0384108685,0.328084,11,AutoTakeoff,,0.1
465400,2026-01-13 17:40:54,721.3664948685,0.656168,0.0,1.58939965716,0.44087271752,17,5,7.455,721.3664948685,0.656168,0.0,1.67000005344,0.0,0.0,-1.565858,38.6,2.1,-0.4,0,0,1024,1024,1684,1024,0,0,100,0,0,0,0,66,3.728,3.726,0,0,0,0,4.27,73.94,721.3664948685,0.656168,11,AutoTakeoff,,0.2
465500,2026-01-13 17:40:54,721.6945788685,0.984252,0.223694,1.56718837036,0.47776248248,17,5,7.455,721.6945788685,0.984252,0.223694,1.67000005344,0.0,0.223694,-2.23694,38.8,1.9,-0.5,0,0,1024,1024,1684,1024,0,0,100,0,0,0,0,66,3.728,3.726,0,0,0,0,4.27,73.94,721.6945788685,0.984252,11,AutoTakeoff,,0.3
465600,2026-01-13 17:40:54,722.0226628685,1.312336,0.223694,1.53976054796,0.52965224792,18,5,7.455,722.0226628685,1.312336,0.223694,1.67000005344,0.0,0.223694,-2.684328,38.9,3.4,-1.4,0,0,1024,1024,1684,1024,0,0,100,0,0,0,0,66,3.728,3.726,0,0,0,0,4.27,73.94,722.0226628685,1.312336,11,AutoTakeoff,,0.4
465700,2026-01-13 17:40:54,722.3507468685,1.64042,0.223694,1.5109416494,0.5940124862,18,5,7.455,722.3507468685,1.64042,0.223694,1.67000005344,0.0,0.223694,-3.35541,38.8,2.7,-2.1,0,0,1024,1024,1684,1024,0,0,100,0,0,0,0,66,3.728,3.726,0,0,0,0,4.27,73.94,722.3507468685,1.64042,11,AutoTakeoff,,0.5
465800,2026-01-13 17:40:54,723.0069148685,2.296588,0.223694,1.47999020484,0.66970802668,18,5,7.455,723.0069148685,2.296588,0.223694,1.67000005344,0.0,0.223694,-3.802798,38.7,3.0,-2.3,0,0,1024,1024,1684,1024,0,0,100,0,0,0,0,66,3.728,3.726,0,0,0,0,4.27,73.94,723.0069148685,2.296588,11,AutoTakeoff,,0.7
465900,2026-01-13 17:40:54,723.6630828685,2.624672,0.223694,1.47080385284,0.81291341184,18,5,7.455,723.6630828685,2.952756,0.223694,1.67000005344,0.0,0.223694,-4.026492,38.3,3.8,-2.8,0,0,1024,1024,1684,1024,0,0,100,0,0,0,0,66,3.728,3.726,0,0,0,0,4.27,73.94,723.6630828685,2.952756,11,AutoTakeoff,,0.9
466000,2026-01-13 17:40:55,724.3192508685,3.28084,0.223694,1.45224086012,0.89129924112,17,5,7.455,724.3192508685,3.608924,0.223694,1.67000005344,0.0,0.223694,-4.250186,38.5,3.7,-1.7,0,0,1024,1024,1684,1024,0,0,100,0,0,0,0,66,3.728,3.726,0,0,0,0,4.27,73.94,724.3192508685,3.608924,6,P-GPS,,1.1
466100,2026-01-13 17:40:55,724.9754188685,3.937008,0.223694,1.42687996692,0.94821853428,17,5,7.455,724.9754188685,4.265092,0.223694,1.67000005344,0.0,0.223694,-4.47388,38.7,3.4,-1.6,0,0,1024,1024,1684,1024,0,0,100,0,0,0,0,66,3.728,3.726,0,0,0,0,4.27,73.94,724.9754188685,4.265092,6,P-GPS,,1.3
466200,2026-01-13 17:40:55,725.6315868685,4.593176,0.223694,1.38886487384,1.00196525516,18,5,7.455,725.6315868685,4.92126,0.223694,1.67000005344,0.0,0.223694,-4.697574,38.7,3.5,-2.6,0,0,1024,1024,1684,1024,0,0,100,0,0,0,0,66,3.728,3.726,0,0,0,0,4.27,73.94,725.6315868685,4.92126,6,P-GPS,,1.5
466300,2026-01-13 17:40:55,726.2877548685,5.249344,0.223694,1.33376972772,1.08633861744,18,5,7.455,726.2877548685,5.577428,0.223694,1.67000005344,0.0,0.223694,-4.697574,38.6,4.1,-2.6,0,0,1024,1024,1684,1024,0,0,100,0,0,0,0,66,3.728,3.726,0,0,0,0,4.27,73.94,726.2877548685,5.577428,6,P-GPS,,1.7
466400,2026-01-13 17:40:55,727.2720068685,5.905512,0.223694,1.297982325,1.14665029916,19,5,7.372,727.2720068685,6.56168,0.223694,1.67000005344,0.0,0.223694,-4.697574,38.6,3.8,-2.2,0,0,1024,1024,1684,1024,0,0,100,0,0,0,0,66,3.684,3.688,0,0,0,0,7.176,73.94,727.2720068685,6.56168,6,P-GPS,,2.0
466500,2026-01-13 17:40:55,727.9281748685,6.56168,0.223694,1.2708005656,1.19648297792,19,5,7.372,727.9281748685,7.217848,0.223694,1.67000005344,0.0,0.223694,-4.697574,38.7,4.1,-1.4,0,0,1024,1024,1684,1024,0,0,100,0,0,0,0,66,3.684,3.688,0,0,0,0,7.176,73.94,727.9281748685,7.217848,6,P-GPS,,2.2
466600,2026-01-13 17:40:55,728.5843428685,7.217848,0.223694,1.2501804862,1.24478678524,18,5,7.372,728.5843428685,7.874016,0.223694,1.67000005344,0.0,0.223694,-4.921268,38.5,4.3,-2.4,0,0,1024,1024,1684,1024,0,0,100,0,0,0,0,66,3.684,3.688,0,0,0,0,7.176,73.94,728.5843428685,7.874016,6,P-GPS,,2.4
466700,2026-01-13 17:40:55,729.5685948685,8.2021,0.223694,1.27904859736,1.3641076552,18,5,7.372,729.5685948685,8.858268,0.223694,1.67000005344,0.0,0.223694,-4.697574,38.3,5.9,-4.6,0,0,1024,1024,1684,1024,0,0,100,0,0,0,0,66,3.684,3.688,0,0,0,0,7.176,73.94,729.5685948685,8.858268,6,P-GPS,,2.7
466800,2026-01-13 17:40:55,730.2247628685,8.530184,0.3131716,1.28787077612,1.47332025712,18,5,7.372,730.2247628685,9.514436,0.3131716,1.67000005344,0.223694,0.223694,-4.47388,38.1,7.0,-4.5,0,0,1024,1024,1684,1024,0,0,100,0,0,0,0,66,3.684,3.688,0,0,0,0,7.176,73.94,730.2247628685,9.514436,6,P-GPS,,2.9
466900,2026-01-13 17:40:55,730.8809308685,9.186352,0.223694,1.27276250792,1.53760503608,18,5,7.372,730.8809308685,10.170604,0.3131716,1.67000005344,0.223694,0.0,-4.250186,38.1,8.1,-3.5,0,0,1024,1024,1684,1024,0,0,100,0,0,0,0,66,3.684,3.688,0,0,0,0,7.176,73.94,730.8809308685,10.170604,6,P-GPS,,3.1
467000,2026-01-13 17:40:55,731.5370988685,9.84252,0.0,1.2401247116,1.57516737324,18,5,7.372,731.5370988685,10.826772,0.3131716,1.67000005344,0.0,0.0,-4.250186,38.5,7.9,-2.1,0,0,1024,1024,1684,1024,0,0,100,0,0,0,0,66,3.684,3.688,0,0,0,0,7.176,73.94,731.5370988685,10.826772,6,P-GPS,,3.3
467100,2026-01-13 17:40:56,732.1932668685,10.170604,0.0,1.16287077212,1.66574480396,18,5,7.372,732.1932668685,11.48294,0.3131716,1.67000005344,0.0,0.0,-4.026492,38.3,7.7,-1.6,0,0,1024,1024,1684,1024,0,0,100,0,0,0,0,66,3.684,3.688,0,0,0,0,7.176,73.94,732.1932668685,11.48294,6,P-GPS,,3.5
467200,2026-01-13 17:40:56,733.1775188685,10.826772,0.0,1.17661421088,1.7257546484,18,5,7.372,733.1775188685,12.467192,0.3131716,1.67000005344,0.0,0.0,-4.026492,38.5,6.0,-1.8,0,0,1024,1024,1684,1024,0,0,100,0,0,0,0,66,3.684,3.688,0,0,0,0,7.176,73.94,733.1775188685,12.467192,6,P-GPS,,3.8
467300,2026-01-13 17:40:56,733.8336868685,11.154856,0.0,1.20149938228,1.78235570008,18,5,7.372,733.8336868685,13.12336,0.3131716,1.67000005344,0.0,0.0,-4.026492,38.4,6.2,-2.9,0,0,1024,1024,1684,1024,0,0,100,0,0,0,0,66,3.684,3.688,0,0,0,0,7.176,73.94,733.8336868685,13.12336,6,P-GPS,,4.0
467400,2026-01-13 17:40:56,734.4898548685,11.811024,0.223694,1.2303478084,1.83014113468,18,5,7.372,734.4898548685,13.779528,0.3131716,1.67000005344,-0.223694,0.0,-4.026492,38.5,6.2,-3.5,0,0,1024,1024,1684,1024,0,0,100,0,0,0,0,66,3.684,3.688,0,0,0,0,7.176,73.94,734.4898548685,13.779528,6,P-GPS,,4.2
467500,2026-01-13 17:40:56,735.1460228685,12.467192,0.223694,1.28283140588,1.88487210756,18,5,7.377,735.1460228685,14.435696,0.3131716,1.67000005344,-0.223694,0.0,-4.026492,38.6,4.1,-4.4,0,0,1024,1024,1684,1024,0,0,100,0,0,0,0,66,3.69,3.687,0,0,0,0,6.175,73.94,735.1460228685,14.435696,6,P-GPS,,4.4
467600,2026-01-13 17:40:56,735.8021908685,13.12336,0.4921268,1.40454728904,2.01170938196,18,5,7.377,735.8021908685,15.091864,0.4921268,1.67000005344,-0.447388,0.223694,-4.026492,39.2,3.0,-5.9,0,0,1024,1024,1684,1024,0,0,100,0,0,0,0,66,3.69,3.687,0,0,0,0,6.175,73.94,735.8021908685,15.091864,6,P-GPS,,4.6
467700,2026-01-13 17:40:56,736.7864428685,13.779528,0.223694,1.46700464012,2.07615164124,18,5,7.377,736.7864428685,16.076116,0.4921268,1.67000005344,-0.223694,0.0,-4.026492,39.3,4.0,-6.7,0,0,1024,1024,1684,1024,0,0,100,0,0,0,0,66,3.69,3.687,0,0,0,0,6.175,73.94,736.7864428685,16.076116,6,P-GPS,,4.9
467800,2026-01-13 17:40:56,737.4426108685,14.435696,0.223694,1.52192262088,2.13664705,18,5,7.377,737.4426108685,16.732284,0.4921268,1.67000005344,-0.223694,0.0,-4.250186,39.6,3.1,-6.2,0,0,1024,1024,1684,1024,0,0,100,0,0,0,0,66,3.69,3.687,0,0,0,0,6.175,73.94,737.4426108685,16.732284,6,P-GPS,,5.1
467900,2026-01-13 17:40:56,738.0987788685,15.419948,0.0,1.56536094248,2.18303156592,18,5,7.377,738.0987788685,17.388452,0.4921268,1.67000005344,0.0,0.0,-4.250186,39.3,3.9,-6.4,0,0,1024,1024,1684,1024,0,0,100,0,0,0,0,66,3.69,3.687,0,0,0,0,6.175,73.94,738.0987788685,17.388452,6,P-GPS,,5.3
468000,2026-01-13 17:40:57,738.7549468685,16.076116,0.0,1.66511488268,2.28735571624,18,5,7.377,738.7549468685,18.04462,0.4921268,1.67000005344,0.0,0.0,-4.250186,39.0,4.4,-6.2,0,0,1024,1024,1684,1024,0,0,100,0,0,0,0,66,3.69,3.687,0,0,0,0,6.175,73.94,738.7549468685,18.04462,6,P-GPS,,5.5
468100,2026-01-13 17:40:57,739.7391988685,16.732284,0.0,1.66967853112,2.29405519152,18,5,7.377,739.7391988685,19.028872,0.4921268,1.67000005344,0.0,0.0,-4.250186,39.0,3.8,-5.4,0,0,1024,1024,1684,1024,0,0,100,0,0,0,0,66,3.69,3.687,0,0,0,0,6.175,73.94,739.7391988685,19.028872,6,P-GPS,,5.8
468200,2026-01-13 17:40:57,740.3953668685,17.388452,0.0,1.6479823362,2.31808734452,18,5,7.377,740.3953668685,19.68504,0.4921268,1.67000005344,0.0,0.0,-4.47388,39.3,3.7,-4.2,0,0,1024,1024,1684,1024,0,0,100,0,0,0,0,66,3.69,3.687,0,0,0,0,6.175,73.94,740.3953668685,19.68504,6,P-GPS,,6.0
468300,2026-01-13 17:40:57,741.0515348685,18.04462,0.223694,1.59949808268,2.36693905212,18,5,7.377,741.0515348685,20.341208,0.4921268,1.67000005344,0.0,-0.223694,-4.250186,39.4,4.0,-4.6,0,0,1024,1024,1684,1024,0,0,100,0,0,0,0,66,3.69,3.687,0,0,0,0,6.175,73.94,741.0515348685,20.341208,6,P-GPS,,6.2
468400,2026-01-13 17:40:57,741.7077028685,18.700788,0.223694,1.43839243448,2.52826779744,17,5,7.377,741.7077028685,20.997376,0.4921268,1.67000005344,0.0,-0.223694,-4.026492,39.7,4.9,-3.9,0,0,1024,1024,1684,1024,0,0,100,0,0,0,0,66,3.69,3.687,0,0,0,0,6.175,73.94,741.7077028685,20.997376,6,P-GPS,,6.4
468500,2026-01-13 17:40:57,742.3638708685,19.356956,0.223694,1.369012511,2.6098754116,17,5,7.377,742.3638708685,21.653544,0.4921268,1.67000005344,0.223694,-0.223694,-4.026492,39.9,5.2,-2.1,0,0,1024,1024,1684,1024,0,0,100,0,0,0,0,66,3.69,3.687,0,0,0,0,6.175,73.94,742.3638708685,21.653544,6,P-GPS,,6.6
468600,2026-01-13 17:40:57,743.3481228685,20.013124,0.3131716,1.3030184144,2.70000992892,18,5,7.352,743.3481228685,22.637796,0.4921268,1.67000005344,0.223694,-0.223694,-4.250186,39.8,5.4,-0.9,0,0,1024,1024,1684,1024,0,0,100,0,0,0,0,66,3.677,3.674,0,0,0,0,7.45,73.94,743.3481228685,22.637796,6,P-GPS,,6.9
468700,2026-01-13 17:40:57,744.0042908685,20.341208,0.3131716,1.25629269112,2.76833014108,18,5,7.352,744.0042908685,23.293964,0.4921268,1.67000005344,0.223694,-0.223694,-4.250186,39.7,5.2,-1.1,0,0,1024,1024,1684,1024,0,0,100,0,0,0,0,66,3.677,3.674,0,0,0,0,7.45,73.94,744.0042908685,23.293964,6,P-GPS,,7.1
468800,2026-01-13 17:40:57,744.6604588685,20.997376,0.3131716,1.2428314046,2.84272646892,18,5,7.352,744.6604588685,23.950132,0.4921268,1.67000005344,0.223694,-0.223694,-4.250186,39.5,4.9,-1.1,0,0,1024,1024,1684,1024,0,0,100,0,0,0,0,66,3.677,3.674,0,0,0,0,7.45,73.94,744.6604588685,23.950132,6,P-GPS,,7.3
468900,2026-01-13 17:40:57,745.3166268685,21.981628,0.3131716,1.18094491968,2.91490494892,18,5,7.352,745.3166268685,24.6063,0.4921268,1.67000005344,0.223694,-0.223694,-4.250186,39.4,4.5,-1.0,0,0,1024,1024,1684,1024,0,0,100,0,0,0,0,66,3.677,3.674,0,0,0,0,7.45,73.94,745.3166268685,24.6063,6,P-GPS,,7.5
469000,2026-01-13 17:40:58,745.9727948685,22.637796,0.3131716,1.08003940464,3.02292332508,18,5,7.352,745.9727948685,25.262468,0.4921268,1.67000005344,0.223694,-0.223694,-4.250186,39.3,5.1,-1.0,0,0,1024,1024,1684,1024,0,0,100,0,0,0,0,66,3.677,3.674,0,0,0,0,7.45,73.94,745.9727948685,25.262468,6,P-GPS,,7.7
469100,2026-01-13 17:40:58,746.6289628685,23.293964,0.3131716,0.98818572716,3.123605743,18,5,7.352,746.6289628685,25.918636,0.4921268,1.67000005344,0.223694,-0.223694,-4.250186,39.3,5.4,-0.2,0,0,1024,1024,1684,1024,0,0,100,0,0,0,0,66,3.677,3.674,0,0,0,0,7.45,73.94,746.6289628685,25.918636,6,P-GPS,,7.9
469200,2026-01-13 17:40:58,747.2851308685,24.278216,0.3131716,0.9051673518,3.21906506364,18,5,7.352,747.2851308685,26.574804,0.4921268,1.67000005344,0.223694,-0.223694,-4.250186,39.4,4.6,0.3,0,0,1024,1024,1684,1024,0,0,100,0,0,0,0,66,3.677,3.674,0,0,0,0,7.45,73.94,747.2851308685,26.574804,6,P-GPS,,8.1
469300,2026-01-13 17:40:58,747.9412988685,24.934384,0.223694,0.72966865852,3.40141087,18,5,7.352,747.9412988685,27.230972,0.4921268,1.67000005344,0.223694,0.0,-4.47388,39.3,4.9,-0.2,0,0,1024,1024,1684,1024,0,0,100,0,0,0,0,66,3.677,3.674,0,0,0,0,7.45,73.94,747.9412988685,27.230972,6,P-GPS,SD card speed low. Normal use may be affected. Replace SD card (Code: 10028). Gimbal stuck. Make sure gimbal cover is removed and manually check whether gimbal can rotate freely (Code: 40002),8.3
469400,2026-01-13 17:40:58,748.5974668685,25.918636,0.223694,0.69904529796,3.4476379056,18,5,7.352,748.5974668685,27.88714,0.4921268,1.67000005344,0.223694,0.0,-4.47388,39.2,5.9,-0.3,0,0,1024,1024,1684,1024,0,0,100,0,0,0,0,66,3.677,3.674,0,0,0,0,7.45,73.94,748.5974668685,27.88714,6,P-GPS,,8.5
469500,2026-01-13 17:40:58,749.2536348685,26.574804,0.223694,0.68003283016,3.4907809516,18,5,7.352,749.2536348685,28.543308,0.4921268,1.67000005344,0.223694,0.0,-4.47388,39.2,6.6,-0.1,0,0,1024,1024,1684,1024,0,0,100,0,0,0,0,66,3.677,3.674,0,0,0,0,7.45,73.94,749.2536348685,28.543308,6,P-GPS,,8.7
469600,2026-01-13 17:40:58,749.9098028685,27.559056,0.0,0.672490179,3.533956806,18,5,7.352,749.9098028685,29.199476,0.4921268,1.67000005344,0.0,0.0,-4.47388,39.0,6.7,-0.5,0,0,1024,1024,1684,1024,0,0,100,0,0,0,0,66,3.674,3.675,0,0,0,0,7.45,73.94,749.9098028685,29.199476,6,P-GPS,,8.9
469700,2026-01-13 17:40:58,750.2378868685,28.215224,0.0,0.79682089164,3.6658137656,18,5,7.352,750.2378868685,29.52756,0.4921268,1.67000005344,0.0,0.0,-4.47388,38.7,6.5,-0.9,0,0,1024,1024,1684,1024,0,0,100,0,0,0,0,66,3.674,3.675,0,0,0,0,7.45,73.94,750.2378868685,29.52756,6,P-GPS,,9.0
469800,2026-01-13 17:40:58,750.8940548685,28.871392,0.0,0.80675527516,3.6830053672,18,5,7.352,750.8940548685,30.183728,0.4921268,1.67000005344,0.0,0.0,-4.47388,38.9,6.3,-0.7,0,0,1024,1024,1684,1024,0,0,100,0,0,0,0,66,3.674,3.675,0,0,0,0,7.45,73.94,750.8940548685,30.183728,6,P-GPS,,9.2
469900,2026-01-13 17:40:58,751.5502228685,29.199476,0.0,0.79608270264,3.7003938192,18,5,7.352,751.5502228685,30.839896,0.4921268,1.67000005344,0.0,0.0,-4.47388,39.1,7.5,-0.1,0,0,1024,1024,1684,1024,0,0,100,0,0,0,0,66,3.674,3.675,0,0,0,0,7.45,73.94,751.5502228685,30.839896,6,P-GPS,,9.4
470000,2026-01-13 17:40:59,752.2063908685,32.480316,0.0,0.76326117928,3.7356956576,18,5,7.352,752.2063908685,31.496064,0.4921268,1.67000005344,0.0,0.0,-4.47388,39.0,7.4,-0.3,0,0,1024,1024,1684,1024,0,0,100,0,0,0,0,66,3.674,3.675,0,0,0,0,7.45,73.94,752.2063908685,31.496064,6,P-GPS,,9.6
470100,2026-01-13 17:40:59,752.8625588685,33.136484,0.0,0.73654201832,3.7787730868,18,5,7.352,752.8625588685,32.152232,0.4921268,1.67000005344,0.0,0.0,-4.47388,38.9,7.1,-0.5,0,0,1024,1024,1684,1024,0,0,100,0,0,0,0,66,3.674,3.675,0,0,0,0,7.45,73.94,752.8625588685,32.152232,6,P-GPS,,9.8
470200,2026-01-13 17:40:59,753.5187268685,33.792652,0.0,0.70947508832,3.8060040588,18,5,7.352,753.5187268685,32.8084,0.4921268,1.67000005344,0.0,0.0,-4.47388,38.8,8.1,-1.4,0,0,1024,1024,1127,1024,0,0,16,0,0,0,0,65,3.674,3.675,0,0,0,0,7.45,73.94,753.5187268685,32.8084,6,P-GPS,,10.0
470300,2026-01-13 17:40:59,754.1748948685,34.44882,0.0,0.68772311912,3.829068364,18,5,7.352,754.1748948685,33.464568,0.4921268,1.67000005344,0.0,0.0,-4.47388,38.7,8.2,-0.8,0,0,1024,1024,1024,1024,0,0,0,0,0,0,0,65,3.674,3.675,0,0,0,0,7.45,73.94,754.1748948685,33.464568,6,P-GPS,,10.2
470400,2026-01-13 17:40:59,754.8310628685,35.104988,0.0,0.67535763316,3.8496392308,18,5,7.352,754.8310628685,34.120736,0.4921268,1.67000005344,0.0,0.0,-4.47388,38.9,7.6,-1.5,0,0,1024,1024,1024,1024,0,0,0,0,0,0,0,65,3.674,3.675,0,0,0,0,7.45,73.94,754.8310628685,34.120736,6,P-GPS,,10.4
470500,2026-01-13 17:40:59,755.4872308685,35.761156,0.223694,0.6814796806,3.9473098376,18,5,7.352,755.4872308685,34.776904,0.4921268,1.67000005344,0.0,0.223694,-4.47388,38.7,7.7,-3.1,0,0,1024,1024,1024,1024,0,0,0,0,0,0,0,65,3.674,3.675,0,0,0,0,7.45,73.94,755.4872308685,34.776904,6,P-GPS,,10.6
470600,2026-01-13 17:40:59,756.1433988685,36.417324,0.223694,0.65638781628,3.9997048524,18,5,7.352,756.1433988685,35.433072,0.4921268,1.67000005344,0.0,0.223694,-3.802798,38.5,9.5,-3.5,0,0,1024,1024,1024,1024,0,0,0,0,0,0,0,65,3.674,3.675,0,0,0,0,7.45,73.94,756.1433988685,35.433072,6,P-GPS,,10.8
470700,2026-01-13 17:40:59,756.4714828685,36.745408,0.223694,0.62275592544,4.0588255892,18,5,7.352,756.4714828685,35.761156,0.4921268,1.67000005344,0.0,0.223694,-3.131716,38.5,10.4,-3.8,0,0,1024,1024,1024,1024,0,0,0,0,0,0,0,65,3.674,3.675,0,0,0,0,7.45,73.94,756.4714828685,35.761156,6,P-GPS,,10.9
470800,2026-01-13 17:40:59,756.7995668685,37.401576,0.223694,0.58423886384,4.1248688984,18,5,7.476,756.7995668685,36.08924,0.4921268,1.67000005344,0.0,0.223694,-2.460634,38.5,11.0,-4.5,0,0,1024,1024,1024,1024,0,0,0,0,0,0,0,65,3.739,3.737,0,0,0,0,5.327,74.12,756.7995668685,36.08924,6,P-GPS,,11.0
470900,2026-01-13 17:40:59,756.7995668685,37.72966,0.223694,0.55875657956,4.1895014464,18,5,7.476,756.7995668685,36.08924,0.4921268,1.67000005344,0.0,0.223694,-1.789552,38.4,11.2,-3.6,0,0,1024,1024,1024,1024,0,0,0,0,0,0,0,65,3.739,3.737,0,0,0,0,5.327,74.12,756.7995668685,36.08924,6,P-GPS,,11.0
471000,2026-01-13 17:41:00,757.1276508685,37.72966,0.0,0.57856301064,4.3140421328,18,5,7.476,757.1276508685,36.417324,0.4921268,1.67000005344,0.0,0.0,-0.894776,38.3,10.3,-3.7,0,0,1024,1024,1024,1024,0,0,0,0,0,0,0,65,3.739,3.737,0,0,0,0,5.327,74.12,757.1276508685,36.417324,6,P-GPS,,11.1
471100,2026-01-13 17:41:00,756.7995668685,37.72966,0.0,0.5811679976,4.3590224492,18,5,7.476,757.1276508685,36.417324,0.4921268,1.67000005344,0.0,0.0,-0.447388,38.4,9.7,-4.2,0,0,1024,1024,1024,1024,0,0,0,0,0,0,0,65,3.739,3.737,0,0,0,0,5.327,74.12,756.7995668685,36.08924,6,P-GPS,,11.0
471200,2026-01-13 17:41:00,756.7995668685,37.72966,0.0,0.5781988374,4.390748172,18,5,7.476,757.1276508685,36.417324,0.4921268,1.67000005344,0.0,0.0,0.0,38.4,10.2,-4.2,0,0,1024,1024,1024,1024,0,0,0,0,0,0,0,65,3.739,3.737,0,0,0,0,5.327,74.12,756.7995668685,36.08924,6,P-GPS,,11.0
471300,2026-01-13 17:41:00,756.7995668685,37.72966,0.0,0.55556760308,4.4201773068,18,5,7.476,757.1276508685,36.417324,0.4921268,1.67000005344,0.0,0.0,0.0,38.5,9.3,-3.0,0,0,1024,1024,1024,1024,0,0,0,0,0,0,0,65,3.739,3.737,0,0,0,0,5.327,74.12,756.7995668685,36.08924,6,P-GPS,,11.0
471400,2026-01-13 17:41:00,756.4714828685,37.72966,0.0,0.4691929284,4.506889908,18,5,7.476,757.1276508685,36.417324,0.4921268,1.67000005344,0.0,0.0,0.0,38.6,8.5,-2.8,0,0,1024,1024,1024,1024,0,0,0,0,0,0,0,65,3.739,3.737,0,0,0,0,5.327,74.12,756.4714828685,35.761156,6,P-GPS,,10.9
471500,2026-01-13 17:41:00,756.4714828685,37.72966,0.223694,0.4790190442,4.537237678,18,5,7.476,757.1276508685,36.417324,0.4921268,1.67000005344,-0.223694,0.0,0.0,38.4,9.2,-4.0,0,0,1024,1024,1024,1024,0,0,0,0,0,0,0,65,3.739,3.737,0,0,0,0,5.327,74.12,756.4714828685,35.761156,6,P-GPS,,10.9
471600,2026-01-13 17:41:00,756.4714828685,37.72966,0.223694,0.5377460802,4.6216536912,18,5,7.476,757.1276508685,36.417324,0.4921268,1.67000005344,-0.223694,0.0,0.0,38.2,8.4,-4.7,0,0,1024,1024,1024,1024,0,0,0,0,0,0,0,65,3.739,3.737,0,0,0,0,5.327,74.12,756.4714828685,35.761156,6,P-GPS,,10.9
471700,2026-01-13 17:41:00,756.4714828685,37.72966,0.223694,0.60469490124,4.714403038,18,5,7.476,757.1276508685,36.417324,0.4921268,1.67000005344,-0.223694,0.0,0.0,38.1,7.3,-4.9,0,0,1024,1024,1024,1024,0,0,0,0,0,0,0,65,3.739,3.737,0,0,0,0,5.327,74.12,756.4714828685,35.761156,6,P-GPS,,10.9
471800,2026-01-13 17:41:00,756.7995668685,37.72966,0.447388,0.83717850448,4.9933400548,18,5,7.476,757.1276508685,36.417324,0.4921268,1.67000005344,-0.447388,0.0,0.0,38.1,6.7,-5.5,0,0,1024,1024,1024,1024,0,0,0,0,0,0,0,65,3.739,3.737,0,0,0,0,5.327,74.12,756.7995668685,36.08924,6,P-GPS,,11.0
471900,2026-01-13 17:41:00,756.7995668685,37.72966,0.4921268,0.92459320544,5.1015093496,18,5,7.449,757.1276508685,36.417324,0.4921268,1.67000005344,-0.447388,-0.223694,0.0,38.2,5.5,-5.6,0,0,1024,1024,1024,1024,0,0,0,0,0,0,0,65,3.723,3.722,0,0,0,0,4.055,74.12,756.7995668685,36.08924,6,P-GPS,,11.0
472000,2026-01-13 17:41:01,756.7995668685,37.72966,0.3131716,1.01476053116,5.2142062036,18,5,7.449,757.1276508685,36.417324,0.4921268,1.67000005344,-0.223694,-0.223694,0.0,38.2,5.2,-5.2,0,0,1024,1024,1024,1024,0,0,0,0,0,0,0,65,3.723,3.722,0,0,0,0,4.055,74.12,756.7995668685,36.08924,6,P-GPS,,11.0
472100,2026-01-13 17:41:01,756.7995668685,37.72966,0.3131716,1.07400593988,5.3052495136,18,5,7.449,757.1276508685,36.417324,0.4921268,1.67000005344,-0.223694,-0.223694,0.0,38.3,5.0,-5.0,0,0,1024,1024,1024,1024,0,0,0,0,0,0,0,65,3.723,3.722,0,0,0,0,4.055,74.12,756.7995668685,36.08924,6,P-GPS,,11.0
472200,2026-01-13 17:41:01,756.7995668685,37.72966,0.3131716,1.12947182092,5.4423886256,18,5,7.449,757.1276508685,36.417324,0.4921268,1.67000005344,-0.223694,-0.223694,0.0,38.1,5.4,-4.4,0,0,1024,1024,1024,1024,0,0,0,0,0,0,0,65,3.723,3.722,0,0,0,0,4.055,74.12,756.7995668685,36.08924,6,P-GPS,,11.0
472300,2026-01-13 17:41:01,756.7995668685,37.72966,0.3131716,1.17269032624,5.5316930904,18,5,7.449,757.1276508685,36.417324,0.4921268,1.67000005344,-0.223694,-0.223694,0.0,38.0,5.1,-4.4,0,0,1024,1024,1024,1024,0,0,0,0,0,0,0,65,3.723,3.722,0,0,0,0,4.055,74.12,756.7995668685,36.08924,6,P-GPS,,11.0
472400,2026-01-13 17:41:01,756.7995668685,37.72966,0.3131716,1.22186355616,5.6202101536,18,5,7.449,757.1276508685,36.417324,0.4921268,1.67000005344,0.0,-0.223694,0.0,38.3,4.3,-4.0,0,0,1024,1024,1024,1024,0,0,0,0,0,0,0,65,3.723,3.722,0,0,0,0,4.055,74.12,756.7995668685,36.08924,6,P-GPS,,11.0
472500,2026-01-13 17:41:01,756.7995668685,37.72966,0.223694,1.25980647076,5.6946524132,18,5,7.449,757.1276508685,36.417324,0.4921268,1.67000005344,0.0,-0.223694,0.0,38.4,3.9,-3.8,0,0,1024,1024,1024,1024,0,0,0,0,0,0,0,65,3.723,3.722,0,0,0,0,4.055,74.12,756.7995668685,36.08924,6,P-GPS,,11.0
472600,2026-01-13 17:41:01,756.7995668685,37.72966,0.223694,1.28227694392,5.7567587144,18,5,7.449,757.1276508685,36.417324,0.4921268,1.67000005344,0.0,-0.223694,0.0,38.4,3.1,-3.3,0,0,1024,1024,1024,1024,0,0,0,0,0,0,0,65,3.723,3.722,0,0,0,0,4.055,74.12,756.7995668685,36.08924,6,P-GPS,,11.0
472700,2026-01-13 17:41:01,757.1276508685,37.72966,0.223694,1.27387143184,5.8173230208,18,5,7.449,757.1276508685,36.417324,0.4921268,1.67000005344,0.0,-0.223694,0.0,38.3,3.2,-2.9,0,0,1024,1024,1024,1024,0,0,0,0,0,0,0,65,3.723,3.722,0,0,0,0,4.055,74.12,757.1276508685,36.417324,6,P-GPS,,11.1
472800,2026-01-13 17:41:01,757.1276508685,37.72966,0.223694,1.27431434524,5.8591865392,18,5,7.449,757.1276508685,36.417324,0.4921268,1.67000005344,0.0,-0.223694,0.0,38.2,3.3,-3.1,0,0,1024,1024,1024,1024,0,0,0,0,0,0,0,65,3.723,3.722,0,0,0,0,4.055,74.12,757.1276508685,36.417324,6,P-GPS,,11.1
472900,2026-01-13 17:41:01,757.1276508685,37.72966,0.0,1.27406172056,5.8949148868,18,5,7.449,757.1276508685,36.417324,0.4921268,1.67000005344,0.0,0.0,0.0,38.0,5.0,-2.6,0,0,1024,1024,1024,1024,0,0,0,0,0,0,0,65,3.723,3.722,0,0,0,0,4.055,74.12,757.1276508685,36.417324,6,P-GPS,,11.1
473000,2026-01-13 17:41:02,757.1276508685,37.72966,0.0,1.27997379424,5.9267718432,18,5,7.441,757.1276508685,36.417324,0.4921268,1.67000005344,0.0,0.0,0.0,38.0,4.5,-3.1,0,0,1024,1024,1024,1024,0,0,0,0,0,0,0,65,3.719,3.722,0,0,0,0,4.695,74.12,757.1276508685,36.417324,6,P-GPS,,11.1
473100,2026-01-13 17:41:02,757.1276508685,37.72966,0.0,1.23940948848,5.967355834,18,5,7.441,757.1276508685,36.417324,0.4921268,1.67000005344,0.0,0.0,0.0,38.0,4.6,-2.8,0,0,1024,1024,1024,1024,0,0,0,0,0,0,0,65,3.719,3.722,0,0,0,0,4.695,74.12,757.1276508685,36.417324,6,P-GPS,,11.1
473200,2026-01-13 17:41:02,757.1276508685,37.72966,0.0,1.22834977684,6.0002626592,18,5,7.441,757.1276508685,36.417324,0.4921268,1.67000005344,0.0,0.0,0.0,38.1,4.1,-3.2,0,0,1024,1024,1024,1024,0,0,0,0,0,0,0,65,3.719,3.722,0,0,0,0,4.695,74.12,757.1276508685,36.417324,6,P-GPS,,11.1
473300,2026-01-13 17:41:02,757.1276508685,37.72966,0.0,1.21515423836,6.0222442872,18,5,7.441,757.1276508685,36.417324,0.4921268,1.67000005344,0.0,0.0,0.0,38.2,4.1,-2.8,0,0,1024,1024,1024,1024,0,0,0,0,0,0,0,65,3.719,3.722,0,0,0,0,4.695,74.12,757.1276508685,36.417324,6,P-GPS,,11.1
473400,2026-01-13 17:41:02,757.1276508685,37.72966,0.0,1.20044623264,6.0381563612,18,5,7.441,757.1276508685,36.417324,0.4921268,1.67000005344,0.0,0.0,0.0,38.1,3.0,-3.7,0,0,1024,1024,1024,1024,0,0,0,0,0,0,0,65,3.719,3.722,0,0,0,0,4.695,74.12,757.1276508685,36.417324,6,P-GPS,,11.1
473500,2026-01-13 17:41:02,757.1276508685,37.72966,0.0,1.1702264154,6.121391272,18,5,7.441,757.1276508685,36.417324,0.4921268,1.67000005344,0.0,0.0,0.0,37.8,3.4,-4.0,0,0,1024,1024,1024,1024,0,0,0,0,0,0,0,65,3.719,3.722,0,0,0,0,4.695,74.12,757.1276508685,36.417324,6,P-GPS,,11.1
473600,2026-01-13 17:41:02,757.1276508685,37.72966,0.0,1.16695541792,6.1334319548,18,5,7.441,757.1276508685,36.417324,0.4921268,1.67000005344,0.0,0.0,0.0,37.9,3.9,-3.6,0,0,1024,1024,1024,1024,0,0,0,0,0,0,0,65,3.719,3.722,0,0,0,0,4.695,74.12,757.1276508685,36.417324,6,P-GPS,,11.1
473700,2026-01-13 17:41:02,756.7995668685,37.72966,0.0,1.1594980686,6.1409778868,18,5,7.441,757.1276508685,36.417324,0.4921268,1.67000005344,0.0,0.0,0.0,38.0,4.1,-3.3,0,0,1024,1024,1024,1024,0,0,0,0,0,0,0,65,3.719,3.722,0,0,0,0,4.695,74.12,756.7995668685,36.08924,6,P-GPS,,11.0
473800,2026-01-13 17:41:02,756.7995668685,37.72966,0.0,1.14938323888,6.1546261812,18,5,7.441,757.1276508685,36.417324,0.4921268,1.67000005344,0.0,0.0,0.0,38.0,3.7,-2.9,0,0,1024,1024,1024,1024,0,0,0,0,0,0,0,65,3.719,3.722,0,0,0,0,4.695,74.12,756.7995668685,36.08924,6,P-GPS,,11.0
473900,2026-01-13 17:41:02,756.7995668685,37.72966,0.0,1.14349741192,6.1613519032,18,5,7.441,757.1276508685,36.417324,0.4921268,1.67000005344,0.0,0.0,0.0,37.9,3.5,-3.3,0,0,1024,1024,1024,1024,0,0,0,0,0,0,0,65,3.719,3.722,0,0,0,0,4.695,74.12,756.7995668685,36.08924,6,P-GPS,,11.0
474000,2026-01-13 17:41:03,756.7995668685,37.72966,0.0,1.1350230022,6.1705382552,18,5,7.441,757.1276508685,36.417324,0.4921268,1.67000005344,0.0,0.0,0.0,37.9,3.6,-2.8,0,0,1024,1024,1024,1024,0,0,0,0,0,0,0,65,3.719,3.722,0,0,0,0,4.695,74.12,756.7995668685,36.08924,6,P-GPS,,11.0
474100,2026-01-13 17:41:03,756.7995668685,37.72966,0.0,1.13182090236,6.1822180456,18,5,7.466,757.1276508685,36.417324,0.4921268,1.67000005344,0.0,0.0,0.0,37.9,4.3,-3.0,0,0,1024,1024,1024,1024,0,0,0,0,0,0,0,65,3.731,3.734,0,0,0,0,4.416,74.12,756.7995668685,36.08924,6,P-GPS,,11.0
474200,2026-01-13 17:41:03,756.7995668685,37.72966,0.0,1.132545968,6.209317784,18,5,7.466,757.1276508685,36.417324,0.4921268,1.67000005344,0.0,0.0,0.0,37.9,4.7,-2.6,0,0,1024,1024,1024,1024,0,0,0,0,0,0,0,65,3.731,3.734,0,0,0,0,4.416,74.12,756.7995668685,36.08924,6,P-GPS,,11.0
474300,2026-01-13 17:41:03,756.7995668685,37.72966,0.0,1.13962273988,6.228182614,18,5,7.466,757.1276508685,36.417324,0.4921268,1.67000005344,0.0,0.0,0.0,37.9,4.4,-3.1,0,0,1024,1024,1024,1024,0,0,0,0,0,0,0,65,3.731,3.734,0,0,0,0,4.416,74.12,756.7995668685,36.08924,6,P-GPS,,11.0
474400,2026-01-13 17:41:03,756.7995668685,37.72966,0.0,1.21078087864,6.3119096508,18,5,7.466,757.1276508685,36.417324,0.4921268,1.67000005344,0.0,0.0,0.0,37.9,4.1,-3.3,0,0,1024,1024,1024,1024,0,0,0,0,0,0,0,65,3.731,3.734,0,0,0,0,4.416,74.12,756.7995668685,36.08924,6,P-GPS,,11.0
474500,2026-01-13 17:41:03,756.7995668685,37.72966,0.0,1.22016408104,6.322670806,18,5,7.466,757.1276508685,36.417324,0.4921268,1.67000005344,0.0,0.0,0.0,38.0,4.5,-2.8,0,0,1024,1024,1024,1024,0,0,0,0,0,0,0,65,3.731,3.734,0,0,0,0,4.416,74.12,756.7995668685,36.08924,6,P-GPS,,11.0
474600,2026-01-13 17:41:03,756.7995668685,37.72966,0.0,1.22431762448,6.3301183128,18,5,7.466,757.1276508685,36.417324,0.4921268,1.67000005344,0.0,0.0,0.0,38.1,4.2,-2.0,0,0,1024,1024,1024,1024,0,0,0,0,0,0,0,65,3.731,3.734,0,0,0,0,4.416,74.12,756.7995668685,36.08924,6,P-GPS,,11.0
474700,2026-01-13 17:41:03,756.7995668685,37.72966,0.0,1.24295607652,6.350557946,18,5,7.466,757.1276508685,36.417324,0.4921268,1.67000005344,0.0,0.0,0.0,38.2,4.6,-2.3,0,0,1024,1024,1024,1024,0,0,0,0,0,0,0,65,3.731,3.734,0,0,0,0,4.416,74.12,756.7995668685,36.08924,6,P-GPS,,11.0
474800,2026-01-13 17:41:03,756.7995668685,37.72966,0.0,1.2953904614,6.4109582104,18,5,7.466,757.1276508685,36.417324,0.4921268,1.67000005344,0.0,0.0,0.0,38.3,3.2,-2.6,0,0,1024,1024,1024,1024,0,0,0,0,0,0,0,65,3.731,3.734,0,0,0,0,4.416,74.12,756.7995668685,36.08924,6,P-GPS,,11.0
474900,2026-01-13 17:41:03,756.4714828685,37.72966,0.0,1.33985568592,6.4561353772,18,5,7.466,757.1276508685,36.417324,0.4921268,1.67000005344,0.0,0.0,0.0,38.4,2.2,-2.4,0,0,1024,1024,1024,1024,0,0,0,0,0,0,0,65,3.731,3.734,0,0,0,0,4.416,74.12,756.4714828685,35.761156,6,P-GPS,,10.9
475000,2026-01-13 17:41:04,756.4714828685,37.72966,0.223694,1.38641080552,6.5032482396,18,5,7.466,757.1276508685,36.417324,0.4921268,1.67000005344,-0.223694,0.0,0.0,38.3,2.2,-3.3,0,0,1024,1024,1024,1024,0,0,0,0,0,0,0,65,3.731,3.734,0,0,0,0,4.416,74.12,756.4714828685,35.761156,6,P-GPS,,10.9
475100,2026-01-13 17:41:04,756.7995668685,37.72966,0.223694,1.4195210428,6.5404529652,18,5,7.466,757.1276508685,36.417324,0.4921268,1.67000005344,-0.223694,0.0,0.0,38.1,2.9,-3.7,0,0,1024,1024,1024,1024,0,0,0,0,0,0,0,65,3.731,3.734,0,0,0,0,4.416,74.12,756.7995668685,36.08924,6,P-GPS,,11.0
475200,2026-01-13 17:41:04,756.7995668685,37.72966,0.223694,1.48555779032,6.6108269832,18,5,7.444,757.1276508685,36.417324,0.4921268,1.67000005344,-0.223694,0.0,0.0,38.2,2.3,-4.0,0,0,1024,1024,1024,1024,0,0,0,0,0,0,0,65,3.73,3.732,0,0,0,0,4.553,74.12,756.7995668685,36.08924,6,P-GPS,,11.0
475300,2026-01-13 17:41:04,756.7995668685,37.72966,0.0,1.5105151402,6.648786302,18,5,7.444,757.1276508685,36.417324,0.4921268,1.67000005344,0.0,0.0,0.0,38.3,2.0,-4.7,0,0,1024,1024,1024,1024,0,0,0,0,0,0,0,65,3.73,3.732,0,0,0,0,4.553,74.12,756.7995668685,36.08924,6,P-GPS,,11.0
475400,2026-01-13 17:41:04,756.7995668685,37.72966,0.0,1.53179466844,6.6810697676,18,5,7.444,757.1276508685,36.417324,0.4921268,1.67000005344,0.0,0.0,0.0,38.4,1.4,-4.7,0,0,1024,1024,1024,1024,0,0,0,0,0,0,0,65,3.73,3.732,0,0,0,0,4.553,74.12,756.7995668685,36.08924,6,P-GPS,,11.0
475500,2026-01-13 17:41:04,756.7995668685,37.72966,0.0,1.54299217536,6.6982285608,18,5,7.444,757.1276508685,36.417324,0.4921268,1.67000005344,0.0,0.0,0.0,38.3,3.5,-4.1,0,0,1024,1024,1024,1024,0,0,0,0,0,0,0,65,3.73,3.732,0,0,0,0,4.553,74.12,756.7995668685,36.08924,6,P-GPS,,11.0
475600,2026-01-13 17:41:04,756.7995668685,37.72966,0.0,1.55695214956,6.712434598,18,5,7.444,757.1276508685,36.417324,0.4921268,1.67000005344,0.0,0.0,0.0,38.3,4.3,-3.9,0,0,1024,1024,1024,1024,0,0,0,0,0,0,0,65,3.73,3.732,0,0,0,0,4.553,74.12,756.7995668685,36.08924,6,P-GPS,,11.0
475700,2026-01-13 17:41:04,756.4714828685,37.72966,0.0,1.55529204452,6.7187338108,18,5,7.444,757.1276508685,36.417324,0.4921268,1.67000005344,0.0,0.0,0.0,38.4,4.7,-3.1,0,0,1024,1024,1024,1024,0,0,0,0,0,0,0,65,3.73,3.732,0,0,0,0,4.553,74.12,756.4714828685,35.761156,6,P-GPS,,10.9
475800,2026-01-13 17:41:04,756.4714828685,37.72966,0.0,1.55822183464,6.7278873544,18,5,7.444,757.1276508685,36.417324,0.4921268,1.67000005344,0.0,0.0,0.0,38.5,3.7,-2.8,0,0,1024,1024,1024,1024,0,0,0,0,0,0,0,65,3.73,3.732,0,0,0,0,4.553,74.12,756.4714828685,35.761156,6,P-GPS,,10.9
475900,2026-01-13 17:41:04,756.4714828685,37.72966,0.0,1.56080057488,6.7423230504,18,5,7.444,757.1276508685,36.417324,0.4921268,1.67000005344,0.0,0.0,0.0,38.7,2.8,-2.9,0,0,1024,1024,1024,1024,0,0,0,0,0,0,0,65,3.73,3.732,0,0,0,0,4.553,74.12,756.4714828685,35.761156,6,P-GPS,,10.9
476000,2026-01-13 17:41:04,756.4714828685,37.72966,0.0,1.55458010224,6.7662731824,18,5,7.444,757.1276508685,36.417324,0.4921268,1.67000005344,0.0,0.0,0.0,38.7,2.9,-2.2,0,0,1024,1024,1024,1024,0,0,0,0,0,0,0,65,3.73,3.732,0,0,0,0,4.553,74.12,756.4714828685,35.761156,6,P-GPS,,10.9
476100,2026-01-13 17:41:05,756.1433988685,37.72966,0.0,1.53787078412,6.8085304016,18,5,7.444,757.1276508685,36.417324,0.4921268,1.67000005344,0.0,0.0,0.0,38.5,3.3,-2.0,0,0,1024,1024,1024,1024,0,0,0,0,0,0,0,65,3.73,3.732,0,0,0,0,4.553,74.12,756.1433988685,35.433072,6,P-GPS,,10.8
476200,2026-01-13 17:41:05,756.1433988685,37.72966,0.0,1.50834322412,6.8430448384,18,5,7.444,757.1276508685,36.417324,0.4921268,1.67000005344,0.0,0.0,0.0,38.4,3.8,-1.4,0,0,1024,1024,1024,1024,0,0,0,0,0,0,0,65,3.73,3.732,0,0,0,0,4.553,74.12,756.1433988685,35.433072,6,P-GPS,,10.8
476300,2026-01-13 17:41:05,756.1433988685,37.72966,0.0,1.49426842052,6.8624674112,18,5,7.448,757.1276508685,36.417324,0.4921268,1.67000005344,0.0,0.0,0.223694,38.4,4.6,-1.7,0,0,1024,1024,1024,1024,0,0,0,0,0,0,0,65,3.722,3.727,0,0,0,0,4.612,74.12,756.1433988685,35.433072,6,P-GPS,,10.8
476400,2026-01-13 17:41:05,755.8153148685,37.72966,0.0,1.49660109776,6.8727364404,18,5,7.448,757.1276508685,36.417324,0.4921268,1.67000005344,0.0,0.0,0.223694,38.5,4.5,-1.4,0,0,1024,1024,1024,1024,0,0,0,0,0,0,0,65,3.722,3.727,0,0,0,0,4.612,74.12,755.8153148685,35.104988,6,P-GPS,,10.7
476500,2026-01-13 17:41:05,755.8153148685,37.72966,0.0,1.52389768656,6.9020343416,18,5,7.448,757.1276508685,36.417324,0.4921268,1.67000005344,0.0,0.0,0.0,38.4,4.5,-1.6,0,0,1024,1024,1024,1024,0,0,0,0,0,0,0,65,3.722,3.727,0,0,0,0,4.612,74.12,755.8153148685,35.104988,6,P-GPS,,10.7
476600,2026-01-13 17:41:05,755.8153148685,37.72966,0.0,1.52757878904,6.9123361792,18,5,7.448,757.1276508685,36.417324,0.4921268,1.67000005344,0.0,0.0,0.0,38.3,4.5,-1.7,0,0,1024,1024,1024,1024,0,0,0,0,0,0,0,65,3.722,3.727,0,0,0,0,4.612,74.12,755.8153148685,35.104988,6,P-GPS,,10.7
476700,2026-01-13 17:41:05,755.8153148685,37.72966,0.0,1.51758863124,6.9254267308,18,5,7.448,757.1276508685,36.417324,0.4921268,1.67000005344,0.0,0.0,0.0,38.3,4.3,-2.2,0,0,1024,1024,1024,1024,0,0,0,0,0,0,0,65,3.722,3.727,0,0,0,0,4.612,74.12,755.8153148685,35.104988,6,P-GPS,,10.7
476800,2026-01-13 17:41:05,755.8153148685,37.72966,0.0,1.49363849924,6.9511813248,18,5,7.448,757.1276508685,36.417324,0.4921268,1.67000005344,0.0,0.0,0.0,38.3,4.2,-2.1,0,0,1024,1024,1024,1024,0,0,0,0,0,0,0,65,3.722,3.727,0,0,0,0,4.612,74.12,755.8153148685,35.104988,6,P-GPS,,10.7
476900,2026-01-13 17:41:05,755.8153148685,37.72966,0.0,1.39126644872,7.060859806,18,5,7.448,757.1276508685,36.417324,0.4921268,1.67000005344,0.0,0.0,0.0,38.2,4.1,-2.4,0,0,1024,1024,1024,1024,0,0,0,0,0,0,0,65,3.722,3.727,0,0,0,0,4.612,74.12,755.8153148685,35.104988,6,P-GPS,,10.7
477000,2026-01-13 17:41:06,755.8153148685,37.72966,0.0,1.34645345516,7.1116800176,18,5,7.448,757.1276508685,36.417324,0.4921268,1.67000005344,0.0,0.0,0.0,38.1,4.1,-2.5,0,0,1024,1024,1024,1024,0,0,0,0,0,0,0,65,3.722,3.727,0,0,0,0,4.612,74.12,755.8153148685,35.104988,6,P-GPS,,10.7
477100,2026-01-13 17:41:06,755.8153148685,37.72966,0.0,1.30681434628,7.1576773944,18,5,7.448,757.1276508685,36.417324,0.4921268,1.67000005344,0.0,0.0,0.0,38.2,4.4,-2.7,0,0,1024,1024,1024,1024,0,0,0,0,0,0,0,65,3.722,3.727,0,0,0,0,4.612,74.12,755.8153148685,35.104988,6,P-GPS,,10.7
477200,2026-01-13 17:41:06,755.8153148685,37.72966,0.0,1.27167326904,7.2015094168,18,5,7.448,757.1276508685,36.417324,0.4921268,1.67000005344,0.0,0.0,0.0,38.0,4.6,-2.9,0,0,1024,1024,1024,1024,0,0,0,0,0,0,0,65,3.722,3.727,0,0,0,0,4.612,74.12,755.8153148685,35.104988,6,P-GPS,,10.7
477300,2026-01-13 17:41:06,755.8153148685,37.72966,0.0,1.2441929532,7.2540028568,18,5,7.448,757.1276508685,36.417324,0.4921268,1.67000005344,0.0,0.0,0.0,38.0,4.4,-2.6,0,0,1024,1024,1024,1024,0,0,0,0,0,0,0,65,3.722,3.727,0,0,0,0,4.612,74.12,755.8153148685,35.104988,6,P-GPS,,10.7
477400,2026-01-13 17:41:06,755.4872308685,37.72966,0.0,1.23826447532,7.2774608628,18,5,7.443,757.1276508685,36.417324,0.4921268,1.67000005344,0.0,0.0,0.0,38.0,3.9,-2.1,0,0,1024,1024,1024,1024,0,0,0,0,0,0,0,65,3.72,3.722,0,0,0,0,4.776,74.12,755.4872308685,34.776904,6,P-GPS,,10.6
477500,2026-01-13 17:41:06,755.4872308685,37.72966,0.0,1.23351053816,7.3074477404,18,5,7.443,757.1276508685,36.417324,0.4921268,1.67000005344,0.0,0.0,0.0,38.1,3.8,-1.4,0,0,1024,1024,1024,1024,0,0,0,0,0,0,0,65,3.72,3.722,0,0,0,0,4.776,74.12,755.4872308685,34.776904,6,P-GPS,,10.6
477600,2026-01-13 17:41:06,755.4872308685,37.72966,0.0,1.22873363512,7.3447508912,18,5,7.443,757.1276508685,36.417324,0.4921268,1.67000005344,0.0,0.0,0.0,38.3,3.2,-0.8,0,0,1024,1024,1024,1024,0,0,0,0,0,0,0,65,3.72,3.722,0,0,0,0,4.776,74.12,755.4872308685,34.776904,6,P-GPS,,10.6
477700,2026-01-13 17:41:06,755.4872308685,37.72966,0.0,1.23686683748,7.3834319948,18,5,7.443,757.1276508685,36.417324,0.4921268,1.67000005344,0.0,0.0,0.0,38.1,2.6,-1.1,0,0,1024,1024,1024,1024,0,0,0,0,0,0,0,65,3.72,3.722,0,0,0,0,4.776,74.12,755.4872308685,34.776904,6,P-GPS,,10.6
477800,2026-01-13 17:41:06,755.4872308685,37.72966,0.0,1.29685699688,7.4724739924,18,5,7.443,757.1276508685,36.417324,0.4921268,1.67000005344,0.0,0.0,0.0,38.2,3.0,-1.0,0,0,1024,1024,1024,1024,0,0,0,0,0,0,0,65,3.72,3.722,0,0,0,0,4.776,74.12,755.4872308685,34.776904,6,P-GPS,,10.6
477900,2026-01-13 17:41:06,755.4872308685,37.72966,0.0,1.30483599976,7.5003611324,18,5,7.443,757.1276508685,36.417324,0.4921268,1.67000005344,0.0,0.0,0.0,38.3,4.1,-0.9,0,0,1024,1024,1024,1024,0,0,0,0,0,0,0,65,3.72,3.722,0,0,0,0,4.776,74.12,755.4872308685,34.776904,6,P-GPS,,10.6
478000,2026-01-13 17:41:06,755.4872308685,37.72966,0.0,1.30292655088,7.5207023404,18,5,7.443,757.1276508685,36.417324,0.4921268,1.67000005344,0.0,0.0,0.0,38.1,4.2,-1.0,0,0,1024,1024,1024,1024,0,0,0,0,0,0,0,65,3.72,3.722,0,0,0,0,4.776,74.12,755.4872308685,34.776904,6,P-GPS,,10.6
478100,2026-01-13 17:41:07,755.1591468685,37.72966,0.0,1.292732981,7.5377299,18,5,7.443,757.1276508685,36.417324,0.4921268,1.67000005344,0.0,0.0,0.0,38.1,4.5,-1.2,0,0,1024,1024,1024,1024,0,0,0,0,0,0,0,65,3.72,3.722,0,0,0,0,4.776,74.12,755.1591468685,34.44882,6,P-GPS,,10.5
478200,2026-01-13 17:41:07,755.1591468685,37.72966,0.0,1.2693077834,7.5676511608,18,5,7.443,757.1276508685,36.417324,0.4921268,1.67000005344,0.0,0.0,0.0,38.1,4.5,-1.4,0,0,1024,1024,1024,1024,0,0,0,0,0,0,0,65,3.72,3.722,0,0,0,0,4.776,74.12,755.1591468685,34.44882,6,P-GPS,,10.5
478300,2026-01-13 17:41:07,755.1591468685,37.72966,0.0,1.25624675936,7.58366166,18,5,7.443,757.1276508685,36.417324,0.4921268,1.67000005344,0.0,0.0,0.0,38.2,4.7,-1.3,0,0,1024,1024,1024,1024,0,0,0,0,0,0,0,65,3.72,3.722,0,0,0,0,4.776,74.12,755.1591468685,34.44882,6,P-GPS,,10.5
478400,2026-01-13 17:41:07,755.1591468685,37.72966,0.0,1.2483104074,7.5952102168,18,5,7.443,757.1276508685,36.417324,0.4921268,1.67000005344,0.0,0.0,0.0,38.2,4.6,-1.6,0,0,1024,1024,1024,1024,0,0,0,0,0,0,0,65,3.72,3.722,0,0,0,0,4.776,74.12,755.1591468685,34.44882,6,P-GPS,,10.5
478500,2026-01-13 17:41:07,755.1591468685,37.72966,0.0,1.23965555148,7.61236901,18,5,7.443,757.1276508685,36.417324,0.4921268,1.67000005344,0.0,0.0,0.0,38.1,4.0,-1.4,0,0,1024,1024,1024,1024,0,0,0,0,0,0,0,65,3.72,3.722,0,0,0,0,4.776,74.12,755.1591468685,34.44882,6,P-GPS,,10.5
478600,2026-01-13 17:41:07,755.1591468685,37.72966,0.0,1.20430778132,7.6593834472,18,5,7.441,757.1276508685,36.417324,0.4921268,1.67000005344,0.0,0.0,0.0,38.2,4.6,-0.8,0,0,1024,1024,1024,1024,0,0,0,0,0,0,0,65,3.72,3.722,0,0,0,0,4.732,74.12,755.1591468685,34.44882,6,P-GPS,,10.5
478700,2026-01-13 17:41:07,755.1591468685,37.72966,0.0,1.19959321424,7.6764110068,18,5,7.441,757.1276508685,36.417324,0.4921268,1.67000005344,0.0,0.0,0.0,38.3,4.5,-1.0,0,0,1024,1024,1024,1024,0,0,0,0,0,0,0,65,3.72,3.722,0,0,0,0,4.732,74.12,755.1591468685,34.44882,6,P-GPS,,10.5
478800,2026-01-13 17:41:07,755.1591468685,37.72966,0.0,1.19929137696,7.6841209808,18,5,7.441,757.1276508685,36.417324,0.4921268,1.67000005344,0.0,0.0,0.0,38.3,3.7,-1.3,0,0,1024,1024,1024,1024,0,0,0,0,0,0,0,65,3.72,3.722,0,0,0,0,4.732,74.12,755.1591468685,34.44882,6,P-GPS,,10.5
478900,2026-01-13 17:41:07,755.1591468685,37.72966,0.0,1.19770016956,7.6901577264,18,5,7.441,757.1276508685,36.417324,0.4921268,1.67000005344,0.0,0.0,0.0,38.3,4.5,-1.1,0,0,1024,1024,1024,1024,0,0,0,0,0,0,0,65,3.72,3.722,0,0,0,0,4.732,74.12,755.1591468685,34.44882,6,P-GPS,,10.5
479000,2026-01-13 17:41:08,755.4872308685,37.72966,0.0,1.20975725656,7.7412404052,18,5,7.441,757.1276508685,36.417324,0.4921268,1.67000005344,0.0,0.0,0.0,38.1,3.7,-1.9,0,0,1024,1024,1024,1024,0,0,0,0,0,0,0,65,3.72,3.722,0,0,0,0,4.732,74.12,755.4872308685,34.776904,6,P-GPS,,10.6
479100,2026-01-13 17:41:08,755.4872308685,37.72966,0.0,1.19401578624,7.7644687524,18,5,7.441,757.1276508685,36.417324,0.4921268,1.67000005344,0.0,0.0,0.0,38.0,4.1,-2.7,0,0,1024,1024,1024,1024,0,0,0,0,0,0,0,65,3.72,3.722,0,0,0,0,4.732,74.12,755.4872308685,34.776904,6,P-GPS,,10.6
479200,2026-01-13 17:41:08,755.4872308685,37.72966,0.0,1.169373397,7.794127546,18,5,7.441,757.1276508685,36.417324,0.4921268,1.67000005344,0.0,0.0,0.0,38.0,5.0,-2.9,0,0,1024,1024,1024,1024,0,0,0,0,0,0,0,65,3.72,3.722,0,0,0,0,4.732,74.12,755.4872308685,34.776904,6,P-GPS,,10.6
479300,2026-01-13 17:41:08,755.8153148685,37.72966,0.0,1.15172575864,7.8211616676,18,5,7.441,757.1276508685,36.417324,0.4921268,1.67000005344,0.0,0.0,0.0,38.0,4.7,-3.2,0,0,1024,1024,1024,1024,0,0,0,0,0,0,0,65,3.72,3.722,0,0,0,0,4.732,74.12,755.8153148685,35.104988,6,P-GPS,,10.7
479400,2026-01-13 17:41:08,755.8153148685,37.72966,0.0,1.14430121772,7.8438650804,18,5,7.441,757.1276508685,36.417324,0.4921268,1.67000005344,0.0,0.0,0.0,38.1,4.4,-3.5,0,0,1024,1024,1024,1024,0,0,0,0,0,0,0,65,3.72,3.722,0,0,0,0,4.732,74.12,755.8153148685,35.104988,6,P-GPS,,10.7
479500,2026-01-13 17:41:08,755.8153148685,37.72966,0.0,1.1390912438,7.8760173124,18,5,7.441,757.1276508685,36.417324,0.4921268,1.67000005344,0.0,0.0,0.0,38.3,4.1,-3.3,0,0,1024,1024,1024,1024,0,0,0,0,0,0,0,65,3.72,3.722,0,0,0,0,4.732,74.12,755.8153148685,35.104988,6,P-GPS,,10.7
479600,2026-01-13 17:41:08,755.8153148685,37.72966,0.0,1.15413717604,7.909941198,18,5,7.441,757.1276508685,36.417324,0.4921268,1.67000005344,0.0,0.0,0.0,38.5,2.4,-2.9,0,0,1024,1024,1024,1024,0,0,0,0,0,0,0,65,3.718,3.716,0,0,0,0,4.732,74.12,755.8153148685,35.104988,6,P-GPS,,10.7
479700,2026-01-13 17:41:08,755.8153148685,37.72966,0.0,1.16736224208,7.932907078,18,5,7.441,757.1276508685,36.417324,0.4921268,1.67000005344,0.0,0.0,0.0,38.3,3.3,-3.5,0,0,1024,1024,1024,1024,0,0,0,0,0,0,0,65,3.718,3.716,0,0,0,0,4.732,74.12,755.8153148685,35.104988,6,P-GPS,,10.7
479800,2026-01-13 17:41:08,755.8153148685,37.72966,0.0,1.17644032636,7.9441603592,18,5,7.441,757.1276508685,36.417324,0.4921268,1.67000005344,0.0,0.0,0.0,38.3,4.2,-2.9,0,0,1024,1024,1024,1024,0,0,0,0,0,0,0,65,3.718,3.716,0,0,0,0,4.732,74.12,755.8153148685,35.104988,6,P-GPS,,10.7
479900,2026-01-13 17:41:08,755.8153148685,37.72966,0.0,1.2195374406,7.9979661352,18,5,7.441,757.1276508685,36.417324,0.4921268,1.67000005344,0.0,0.0,0.0,38.2,4.0,-2.6,0,0,1024,1024,1024,1024,0,0,0,0,0,0,0,65,3.718,3.716,0,0,0,0,4.732,74.12,755.8153148685,35.104988,6,P-GPS,,10.7
480000,2026-01-13 17:41:09,756.1433988685,37.72966,0.0,1.20392720388,8.0138782092,18,5,7.441,757.1276508685,36.417324,0.4921268,1.67000005344,0.0,0.0,0.0,37.8,4.5,-2.6,0,0,1024,1024,1024,1024,0,0,0,0,0,0,0,65,3.718,3.716,0,0,0,0,4.732,74.12,756.1433988685,35.433072,6,P-GPS,,10.8
480100,2026-01-13 17:41:09,756.1433988685,37.72966,0.0,1.18867129788,8.0294621992,18,5,7.441,757.1276508685,36.417324,0.4921268,1.67000005344,0.0,0.0,0.0,37.8,4.5,-2.6,0,0,1024,1024,1024,1024,0,0,0,0,0,0,0,65,3.718,3.716,0,0,0,0,4.732,74.12,756.1433988685,35.433072,6,P-GPS,,10.8
480200,2026-01-13 17:41:09,756.1433988685,37.72966,0.0,1.17589898776,8.042487134,18,5,7.441,757.1276508685,36.417324,0.4921268,1.67000005344,0.0,0.0,0.0,37.8,2.9,-2.9,0,0,1024,1024,1024,1024,0,0,0,0,0,0,0,65,3.718,3.716,0,0,0,0,4.732,74.12,756.1433988685,35.433072,6,P-GPS,,10.8
480300,2026-01-13 17:41:09,756.1433988685,37.72966,0.0,1.14683730704,8.0716538016,18,5,7.441,757.1276508685,36.417324,0.4921268,1.67000005344,0.0,0.0,0.0,37.7,3.1,-3.5,0,0,1024,1024,1024,1024,0,0,0,0,0,0,0,65,3.718,3.716,0,0,0,0,4.732,74.12,756.1433988685,35.433072,6,P-GPS,,10.8
480400,2026-01-13 17:41:09,756.1433988685,37.72966,0.0,1.1444882256,8.0743768988,19,5,7.441,757.1276508685,36.417324,0.4921268,1.67000005344,0.0,0.0,0.0,37.6,3.8,-3.8,0,0,1024,1024,1024,1024,0,0,0,0,0,0,0,65,3.718,3.716,0,0,0,0,4.732,74.12,756.1433988685,35.433072,6,P-GPS,,10.8
480500,2026-01-13 17:41:09,756.1433988685,37.72966,0.0,1.14603678208,8.0796918596,19,5,7.441,757.1276508685,36.417324,0.4921268,1.67000005344,0.0,0.0,0.0,37.6,3.4,-4.2,0,0,1024,1024,1024,1024,0,0,0,0,0,0,0,65,3.718,3.716,0,0,0,0,4.732,74.12,756.1433988685,35.433072,6,P-GPS,,10.8
480600,2026-01-13 17:41:09,756.1433988685,37.72966,0.0,1.1519521366,8.09301207,19,5,7.441,757.1276508685,36.417324,0.4921268,1.67000005344,0.0,0.0,0.0,37.8,3.2,-3.8,0,0,1024,1024,1024,1024,0,0,0,0,0,0,0,65,3.718,3.716,0,0,0,0,4.732,74.12,756.1433988685,35.433072,6,P-GPS,,10.8
480700,2026-01-13 17:41:09,756.1433988685,37.72966,0.0,1.17841867288,8.1319228324,19,5,7.435,757.1276508685,36.417324,0.4921268,1.67000005344,0.0,0.0,0.0,37.7,3.8,-3.4,0,0,1024,1024,1024,1024,0,0,0,0,0,0,0,65,3.732,3.738,0,0,0,0,4.893,74.12,756.1433988685,35.433072,6,P-GPS,,10.8
480800,2026-01-13 17:41:09,756.1433988685,37.72966,0.0,1.19500659992,8.1503611532,19,5,7.435,757.1276508685,36.417324,0.4921268,1.67000005344,0.0,0.0,0.0,37.8,4.2,-3.5,0,0,1024,1024,1024,1024,0,0,0,0,0,0,0,65,3.732,3.738,0,0,0,0,4.893,74.12,756.1433988685,35.433072,6,P-GPS,,10.8
480900,2026-01-13 17:41:09,756.1433988685,37.72966,0.0,1.22170935668,8.1785435688,19,5,7.435,757.1276508685,36.417324,0.4921268,1.67000005344,0.0,0.0,0.0,37.8,3.4,-3.2,0,0,1024,1024,1024,1024,0,0,0,0,0,0,0,65,3.732,3.738,0,0,0,0,4.893,74.12,756.1433988685,35.433072,6,P-GPS,,10.8
481000,2026-01-13 17:41:10,756.1433988685,37.72966,0.0,1.25832681192,8.2237863524,19,5,7.435,757.1276508685,36.417324,0.4921268,1.67000005344,0.0,0.0,0.0,37.9,2.9,-3.4,0,0,1024,1024,1024,1024,0,0,0,0,0,0,0,65,3.732,3.738,0,0,0,0,4.893,74.12,756.1433988685,35.433072,6,P-GPS,,10.8
481100,2026-01-13 17:41:10,755.8153148685,37.72966,0.0,1.29853678696,8.2666997396,19,5,7.435,757.1276508685,36.417324,0.4921268,1.67000005344,0.0,0.0,0.0,38.0,2.1,-3.2,0,0,1024,1024,1024,1024,0,0,0,0,0,0,0,65,3.732,3.738,0,0,0,0,4.893,74.12,755.8153148685,35.104988,6,P-GPS,,10.7
481200,2026-01-13 17:41:10,755.8153148685,37.72966,0.0,1.39326119944,8.3840881948,19,5,7.435,757.1276508685,36.417324,0.4921268,1.67000005344,0.0,0.0,0.0,38.1,2.6,-2.8,0,0,1024,1024,1024,1024,0,0,0,0,0,0,0,65,3.732,3.738,0,0,0,0,4.893,74.12,755.8153148685,35.104988,6,P-GPS,,10.7
481300,2026-01-13 17:41:10,755.8153148685,37.72966,0.0,1.42506894324,8.4164700856,19,5,7.435,757.1276508685,36.417324,0.4921268,1.67000005344,0.0,0.0,0.0,37.9,3.1,-3.3,0,0,1024,1024,1024,1024,0,0,0,0,0,0,0,65,3.732,3.738,0,0,0,0,4.893,74.12,755.8153148685,35.104988,6,P-GPS,,10.7
481400,2026-01-13 17:41:10,755.8153148685,37.72966,0.0,1.44887799912,8.4410107688,19,5,7.435,757.1276508685,36.417324,0.4921268,1.67000005344,0.0,0.0,0.0,38.0,3.4,-3.0,0,0,1024,1024,1024,1024,0,0,0,0,0,0,0,65,3.732,3.738,0,0,0,0,4.893,74.12,755.8153148685,35.104988,6,P-GPS,,10.7
481500,2026-01-13 17:41:10,755.8153148685,37.72966,0.0,1.47993443056,8.4730645756,19,5,7.435,757.1276508685,36.417324,0.4921268,1.67000005344,0.0,0.0,0.0,38.1,3.7,-2.5,0,0,1024,1024,1024,1024,0,0,0,0,0,0,0,65,3.732,3.738,0,0,0,0,4.893,74.12,755.8153148685,35.104988,6,P-GPS,,10.7
481600,2026-01-13 17:41:10,755.8153148685,37.72966,0.0,1.52203745028,8.5317588032,19,5,7.435,757.1276508685,36.417324,0.4921268,1.67000005344,0.0,0.0,0.0,38.2,3.1,-2.6,0,0,1024,1024,1024,1024,0,0,0,0,0,0,0,65,3.732,3.738,0,0,0,0,4.893,74.12,755.8153148685,35.104988,6,P-GPS,,10.7
481700,2026-01-13 17:41:10,755.8153148685,37.72966,0.0,1.56269033872,8.5743769148,19,5,7.435,757.1276508685,36.417324,0.4921268,1.67000005344,0.0,0.0,0.0,38.2,3.2,-2.6,0,0,1024,1024,1024,1024,0,0,0,0,0,0,0,65,3.732,3.738,0,0,0,0,4.893,74.12,755.8153148685,35.104988,6,P-GPS,,10.7
481800,2026-01-13 17:41:10,756.1433988685,37.72966,0.0,1.60720805668,8.6209976512,19,5,7.435,757.1276508685,36.417324,0.4921268,1.67000005344,0.0,0.0,0.0,38.3,2.8,-2.3,0,0,1024,1024,1024,1024,0,0,0,0,0,0,0,65,3.732,3.738,0,0,0,0,4.893,74.12,756.1433988685,35.433072,6,P-GPS,,10.8
481900,2026-01-13 17:41:10,756.1433988685,37.72966,0.0,1.6429954594,8.6572509332,19,5,7.454,757.1276508685,36.417324,0.4921268,1.67000005344,0.0,0.0,0.0,38.3,3.6,-2.4,0,0,1024,1024,1024,1024,0,0,0,0,0,0,0,65,3.723,3.73,0,0,0,0,4.393,74.12,756.1433988685,35.433072,6,P-GPS,,10.8
482000,2026-01-13 17:41:11,756.1433988685,37.72966,0.0,1.67694887256,8.691601328,19,5,7.454,757.1276508685,36.417324,0.4921268,1.67694887256,0.0,0.0,0.0,38.4,2.6,-1.9,0,0,1024,1024,1024,1024,0,0,0,0,0,0,0,65,3.723,3.73,0,0,0,0,4.393,74.12,756.1433988685,35.433072,6,P-GPS,,10.8
482100,2026-01-13 17:41:11,756.1433988685,37.72966,0.0,1.71531173468,8.7310042164,19,5,7.454,757.1276508685,36.417324,0.4921268,1.71531173468,0.0,0.0,0.0,38.3,2.0,-2.5,0,0,1024,1024,1024,1024,0,0,0,0,0,0,0,65,3.723,3.73,0,0,0,0,4.393,74.12,756.1433988685,35.433072,6,P-GPS,,10.8
482200,2026-01-13 17:41:11,756.1433988685,37.72966,0.0,1.76086619808,8.7788060552,19,5,7.454,757.1276508685,36.417324,0.4921268,1.76086619808,0.0,0.0,0.0,38.4,2.0,-1.7,0,0,1024,1024,1024,1024,0,0,0,0,0,0,0,65,3.723,3.73,0,0,0,0,4.393,74.12,756.1433988685,35.433072,6,P-GPS,,10.8
482300,2026-01-13 17:41:11,756.1433988685,37.72966,0.0,1.80157814164,8.8243441144,19,5,7.454,757.1276508685,36.417324,0.4921268,1.80157814164,0.0,0.0,0.0,38.3,2.5,-2.3,0,0,1024,1024,1024,1024,0,0,0,0,0,0,0,65,3.723,3.73,0,0,0,0,4.393,74.12,756.1433988685,35.433072,6,P-GPS,,10.8
482400,2026-01-13 17:41:11,756.1433988685,37.72966,0.223694,1.86457683132,8.89845829,19,5,7.454,757.1276508685,36.417324,0.4921268,1.86457683132,0.0,-0.223694,0.0,38.3,3.0,-0.8,0,0,1024,1024,1024,1024,0,0,0,0,0,0,0,65,3.723,3.73,0,0,0,0,4.393,74.12,756.1433988685,35.433072,6,P-GPS,,10.8
482500,2026-01-13 17:41:11,756.1433988685,37.72966,0.0,1.8829068844,8.94931131,19,5,7.454,757.1276508685,36.417324,0.4921268,1.8829068844,0.0,0.0,0.0,38.3,3.9,-0.3,0,0,1024,1024,1024,1024,0,0,0,0,0,0,0,65,3.723,3.73,0,0,0,0,4.393,74.12,756.1433988685,35.433072,6,P-GPS,,10.8
482600,2026-01-13 17:41:11,756.1433988685,37.72966,0.0,1.89283470624,9.0142391336,19,5,7.454,757.1276508685,36.417324,0.4921268,1.89283470624,0.0,-0.223694,0.0,38.1,4.2,-0.2,0,0,1024,1024,1024,1024,0,0,0,0,0,0,0,65,3.723,3.73,0,0,0,0,4.393,74.12,756.1433988685,35.433072,6,P-GPS,,10.8
482700,2026-01-13 17:41:11,756.1433988685,37.72966,0.0,1.90934389312,9.0698165632,19,5,7.454,757.1276508685,36.417324,0.4921268,1.90934389312,0.0,0.0,0.0,38.0,3.8,0.0,0,0,1024,1024,1024,1024,0,0,0,0,0,0,0,65,3.723,3.73,0,0,0,0,4.393,74.12,756.1433988685,35.433072,6,P-GPS,,10.8
482800,2026-01-13 17:41:11,756.1433988685,37.72966,0.0,1.9333826078,9.1190291632,19,5,7.454,757.1276508685,36.417324,0.4921268,1.9333826078,0.0,0.0,0.223694,38.2,3.2,0.2,0,0,1024,1024,1024,1024,0,0,0,0,0,0,0,65,3.723,3.73,0,0,0,0,4.393,74.12,756.1433988685,35.433072,6,P-GPS,,10.8
482900,2026-01-13 17:41:11,756.1433988685,37.72966,0.0,1.93163392008,9.2096787724,19,5,7.454,757.1276508685,36.417324,0.4921268,1.9333826078,0.0,0.0,0.0,38.2,3.4,0.1,0,0,1024,1024,1024,1024,0,0,0,0,0,0,0,65,3.723,3.73,0,0,0,0,4.393,74.12,756.1433988685,35.433072,6,P-GPS,,10.8
483000,2026-01-13 17:41:11,756.1433988685,37.72966,0.0,1.93697184676,9.2410764112,19,5,7.455,757.1276508685,36.417324,0.4921268,1.93697184676,0.0,0.0,0.0,38.1,3.6,0.3,0,0,1024,1024,1024,1024,0,0,0,0,0,0,0,65,3.721,3.719,0,0,0,0,4.465,74.12,756.1433988685,35.433072,6,P-GPS,,10.8
483100,2026-01-13 17:41:12,756.1433988685,37.72966,0.0,1.94646659772,9.2595803488,19,5,7.455,757.1276508685,36.417324,0.4921268,1.94646659772,0.0,0.0,0.0,38.0,3.2,0.2,0,0,1024,1024,1024,1024,0,0,0,0,0,0,0,65,3.721,3.719,0,0,0,0,4.465,74.12,756.1433988685,35.433072,6,P-GPS,,10.8
483200,2026-01-13 17:41:12,756.1433988685,37.72966,0.0,1.96111554832,9.2747378296,19,5,7.455,757.1276508685,36.417324,0.4921268,1.96111554832,0.0,0.0,0.0,37.8,2.8,0.9,0,0,1024,1024,1024,1024,0,0,0,0,0,0,0,65,3.721,3.719,0,0,0,0,4.465,74.12,756.1433988685,35.433072,6,P-GPS,,10.8
483300,2026-01-13 17:41:12,756.1433988685,37.72966,0.0,1.940944944,9.308071164,19,5,7.455,757.1276508685,36.417324,0.4921268,1.96111554832,0.0,0.0,0.0,37.6,3.2,0.2,0,0,1024,1024,1024,1024,0,0,0,0,0,0,0,65,3.721,3.719,0,0,0,0,4.465,74.12,756.1433988685,35.433072,6,P-GPS,,10.8
483400,2026-01-13 17:41:12,756.1433988685,37.72966,0.0,1.9556595114,9.3332023984,19,5,7.455,757.1276508685,36.417324,0.4921268,1.96111554832,0.0,0.0,0.0,37.5,2.4,0.4,0,0,1024,1024,1024,1024,0,0,0,0,0,0,0,65,3.721,3.719,0,0,0,0,4.465,74.12,756.1433988685,35.433072,6,P-GPS,,10.8
483500,2026-01-13 17:41:12,756.1433988685,37.72966,0.0,1.96833667716,9.3576774648,19,5,7.455,757.1276508685,36.417324,0.4921268,1.96833667716,0.0,0.0,0.0,37.6,3.4,0.9,0,0,1024,1024,1024,1024,0,0,0,0,0,0,0,65,3.721,3.719,0,0,0,0,4.465,74.12,756.1433988685,35.433072,6,P-GPS,,10.8
483600,2026-01-13 17:41:12,756.4714828685,37.72966,0.0,1.97996397412,9.3821525312,19,5,7.455,757.1276508685,36.417324,0.4921268,1.97996397412,0.0,0.0,0.0,37.7,3.3,1.2,0,0,1024,1024,1024,1024,0,0,0,0,0,0,0,65,3.721,3.719,0,0,0,0,4.465,74.12,756.4714828685,35.761156,6,P-GPS,,10.9
