time(millisecond),timestamp,altitude_above_seaLevel(feet),height_sonar(feet),speed(mph),distance(feet),mileage(feet),satellites,gpslevel,voltage(v),max_altitude(feet),max_ascent(feet),max_speed(mph),max_distance(feet), xSpeed(mph), ySpeed(mph), zSpeed(mph), compass_heading(degrees), pitch(degrees), roll(degrees),isPhoto,isVideo,rc_elevator,rc_aileron,rc_throttle,rc_rudder,rc_elevator(percent),rc_aileron(percent),rc_throttle(percent),rc_rudder(percent),gimbal_heading(degrees),gimbal_pitch(degrees),gimbal_roll(degrees),battery_percent,voltageCell1,voltageCell2,voltageCell3,voltageCell4,voltageCell5,voltageCell6,current(A),battery_temperature(f),altitude(feet),ascent(feet),flycStateRaw,flycState,message,height_above_takeoff(meters)
279100,2026-01-13 12:24:48,720.71403159303,0.328084,0.0,0.0,0.0,16,5,0.0,720.71403159303,0.0,0.0,0.0,0.0,0.0,0.0,9.9,3.5,0.8,0,0,1024,1024,1024,1024,0,0,0,0,0,0,0,81,3.972,3.973,0,0,0,0,0.0,72.32,720.71403159303,0.0,41,Motors_Started,SD card speed low SD card speed low. Normal use may be affected. Replace SD card (Code: 10028). Gimbal stuck. Make sure gimbal cover is removed and manually check whether gimbal can rotate freely (Code: 40002),0.0
279200,2026-01-13 12:24:48,720.71403159303,0.328084,0.0,0.0199227040496,0.0199227040496,16,5,7.945,720.71403159303,0.0,0.0,0.0199227040496,0.0,0.0,0.0,9.9,3.5,0.8,0,0,1024,1024,1024,1024,0,0,0,0,0,0,0,81,3.972,3.973,0,0,0,0,0.632,72.32,720.71403159303,0.0,41,Motors_Started,,0.0
279300,2026-01-13 12:24:48,720.71403159303,0.328084,0.0,0.041271982948,0.041610237552,16,5,7.945,720.71403159303,0.0,0.0,0.041271982948,0.0,0.0,0.0,9.9,3.5,0.8,0,0,1024,1024,1024,1024,0,0,0,0,0,0,0,81,3.972,3.973,0,0,0,0,0.632,72.32,720.71403159303,0.0,41,Motors_Started,,0.0
279400,2026-01-13 12:24:48,720.71403159303,0.328084,0.0,0.086663060516,0.08803477972,16,5,7.945,720.71403159303,0.0,0.0,0.086663060516,0.0,0.0,0.0,9.9,3.5,0.8,0,0,1024,1024,1024,1024,0,0,0,0,0,0,0,81,3.972,3.973,0,0,0,0,0.632,72.32,720.71403159303,0.0,41,Motors_Started,,0.0
279500,2026-01-13 12:24:48,720.71403159303,0.328084,0.0,0.089979333588,0.091680777212,16,5,7.945,720.71403159303,0.0,0.0,0.089979333588,0.0,0.0,0.0,10.0,3.5,0.8,0,0,1024,1024,1024,1024,0,0,0,0,0,0,0,81,3.972,3.973,0,0,0,0,0.632,72.32,720.71403159303,0.0,41,Motors_Started,,0.0
279600,2026-01-13 12:24:48,720.71403159303,0.328084,0.0,0.099521984812,0.102090226364,16,5,7.945,720.71403159303,0.0,0.0,0.099521984812,0.0,0.0,0.0,9.8,3.5,0.7,0,0,1024,1024,1024,1024,0,0,0,0,0,0,0,81,3.972,3.973,0,0,0,0,0.632,72.32,720.71403159303,0.0,41,Motors_Started,,0.0
279700,2026-01-13 12:24:48,720.71403159303,0.328084,0.0,0.11712762842,0.120977037992,16,5,7.945,720.71403159303,0.0,0.0,0.11712762842,0.0,0.0,0.0,10.5,3.5,0.8,0,0,1024,1024,1024,1024,0,0,0,0,0,0,0,81,3.972,3.973,0,0,0,0,0.632,72.32,720.71403159303,0.0,41,Motors_Started,,0.0
279800,2026-01-13 12:24:49,720.71403159303,0.328084,0.0,0.102875331376,0.135307419028,16,5,7.945,720.71403159303,0.0,0.0,0.11712762842,0.0,0.0,0.0,10.3,3.5,0.8,0,0,1024,1024,1024,1024,0,0,0,0,0,0,0,81,3.972,3.973,0,0,0,0,0.632,72.32,720.71403159303,0.0,41,Motors_Started,,0.0
279900,2026-01-13 12:24:49,720.71403159303,0.328084,0.0,0.105765095248,0.139482944096,16,5,7.945,720.71403159303,0.0,0.0,0.11712762842,0.0,0.0,0.0,10.3,3.4,0.8,0,0,1024,1024,1024,1024,0,0,0,0,0,0,0,81,3.972,3.973,0,0,0,0,0.632,72.32,720.71403159303,0.0,41,Motors_Started,,0.0
280000,2026-01-13 12:24:49,720.71403159303,0.328084,0.0,0.114146001028,0.147880254076,16,5,7.945,720.71403159303,0.0,0.0,0.11712762842,0.0,0.0,0.0,10.2,3.5,0.8,0,0,1024,1024,1024,1024,0,0,0,0,0,0,0,81,3.972,3.973,0,0,0,0,0.632,72.32,720.71403159303,0.0,41,Motors_Started,Setting new Return-To-Home altitude to 90m (295 ft). Data Recorder File Index is 36. Setting new Maximum Flight Altitude to 90m (295 ft),0.0
280100,2026-01-13 12:24:49,720.71403159303,0.328084,0.0,3.988845272,0.163418312316,16,5,7.945,720.71403159303,0.0,0.0,3.988845272,0.0,0.0,0.0,10.2,3.4,0.8,0,0,1024,1024,1024,1024,0,0,0,0,0,0,0,81,3.972,3.973,0,0,0,0,0.632,72.32,720.71403159303,0.0,41,Motors_Started,SD card speed low. Normal use may be affected. Replace SD card (Code: 10028),0.0
280200,2026-01-13 12:24:49,720.71403159303,0.328084,0.0,4.0033465848,0.177975071312,16,5,7.945,720.71403159303,0.0,0.0,4.0033465848,0.0,0.0,0.0,10.2,3.5,0.8,0,0,1024,1024,1024,1024,0,0,0,0,0,0,0,81,3.972,3.973,0,0,0,0,0.632,72.32,720.71403159303,0.0,11,AutoTakeoff,,0.0
280300,2026-01-13 12:24:49,720.71403159303,0.328084,0.0,4.0179135144,0.1932742844,16,5,7.915,720.71403159303,0.0,0.0,4.0179135144,0.0,0.0,0.0,10.2,3.5,0.8,0,0,1024,1024,1024,1024,0,0,0,0,0,0,0,81,3.955,3.96,0,0,0,0,1.633,72.32,720.71403159303,0.0,11,AutoTakeoff,,0.0
280400,2026-01-13 12:24:49,720.71403159303,0.328084,0.0,4.0291339872,0.204996069552,16,5,7.915,720.71403159303,0.0,0.0,4.0291339872,0.0,0.0,0.0,10.2,3.4,0.8,0,0,1024,1024,1024,1024,0,0,0,0,0,0,0,81,3.955,3.96,0,0,0,0,1.633,72.32,720.71403159303,0.0,11,AutoTakeoff,,0.0
280500,2026-01-13 12:24:49,720.71403159303,0.328084,0.0,4.038385956,0.219971463732,16,5,7.915,720.71403159303,0.0,0.0,4.038385956,0.0,0.0,0.0,10.1,3.5,0.8,0,0,1024,1024,1024,1024,0,0,0,0,0,0,0,81,3.955,3.96,0,0,0,0,1.633,72.32,720.71403159303,0.0,11,AutoTakeoff,,0.0
280600,2026-01-13 12:24:49,720.71403159303,0.328084,0.0,4.0483597096,0.230835965392,16,5,7.915,720.71403159303,0.0,0.0,4.0483597096,0.0,0.0,0.0,10.2,3.5,0.8,0,0,1024,1024,1024,1024,0,0,0,0,0,0,0,81,3.955,3.96,0,0,0,0,1.633,72.32,720.71403159303,0.0,11,AutoTakeoff,,0.0
280700,2026-01-13 12:24:49,720.71403159303,0.328084,0.0,4.0619423872,0.244555125936,16,5,7.915,720.71403159303,0.0,0.0,4.0619423872,0.0,0.0,0.0,10.8,3.5,0.8,0,0,1024,1024,1024,1024,0,0,0,0,0,0,0,81,3.955,3.96,0,0,0,0,1.633,72.32,720.71403159303,0.0,11,AutoTakeoff,,0.0
280800,2026-01-13 12:24:49,720.71403159303,0.328084,0.0,4.0688321512,0.261089575284,16,5,7.915,720.71403159303,0.0,0.0,4.0688321512,0.0,0.0,0.0,11.8,2.9,0.6,0,0,1024,1024,1024,1024,0,0,0,0,0,0,0,81,3.955,3.96,0,0,0,0,1.633,72.32,720.71403159303,0.0,11,AutoTakeoff,,0.0
280900,2026-01-13 12:24:50,720.71403159303,0.328084,0.0,4.0682416,0.299338592256,17,5,7.915,720.71403159303,0.0,0.0,4.0688321512,0.0,0.0,0.0,14.0,1.3,0.8,0,0,1024,1024,1024,1024,0,0,0,0,0,0,0,81,3.955,3.96,0,0,0,0,1.633,72.32,720.71403159303,0.0,11,AutoTakeoff,,0.0
281000,2026-01-13 12:24:50,720.71403159303,0.328084,0.3131716,4.052821652,0.34916995868,17,5,7.915,720.71403159303,0.0,0.3131716,4.0688321512,-0.223694,0.223694,-0.223694,16.0,2.0,0.3,0,0,1024,1024,1024,1024,0,0,0,0,0,0,0,81,3.955,3.96,0,0,0,0,1.633,72.32,720.71403159303,0.0,11,AutoTakeoff,,0.0
281100,2026-01-13 12:24:50,720.71403159303,0.328084,0.3131716,4.00180459,0.43574148376,17,5,7.915,720.71403159303,0.0,0.3131716,4.0688321512,-0.223694,0.223694,-0.671082,15.7,1.7,-1.6,0,0,1024,1024,1024,1024,0,0,0,0,0,0,0,81,3.955,3.96,0,0,0,0,1.633,72.32,720.71403159303,0.0,11,AutoTakeoff,Home Point updated. RTH altitude adjusted to 90 m (Code: 120852),0.0
281200,2026-01-13 12:24:50,721.04211559303,0.656168,0.3131716,3.97719829,0.49858269312,17,5,7.915,721.04211559303,0.328084,0.3131716,4.0688321512,-0.223694,0.223694,-0.894776,15.9,0.3,-1.7,0,0,1024,1024,1024,1024,0,0,0,0,0,0,0,81,3.955,3.96,0,0,0,0,1.633,72.32,721.04211559303,0.328084,11,AutoTakeoff,,0.1
281300,2026-01-13 12:24:50,721.04211559303,0.656168,0.3131716,3.9560040636,0.55459647444,17,5,7.915,721.04211559303,0.328084,0.3131716,4.0688321512,-0.223694,0.223694,-1.11847,15.7,-0.5,-1.6,0,0,1024,1024,1024,1024,0,0,0,0,0,0,0,81,3.955,3.96,0,0,0,0,1.633,72.32,721.04211559303,0.328084,11,AutoTakeoff,,0.1
281400,2026-01-13 12:24:50,721.37019959303,0.656168,0.447388,3.9219489444,0.62461944256,19,5,7.692,721.37019959303,0.656168,0.447388,4.0688321512,0.0,0.447388,-1.565858,15.5,0.0,-2.3,0,0,1024,1024,1024,1024,0,0,0,0,0,0,0,81,3.846,3.847,0,0,0,0,4.648,72.32,721.37019959303,0.656168,11,AutoTakeoff,,0.2
281500,2026-01-13 12:24:50,721.69828359303,0.984252,0.447388,3.8678150844,0.72816931464,19,5,7.692,721.69828359303,0.984252,0.447388,4.0688321512,0.0,0.447388,-1.789552,15.6,-0.2,-2.8,0,0,1024,1024,1024,1024,0,0,0,0,0,0,0,81,3.846,3.847,0,0,0,0,4.648,72.32,721.69828359303,0.984252,11,AutoTakeoff,,0.3
281600,2026-01-13 12:24:50,722.02636759303,1.312336,0.447388,3.82135839,0.83442587972,19,5,7.692,722.02636759303,1.312336,0.447388,4.0688321512,0.0,0.447388,-2.013246,15.4,0.0,-4.8,0,0,1024,1024,1024,1024,0,0,0,0,0,0,0,81,3.846,3.847,0,0,0,0,4.648,72.32,722.02636759303,1.312336,11,AutoTakeoff,,0.4
281700,2026-01-13 12:24:50,722.35445159303,1.64042,0.447388,3.7854988088,0.95865160548,19,5,7.692,722.35445159303,1.64042,0.447388,4.0688321512,0.0,0.447388,-2.23694,15.5,0.0,-6.2,0,0,1024,1024,1024,1024,0,0,0,0,0,0,0,81,3.846,3.847,0,0,0,0,4.648,72.32,722.35445159303,1.64042,11,AutoTakeoff,,0.5
281800,2026-01-13 12:24:51,723.01061959303,1.968504,0.447388,3.7479988076,1.06497378736,19,5,7.692,723.01061959303,2.296588,0.447388,4.0688321512,0.0,0.447388,-2.013246,15.4,1.0,-6.8,0,0,1024,1024,1052,1024,0,0,4,0,0,0,0,81,3.846,3.847,0,0,0,0,4.648,72.32,723.01061959303,2.296588,11,AutoTakeoff,,0.7
281900,2026-01-13 12:24:51,723.33870359303,1.968504,0.447388,3.7518701988,1.21715226992,19,5,7.692,723.33870359303,2.624672,0.447388,4.0688321512,0.0,0.447388,-2.013246,15.5,0.6,-7.1,0,0,1024,1024,1155,1024,0,0,20,0,0,0,0,81,3.846,3.847,0,0,0,0,4.648,72.32,723.33870359303,2.624672,11,AutoTakeoff,,0.8
282000,2026-01-13 12:24:51,723.66678759303,2.296588,0.447388,3.6942586484,1.29262471328,19,5,7.692,723.66678759303,2.952756,0.447388,4.0688321512,0.0,0.447388,-2.013246,15.5,0.5,-6.7,0,0,1024,1024,1348,1024,0,0,49,0,0,0,0,81,3.846,3.847,0,0,0,0,4.648,72.32,723.66678759303,2.952756,11,AutoTakeoff,,0.9
282100,2026-01-13 12:24:51,723.99487159303,2.952756,0.223694,3.6111549712,1.37681434852,19,5,7.692,723.99487159303,3.28084,0.447388,4.0688321512,0.0,0.223694,-2.013246,15.5,0.8,-6.5,0,0,1024,1024,1684,1024,0,0,100,0,0,0,0,81,3.846,3.847,0,0,0,0,4.648,72.32,723.99487159303,3.28084,6,P-GPS,,1.0
282200,2026-01-13 12:24:51,724.32295559303,3.28084,0.223694,3.5276575932,1.4612697318,19,5,7.692,724.32295559303,3.608924,0.447388,4.0688321512,0.0,0.223694,-2.013246,15.6,1.1,-7.0,0,0,1024,1024,1684,1024,0,0,100,0,0,0,0,81,3.846,3.847,0,0,0,0,4.648,72.32,724.32295559303,3.608924,6,P-GPS,,1.1
282300,2026-01-13 12:24:51,724.97912359303,3.608924,0.223694,3.4378938108,1.55251317304,19,5,7.692,724.97912359303,4.265092,0.447388,4.0688321512,0.0,0.223694,-2.23694,15.8,1.2,-6.4,0,0,1024,1024,1684,1024,0,0,100,0,0,0,0,81,3.846,3.847,0,0,0,0,4.648,72.32,724.97912359303,4.265092,6,P-GPS,,1.3
282400,2026-01-13 12:24:51,725.30720759303,3.937008,0.0,3.21394695324,1.800607013,19,5,7.692,725.30720759303,4.593176,0.447388,4.0688321512,0.0,0.0,-2.684328,15.6,2.1,-5.5,0,0,1024,1024,1684,1024,0,0,100,0,0,0,0,81,3.846,3.847,0,0,0,0,4.648,72.32,725.30720759303,4.593176,6,P-GPS,,1.4
282500,2026-01-13 12:24:51,725.96337559303,4.265092,0.0,3.17274288368,1.8479659384,19,5,7.692,725.96337559303,5.249344,0.447388,4.0688321512,0.0,0.0,-3.131716,15.5,1.4,-5.6,0,0,1024,1024,1684,1024,0,0,100,0,0,0,0,81,3.799,3.805,0,0,0,0,4.648,72.32,725.96337559303,5.249344,6,P-GPS,,1.6
282600,2026-01-13 12:24:51,726.29145959303,4.92126,0.0,3.12254275084,1.89910111064,19,5,7.692,726.29145959303,5.577428,0.447388,4.0688321512,0.0,0.0,-3.579104,15.8,1.1,-6.2,0,0,1024,1024,1684,1024,0,0,100,0,0,0,0,81,3.799,3.805,0,0,0,0,4.648,72.32,726.29145959303,5.577428,6,P-GPS,,1.7
282700,2026-01-13 12:24:51,726.94762759303,5.577428,0.0,3.05408802424,1.96762801572,19,5,7.692,726.94762759303,6.233596,0.447388,4.0688321512,0.0,0.0,-4.026492,15.7,1.9,-6.1,0,0,1024,1024,1684,1024,0,0,100,0,0,0,0,81,3.799,3.805,0,0,0,0,4.648,72.32,726.94762759303,6.233596,6,P-GPS,,1.9
282800,2026-01-13 12:24:51,727.60379559303,6.233596,0.0,2.96091872992,2.07400269104,19,5,7.692,727.60379559303,6.889764,0.447388,4.0688321512,0.0,0.0,-4.250186,15.6,2.6,-5.4,0,0,1024,1024,1684,1024,0,0,100,0,0,0,0,81,3.799,3.805,0,0,0,0,4.648,72.32,727.60379559303,6.889764,6,P-GPS,,2.1
282900,2026-01-13 12:24:52,728.25996359303,6.889764,0.0,2.93898959536,2.09771660256,19,5,7.692,728.25996359303,7.545932,0.447388,4.0688321512,0.0,0.0,-4.47388,15.6,1.9,-5.3,0,0,1024,1024,1684,1024,0,0,100,0,0,0,0,81,3.799,3.805,0,0,0,0,4.648,72.32,728.25996359303,7.545932,6,P-GPS,,2.3
283000,2026-01-13 12:24:52,729.24421559303,7.545932,0.0,2.9382710914,2.12756896572,19,5,7.692,729.24421559303,8.530184,0.447388,4.0688321512,0.0,0.0,-4.697574,15.6,1.4,-5.3,0,0,1024,1024,1684,1024,0,0,100,0,0,0,0,81,3.799,3.805,0,0,0,0,4.648,72.32,729.24421559303,8.530184,6,P-GPS,,2.6
283100,2026-01-13 12:24:52,729.90038359303,8.2021,0.0,2.95417332288,2.18655846892,19,5,7.692,729.90038359303,9.186352,0.447388,4.0688321512,0.0,0.0,-4.47388,15.5,1.8,-5.4,0,0,1024,1024,1684,1024,0,0,100,0,0,0,0,81,3.799,3.805,0,0,0,0,4.648,72.32,729.90038359303,9.186352,6,P-GPS,,2.8
283200,2026-01-13 12:24:52,730.55655159303,8.858268,0.0,2.95494760112,2.21242461148,20,5,7.692,730.55655159303,9.84252,0.447388,4.0688321512,0.0,0.0,-4.47388,15.6,1.9,-5.7,0,0,1024,1024,1684,1024,0,0,100,0,0,0,0,81,3.799,3.805,0,0,0,0,4.648,72.32,730.55655159303,9.84252,6,P-GPS,,3.0
283300,2026-01-13 12:24:52,731.21271959303,9.514436,0.0,2.93167004132,2.2364009902,20,5,7.692,731.21271959303,10.498688,0.447388,4.0688321512,0.0,0.0,-4.250186,15.6,1.8,-6.1,0,0,1024,1024,1684,1024,0,0,100,0,0,0,0,81,3.799,3.805,0,0,0,0,4.648,72.32,731.21271959303,10.498688,6,P-GPS,,3.2
283400,2026-01-13 12:24:52,731.86888759303,10.170604,0.223694,2.88137476412,2.29095807856,20,5,7.692,731.86888759303,11.154856,0.447388,4.0688321512,0.0,0.223694,-4.250186,15.5,2.6,-6.9,0,0,1024,1024,1684,1024,0,0,100,0,0,0,0,81,3.799,3.805,0,0,0,0,4.648,72.32,731.86888759303,11.154856,6,P-GPS,,3.4
283500,2026-01-13 12:24:52,732.85313959303,10.498688,0.3131716,2.79736885592,2.38307750408,20,5,7.692,732.85313959303,12.139108,0.447388,4.0688321512,0.223694,0.223694,-4.250186,15.4,3.6,-7.5,0,0,1024,1024,1684,1024,0,0,100,0,0,0,0,81,3.799,3.805,0,0,0,0,4.648,72.32,732.85313959303,12.139108,6,P-GPS,,3.7
283600,2026-01-13 12:24:52,733.50930759303,11.154856,0.3131716,2.5603183234,2.6706693768,20,5,7.694,733.50930759303,12.795276,0.447388,4.0688321512,0.223694,0.223694,-4.250186,15.3,4.7,-7.9,0,0,1024,1024,1684,1024,0,0,100,0,0,0,0,81,3.824,3.826,0,0,0,0,6.055,72.32,733.50930759303,12.795276,6,P-GPS,,3.9
283700,2026-01-13 12:24:52,734.16547559303,11.811024,0.223694,2.44983275556,2.79088919692,20,5,7.694,734.16547559303,13.451444,0.447388,4.0688321512,0.0,0.223694,-4.250186,15.4,4.8,-8.5,0,0,1024,1024,1684,1024,0,0,100,0,0,0,0,81,3.824,3.826,0,0,0,0,6.055,72.32,734.16547559303,13.451444,6,P-GPS,,4.1
283800,2026-01-13 12:24:53,734.82164359303,12.139108,0.0,2.37876976116,2.86684064292,20,5,7.694,734.82164359303,14.107612,0.447388,4.0688321512,0.0,0.0,-4.026492,15.2,5.1,-8.3,0,0,1024,1024,1684,1024,0,0,100,0,0,0,0,81,3.824,3.826,0,0,0,0,6.055,72.32,734.82164359303,14.107612,6,P-GPS,,4.3
283900,2026-01-13 12:24:53,735.47781159303,12.795276,0.0,2.35188983904,2.89372056504,20,5,7.694,735.47781159303,14.76378,0.447388,4.0688321512,0.0,0.0,-4.026492,15.2,4.6,-8.1,0,0,1024,1024,1684,1024,0,0,100,0,0,0,0,81,3.824,3.826,0,0,0,0,6.055,72.32,735.47781159303,14.76378,6,P-GPS,,4.5
284000,2026-01-13 12:24:53,736.13397959303,13.12336,0.0,2.34625335592,2.9093176784,19,5,7.694,736.13397959303,15.419948,0.447388,4.0688321512,0.0,0.0,-4.026492,15.5,3.7,-7.5,0,0,1024,1024,1684,1024,0,0,100,0,0,0,0,81,3.824,3.826,0,0,0,0,6.055,72.32,736.13397959303,15.419948,6,P-GPS,,4.7
284100,2026-01-13 12:24:53,736.79014759303,13.779528,0.0,2.4144357728,3.07559393044,19,5,7.694,736.79014759303,16.076116,0.447388,4.0688321512,0.0,0.0,-4.026492,15.8,3.2,-6.9,0,0,1024,1024,1684,1024,0,0,100,0,0,0,0,81,3.824,3.826,0,0,0,0,6.055,72.32,736.79014759303,16.076116,6,P-GPS,,4.9
284200,2026-01-13 12:24:53,737.44631559303,14.435696,0.0,2.447670682,3.11588920732,20,5,7.694,737.44631559303,16.732284,0.447388,4.0688321512,0.0,0.0,-4.026492,15.7,3.5,-5.7,0,0,1024,1024,1684,1024,0,0,100,0,0,0,0,81,3.824,3.826,0,0,0,0,6.055,72.32,737.44631559303,16.732284,6,P-GPS,,5.1
284300,2026-01-13 12:24:53,738.10248359303,15.091864,0.0,2.50717199624,3.17616808064,20,5,7.694,738.10248359303,17.388452,0.447388,4.0688321512,0.0,0.0,-4.250186,15.9,3.6,-5.6,0,0,1024,1024,1684,1024,0,0,100,0,0,0,0,81,3.824,3.826,0,0,0,0,6.055,72.32,738.10248359303,17.388452,6,P-GPS,,5.3
284400,2026-01-13 12:24:53,738.75865159303,15.748032,0.0,2.5436516562,3.21299550964,20,5,7.694,738.75865159303,18.04462,0.447388,4.0688321512,0.0,0.0,-4.250186,15.7,4.4,-6.1,0,0,1024,1024,1684,1024,0,0,100,0,0,0,0,81,3.824,3.826,0,0,0,0,6.055,72.32,738.75865159303,18.04462,6,P-GPS,,5.5
284500,2026-01-13 12:24:53,739.41481959303,16.4042,0.0,2.61540034616,3.2873360632,20,5,7.694,739.41481959303,18.700788,0.447388,4.0688321512,0.0,0.0,-4.250186,15.4,4.2,-6.2,0,0,1024,1024,1684,1024,0,0,100,0,0,0,0,81,3.824,3.826,0,0,0,0,6.055,72.32,739.41481959303,18.700788,6,P-GPS,,5.7
284600,2026-01-13 12:24:53,740.07098759303,17.060368,0.0,2.62142724924,3.3088255652,20,5,7.694,740.07098759303,19.356956,0.447388,4.0688321512,0.0,0.0,-4.47388,15.5,4.3,-5.7,0,0,1024,1024,1684,1024,0,0,100,0,0,0,0,81,3.824,3.826,0,0,0,0,6.055,72.32,740.07098759303,19.356956,6,P-GPS,,5.9
284700,2026-01-13 12:24:53,740.72715559303,18.04462,0.0,2.62886491352,3.361548664,20,5,7.694,740.72715559303,20.013124,0.447388,4.0688321512,0.0,0.0,-4.47388,15.5,3.7,-5.6,0,0,1024,1024,1684,1024,0,0,100,0,0,0,0,81,3.824,3.826,0,0,0,0,6.055,72.32,740.72715559303,20.013124,6,P-GPS,,6.1
284800,2026-01-13 12:24:54,741.05523959303,18.700788,0.223694,2.64512475656,3.4067586392,19,5,7.562,741.05523959303,20.341208,0.447388,4.0688321512,0.0,-0.223694,-4.47388,15.7,3.7,-4.9,0,0,1024,1024,1684,1024,0,0,100,0,0,0,0,80,3.785,3.794,0,0,0,0,7.61,72.32,741.05523959303,20.341208,6,P-GPS,,6.2
284900,2026-01-13 12:24:54,741.71140759303,19.68504,0.223694,2.64801189576,3.453248142,19,5,7.562,741.71140759303,20.997376,0.447388,4.0688321512,0.0,-0.223694,-4.47388,15.5,2.8,-3.5,0,0,1024,1024,1684,1024,0,0,100,0,0,0,0,80,3.785,3.794,0,0,0,0,7.61,72.32,741.71140759303,20.997376,6,P-GPS,,6.4
285000,2026-01-13 12:24:54,742.36757559303,20.341208,0.223694,2.69776255352,3.5031497184,19,5,7.562,742.36757559303,21.653544,0.447388,4.0688321512,0.0,-0.223694,-4.47388,15.4,2.0,-3.4,0,0,1024,1024,1684,1024,0,0,100,0,0,0,0,80,3.785,3.794,0,0,0,0,7.61,72.32,742.36757559303,21.653544,6,P-GPS,,6.6
285100,2026-01-13 12:24:54,742.69565959303,21.32546,0.223694,2.77172909132,3.5790355476,18,5,7.562,742.69565959303,21.981628,0.447388,4.0688321512,0.0,-0.223694,-4.47388,15.4,2.1,-3.8,0,0,1024,1024,1684,1024,0,0,100,0,0,0,0,80,3.785,3.794,0,0,0,0,7.61,72.32,742.69565959303,21.981628,6,P-GPS,,6.7
285200,2026-01-13 12:24:54,743.35182759303,21.981628,0.223694,2.82810376504,3.6385171768,18,5,7.562,743.35182759303,22.637796,0.447388,4.0688321512,0.0,-0.223694,-4.250186,15.5,1.5,-4.0,0,0,1024,1024,1684,1024,0,0,100,0,0,0,0,80,3.785,3.794,0,0,0,0,7.61,72.32,743.35182759303,22.637796,6,P-GPS,,6.9
285300,2026-01-13 12:24:54,744.00799559303,22.637796,0.223694,2.91164051312,3.770669412,18,5,7.562,744.00799559303,23.293964,0.447388,4.0688321512,0.0,-0.223694,-4.250186,15.6,1.3,-3.9,0,0,1024,1024,1684,1024,0,0,100,0,0,0,0,80,3.785,3.794,0,0,0,0,7.61,72.32,744.00799559303,23.293964,6,P-GPS,,7.1
285400,2026-01-13 12:24:54,744.66416359303,23.293964,0.0,2.94706046176,3.8061352924,19,5,7.562,744.66416359303,23.950132,0.447388,4.0688321512,0.0,0.0,-4.47388,15.7,1.3,-3.4,0,0,1024,1024,1684,1024,0,0,100,0,0,0,0,80,3.785,3.794,0,0,0,0,7.61,72.32,744.66416359303,23.950132,6,P-GPS,,7.3
285500,2026-01-13 12:24:54,745.32033159303,23.293964,0.0,2.97940298248,3.843668102,19,5,7.562,745.32033159303,24.6063,0.447388,4.0688321512,0.0,0.0,-4.47388,15.7,1.9,-4.1,0,0,1024,1024,1684,1024,0,0,100,0,0,0,0,80,3.785,3.794,0,0,0,0,7.61,72.32,745.32033159303,24.6063,6,P-GPS,,7.5
285600,2026-01-13 12:24:54,745.64841559303,26.902888,0.0,2.97120744416,3.853674664,19,5,7.562,745.64841559303,24.934384,0.447388,4.0688321512,0.0,0.0,-4.47388,15.5,2.9,-5.0,0,0,1024,1024,1684,1024,0,0,100,0,0,0,0,80,3.785,3.794,0,0,0,0,7.61,72.32,745.64841559303,24.934384,6,P-GPS,,7.6
285700,2026-01-13 12:24:54,746.30458359303,27.559056,0.0,2.923556524,3.9024607548,19,5,7.562,746.30458359303,25.590552,0.447388,4.0688321512,0.0,0.0,-4.47388,15.6,3.3,-4.8,0,0,1024,1024,1684,1024,0,0,100,0,0,0,0,80,3.785,3.794,0,0,0,0,7.61,72.32,746.30458359303,25.590552,6,P-GPS,,7.8
285800,2026-01-13 12:24:55,746.96075159303,28.543308,0.0,2.8342520592,3.9942258496,18,5,7.562,746.96075159303,26.24672,0.447388,4.0688321512,0.0,0.0,-4.47388,15.5,2.9,-4.6,0,0,1024,1024,1684,1024,0,0,100,0,0,0,0,80,3.785,3.794,0,0,0,0,7.61,72.32,746.96075159303,26.24672,6,P-GPS,,8.0
285900,2026-01-13 12:24:55,747.61691959303,29.52756,0.0,2.84380258444,4.0317586592,18,5,7.594,747.61691959303,26.902888,0.447388,4.0688321512,0.0,0.0,-4.47388,15.5,3.3,-4.5,0,0,1024,1024,1684,1024,0,0,100,0,0,0,0,80,3.797,3.799,0,0,0,0,7.075,72.5,747.61691959303,26.902888,6,P-GPS,,8.2
286000,2026-01-13 12:24:55,748.27308759303,30.183728,0.0,2.85403224356,4.0886156164,20,5,7.594,748.27308759303,27.559056,0.447388,4.0688321512,0.0,0.0,-4.47388,15.5,4.2,-4.0,0,0,1024,1024,1684,1024,0,0,100,0,0,0,0,80,3.797,3.799,0,0,0,0,7.075,72.5,748.27308759303,27.559056,6,P-GPS,,8.4
286100,2026-01-13 12:24:55,748.92925559303,31.16798,0.0,2.86695547232,4.1685696872,20,5,7.594,748.92925559303,28.215224,0.447388,4.0688321512,0.0,0.0,-4.47388,15.4,4.4,-4.2,0,0,1024,1024,1684,1024,0,0,100,0,0,0,0,80,3.797,3.799,0,0,0,0,7.075,72.5,748.92925559303,28.215224,6,P-GPS,,8.6
286200,2026-01-13 12:24:55,749.58542359303,31.824148,0.0,2.98001321872,4.3749345232,20,5,7.594,749.58542359303,28.871392,0.447388,4.0688321512,0.0,0.0,-4.47388,15.5,3.8,-4.2,0,0,1024,1024,1684,1024,0,0,100,0,0,0,0,80,3.797,3.799,0,0,0,0,7.075,72.5,749.58542359303,28.871392,6,P-GPS,,8.8
286300,2026-01-13 12:24:55,750.24159159303,32.480316,0.0,3.00306440056,4.4125985664,19,5,7.594,750.24159159303,29.52756,0.447388,4.0688321512,0.0,0.0,-4.47388,15.4,3.1,-4.7,0,0,1024,1024,1684,1024,0,0,100,0,0,0,0,80,3.797,3.799,0,0,0,0,7.075,72.5,750.24159159303,29.52756,6,P-GPS,,9.0
286400,2026-01-13 12:24:55,750.89775959303,33.136484,0.0,3.0328577086,4.4448164152,19,5,7.594,750.89775959303,30.183728,0.447388,4.0688321512,0.0,0.0,-4.47388,15.5,2.1,-4.5,0,0,1024,1024,1684,1024,0,0,100,0,0,0,0,80,3.797,3.799,0,0,0,0,7.075,72.5,750.89775959303,30.183728,6,P-GPS,,9.2
286500,2026-01-13 12:24:55,751.55392759303,33.792652,0.0,3.06607949444,4.4780513244,19,5,7.594,751.55392759303,30.839896,0.447388,4.0688321512,0.0,0.0,-4.47388,15.6,1.6,-5.2,0,0,1024,1024,1684,1024,0,0,100,0,0,0,0,80,3.797,3.799,0,0,0,0,7.075,72.5,751.55392759303,30.839896,6,P-GPS,,9.4
286600,2026-01-13 12:24:55,752.21009559303,34.44882,0.0,3.12119760644,4.5331694364,20,5,7.594,752.21009559303,31.496064,0.447388,4.0688321512,0.0,0.0,-4.47388,15.3,2.4,-6.2,0,0,1024,1024,1684,1024,0,0,100,0,0,0,0,80,3.797,3.799,0,0,0,0,7.075,72.5,752.21009559303,31.496064,6,P-GPS,,9.6
286700,2026-01-13 12:24:55,752.86626359303,35.104988,0.0,3.1172409134,4.5428479144,20,5,7.594,752.86626359303,32.152232,0.447388,4.0688321512,0.0,0.0,-4.250186,15.4,2.6,-5.7,0,0,1024,1024,1024,1024,0,0,0,0,0,0,0,80,3.797,3.799,0,0,0,0,7.075,72.5,752.86626359303,32.152232,6,P-GPS,,9.8
286800,2026-01-13 12:24:56,753.52243159303,35.761156,0.0,3.09940298632,4.5609909596,20,5,7.594,753.52243159303,32.8084,0.447388,4.0688321512,0.0,0.0,-4.250186,15.3,2.4,-6.2,0,0,1024,1024,1024,1024,0,0,0,0,0,0,0,80,3.797,3.799,0,0,0,0,7.075,72.5,753.52243159303,32.8084,6,P-GPS,,10.0
286900,2026-01-13 12:24:56,754.17859959303,36.417324,0.0,3.06772319528,4.592683874,20,5,7.594,754.17859959303,33.464568,0.447388,4.0688321512,0.0,0.0,-4.250186,15.4,2.1,-6.5,0,0,1024,1024,1024,1024,0,0,0,0,0,0,0,80,3.797,3.799,0,0,0,0,7.075,72.5,754.17859959303,33.464568,6,P-GPS,,10.2
287000,2026-01-13 12:24:56,754.83476759303,37.073492,0.0,3.00952765536,4.6512140596,20,5,7.587,754.83476759303,34.120736,0.447388,4.0688321512,0.0,0.0,-3.802798,15.5,2.0,-6.7,0,0,1024,1024,1024,1024,0,0,0,0,0,0,0,80,3.797,3.84,0,0,0,0,6.869,72.5,754.83476759303,34.120736,6,P-GPS,,10.4
287100,2026-01-13 12:24:56,755.49093559303,37.401576,0.0,2.9854659748,4.6767061864,20,5,7.587,755.49093559303,34.776904,0.447388,4.0688321512,0.0,0.0,-3.131716,15.3,2.9,-7.4,0,0,1024,1024,1024,1024,0,0,0,0,0,0,0,80,3.797,3.84,0,0,0,0,6.869,72.5,755.49093559303,34.776904,6,P-GPS,,10.6
287200,2026-01-13 12:24:56,755.81901959303,37.72966,0.0,2.95344169556,4.7106956888,20,5,7.587,755.81901959303,35.104988,0.447388,4.0688321512,0.0,0.0,-2.460634,15.2,3.5,-7.7,0,0,1024,1024,1024,1024,0,0,0,0,0,0,0,80,3.797,3.84,0,0,0,0,6.869,72.5,755.81901959303,35.104988,6,P-GPS,,10.7
287300,2026-01-13 12:24:56,756.14710359303,38.057744,0.0,2.91311689112,4.7543308608,20,5,7.587,756.14710359303,35.433072,0.447388,4.0688321512,0.0,0.223694,-1.565858,15.2,3.8,-8.0,0,0,1024,1024,1024,1024,0,0,0,0,0,0,0,80,3.797,3.84,0,0,0,0,6.869,72.5,756.14710359303,35.433072,6,P-GPS,,10.8
287400,2026-01-13 12:24:56,756.14710359303,38.385828,0.223694,2.86840888444,4.7994096024,20,5,7.587,756.14710359303,35.433072,0.447388,4.0688321512,0.0,0.223694,-0.894776,15.2,4.0,-7.9,0,0,1024,1024,1024,1024,0,0,0,0,0,0,0,80,3.797,3.84,0,0,0,0,6.869,72.5,756.14710359303,35.433072,6,P-GPS,,10.8
287500,2026-01-13 12:24:56,756.47518759303,38.385828,0.223694,2.7841864408,4.8893374268,20,5,7.587,756.47518759303,35.761156,0.447388,4.0688321512,0.0,0.223694,-0.447388,15.2,4.1,-8.5,0,0,1024,1024,1024,1024,0,0,0,0,0,0,0,80,3.797,3.84,0,0,0,0,6.869,72.5,756.47518759303,35.761156,6,P-GPS,,10.9
287600,2026-01-13 12:24:56,756.47518759303,38.385828,0.223694,2.73560048124,4.942257376,20,5,7.587,756.47518759303,35.761156,0.447388,4.0688321512,0.0,0.223694,0.0,15.3,4.7,-7.9,0,0,1024,1024,1024,1024,0,0,0,0,0,0,0,80,3.797,3.84,0,0,0,0,6.869,72.5,756.47518759303,35.761156,6,P-GPS,,10.9
287700,2026-01-13 12:24:56,756.47518759303,38.385828,0.0,2.68567593896,5.0074148584,20,5,7.587,756.47518759303,35.761156,0.447388,4.0688321512,0.0,0.0,0.0,15.3,4.8,-7.7,0,0,1024,1024,1024,1024,0,0,0,0,0,0,0,80,3.797,3.84,0,0,0,0,6.869,72.5,756.47518759303,35.761156,6,P-GPS,,10.9
287800,2026-01-13 12:24:57,756.47518759303,38.385828,0.0,2.6590880116,5.0573820516,20,5,7.587,756.47518759303,35.761156,0.447388,4.0688321512,0.0,0.0,0.0,15.2,4.5,-7.8,0,0,1024,1024,1024,1024,0,0,0,0,0,0,0,80,3.797,3.84,0,0,0,0,6.869,72.5,756.47518759303,35.761156,6,P-GPS,,10.9
287900,2026-01-13 12:24:57,756.47518759303,38.385828,0.0,2.68118118816,5.2229004296,20,5,7.587,756.47518759303,35.761156,0.447388,4.0688321512,0.0,0.0,0.0,15.1,4.4,-8.1,0,0,1024,1024,1024,1024,0,0,0,0,0,0,0,80,3.797,3.84,0,0,0,0,6.869,72.5,756.47518759303,35.761156,6,P-GPS,,10.9
288000,2026-01-13 12:24:57,756.47518759303,38.385828,0.0,2.68794956108,5.2513453124,20,5,7.587,756.47518759303,35.761156,0.447388,4.0688321512,0.0,0.0,0.0,15.2,3.9,-8.4,0,0,1024,1024,1024,1024,0,0,0,0,0,0,0,80,3.797,3.84,0,0,0,0,6.869,72.5,756.47518759303,35.761156,6,P-GPS,,10.9
288100,2026-01-13 12:24:57,756.47518759303,38.385828,0.0,2.70039050636,5.2656169664,20,5,7.637,756.47518759303,35.761156,0.447388,4.0688321512,0.0,0.0,0.0,15.2,3.4,-7.9,0,0,1024,1024,1024,1024,0,0,0,0,0,0,0,80,3.818,3.819,0,0,0,0,5.287,72.5,756.47518759303,35.761156,6,P-GPS,,10.9
288200,2026-01-13 12:24:57,756.47518759303,38.385828,0.0,2.72752305316,5.3005907208,20,5,7.637,756.47518759303,35.761156,0.447388,4.0688321512,0.0,0.0,0.0,15.2,3.3,-7.7,0,0,1024,1024,1024,1024,0,0,0,0,0,0,0,80,3.818,3.819,0,0,0,0,5.287,72.5,756.47518759303,35.761156,6,P-GPS,,10.9
288300,2026-01-13 12:24:57,756.47518759303,38.385828,0.0,2.83044956564,5.4162731392,20,5,7.637,756.47518759303,35.761156,0.447388,4.0688321512,0.0,0.0,0.0,15.4,2.0,-7.4,0,0,1024,1024,1024,1024,0,0,0,0,0,0,0,80,3.818,3.819,0,0,0,0,5.287,72.5,756.47518759303,35.761156,6,P-GPS,,10.9
288400,2026-01-13 12:24:57,756.47518759303,38.385828,0.0,2.86581045916,5.4651904636,20,5,7.637,756.47518759303,35.761156,0.447388,4.0688321512,0.0,0.0,0.0,15.4,2.0,-7.2,0,0,1024,1024,1024,1024,0,0,0,0,0,0,0,80,3.818,3.819,0,0,0,0,5.287,72.5,756.47518759303,35.761156,6,P-GPS,,10.9
288500,2026-01-13 12:24:57,756.47518759303,38.385828,0.0,2.89162410828,5.4982613308,20,5,7.637,756.47518759303,35.761156,0.447388,4.0688321512,0.0,0.0,0.0,15.3,2.4,-6.8,0,0,1024,1024,1024,1024,0,0,0,0,0,0,0,80,3.818,3.819,0,0,0,0,5.287,72.5,756.47518759303,35.761156,6,P-GPS,,10.9
288600,2026-01-13 12:24:57,756.47518759303,38.385828,0.0,2.92107620896,5.5332678936,20,5,7.637,756.47518759303,35.761156,0.447388,4.0688321512,0.0,0.0,0.0,15.4,2.5,-6.7,0,0,1024,1024,1024,1024,0,0,0,0,0,0,0,80,3.818,3.819,0,0,0,0,5.287,72.5,756.47518759303,35.761156,6,P-GPS,,10.9
288700,2026-01-13 12:24:57,756.14710359303,38.385828,0.223694,2.97366479332,5.6234581852,20,5,7.637,756.47518759303,35.761156,0.447388,4.0688321512,0.0,-0.223694,0.0,15.5,2.3,-5.8,0,0,1024,1024,1024,1024,0,0,0,0,0,0,0,80,3.818,3.819,0,0,0,0,5.287,72.5,756.14710359303,35.433072,6,P-GPS,,10.8
288800,2026-01-13 12:24:58,756.14710359303,38.385828,0.223694,3.00476715652,5.6553151416,20,5,7.637,756.47518759303,35.761156,0.447388,4.0688321512,0.0,-0.223694,0.0,15.7,1.7,-5.1,0,0,1024,1024,1024,1024,0,0,0,0,0,0,0,80,3.818,3.819,0,0,0,0,5.287,72.5,756.14710359303,35.433072,6,P-GPS,,10.8
288900,2026-01-13 12:24:58,755.81901959303,38.385828,0.223694,3.02541676348,5.677657662,20,5,7.637,756.47518759303,35.761156,0.447388,4.0688321512,0.0,-0.223694,0.0,15.7,2.0,-4.8,0,0,1024,1024,1024,1024,0,0,0,0,0,0,0,80,3.818,3.819,0,0,0,0,5.287,72.5,755.81901959303,35.104988,6,P-GPS,,10.7
289000,2026-01-13 12:24:58,755.81901959303,38.385828,0.223694,3.03303487396,5.6966537256,20,5,7.637,756.47518759303,35.761156,0.447388,4.0688321512,0.0,-0.223694,0.0,15.6,1.9,-4.6,0,0,1024,1024,1024,1024,0,0,0,0,0,0,0,80,3.818,3.819,0,0,0,0,5.287,72.5,755.81901959303,35.104988,6,P-GPS,,10.7
289100,2026-01-13 12:24:58,755.81901959303,38.385828,0.223694,3.03087608124,5.7238518892,20,5,7.637,756.47518759303,35.761156,0.447388,4.0688321512,0.0,-0.223694,0.0,15.5,1.6,-4.2,0,0,1024,1024,1024,1024,0,0,0,0,0,0,0,80,3.818,3.819,0,0,0,0,5.287,72.5,755.81901959303,35.104988,6,P-GPS,,10.7
289200,2026-01-13 12:24:58,755.49093559303,38.385828,0.223694,3.00516085732,5.7692259064,20,5,7.634,756.47518759303,35.761156,0.447388,4.0688321512,0.0,-0.223694,0.0,15.5,1.0,-4.4,0,0,1024,1024,1024,1024,0,0,0,0,0,0,0,80,3.818,3.822,0,0,0,0,5.669,72.5,755.49093559303,34.776904,6,P-GPS,,10.6
289300,2026-01-13 12:24:58,755.49093559303,38.385828,0.0,3.0199640074,5.814304648,20,5,7.634,756.47518759303,35.761156,0.447388,4.0688321512,0.0,0.0,0.0,15.4,1.8,-4.2,0,0,1024,1024,1024,1024,0,0,0,0,0,0,0,80,3.818,3.822,0,0,0,0,5.669,72.5,755.49093559303,34.776904,6,P-GPS,,10.6
289400,2026-01-13 12:24:58,755.49093559303,38.385828,0.0,3.02674222284,5.8562337832,20,5,7.634,756.47518759303,35.761156,0.447388,4.0688321512,0.0,0.0,0.0,15.4,1.9,-4.3,0,0,1024,1024,1024,1024,0,0,0,0,0,0,0,80,3.818,3.822,0,0,0,0,5.669,72.5,755.49093559303,34.776904,6,P-GPS,,10.6
289500,2026-01-13 12:24:58,755.16285159303,38.385828,0.0,3.02559392884,5.8990159368,20,5,7.634,756.47518759303,35.761156,0.447388,4.0688321512,0.0,0.0,0.0,15.5,1.8,-4.1,0,0,1024,1024,1024,1024,0,0,0,0,0,0,0,80,3.818,3.822,0,0,0,0,5.669,72.5,755.16285159303,34.44882,6,P-GPS,,10.5
289600,2026-01-13 12:24:58,755.16285159303,38.385828,0.0,3.04734917888,5.9887141024,20,5,7.634,756.47518759303,35.761156,0.447388,4.0688321512,0.0,0.0,0.0,15.4,2.3,-4.2,0,0,1024,1024,1024,1024,0,0,0,0,0,0,0,80,3.818,3.822,0,0,0,0,5.669,72.5,755.16285159303,34.44882,6,P-GPS,,10.5
289700,2026-01-13 12:24:58,755.16285159303,38.385828,0.0,3.0391733256,6.0443899572,20,5,7.634,756.47518759303,35.761156,0.447388,4.0688321512,0.0,0.0,0.0,15.6,2.4,-4.0,0,0,1024,1024,1024,1024,0,0,0,0,0,0,0,80,3.818,3.822,0,0,0,0,5.669,72.5,755.16285159303,34.44882,6,P-GPS,,10.5
289800,2026-01-13 12:24:59,755.16285159303,38.385828,0.0,3.02235245892,6.0913387776,19,5,7.634,756.47518759303,35.761156,0.447388,4.0688321512,0.0,0.0,0.0,15.6,2.1,-4.5,0,0,1024,1024,1024,1024,0,0,0,0,0,0,0,80,3.818,3.822,0,0,0,0,5.669,72.5,755.16285159303,34.44882,6,P-GPS,,10.5
289900,2026-01-13 12:24:59,755.16285159303,38.385828,0.0,2.99486230056,6.1399608264,19,5,7.634,756.47518759303,35.761156,0.447388,4.0688321512,0.0,0.0,0.0,15.5,3.0,-3.9,0,0,1024,1024,1024,1024,0,0,0,0,0,0,0,80,3.818,3.822,0,0,0,0,5.669,72.5,755.16285159303,34.44882,6,P-GPS,,10.5
290000,2026-01-13 12:24:59,755.16285159303,38.385828,0.0,2.97239510824,6.1740159456,19,5,7.634,756.47518759303,35.761156,0.447388,4.0688321512,0.0,0.0,0.0,15.6,2.7,-3.7,0,0,1024,1024,1024,1024,0,0,0,0,0,0,0,80,3.818,3.822,0,0,0,0,5.669,72.5,755.16285159303,34.44882,6,P-GPS,,10.5
290100,2026-01-13 12:24:59,755.16285159303,38.385828,0.0,2.95046925452,6.1989503296,19,5,7.634,756.47518759303,35.761156,0.447388,4.0688321512,0.0,0.0,0.0,15.6,2.9,-3.9,0,0,1024,1024,1024,1024,0,0,0,0,0,0,0,80,3.818,3.822,0,0,0,0,5.669,72.5,755.16285159303,34.44882,6,P-GPS,SD card speed low. Normal use may be affected. Replace SD card (Code: 10028). Gimbal stuck. Make sure gimbal cover is removed and manually check whether gimbal can rotate freely (Code: 40002),10.5
290200,2026-01-13 12:24:59,755.16285159303,38.385828,0.0,2.9283301462,6.2296918004,19,5,7.634,756.47518759303,35.761156,0.447388,4.0688321512,0.0,0.0,0.0,15.7,2.9,-4.3,0,0,1024,1024,1024,1024,0,0,0,0,0,0,0,80,3.818,3.822,0,0,0,0,5.669,72.5,755.16285159303,34.44882,6,P-GPS,,10.5
290300,2026-01-13 12:24:59,754.83476759303,38.385828,0.223694,2.90527240268,6.275590752,19,5,7.634,756.47518759303,35.761156,0.447388,4.0688321512,0.223694,0.0,0.0,15.7,3.2,-3.8,0,0,1024,1024,1024,1024,0,0,0,0,0,0,0,80,3.818,3.822,0,0,0,0,5.669,72.5,754.83476759303,34.120736,6,P-GPS,,10.4
290400,2026-01-13 12:24:59,754.83476759303,38.385828,0.0,2.89608276984,6.3036747424,19,5,7.659,756.47518759303,35.761156,0.447388,4.0688321512,0.0,0.0,0.0,15.6,3.7,-3.5,0,0,1024,1024,1024,1024,0,0,0,0,0,0,0,80,3.828,3.832,0,0,0,0,5.346,72.5,754.83476759303,34.120736,6,P-GPS,,10.4
290500,2026-01-13 12:24:59,754.83476759303,38.385828,0.0,2.86623696836,6.3465881296,19,5,7.659,756.47518759303,35.761156,0.447388,4.0688321512,0.0,0.0,0.0,15.6,4.0,-3.5,0,0,1024,1024,1024,1024,0,0,0,0,0,0,0,80,3.828,3.832,0,0,0,0,5.346,72.5,754.83476759303,34.120736,6,P-GPS,,10.4
290600,2026-01-13 12:24:59,754.83476759303,38.385828,0.0,2.8425033718,6.3809385244,19,5,7.659,756.47518759303,35.761156,0.447388,4.0688321512,0.0,0.0,0.0,15.5,3.8,-4.0,0,0,1024,1024,1024,1024,0,0,0,0,0,0,0,80,3.828,3.832,0,0,0,0,5.346,72.5,754.83476759303,34.120736,6,P-GPS,,10.4
290700,2026-01-13 12:25:00,755.16285159303,38.385828,0.0,2.8244587518,6.4098755332,19,5,7.659,756.47518759303,35.761156,0.447388,4.0688321512,0.0,0.0,0.0,15.5,3.3,-4.3,0,0,1024,1024,1024,1024,0,0,0,0,0,0,0,80,3.828,3.832,0,0,0,0,5.346,72.5,755.16285159303,34.44882,6,P-GPS,,10.5
290800,2026-01-13 12:25:00,755.16285159303,38.385828,0.0,2.80467856744,6.444061886,19,5,7.659,756.47518759303,35.761156,0.447388,4.0688321512,0.0,0.0,0.0,15.5,3.6,-4.3,0,0,1024,1024,1024,1024,0,0,0,0,0,0,0,80,3.828,3.832,0,0,0,0,5.346,72.5,755.16285159303,34.44882,6,P-GPS,,10.5
290900,2026-01-13 12:25:00,755.16285159303,38.385828,0.0,2.80193906604,6.50262488,19,5,7.659,756.47518759303,35.761156,0.447388,4.0688321512,0.0,0.0,0.0,15.6,4.1,-3.9,0,0,1024,1024,1024,1024,0,0,0,0,0,0,0,80,3.828,3.832,0,0,0,0,5.346,72.5,755.16285159303,34.44882,6,P-GPS,,10.5
291000,2026-01-13 12:25:00,755.16285159303,38.385828,0.0,2.78102371104,6.5354988968,19,5,7.659,756.47518759303,35.761156,0.447388,4.0688321512,0.0,0.0,0.0,15.5,4.3,-4.0,0,0,1024,1024,1024,1024,0,0,0,0,0,0,0,80,3.828,3.832,0,0,0,0,5.346,72.5,755.16285159303,34.44882,6,P-GPS,,10.5
291100,2026-01-13 12:25:00,754.83476759303,38.385828,0.0,2.76087279176,6.5580382676,19,5,7.659,756.47518759303,35.761156,0.447388,4.0688321512,0.0,0.0,0.0,15.5,4.1,-4.0,0,0,1024,1024,1024,1024,0,0,0,0,0,0,0,80,3.828,3.832,0,0,0,0,5.346,72.5,754.83476759303,34.120736,6,P-GPS,,10.4
291200,2026-01-13 12:25:00,754.83476759303,38.385828,0.0,2.74501649204,6.5745080844,19,5,7.659,756.47518759303,35.761156,0.447388,4.0688321512,0.0,0.0,0.0,15.6,3.4,-4.0,0,0,1024,1024,1024,1024,0,0,0,0,0,0,0,80,3.828,3.832,0,0,0,0,5.346,72.5,754.83476759303,34.120736,6,P-GPS,,10.4
291300,2026-01-13 12:25:00,754.83476759303,38.385828,0.0,2.72351058584,6.5977036232,19,5,7.659,756.47518759303,35.761156,0.447388,4.0688321512,0.0,0.0,0.0,15.5,3.1,-4.1,0,0,1024,1024,1024,1024,0,0,0,0,0,0,0,80,3.828,3.832,0,0,0,0,5.346,72.5,754.83476759303,34.120736,6,P-GPS,,10.4
291400,2026-01-13 12:25:00,754.83476759303,38.385828,0.0,2.71091216024,6.6124674032,19,5,7.659,756.47518759303,35.761156,0.447388,4.0688321512,0.0,0.0,0.0,15.4,3.5,-3.9,0,0,1024,1024,1024,1024,0,0,0,0,0,0,0,80,3.828,3.832,0,0,0,0,5.346,72.5,754.83476759303,34.120736,6,P-GPS,,10.4
291500,2026-01-13 12:25:00,754.83476759303,38.385828,0.0,2.7017553358,6.6243112356,19,5,7.66,756.47518759303,35.761156,0.447388,4.0688321512,0.0,0.0,0.0,15.5,3.1,-3.6,0,0,1024,1024,1024,1024,0,0,0,0,0,0,0,80,3.827,3.832,0,0,0,0,5.052,72.5,754.83476759303,34.120736,6,P-GPS,,10.4
291600,2026-01-13 12:25:00,754.83476759303,38.385828,0.0,2.70074155624,6.6293309208,19,5,7.66,756.47518759303,35.761156,0.447388,4.0688321512,0.0,0.0,0.0,15.5,2.9,-3.0,0,0,1024,1024,1024,1024,0,0,0,0,0,0,0,80,3.827,3.832,0,0,0,0,5.052,72.5,754.83476759303,34.120736,6,P-GPS,,10.4
291700,2026-01-13 12:25:00,754.83476759303,38.385828,0.0,2.71817594,6.6477364332,19,5,7.66,756.47518759303,35.761156,0.447388,4.0688321512,0.0,0.0,0.0,15.4,2.9,-3.3,0,0,1024,1024,1024,1024,0,0,0,0,0,0,0,80,3.827,3.832,0,0,0,0,5.052,72.5,754.83476759303,34.120736,6,P-GPS,,10.4
291800,2026-01-13 12:25:01,754.83476759303,38.385828,0.0,2.71533145172,6.6508204228,19,5,7.66,756.47518759303,35.761156,0.447388,4.0688321512,0.0,0.0,0.0,15.5,2.8,-3.6,0,0,1024,1024,1024,1024,0,0,0,0,0,0,0,80,3.827,3.832,0,0,0,0,5.052,72.5,754.83476759303,34.120736,6,P-GPS,,10.4
291900,2026-01-13 12:25:01,754.83476759303,38.385828,0.0,2.70607292124,6.660761368,19,5,7.66,756.47518759303,35.761156,0.447388,4.0688321512,0.0,0.0,0.0,15.5,3.0,-3.6,0,0,1024,1024,1024,1024,0,0,0,0,0,0,0,80,3.827,3.832,0,0,0,0,5.052,72.5,754.83476759303,34.120736,6,P-GPS,,10.4
292000,2026-01-13 12:25:01,754.83476759303,38.385828,0.0,2.700377383,6.6699805284,19,5,7.66,756.47518759303,35.761156,0.447388,4.0688321512,0.0,0.0,0.0,15.5,2.7,-3.5,0,0,1024,1024,1024,1024,0,0,0,0,0,0,0,80,3.827,3.832,0,0,0,0,5.052,72.5,754.83476759303,34.120736,6,P-GPS,,10.4
292100,2026-01-13 12:25:01,754.83476759303,38.385828,0.0,2.68742790752,6.7101052016,19,5,7.66,756.47518759303,35.761156,0.447388,4.0688321512,0.0,0.0,0.0,15.6,2.4,-3.4,0,0,1024,1024,1024,1024,0,0,0,0,0,0,0,80,3.827,3.832,0,0,0,0,5.052,72.5,754.83476759303,34.120736,6,P-GPS,,10.4
292200,2026-01-13 12:25:01,754.83476759303,38.385828,0.0,2.68917659524,6.732775806,19,5,7.66,756.47518759303,35.761156,0.447388,4.0688321512,0.0,0.0,0.0,15.7,2.6,-3.0,0,0,1024,1024,1024,1024,0,0,0,0,0,0,0,80,3.827,3.832,0,0,0,0,5.052,72.5,754.83476759303,34.120736,6,P-GPS,,10.4
292300,2026-01-13 12:25:01,754.83476759303,38.385828,0.0,2.69208670032,6.7666996916,19,5,7.66,756.47518759303,35.761156,0.447388,4.0688321512,0.0,0.0,0.0,15.7,3.3,-2.9,0,0,1024,1024,1024,1024,0,0,0,0,0,0,0,80,3.827,3.832,0,0,0,0,5.052,72.5,754.83476759303,34.120736,6,P-GPS,,10.4
292400,2026-01-13 12:25:01,754.83476759303,38.385828,0.0,2.68750664768,6.8032482492,19,5,7.66,756.47518759303,35.761156,0.447388,4.0688321512,0.0,0.0,0.0,15.7,3.3,-3.1,0,0,1024,1024,1024,1024,0,0,0,0,0,0,0,80,3.827,3.832,0,0,0,0,5.052,72.5,754.83476759303,34.120736,6,P-GPS,,10.4
292500,2026-01-13 12:25:01,754.83476759303,38.385828,0.0,2.67553158168,6.8460632112,19,5,7.66,756.47518759303,35.761156,0.447388,4.0688321512,0.0,0.0,0.0,15.7,3.9,-2.7,0,0,1024,1024,1024,1024,0,0,0,0,0,0,0,80,3.822,3.824,0,0,0,0,5.052,72.5,754.83476759303,34.120736,6,P-GPS,,10.4
292600,2026-01-13 12:25:01,754.83476759303,38.385828,0.0,2.68150271048,6.9292325052,19,5,7.66,756.47518759303,35.761156,0.447388,4.0688321512,0.0,0.0,0.0,15.8,4.1,-2.8,0,0,1024,1024,1024,1024,0,0,0,0,0,0,0,80,3.822,3.824,0,0,0,0,5.052,72.5,754.83476759303,34.120736,6,P-GPS,,10.4
292700,2026-01-13 12:25:01,754.83476759303,38.385828,0.0,2.664206122,6.9761813256,19,5,7.66,756.47518759303,35.761156,0.447388,4.0688321512,0.0,0.0,0.0,15.7,4.6,-3.4,0,0,1024,1024,1024,1024,0,0,0,0,0,0,0,80,3.822,3.824,0,0,0,0,5.052,72.5,754.83476759303,34.120736,6,P-GPS,,10.4
292800,2026-01-13 12:25:02,754.83476759303,38.385828,0.0,2.6401247564,7.0293965504,19,5,7.66,756.47518759303,35.761156,0.447388,4.0688321512,0.0,0.0,0.0,15.4,5.3,-3.3,0,0,1024,1024,1024,1024,0,0,0,0,0,0,0,80,3.822,3.824,0,0,0,0,5.052,72.5,754.83476759303,34.120736,6,P-GPS,,10.4
292900,2026-01-13 12:25:02,755.16285159303,38.385828,0.0,2.6068898472,7.0916340852,19,5,7.66,756.47518759303,35.761156,0.447388,4.0688321512,0.0,0.0,0.0,15.5,5.5,-3.9,0,0,1024,1024,1024,1024,0,0,0,0,0,0,0,80,3.822,3.824,0,0,0,0,5.052,72.5,755.16285159303,34.44882,6,P-GPS,,10.5
293000,2026-01-13 12:25:02,755.16285159303,38.385828,0.0,2.56886163076,7.1763125656,19,5,7.66,756.47518759303,35.761156,0.447388,4.0688321512,0.0,0.0,0.0,15.5,5.8,-4.5,0,0,1024,1024,1024,1024,0,0,0,0,0,0,0,80,3.822,3.824,0,0,0,0,5.052,72.5,755.16285159303,34.44882,6,P-GPS,,10.5
293100,2026-01-13 12:25:02,755.16285159303,38.385828,0.0,2.5323327582,7.2358598116,19,5,7.66,756.47518759303,35.761156,0.447388,4.0688321512,0.0,0.0,0.0,15.4,6.6,-4.7,0,0,1024,1024,1024,1024,0,0,0,0,0,0,0,80,3.822,3.824,0,0,0,0,5.052,72.5,755.16285159303,34.44882,6,P-GPS,,10.5
293200,2026-01-13 12:25:02,755.16285159303,38.385828,0.0,2.49713262584,7.2914372412,19,5,7.66,756.47518759303,35.761156,0.447388,4.0688321512,0.0,0.0,0.0,15.3,6.5,-4.7,0,0,1024,1024,1024,1024,0,0,0,0,0,0,0,80,3.822,3.824,0,0,0,0,5.052,72.5,755.16285159303,34.44882,6,P-GPS,,10.5
293300,2026-01-13 12:25:02,755.49093559303,38.385828,0.0,2.462762546,7.3443899988,19,5,7.66,756.47518759303,35.761156,0.447388,4.0688321512,0.0,0.0,0.0,15.2,6.7,-4.2,0,0,1024,1024,1024,1024,0,0,0,0,0,0,0,80,3.822,3.824,0,0,0,0,5.052,72.5,755.49093559303,34.776904,6,P-GPS,,10.6
293400,2026-01-13 12:25:02,755.49093559303,38.385828,0.0,2.43194889672,7.3942587668,19,5,7.66,756.47518759303,35.761156,0.447388,4.0688321512,0.0,0.0,0.0,15.0,6.7,-4.9,0,0,1024,1024,1024,1024,0,0,0,0,0,0,0,80,3.822,3.824,0,0,0,0,5.052,72.5,755.49093559303,34.776904,6,P-GPS,,10.6
293500,2026-01-13 12:25:02,755.49093559303,38.385828,0.223694,2.40511162552,7.4487535192,19,5,7.66,756.47518759303,35.761156,0.447388,4.0688321512,0.223694,0.0,0.0,15.4,6.7,-4.9,0,0,1024,1024,1024,1024,0,0,0,0,0,0,0,80,3.822,3.824,0,0,0,0,5.052,72.5,755.49093559303,34.776904,6,P-GPS,,10.6
293600,2026-01-13 12:25:02,755.81901959303,38.385828,0.223694,2.38649285852,7.5100396104,19,5,7.658,756.47518759303,35.761156,0.447388,4.0688321512,0.223694,0.0,0.0,15.3,7.2,-4.0,0,0,1024,1024,1024,1024,0,0,0,0,0,0,0,80,3.83,3.828,0,0,0,0,5.133,72.5,755.81901959303,35.104988,6,P-GPS,,10.7
293700,2026-01-13 12:25:02,755.81901959303,38.385828,0.223694,2.37420939356,7.5788060168,19,5,7.658,756.47518759303,35.761156,0.447388,4.0688321512,0.223694,0.0,-0.223694,15.2,7.9,-4.4,0,0,1024,1024,1024,1024,0,0,0,0,0,0,0,80,3.83,3.828,0,0,0,0,5.133,72.5,755.81901959303,35.104988,6,P-GPS,,10.7
293800,2026-01-13 12:25:03,755.81901959303,38.385828,0.0,2.3753609684,7.6508532632,20,5,7.658,756.47518759303,35.761156,0.447388,4.0688321512,0.0,0.0,0.0,15.0,8.2,-4.7,0,0,1024,1024,1024,1024,0,0,0,0,0,0,0,80,3.83,3.828,0,0,0,0,5.133,72.5,755.81901959303,35.104988,6,P-GPS,,10.7
293900,2026-01-13 12:25:03,756.14710359303,38.385828,0.0,2.36576779224,7.6946524772,20,5,7.658,756.47518759303,35.761156,0.447388,4.0688321512,0.0,0.0,0.0,14.9,8.9,-4.3,0,0,1024,1024,1024,1024,0,0,0,0,0,0,0,80,3.83,3.828,0,0,0,0,5.133,72.5,756.14710359303,35.433072,6,P-GPS,,10.8
294000,2026-01-13 12:25:03,756.14710359303,38.385828,0.0,2.36021333012,7.7279858116,20,5,7.658,756.47518759303,35.761156,0.447388,4.0688321512,0.0,0.0,0.0,15.2,7.4,-3.9,0,0,1024,1024,1024,1024,0,0,0,0,0,0,0,80,3.83,3.828,0,0,0,0,5.133,72.5,756.14710359303,35.433072,6,P-GPS,,10.8
294100,2026-01-13 12:25:03,756.14710359303,38.385828,0.0,2.35742133528,7.7596459176,20,5,7.658,756.47518759303,35.761156,0.447388,4.0688321512,0.0,0.0,0.0,15.3,6.6,-3.9,0,0,1024,1024,1024,1024,0,0,0,0,0,0,0,80,3.83,3.828,0,0,0,0,5.133,72.5,756.14710359303,35.433072,6,P-GPS,,10.8
294200,2026-01-13 12:25:03,756.14710359303,38.385828,0.0,2.36105978684,7.7727364692,20,5,7.658,756.47518759303,35.761156,0.447388,4.0688321512,0.0,0.0,0.0,15.5,5.6,-3.6,0,0,1024,1024,1024,1024,0,0,0,0,0,0,0,80,3.83,3.828,0,0,0,0,5.133,72.5,756.14710359303,35.433072,6,P-GPS,,10.8
294300,2026-01-13 12:25:03,756.47518759303,38.385828,0.0,2.36042002304,7.7871393568,20,5,7.658,756.47518759303,35.761156,0.447388,4.0688321512,0.0,0.0,0.0,15.2,5.0,-3.8,0,0,1024,1024,1024,1024,0,0,0,0,0,0,0,80,3.83,3.828,0,0,0,0,5.133,72.5,756.47518759303,35.761156,6,P-GPS,,10.9
294400,2026-01-13 12:25:03,756.47518759303,38.385828,0.223694,2.36312999688,7.799869016,20,5,7.658,756.47518759303,35.761156,0.447388,4.0688321512,-0.223694,0.0,0.0,15.2,4.5,-4.3,0,0,1024,1024,1024,1024,0,0,0,0,0,0,0,80,3.83,3.828,0,0,0,0,5.133,72.5,756.47518759303,35.761156,6,P-GPS,,10.9
294500,2026-01-13 12:25:03,756.47518759303,38.385828,0.223694,2.3646818342,7.8193572056,20,5,7.658,756.47518759303,35.761156,0.447388,4.0688321512,-0.223694,0.0,0.0,15.3,4.7,-4.5,0,0,1024,1024,1024,1024,0,0,0,0,0,0,0,80,3.83,3.828,0,0,0,0,5.133,72.5,756.47518759303,35.761156,6,P-GPS,,10.9
294600,2026-01-13 12:25:03,756.47518759303,38.385828,0.223694,2.3641897082,7.8492784664,20,5,7.658,756.47518759303,35.761156,0.447388,4.0688321512,-0.223694,0.0,0.0,15.4,4.6,-4.2,0,0,1024,1024,1024,1024,0,0,0,0,0,0,0,80,3.83,3.828,0,0,0,0,5.133,72.5,756.47518759303,35.761156,6,P-GPS,,10.9
294700,2026-01-13 12:25:03,756.47518759303,38.385828,0.0,2.3311024368,7.966535688,20,5,7.658,756.47518759303,35.761156,0.447388,4.0688321512,0.0,0.0,0.0,15.4,4.9,-4.3,0,0,1024,1024,1024,1024,0,0,0,0,0,0,0,80,3.83,3.828,0,0,0,0,5.133,72.5,756.47518759303,35.761156,6,P-GPS,,10.9
294800,2026-01-13 12:25:04,756.47518759303,38.385828,0.0,2.32717199048,7.9869753212,20,5,7.698,756.47518759303,35.761156,0.447388,4.0688321512,0.0,0.0,0.0,15.4,5.6,-4.2,0,0,1024,1024,1024,1024,0,0,0,0,0,0,0,80,3.843,3.844,0,0,0,0,4.247,72.68,756.47518759303,35.761156,6,P-GPS,,10.9
294900,2026-01-13 12:25:04,756.47518759303,38.385828,0.0,2.32651254164,7.9905514368,20,5,7.698,756.47518759303,35.761156,0.447388,4.0688321512,0.0,0.0,0.0,15.4,5.1,-4.3,0,0,1024,1024,1024,1024,0,0,0,0,0,0,0,80,3.843,3.844,0,0,0,0,4.247,72.68,756.47518759303,35.761156,6,P-GPS,,10.9
295000,2026-01-13 12:25:04,756.47518759303,38.385828,0.0,2.3302330142,7.9948821456,20,5,7.698,756.47518759303,35.761156,0.447388,4.0688321512,0.0,0.0,0.0,15.4,4.9,-4.3,0,0,1024,1024,1024,1024,0,0,0,0,0,0,0,80,3.843,3.844,0,0,0,0,4.247,72.68,756.47518759303,35.761156,6,P-GPS,,10.9
295100,2026-01-13 12:25:04,756.47518759303,38.385828,0.0,2.33140755492,8.0038060304,20,5,7.698,756.47518759303,35.761156,0.447388,4.0688321512,0.0,0.0,0.0,15.4,4.6,-4.5,0,0,1024,1024,1024,1024,0,0,0,0,0,0,0,80,3.843,3.844,0,0,0,0,4.247,72.68,756.47518759303,35.761156,6,P-GPS,,10.9
295200,2026-01-13 12:25:04,756.47518759303,38.385828,0.0,2.33944889376,8.0144031436,20,5,7.698,756.47518759303,35.761156,0.447388,4.0688321512,0.0,0.0,0.0,15.5,4.7,-4.2,0,0,1024,1024,1024,1024,0,0,0,0,0,0,0,80,3.843,3.844,0,0,0,0,4.247,72.68,756.47518759303,35.761156,6,P-GPS,,10.9
295300,2026-01-13 12:25:04,756.47518759303,38.385828,0.0,2.34909456336,8.0335304408,20,5,7.698,756.47518759303,35.761156,0.447388,4.0688321512,0.0,0.0,0.0,15.5,4.8,-4.0,0,0,1024,1024,1024,1024,0,0,0,0,0,0,0,80,3.843,3.844,0,0,0,0,4.247,72.68,756.47518759303,35.761156,6,P-GPS,,10.9
295400,2026-01-13 12:25:04,756.47518759303,38.385828,0.0,2.35945873692,8.053149864,20,5,7.698,756.47518759303,35.761156,0.447388,4.0688321512,0.0,0.0,0.0,15.6,4.5,-4.0,0,0,1024,1024,1024,1024,0,0,0,0,0,0,0,80,3.843,3.844,0,0,0,0,4.247,72.68,756.47518759303,35.761156,6,P-GPS,,10.9
295500,2026-01-13 12:25:04,756.47518759303,38.385828,0.0,2.36611228044,8.1022640388,20,5,7.698,756.47518759303,35.761156,0.447388,4.0688321512,0.0,0.0,0.0,15.5,4.8,-3.8,0,0,1024,1024,1024,1024,0,0,0,0,0,0,0,80,3.843,3.844,0,0,0,0,4.247,72.68,756.47518759303,35.761156,6,P-GPS,,10.9
295600,2026-01-13 12:25:04,756.47518759303,38.385828,0.0,2.3715223856,8.1287076092,20,5,7.698,756.47518759303,35.761156,0.447388,4.0688321512,0.0,0.0,0.0,15.6,4.8,-3.7,0,0,1024,1024,1024,1024,0,0,0,0,0,0,0,80,3.843,3.844,0,0,0,0,4.247,72.68,756.47518759303,35.761156,6,P-GPS,,10.9
295700,2026-01-13 12:25:04,756.47518759303,38.385828,0.0,2.36957356664,8.1674215212,20,5,7.698,756.47518759303,35.761156,0.447388,4.0688321512,0.0,0.0,0.0,15.6,4.4,-3.7,0,0,1024,1024,1024,1024,0,0,0,0,0,0,0,80,3.843,3.844,0,0,0,0,4.247,72.68,756.47518759303,35.761156,6,P-GPS,,10.9
295800,2026-01-13 12:25:04,756.47518759303,38.385828,0.0,2.3764600498,8.1962601048,20,5,7.698,756.47518759303,35.761156,0.447388,4.0688321512,0.0,0.0,0.0,15.6,5.0,-3.8,0,0,1024,1024,1024,1024,0,0,0,0,0,0,0,80,3.843,3.844,0,0,0,0,4.247,72.68,756.47518759303,35.761156,6,P-GPS,,10.9
295900,2026-01-13 12:25:05,756.47518759303,38.385828,0.0,2.39529535224,8.2207023628,20,5,7.67,756.47518759303,35.761156,0.447388,4.0688321512,0.0,0.0,0.0,15.5,5.1,-3.7,0,0,1024,1024,1024,1024,0,0,0,0,0,0,0,80,3.833,3.836,0,0,0,0,4.592,72.68,756.47518759303,35.761156,6,P-GPS,,10.9
296000,2026-01-13 12:25:05,756.47518759303,38.385828,0.0,2.38828091632,8.245079004,20,5,7.67,756.47518759303,35.761156,0.447388,4.0688321512,0.0,0.0,0.0,15.5,5.1,-3.6,0,0,1024,1024,1024,1024,0,0,0,0,0,0,0,80,3.833,3.836,0,0,0,0,4.592,72.68,756.47518759303,35.761156,6,P-GPS,,10.9
296100,2026-01-13 12:25:05,756.47518759303,38.385828,0.0,2.3962763234,8.2609582696,20,5,7.67,756.47518759303,35.761156,0.447388,4.0688321512,0.0,0.0,0.0,15.6,4.9,-3.8,0,0,1024,1024,1024,1024,0,0,0,0,0,0,0,80,3.833,3.836,0,0,0,0,4.592,72.68,756.47518759303,35.761156,6,P-GPS,,10.9
296200,2026-01-13 12:25:05,756.47518759303,38.385828,0.0,2.40663393528,8.2715553828,19,5,7.67,756.47518759303,35.761156,0.447388,4.0688321512,0.0,0.0,0.0,15.6,4.6,-3.6,0,0,1024,1024,1024,1024,0,0,0,0,0,0,0,80,3.833,3.836,0,0,0,0,4.592,72.68,756.47518759303,35.761156,6,P-GPS,,10.9
296300,2026-01-13 12:25:05,756.14710359303,38.385828,0.0,2.41837606164,8.2866800552,19,5,7.67,756.47518759303,35.761156,0.447388,4.0688321512,0.0,0.0,0.0,15.5,4.3,-3.7,0,0,1024,1024,1024,1024,0,0,0,0,0,0,0,80,3.833,3.836,0,0,0,0,4.592,72.68,756.14710359303,35.433072,6,P-GPS,,10.8
296400,2026-01-13 12:25:05,756.14710359303,38.385828,0.0,2.41549876496,8.322998954,19,5,7.67,756.47518759303,35.761156,0.447388,4.0688321512,0.0,0.0,0.0,15.6,4.2,-3.9,0,0,1024,1024,1024,1024,0,0,0,0,0,0,0,80,3.833,3.836,0,0,0,0,4.592,72.68,756.14710359303,35.433072,6,P-GPS,,10.8
296500,2026-01-13 12:25:05,756.14710359303,38.385828,0.0,2.42097776776,8.33169318,19,5,7.67,756.47518759303,35.761156,0.447388,4.0688321512,0.0,0.0,0.0,15.4,4.8,-4.0,0,0,1024,1024,1024,1024,0,0,0,0,0,0,0,80,3.833,3.836,0,0,0,0,4.592,72.68,756.14710359303,35.433072,6,P-GPS,,10.8
296600,2026-01-13 12:25:05,756.14710359303,38.385828,0.0,2.42433734792,8.3407811068,19,5,7.67,756.47518759303,35.761156,0.447388,4.0688321512,0.0,0.0,0.0,15.4,4.3,-4.4,0,0,1024,1024,1024,1024,0,0,0,0,0,0,0,80,3.833,3.836,0,0,0,0,4.592,72.68,756.14710359303,35.433072,6,P-GPS,,10.8
296700,2026-01-13 12:25:05,756.14710359303,38.385828,0.0,2.42886162628,8.3657482992,19,5,7.67,756.47518759303,35.761156,0.447388,4.0688321512,0.0,0.0,0.0,15.4,3.8,-4.4,0,0,1024,1024,1024,1024,0,0,0,0,0,0,0,80,3.833,3.836,0,0,0,0,4.592,72.68,756.14710359303,35.433072,6,P-GPS,,10.8
296800,2026-01-13 12:25:06,755.81901959303,38.385828,0.0,2.42623695428,8.3956039432,19,5,7.67,756.47518759303,35.761156,0.447388,4.0688321512,0.0,0.0,0.0,15.4,3.1,-4.2,0,0,1024,1024,1024,1024,0,0,0,0,0,0,0,80,3.833,3.836,0,0,0,0,4.592,72.68,755.81901959303,35.104988,6,P-GPS,,10.7
296900,2026-01-13 12:25:06,755.81901959303,38.385828,0.0,2.413796009,8.4313650992,19,5,7.67,756.47518759303,35.761156,0.447388,4.0688321512,0.0,0.0,0.0,15.5,3.3,-4.2,0,0,1024,1024,1024,1024,0,0,0,0,0,0,0,80,3.833,3.836,0,0,0,0,4.592,72.68,755.81901959303,35.104988,6,P-GPS,,10.7
297000,2026-01-13 12:25:06,755.81901959303,38.385828,0.0,2.40564968328,8.4484582756,19,5,7.653,756.47518759303,35.761156,0.447388,4.0688321512,0.0,0.0,0.0,15.5,3.2,-4.3,0,0,1024,1024,1024,1024,0,0,0,0,0,0,0,80,3.825,3.828,0,0,0,0,4.945,72.86,755.81901959303,35.104988,6,P-GPS,,10.7
297100,2026-01-13 12:25:06,755.81901959303,38.385828,0.0,2.4038550638,8.454560638,19,5,7.653,756.47518759303,35.761156,0.447388,4.0688321512,0.0,0.0,0.0,15.5,3.4,-4.4,0,0,1024,1024,1024,1024,0,0,0,0,0,0,0,80,3.825,3.828,0,0,0,0,4.945,72.86,755.81901959303,35.104988,6,P-GPS,,10.7
297200,2026-01-13 12:25:06,755.81901959303,38.385828,0.0,2.3977527014,8.4877299304,19,5,7.653,756.47518759303,35.761156,0.447388,4.0688321512,0.0,0.0,0.0,15.6,2.9,-4.1,0,0,1024,1024,1024,1024,0,0,0,0,0,0,0,80,3.825,3.828,0,0,0,0,4.945,72.86,755.81901959303,35.104988,6,P-GPS,,10.7
297300,2026-01-13 12:25:06,755.81901959303,38.385828,0.0,2.40156175664,8.51706064,19,5,7.653,756.47518759303,35.761156,0.447388,4.0688321512,0.0,0.0,0.0,15.5,3.3,-3.9,0,0,1024,1024,1024,1024,0,0,0,0,0,0,0,80,3.825,3.828,0,0,0,0,4.945,72.86,755.81901959303,35.104988,6,P-GPS,,10.7
297400,2026-01-13 12:25:06,755.81901959303,38.385828,0.0,2.40391083808,8.5505908248,19,5,7.653,756.47518759303,35.761156,0.447388,4.0688321512,0.0,0.0,0.0,15.4,4.0,-3.7,0,0,1024,1024,1024,1024,0,0,0,0,0,0,0,80,3.825,3.828,0,0,0,0,4.945,72.86,755.81901959303,35.104988,6,P-GPS,,10.7
297500,2026-01-13 12:25:06,755.81901959303,38.385828,0.0,2.40581700612,8.5851052616,19,5,7.653,756.47518759303,35.761156,0.447388,4.0688321512,0.0,0.0,0.0,15.4,4.7,-3.8,0,0,1024,1024,1024,1024,0,0,0,0,0,0,0,80,3.825,3.828,0,0,0,0,4.945,72.86,755.81901959303,35.104988,6,P-GPS,,10.7
297600,2026-01-13 12:25:06,755.81901959303,38.385828,0.0,2.4142553266,8.6111879396,20,5,7.653,756.47518759303,35.761156,0.447388,4.0688321512,0.0,0.0,0.0,15.4,4.6,-3.7,0,0,1024,1024,1024,1024,0,0,0,0,0,0,0,80,3.825,3.828,0,0,0,0,4.945,72.86,755.81901959303,35.104988,6,P-GPS,,10.7
297700,2026-01-13 12:25:07,755.81901959303,38.385828,0.0,2.44640099692,8.6448821664,20,5,7.653,756.47518759303,35.761156,0.447388,4.0688321512,0.0,0.0,0.0,15.5,4.4,-3.7,0,0,1024,1024,1024,1024,0,0,0,0,0,0,0,80,3.825,3.828,0,0,0,0,4.945,72.86,755.81901959303,35.104988,6,P-GPS,,10.7
297800,2026-01-13 12:25:07,755.81901959303,38.385828,0.0,2.45152894984,8.6577758676,20,5,7.653,756.47518759303,35.761156,0.447388,4.0688321512,0.0,0.0,0.0,15.6,4.1,-3.8,0,0,1024,1024,1024,1024,0,0,0,0,0,0,0,80,3.825,3.828,0,0,0,0,4.945,72.86,755.81901959303,35.104988,6,P-GPS,,10.7
297900,2026-01-13 12:25:07,755.81901959303,38.385828,0.0,2.44509194176,8.6726708812,20,5,7.653,756.47518759303,35.761156,0.447388,4.0688321512,0.0,0.0,0.0,15.6,4.0,-3.6,0,0,1024,1024,1024,1024,0,0,0,0,0,0,0,80,3.825,3.828,0,0,0,0,4.945,72.86,755.81901959303,35.104988,6,P-GPS,,10.7
298000,2026-01-13 12:25:07,755.81901959303,38.385828,0.0,2.44996070832,8.6832023776,20,5,7.653,756.47518759303,35.761156,0.447388,4.0688321512,0.0,0.0,0.0,15.6,3.6,-3.3,0,0,1024,1024,1024,1024,0,0,0,0,0,0,0,80,3.825,3.828,0,0,0,0,4.945,72.86,755.81901959303,35.104988,6,P-GPS,,10.7
298100,2026-01-13 12:25:07,755.81901959303,38.385828,0.0,2.46027895012,8.697834924,20,5,7.659,756.47518759303,35.761156,0.447388,4.0688321512,0.0,0.0,0.0,15.6,3.4,-3.1,0,0,1024,1024,1024,1024,0,0,0,0,0,0,0,79,3.827,3.83,0,0,0,0,4.78,72.68,755.81901959303,35.104988,6,P-GPS,,10.7
298200,2026-01-13 12:25:07,755.81901959303,38.385828,0.0,2.47464574848,8.7159779692,20,5,7.659,756.47518759303,35.761156,0.447388,4.0688321512,0.0,0.0,0.0,15.0,4.5,-2.9,0,0,1024,1024,1024,1024,0,0,0,0,0,0,0,79,3.827,3.83,0,0,0,0,4.78,72.68,755.81901959303,35.104988,6,P-GPS,,10.7
298300,2026-01-13 12:25:07,755.81901959303,38.385828,0.0,2.4843996858,8.7271656336,20,5,7.659,756.47518759303,35.761156,0.447388,4.0688321512,0.0,0.0,0.0,15.1,4.8,-2.9,0,0,1024,1024,1024,1024,0,0,0,0,0,0,0,79,3.827,3.83,0,0,0,0,4.78,72.68,755.81901959303,35.104988,6,P-GPS,,10.7
298400,2026-01-13 12:25:07,755.81901959303,38.385828,0.0,2.49490821632,8.7402561852,20,5,7.659,756.47518759303,35.761156,0.447388,4.0688321512,0.0,0.0,0.0,15.2,3.1,-2.9,0,0,1024,1024,1024,1024,0,0,0,0,0,0,0,79,3.827,3.83,0,0,0,0,4.78,72.68,755.81901959303,35.104988,6,P-GPS,,10.7
298500,2026-01-13 12:25:07,755.81901959303,38.385828,0.0,2.51386490984,8.7598428,20,5,7.659,756.47518759303,35.761156,0.447388,4.0688321512,0.0,0.0,0.0,15.4,2.0,-3.6,0,0,1024,1024,1024,1024,0,0,0,0,0,0,0,79,3.827,3.83,0,0,0,0,4.78,72.68,755.81901959303,35.104988,6,P-GPS,,10.7
298600,2026-01-13 12:25:07,755.49093559303,38.385828,0.0,2.51968183916,8.7771656352,19,5,7.659,756.47518759303,35.761156,0.447388,4.0688321512,0.0,0.0,0.0,15.6,1.3,-3.4,0,0,1024,1024,1024,1024,0,0,0,0,0,0,0,79,3.827,3.83,0,0,0,0,4.78,72.68,755.49093559303,34.776904,6,P-GPS,,10.6
298700,2026-01-13 12:25:07,755.49093559303,38.385828,0.0,2.51941609112,8.7925527748,19,5,7.659,756.47518759303,35.761156,0.447388,4.0688321512,0.0,0.0,0.0,15.8,1.7,-3.1,0,0,1024,1024,1024,1024,0,0,0,0,0,0,0,79,3.827,3.83,0,0,0,0,4.78,72.68,755.49093559303,34.776904,6,P-GPS,,10.6
298800,2026-01-13 12:25:08,755.49093559303,38.385828,0.0,2.5240158288,8.7992456884,19,5,7.659,756.47518759303,35.761156,0.447388,4.0688321512,0.0,0.0,0.0,15.7,2.3,-2.7,0,0,1024,1024,1024,1024,0,0,0,0,0,0,0,79,3.827,3.83,0,0,0,0,4.78,72.68,755.49093559303,34.776904,6,P-GPS,,10.6
298900,2026-01-13 12:25:08,755.49093559303,38.385828,0.0,2.52033800716,8.8343834848,19,5,7.659,756.47518759303,35.761156,0.447388,4.0688321512,0.0,0.0,0.0,15.6,2.9,-2.6,0,0,1024,1024,1024,1024,0,0,0,0,0,0,0,79,3.827,3.83,0,0,0,0,4.78,72.68,755.49093559303,34.776904,6,P-GPS,,10.6
299000,2026-01-13 12:25:08,755.49093559303,38.385828,0.0,2.52582357164,8.8407811228,19,5,7.659,756.47518759303,35.761156,0.447388,4.0688321512,0.0,0.0,0.0,15.5,2.8,-2.9,0,0,1024,1024,1024,1024,0,0,0,0,0,0,0,79,3.827,3.83,0,0,0,0,4.78,72.68,755.49093559303,34.776904,6,P-GPS,,10.6
299100,2026-01-13 12:25:08,755.49093559303,38.385828,0.0,2.53048892612,8.8482286296,19,5,7.659,756.47518759303,35.761156,0.447388,4.0688321512,0.0,0.0,0.0,15.6,2.1,-2.5,0,0,1024,1024,1024,1024,0,0,0,0,0,0,0,79,3.827,3.83,0,0,0,0,4.78,72.68,755.49093559303,34.776904,6,P-GPS,,10.6
299200,2026-01-13 12:25:08,755.49093559303,38.385828,0.0,2.53999023876,8.8584976588,19,5,7.666,756.47518759303,35.761156,0.447388,4.0688321512,0.0,0.0,0.0,15.5,2.4,-2.4,0,0,1024,1024,1024,1024,0,0,0,0,0,0,0,79,3.83,3.836,0,0,0,0,4.712,72.68,755.49093559303,34.776904,6,P-GPS,,10.6
299300,2026-01-13 12:25:08,755.49093559303,38.385828,0.0,2.55436031796,8.8729005464,19,5,7.666,756.47518759303,35.761156,0.447388,4.0688321512,0.0,0.0,0.0,15.4,2.2,-2.2,0,0,1024,1024,1024,1024,0,0,0,0,0,0,0,79,3.83,3.836,0,0,0,0,4.712,72.68,755.49093559303,34.776904,6,P-GPS,,10.6
299400,2026-01-13 12:25:08,755.49093559303,38.385828,0.0,2.56270021324,8.8813323052,19,5,7.666,756.47518759303,35.761156,0.447388,4.0688321512,0.0,0.0,0.0,15.5,2.6,-2.0,0,0,1024,1024,1024,1024,0,0,0,0,0,0,0,79,3.83,3.836,0,0,0,0,4.712,72.68,755.49093559303,34.776904,6,P-GPS,,10.6
299500,2026-01-13 12:25:08,755.49093559303,38.385828,0.0,2.565780922,8.8985239068,19,5,7.666,756.47518759303,35.761156,0.447388,4.0688321512,0.0,0.0,0.0,15.6,2.4,-2.0,0,0,1024,1024,1024,1024,0,0,0,0,0,0,0,79,3.83,3.836,0,0,0,0,4.712,72.68,755.49093559303,34.776904,6,P-GPS,,10.6
299600,2026-01-13 12:25:08,755.49093559303,38.385828,0.0,2.57162409804,8.9101708888,19,5,7.666,756.47518759303,35.761156,0.447388,4.0688321512,0.0,0.0,0.0,15.6,2.3,-1.9,0,0,1024,1024,1024,1024,0,0,0,0,0,0,0,79,3.83,3.836,0,0,0,0,4.712,72.68,755.49093559303,34.776904,6,P-GPS,,10.6
