time(millisecond),timestamp,altitude_above_seaLevel(feet),height_sonar(feet),speed(mph),distance(feet),mileage(feet),satellites,gpslevel,voltage(v),max_altitude(feet),max_ascent(feet),max_speed(mph),max_distance(feet), xSpeed(mph), ySpeed(mph), zSpeed(mph), compass_heading(degrees), pitch(degrees), roll(degrees),isPhoto,isVideo,rc_elevator,rc_aileron,rc_throttle,rc_rudder,rc_elevator(percent),rc_aileron(percent),rc_throttle(percent),rc_rudder(percent),gimbal_heading(degrees),gimbal_pitch(degrees),gimbal_roll(degrees),battery_percent,voltageCell1,voltageCell2,voltageCell3,voltageCell4,voltageCell5,voltageCell6,current(A),battery_temperature(f),altitude(feet),ascent(feet),flycStateRaw,flycState,message,height_above_takeoff(meters)
291700,2026-01-12 12:11:08,720.7721031172,0.328084,0.0,0.0,0.0,17,5,0.0,720.7721031172,0.0,0.0,0.0,0.0,0.0,0.0,17.3,1.6,0.0,0,0,1024,1024,1024,1024,0,0,0,0,0,0,0,80,3.968,3.964,0,0,0,0,0.0,69.8,720.7721031172,0.0,41,Motors_Started,SD card speed low SD card speed low. Normal use may be affected. Replace SD card (Code: 10028). Gimbal stuck. Make sure gimbal cover is removed and manually check whether gimbal can rotate freely (Code: 40002),0.0
291800,2026-01-12 12:11:08,720.7721031172,0.328084,0.0,0.010465715558,0.010465715558,17,5,0.0,720.7721031172,0.0,0.0,0.010465715558,0.0,0.0,0.0,17.3,1.6,0.0,0,0,1024,1024,1024,1024,0,0,0,0,0,0,0,80,3.968,3.964,0,0,0,0,0.0,69.8,720.7721031172,0.0,41,Motors_Started,,0.0
291900,2026-01-12 12:11:08,720.7721031172,0.328084,0.0,0.049063977948,0.050522967496,17,5,0.0,720.7721031172,0.0,0.0,0.049063977948,0.0,0.0,0.0,17.3,1.6,0.0,0,0,1024,1024,1024,1024,0,0,0,0,0,0,0,80,3.968,3.964,0,0,0,0,0.0,69.8,720.7721031172,0.0,41,Motors_Started,,0.0
292000,2026-01-12 12:11:08,720.7721031172,0.328084,0.0,0.062822836656,0.064454070304,17,5,0.0,720.7721031172,0.0,0.0,0.062822836656,0.0,0.0,0.0,17.3,1.6,0.0,0,0,1024,1024,1024,1024,0,0,0,0,0,0,0,80,3.968,3.964,0,0,0,0,0.0,69.8,720.7721031172,0.0,41,Motors_Started,,0.0
292100,2026-01-12 12:11:08,720.7721031172,0.328084,0.0,0.07375656404,0.078406498572,17,5,0.0,720.7721031172,0.0,0.0,0.07375656404,0.0,0.0,0.0,17.3,1.6,0.0,0,0,1024,1024,1024,1024,0,0,0,0,0,0,0,80,3.968,3.964,0,0,0,0,0.0,69.8,720.7721031172,0.0,41,Motors_Started,,0.0
292200,2026-01-12 12:11:09,720.7721031172,0.328084,0.0,0.080141734848,0.08633858544,17,5,0.0,720.7721031172,0.0,0.0,0.080141734848,0.0,0.0,0.0,17.2,1.6,0.0,0,0,1024,1024,1024,1024,0,0,0,0,0,0,0,80,3.968,3.964,0,0,0,0,0.0,69.8,720.7721031172,0.0,41,Motors_Started,,0.0
292300,2026-01-12 12:11:09,720.7721031172,0.328084,0.0,0.076359582496,0.099082352252,17,5,0.0,720.7721031172,0.0,0.0,0.080141734848,0.0,0.0,0.0,17.2,1.6,0.0,0,0,1024,1024,1024,1024,0,0,0,0,0,0,0,80,3.968,3.964,0,0,0,0,0.0,69.8,720.7721031172,0.0,41,Motors_Started,,0.0
292400,2026-01-12 12:11:09,720.7721031172,0.328084,0.0,0.07508694466,0.100815620024,17,5,0.0,720.7721031172,0.0,0.0,0.080141734848,0.0,0.0,0.0,17.3,1.6,0.0,0,0,1024,1024,1024,1024,0,0,0,0,0,0,0,80,3.968,3.964,0,0,0,0,0.0,69.8,720.7721031172,0.0,41,Motors_Started,,0.0
292500,2026-01-12 12:11:09,720.7721031172,0.328084,0.0,0.071870409124,0.104042654248,17,5,0.0,720.7721031172,0.0,0.0,0.080141734848,0.0,0.0,0.0,17.3,1.6,0.0,0,0,1024,1024,1024,1024,0,0,0,0,0,0,0,80,3.968,3.964,0,0,0,0,0.0,69.8,720.7721031172,0.0,41,Motors_Started,,0.0
292600,2026-01-12 12:11:09,720.7721031172,0.328084,0.0,0.07939304716,0.111808074444,17,5,0.0,720.7721031172,0.0,0.0,0.080141734848,0.0,0.0,0.0,17.2,1.6,0.0,0,0,1024,1024,1024,1024,0,0,0,0,0,0,0,80,3.968,3.964,0,0,0,0,0.0,69.8,720.7721031172,0.0,41,Motors_Started,Setting new Return-To-Home altitude to 90m (295 ft). Data Recorder File Index is 35. Setting new Maximum Flight Altitude to 90m (295 ft),0.0
292700,2026-01-12 12:11:09,720.7721031172,0.328084,0.0,0.40031497344,0.131779531776,17,5,0.0,720.7721031172,0.0,0.0,0.40031497344,0.0,0.0,0.0,17.2,1.7,0.0,0,0,1024,1024,1024,1024,0,0,0,0,0,0,0,80,3.968,3.964,0,0,0,0,0.0,69.8,720.7721031172,0.0,41,Motors_Started,,0.0
292800,2026-01-12 12:11:09,720.7721031172,0.328084,0.0,0.3760826892,0.159390096964,17,5,0.0,720.7721031172,0.0,0.0,0.40031497344,0.0,0.0,0.0,17.2,1.6,0.0,0,0,1024,1024,1024,1024,0,0,0,0,0,0,0,80,3.968,3.964,0,0,0,0,0.0,69.8,720.7721031172,0.0,11,AutoTakeoff,,0.0
292900,2026-01-12 12:11:09,720.7721031172,0.328084,0.0,0.37277888332,0.164336947516,17,5,7.914,720.7721031172,0.0,0.0,0.40031497344,0.0,0.0,0.0,17.2,1.6,0.0,0,0,1024,1024,1024,1024,0,0,0,0,0,0,0,80,3.953,3.947,0,0,0,0,0.869,69.8,720.7721031172,0.0,11,AutoTakeoff,,0.0
293000,2026-01-12 12:11:09,720.7721031172,0.328084,0.0,0.3734908256,0.172025596056,17,5,7.914,720.7721031172,0.0,0.0,0.40031497344,0.0,0.0,0.0,17.1,1.6,0.0,0,0,1024,1024,1024,1024,0,0,0,0,0,0,0,80,3.953,3.947,0,0,0,0,0.869,69.8,720.7721031172,0.0,11,AutoTakeoff,,0.0
293100,2026-01-12 12:11:09,720.7721031172,0.328084,0.0,0.3784612982,0.185002958676,17,5,7.914,720.7721031172,0.0,0.0,0.40031497344,0.0,0.0,0.0,17.1,1.6,0.0,0,0,1024,1024,1024,1024,0,0,0,0,0,0,0,80,3.953,3.947,0,0,0,0,0.869,69.8,720.7721031172,0.0,11,AutoTakeoff,,0.0
293200,2026-01-12 12:11:10,720.7721031172,0.328084,0.0,0.3723589358,0.195760833036,17,5,7.914,720.7721031172,0.0,0.0,0.40031497344,0.0,0.0,0.0,17.1,1.6,0.0,0,0,1024,1024,1024,1024,0,0,0,0,0,0,0,80,3.953,3.947,0,0,0,0,0.869,69.8,720.7721031172,0.0,11,AutoTakeoff,,0.0
293300,2026-01-12 12:11:10,720.7721031172,0.328084,0.0,0.35475066752,0.214671266712,17,5,7.914,720.7721031172,0.0,0.0,0.40031497344,0.0,0.0,0.0,17.1,1.6,0.0,0,0,1024,1024,1024,1024,0,0,0,0,0,0,0,80,3.953,3.947,0,0,0,0,0.869,69.8,720.7721031172,0.0,11,AutoTakeoff,,0.0
293400,2026-01-12 12:11:10,720.7721031172,0.328084,0.0,0.34568898744,0.224143051792,17,5,7.914,720.7721031172,0.0,0.0,0.40031497344,0.0,0.0,0.0,17.6,1.7,-0.1,0,0,1024,1024,1024,1024,0,0,0,0,0,0,0,80,3.953,3.947,0,0,0,0,0.869,69.8,720.7721031172,0.0,11,AutoTakeoff,,0.0
293500,2026-01-12 12:11:10,720.7721031172,0.328084,0.0,0.34385499788,0.22632546656,17,5,7.914,720.7721031172,0.0,0.0,0.40031497344,0.0,0.0,0.0,18.5,1.3,-0.9,0,0,1024,1024,1024,1024,0,0,0,0,0,0,0,80,3.953,3.947,0,0,0,0,0.869,69.8,720.7721031172,0.0,11,AutoTakeoff,,0.0
293600,2026-01-12 12:11:10,720.7721031172,0.328084,0.0,0.36057087768,0.243511818816,17,5,7.914,720.7721031172,0.0,0.0,0.40031497344,0.0,0.0,-0.223694,19.1,1.4,-1.6,0,0,1024,1024,1024,1024,0,0,0,0,0,0,0,80,3.953,3.947,0,0,0,0,0.869,69.8,720.7721031172,0.0,11,AutoTakeoff,,0.0
293700,2026-01-12 12:11:10,720.7721031172,0.328084,0.0,0.3643700904,0.253480323072,17,5,7.914,720.7721031172,0.0,0.0,0.40031497344,0.0,0.0,-0.447388,19.1,1.9,-1.4,0,0,1024,1024,1024,1024,0,0,0,0,0,0,0,80,3.953,3.947,0,0,0,0,0.869,69.8,720.7721031172,0.0,11,AutoTakeoff,Home Point updated. RTH altitude adjusted to 90 m (Code: 120852),0.0
293800,2026-01-12 12:11:10,720.7721031172,0.656168,0.0,0.36468505104,0.253798236468,17,5,7.914,720.7721031172,0.0,0.0,0.40031497344,0.0,0.0,-0.894776,19.1,1.2,-0.6,0,0,1024,1024,1024,1024,0,0,0,0,0,0,0,80,3.953,3.947,0,0,0,0,0.869,69.8,720.7721031172,0.0,11,AutoTakeoff,,0.0
293900,2026-01-12 12:11:10,720.7721031172,0.656168,0.0,0.35975722936,0.261522646164,17,5,7.83,720.7721031172,0.0,0.0,0.40031497344,0.0,0.0,-1.11847,19.2,0.8,0.0,0,0,1024,1024,1024,1024,0,0,0,0,0,0,0,80,3.918,3.912,0,0,0,0,2.083,69.8,720.7721031172,0.0,11,AutoTakeoff,,0.0
294000,2026-01-12 12:11:10,721.1001871172,0.656168,0.0,0.36250657328,0.265731307716,17,5,7.83,721.1001871172,0.328084,0.0,0.40031497344,0.0,0.0,-1.342164,19.3,1.1,0.5,0,0,1024,1024,1024,1024,0,0,0,0,0,0,0,80,3.918,3.912,0,0,0,0,2.083,69.8,721.1001871172,0.328084,11,AutoTakeoff,,0.1
294100,2026-01-12 12:11:11,721.4282711172,0.984252,0.0,0.35050197972,0.286749024924,17,5,7.83,721.4282711172,0.656168,0.0,0.40031497344,0.0,0.0,-1.789552,19.3,1.3,0.3,0,0,1024,1024,1024,1024,0,0,0,0,0,0,0,80,3.918,3.912,0,0,0,0,2.083,69.8,721.4282711172,0.656168,11,AutoTakeoff,,0.2
294200,2026-01-12 12:11:11,721.4282711172,1.312336,0.0,0.319898960368,0.33073819956,17,5,7.83,721.4282711172,0.656168,0.0,0.40031497344,0.0,0.0,-2.013246,19.3,1.6,0.0,0,0,1024,1024,1024,1024,0,0,0,0,0,0,0,80,3.918,3.912,0,0,0,0,2.083,69.8,721.4282711172,0.656168,11,AutoTakeoff,,0.2
294300,2026-01-12 12:11:11,721.7563551172,1.312336,0.223694,0.275578092808,0.39888780804,17,5,7.83,721.7563551172,0.984252,0.223694,0.40031497344,0.223694,0.0,-2.23694,19.3,2.3,-0.4,0,0,1024,1024,1342,1024,0,0,48,0,0,0,0,80,3.918,3.912,0,0,0,0,2.083,69.8,721.7563551172,0.984252,11,AutoTakeoff,,0.3
294400,2026-01-12 12:11:11,722.0844391172,1.64042,0.223694,0.256676845484,0.45391733736,17,5,7.83,722.0844391172,1.312336,0.223694,0.40031497344,0.223694,0.0,-2.23694,19.2,3.1,-0.8,0,0,1024,1024,1684,1024,0,0,100,0,0,0,0,80,3.918,3.912,0,0,0,0,2.083,69.8,722.0844391172,1.312336,11,AutoTakeoff,,0.4
294500,2026-01-12 12:11:11,722.4125231172,1.968504,0.223694,0.235974088916,0.53638781244,17,5,7.83,722.4125231172,1.64042,0.223694,0.40031497344,0.223694,0.0,-2.23694,19.1,3.8,-1.3,0,0,1024,1024,1684,1024,0,0,100,0,0,0,0,80,3.918,3.912,0,0,0,0,2.083,69.8,722.4125231172,1.64042,11,AutoTakeoff,,0.5
294600,2026-01-12 12:11:11,722.7406071172,2.296588,0.0,0.25246391884,0.57127954584,17,5,7.83,722.7406071172,1.968504,0.223694,0.40031497344,0.0,0.0,-2.460634,19.2,3.6,-1.3,0,0,1024,1024,1684,1024,0,0,100,0,0,0,0,80,3.918,3.912,0,0,0,0,2.083,69.8,722.7406071172,1.968504,11,AutoTakeoff,,0.6
294700,2026-01-12 12:11:11,723.3967751172,2.624672,0.0,0.271296924692,0.5988681294,17,5,7.83,723.3967751172,2.624672,0.223694,0.40031497344,0.0,0.0,-2.684328,19.2,3.3,-1.0,0,0,1024,1024,1684,1024,0,0,100,0,0,0,0,80,3.918,3.912,0,0,0,0,2.083,69.8,723.3967751172,2.624672,11,AutoTakeoff,,0.8
294800,2026-01-12 12:11:11,723.7248591172,3.28084,0.0,0.271032160904,0.61187994084,17,5,7.83,723.7248591172,2.952756,0.223694,0.40031497344,0.0,0.0,-3.131716,19.1,3.3,-0.6,0,0,1024,1024,1684,1024,0,0,100,0,0,0,0,80,3.918,3.912,0,0,0,0,2.083,69.8,723.7248591172,2.952756,6,P-GPS,,0.9
294900,2026-01-12 12:11:11,724.3810271172,3.608924,0.0,0.24029856412,0.64352364264,17,5,7.693,724.3810271172,3.608924,0.223694,0.40031497344,0.0,0.0,-3.579104,19.2,3.4,-0.2,0,0,1024,1024,1684,1024,0,0,100,0,0,0,0,80,3.847,3.845,0,0,0,0,5.461,69.98,724.3810271172,3.608924,6,P-GPS,,1.1
295000,2026-01-12 12:11:11,724.7091111172,4.265092,0.0,0.251118446356,0.65906826256,17,5,7.693,724.7091111172,3.937008,0.223694,0.40031497344,0.0,0.0,-4.026492,19.1,3.6,-0.7,0,0,1024,1024,1684,1024,0,0,100,0,0,0,0,80,3.847,3.845,0,0,0,0,5.461,69.98,724.7091111172,3.937008,6,P-GPS,,1.2
295100,2026-01-12 12:11:11,725.3652791172,4.92126,0.0,0.28798721394,0.69720474672,18,5,7.693,725.3652791172,4.593176,0.223694,0.40031497344,0.0,0.0,-4.250186,19.1,3.5,-0.8,0,0,1024,1024,1684,1024,0,0,100,0,0,0,0,80,3.847,3.845,0,0,0,0,5.461,69.98,725.3652791172,4.593176,6,P-GPS,,1.4
295200,2026-01-12 12:11:12,726.0214471172,5.577428,0.0,0.304958015008,0.72243112548,18,5,7.693,726.0214471172,5.249344,0.223694,0.40031497344,0.0,0.0,-4.47388,19.2,2.7,-1.3,0,0,1024,1024,1684,1024,0,0,100,0,0,0,0,80,3.847,3.845,0,0,0,0,5.461,69.98,726.0214471172,5.249344,6,P-GPS,,1.6
295300,2026-01-12 12:11:12,726.6776151172,6.233596,0.0,0.364665366,0.828576142,18,5,7.693,726.6776151172,5.905512,0.223694,0.40031497344,0.0,0.0,-4.47388,19.2,3.0,-1.4,0,0,1024,1024,1684,1009,0,0,100,-2,0,0,0,80,3.847,3.845,0,0,0,0,5.461,69.98,726.6776151172,5.905512,6,P-GPS,,1.8
295400,2026-01-12 12:11:12,727.3337831172,6.889764,0.0,0.36457022164,0.84006892452,18,5,7.693,727.3337831172,6.56168,0.223694,0.40031497344,0.0,0.0,-4.47388,19.1,4.4,-1.6,0,0,1024,1024,1684,983,0,0,100,-6,0,0,0,80,3.847,3.845,0,0,0,0,5.461,69.98,727.3337831172,6.56168,6,P-GPS,,2.0
295500,2026-01-12 12:11:12,727.9899511172,7.545932,0.223694,0.36190289872,0.90630908412,18,5,7.693,727.9899511172,7.217848,0.223694,0.40031497344,0.223694,0.0,-4.47388,19.2,4.1,-1.4,0,0,1024,1024,1684,986,0,0,100,-6,0,0,0,80,3.847,3.845,0,0,0,0,5.461,69.98,727.9899511172,7.217848,6,P-GPS,,2.2
295600,2026-01-12 12:11:12,728.6461191172,8.2021,0.0,0.38667324072,0.979248719,18,5,7.693,728.6461191172,7.874016,0.223694,0.40031497344,0.0,0.0,-4.47388,19.1,5.1,-1.7,0,0,1024,1024,1684,1024,0,0,100,0,0,0,0,80,3.847,3.845,0,0,0,0,5.461,69.98,728.6461191172,7.874016,6,P-GPS,,2.4
295700,2026-01-12 12:11:12,729.3022871172,8.858268,0.0,0.6195210172,1.2986713014,18,5,7.693,729.3022871172,8.530184,0.223694,0.6195210172,0.0,0.0,-4.47388,19.0,4.8,-1.5,0,0,1024,1024,1684,1024,0,0,100,0,0,0,0,80,3.847,3.845,0,0,0,0,5.461,69.98,729.3022871172,8.530184,6,P-GPS,,2.6
295800,2026-01-12 12:11:12,729.9584551172,9.186352,0.0,0.6052821716,1.31291998952,18,5,7.693,729.9584551172,9.186352,0.223694,0.6195210172,0.0,0.0,-4.47388,19.0,4.7,-1.2,0,0,1024,1024,1684,1024,0,0,100,0,0,0,0,80,3.847,3.845,0,0,0,0,5.461,69.98,729.9584551172,9.186352,6,P-GPS,,2.8
295900,2026-01-12 12:11:12,730.6146231172,9.84252,0.223694,0.50870408452,1.417650964,17,5,7.683,730.6146231172,9.84252,0.223694,0.6195210172,0.0,-0.223694,-4.250186,19.1,4.2,-0.5,0,0,1024,1024,1684,1024,0,0,100,0,0,0,0,80,3.841,3.842,0,0,0,0,5.727,69.8,730.6146231172,9.84252,6,P-GPS,,3.0
296000,2026-01-12 12:11:12,731.2707911172,10.498688,0.223694,0.44359581472,1.49661422112,17,5,7.683,731.2707911172,10.498688,0.223694,0.6195210172,0.0,-0.223694,-4.250186,19.1,3.8,0.0,0,0,1024,1024,1684,1024,0,0,100,0,0,0,0,80,3.841,3.842,0,0,0,0,5.727,69.8,731.2707911172,10.498688,6,P-GPS,,3.2
296100,2026-01-12 12:11:13,731.9269591172,11.154856,0.223694,0.4179626118,1.5465387634,18,5,7.683,731.9269591172,11.154856,0.223694,0.6195210172,0.0,-0.223694,-4.250186,19.2,3.5,0.6,0,0,1024,1024,1684,1024,0,0,100,0,0,0,0,80,3.841,3.842,0,0,0,0,5.727,69.8,731.9269591172,11.154856,6,P-GPS,,3.4
296200,2026-01-12 12:11:13,732.9112111172,11.811024,0.223694,0.34485237324,1.74121068564,18,5,7.683,732.9112111172,12.139108,0.223694,0.6195210172,0.0,-0.223694,-4.250186,19.3,2.7,2.0,0,0,1024,1024,1684,1024,0,0,100,0,0,0,0,80,3.841,3.842,0,0,0,0,5.727,69.8,732.9112111172,12.139108,6,P-GPS,,3.7
296300,2026-01-12 12:11:13,733.5673791172,12.139108,0.223694,0.317863855316,1.81242787952,18,5,7.683,733.5673791172,12.795276,0.223694,0.6195210172,0.0,-0.223694,-4.250186,19.2,3.1,1.8,0,0,1024,1024,1684,1024,0,0,100,0,0,0,0,80,3.841,3.842,0,0,0,0,5.727,69.8,733.5673791172,12.795276,6,P-GPS,,3.9
296400,2026-01-12 12:11:13,734.2235471172,12.795276,0.0,0.33135827832,1.88265754056,18,5,7.683,734.2235471172,13.451444,0.223694,0.6195210172,0.0,0.0,-4.250186,19.2,3.9,1.0,0,0,1024,1024,1684,1024,0,0,100,0,0,0,0,80,3.841,3.842,0,0,0,0,5.727,69.8,734.2235471172,13.451444,6,P-GPS,,4.1
296500,2026-01-12 12:11:13,734.8797151172,13.451444,0.0,0.38667324072,1.96880583728,18,5,7.683,734.8797151172,14.107612,0.223694,0.6195210172,0.0,0.0,-4.250186,19.2,4.1,0.7,0,0,1024,1024,1684,1024,0,0,100,0,0,0,0,80,3.841,3.842,0,0,0,0,5.727,69.8,734.8797151172,14.107612,6,P-GPS,,4.3
296600,2026-01-12 12:11:13,735.5358831172,14.107612,0.0,0.47188977888,2.12607618352,18,5,7.683,735.5358831172,14.76378,0.223694,0.6195210172,0.0,0.0,-4.250186,19.1,3.8,0.0,0,0,1024,1024,1684,1024,0,0,100,0,0,0,0,80,3.841,3.842,0,0,0,0,5.727,69.8,735.5358831172,14.76378,6,P-GPS,,4.5
296700,2026-01-12 12:11:13,736.1920511172,14.76378,0.0,0.51808400608,2.17228681492,18,5,7.683,736.1920511172,15.419948,0.223694,0.6195210172,0.0,0.0,-4.47388,19.1,3.7,-0.5,0,0,1024,1024,1684,1024,0,0,100,0,0,0,0,80,3.841,3.842,0,0,0,0,5.727,69.8,736.1920511172,15.419948,6,P-GPS,,4.7
296800,2026-01-12 12:11:13,737.1763031172,15.419948,0.0,0.5450623534,2.20312999176,18,5,7.675,737.1763031172,16.4042,0.223694,0.6195210172,0.0,0.0,-4.47388,19.1,4.7,-0.8,0,0,1024,1024,1684,1024,0,0,100,0,0,0,0,80,3.838,3.836,0,0,0,0,5.409,69.98,737.1763031172,16.4042,6,P-GPS,,5.0
296900,2026-01-12 12:11:13,737.8324711172,16.076116,0.0,0.55526248496,2.23262474336,19,5,7.675,737.8324711172,17.060368,0.223694,0.6195210172,0.0,0.0,-4.47388,19.1,5.1,-0.9,0,0,1024,1024,1684,1024,0,0,100,0,0,0,0,80,3.838,3.836,0,0,0,0,5.409,69.98,737.8324711172,17.060368,6,P-GPS,,5.2
297000,2026-01-12 12:11:13,738.4886391172,16.732284,0.0,0.43763780928,2.36802501016,19,5,7.675,738.4886391172,17.716536,0.223694,0.6195210172,0.0,0.0,-4.250186,19.1,5.9,-0.7,0,0,1024,1024,1684,1024,0,0,100,0,0,0,0,80,3.838,3.836,0,0,0,0,5.409,69.98,738.4886391172,17.716536,6,P-GPS,,5.4
297100,2026-01-12 12:11:13,739.1448071172,17.388452,0.0,0.43683072264,2.38122711032,18,5,7.675,739.1448071172,18.372704,0.223694,0.6195210172,0.0,0.0,-4.47388,19.1,5.1,-0.6,0,0,1024,1024,1684,1024,0,0,100,0,0,0,0,80,3.838,3.836,0,0,0,0,5.409,69.98,739.1448071172,18.372704,6,P-GPS,,5.6
297200,2026-01-12 12:11:14,739.8009751172,18.04462,0.0,0.46359581536,2.40996070704,18,5,7.675,739.8009751172,19.028872,0.223694,0.6195210172,0.0,0.0,-4.47388,19.0,4.9,-0.9,0,0,1024,1024,1684,1024,0,0,100,0,0,0,0,80,3.838,3.836,0,0,0,0,5.409,69.98,739.8009751172,19.028872,6,P-GPS,,5.8
297300,2026-01-12 12:11:14,740.7852271172,19.028872,0.0,0.523786106,2.47085309744,18,5,7.675,740.7852271172,20.013124,0.223694,0.6195210172,0.0,0.0,-4.47388,19.0,5.2,-1.0,0,0,1024,1024,1684,1024,0,0,100,0,0,0,0,80,3.838,3.836,0,0,0,0,5.409,69.98,740.7852271172,20.013124,6,P-GPS,,6.1
297400,2026-01-12 12:11:14,741.4413951172,19.68504,0.0,0.60545277528,2.55430454368,18,5,7.675,741.4413951172,20.669292,0.223694,0.6195210172,0.0,0.0,-4.47388,19.0,5.1,-0.9,0,0,1024,1024,1684,1024,0,0,100,0,0,0,0,80,3.838,3.836,0,0,0,0,5.409,69.98,741.4413951172,20.669292,6,P-GPS,,6.3
297500,2026-01-12 12:11:14,742.0975631172,20.669292,0.0,0.62198820888,2.57083997728,18,5,7.675,742.0975631172,21.32546,0.223694,0.62198820888,0.0,0.0,-4.47388,19.0,4.9,-0.7,0,0,1024,1024,1684,1024,0,0,100,0,0,0,0,80,3.838,3.836,0,0,0,0,5.409,69.98,742.0975631172,21.32546,6,P-GPS,,6.5
297600,2026-01-12 12:11:14,742.7537311172,21.32546,0.0,0.6280840096,2.58951451856,18,5,7.675,742.7537311172,21.981628,0.223694,0.6280840096,0.0,0.0,-4.47388,19.1,4.9,-0.3,0,0,1024,1024,1684,1024,0,0,100,0,0,0,0,80,3.838,3.836,0,0,0,0,5.409,69.98,742.7537311172,21.981628,6,P-GPS,,6.7
297700,2026-01-12 12:11:14,743.4098991172,22.309712,0.0,0.62675855024,2.6273130762,18,5,7.675,743.4098991172,22.637796,0.223694,0.6280840096,0.0,0.0,-4.47388,19.1,5.0,-0.9,0,0,1024,1024,1684,1024,0,0,100,0,0,0,0,80,3.838,3.836,0,0,0,0,5.409,69.98,743.4098991172,22.637796,6,P-GPS,,6.9
297800,2026-01-12 12:11:14,744.0660671172,22.96588,0.0,0.63936353752,2.65933735544,19,5,7.675,744.0660671172,23.293964,0.223694,0.63936353752,0.0,0.0,-4.47388,19.0,4.9,-0.5,0,0,1024,1024,1684,1024,0,0,100,0,0,0,0,80,3.838,3.836,0,0,0,0,5.409,69.98,744.0660671172,23.293964,6,P-GPS,,7.1
297900,2026-01-12 12:11:14,744.7222351172,23.950132,0.0,0.68687994324,2.75001321136,19,5,7.675,744.7222351172,23.950132,0.223694,0.68687994324,0.0,0.0,-4.47388,19.1,4.0,-0.2,0,0,1024,1024,1684,1024,0,0,100,0,0,0,0,80,3.838,3.835,0,0,0,0,5.409,69.98,744.7222351172,23.950132,6,P-GPS,,7.3
298000,2026-01-12 12:11:14,745.7064871172,24.934384,0.0,0.72586616496,2.79023302892,19,5,7.675,745.7064871172,24.934384,0.223694,0.72586616496,0.0,0.0,-4.47388,19.1,4.3,-0.9,0,0,1024,1024,1684,1024,0,0,100,0,0,0,0,80,3.838,3.835,0,0,0,0,5.409,69.98,745.7064871172,24.934384,6,P-GPS,,7.6
298100,2026-01-12 12:11:14,746.3626551172,25.590552,0.0,0.768864854,2.8335138702,19,5,7.675,746.3626551172,25.590552,0.223694,0.768864854,0.0,0.0,-4.47388,19.1,4.5,-1.2,0,0,1024,1024,1684,1024,0,0,100,0,0,0,0,80,3.838,3.835,0,0,0,0,5.409,69.98,746.3626551172,25.590552,6,P-GPS,,7.8
298200,2026-01-12 12:11:15,747.0188231172,26.24672,0.0,0.80025265028,2.86498368748,19,5,7.675,747.0188231172,26.24672,0.223694,0.80025265028,0.0,0.0,-4.47388,19.1,4.4,-1.4,0,0,1024,1024,1684,1024,0,0,100,0,0,0,0,80,3.838,3.835,0,0,0,0,5.409,69.98,747.0188231172,26.24672,6,P-GPS,,8.0
298300,2026-01-12 12:11:15,747.6749911172,26.574804,0.0,0.83884189036,2.91944235064,19,5,7.675,747.6749911172,26.902888,0.223694,0.83884189036,0.0,0.0,-4.47388,19.1,4.4,-1.5,0,0,1024,1024,1684,1024,0,0,100,0,0,0,0,80,3.838,3.835,0,0,0,0,5.409,69.98,747.6749911172,26.902888,6,P-GPS,,8.2
298400,2026-01-12 12:11:15,748.3311591172,30.183728,0.0,0.85795934504,2.93855980532,19,5,7.675,748.3311591172,27.559056,0.223694,0.85795934504,0.0,0.0,-4.47388,19.1,4.2,-1.6,0,0,1024,1024,1684,1024,0,0,100,0,0,0,0,80,3.838,3.835,0,0,0,0,5.409,69.98,748.3311591172,27.559056,6,P-GPS,,8.4
298500,2026-01-12 12:11:15,748.9873271172,30.839896,0.0,0.87831695724,2.96108605276,19,5,7.675,748.9873271172,28.215224,0.223694,0.87831695724,0.0,0.0,-4.47388,19.1,4.1,-1.4,0,0,1024,1024,1684,1024,0,0,100,0,0,0,0,80,3.838,3.835,0,0,0,0,5.409,69.98,748.9873271172,28.215224,6,P-GPS,,8.6
298600,2026-01-12 12:11:15,749.6434951172,31.824148,0.0,0.86550855788,2.97389445212,19,5,7.675,749.6434951172,28.871392,0.223694,0.87831695724,0.0,0.0,-4.47388,19.1,4.5,-1.0,0,0,1024,1024,1684,1024,0,0,100,0,0,0,0,80,3.838,3.835,0,0,0,0,5.409,69.98,749.6434951172,28.871392,6,P-GPS,,8.8
298700,2026-01-12 12:11:15,750.2996631172,32.480316,0.0,0.71400592836,3.13116151752,19,5,7.675,750.2996631172,29.52756,0.223694,0.87831695724,0.0,0.0,-4.47388,19.1,4.7,-1.1,0,0,1024,1024,1684,1024,0,0,100,0,0,0,0,80,3.838,3.835,0,0,0,0,5.409,69.98,750.2996631172,29.52756,6,P-GPS,,9.0
298800,2026-01-12 12:11:15,750.9558311172,33.136484,0.0,0.6900262688,3.15514117708,19,5,7.675,750.9558311172,30.183728,0.223694,0.87831695724,0.0,0.0,-4.47388,19.1,4.4,-1.2,0,0,1024,1024,1684,1024,0,0,100,0,0,0,0,80,3.838,3.835,0,0,0,0,5.409,69.98,750.9558311172,30.183728,6,P-GPS,,9.2
298900,2026-01-12 12:11:15,751.6119991172,33.792652,0.0,0.69275592768,3.17223107264,19,5,7.675,751.6119991172,30.839896,0.223694,0.87831695724,0.0,0.0,-4.47388,19.1,4.4,-1.2,0,0,1024,1024,1684,1024,0,0,100,0,0,0,0,80,3.838,3.835,0,0,0,0,5.409,69.98,751.6119991172,30.839896,6,P-GPS,,9.4
299000,2026-01-12 12:11:15,752.2681671172,34.44882,0.0,0.69813650528,3.1954233306,19,5,7.689,752.2681671172,31.496064,0.223694,0.87831695724,0.0,0.0,-4.47388,19.1,4.3,-1.1,0,0,1024,1024,1024,1024,0,0,0,0,0,0,0,80,3.836,3.833,0,0,0,0,5.098,69.98,752.2681671172,31.496064,6,P-GPS,,9.6
299100,2026-01-12 12:11:16,752.9243351172,35.104988,0.0,0.74973099512,3.2864830448,19,5,7.689,752.9243351172,32.152232,0.223694,0.87831695724,0.0,0.0,-4.250186,19.1,4.4,-1.1,0,0,1024,1024,1024,1024,0,0,0,0,0,0,0,80,3.836,3.833,0,0,0,0,5.098,69.98,752.9243351172,32.152232,6,P-GPS,,9.8
299200,2026-01-12 12:11:16,753.5805031172,35.761156,0.0,0.76262797716,3.3132875076,19,5,7.689,753.5805031172,32.8084,0.223694,0.87831695724,0.0,0.0,-4.47388,19.1,3.8,-1.1,0,0,1024,1024,1024,1024,0,0,0,0,0,0,0,80,3.836,3.833,0,0,0,0,5.098,69.98,753.5805031172,32.8084,6,P-GPS,,10.0
299300,2026-01-12 12:11:16,754.2366711172,36.417324,0.0,0.77669949992,3.3357284532,19,5,7.689,754.2366711172,33.464568,0.223694,0.87831695724,0.0,0.0,-4.026492,19.0,3.9,-1.0,0,0,1024,1024,1024,1024,0,0,0,0,0,0,0,80,3.836,3.833,0,0,0,0,5.098,69.98,754.2366711172,33.464568,6,P-GPS,,10.2
299400,2026-01-12 12:11:16,754.8928391172,37.073492,0.0,0.79862863448,3.3588255668,19,5,7.689,754.8928391172,34.120736,0.223694,0.87831695724,0.0,0.0,-3.35541,19.0,4.0,-1.1,0,0,1024,1024,1024,1024,0,0,0,0,0,0,0,80,3.836,3.833,0,0,0,0,5.098,69.98,754.8928391172,34.120736,6,P-GPS,,10.4
299500,2026-01-12 12:11:16,755.2209231172,37.401576,0.0,0.83148296624,3.3919292424,19,5,7.689,755.2209231172,34.44882,0.223694,0.87831695724,0.0,0.0,-2.684328,19.1,4.0,-1.2,0,0,1024,1024,1024,1024,0,0,0,0,0,0,0,80,3.836,3.833,0,0,0,0,5.098,69.98,755.2209231172,34.44882,6,P-GPS,,10.5
299600,2026-01-12 12:11:16,755.5490071172,37.72966,0.0,0.94455711684,3.5161090364,19,5,7.689,755.5490071172,34.776904,0.223694,0.94455711684,0.0,0.0,-1.789552,19.1,3.9,-1.6,0,0,1024,1024,1024,1024,0,0,0,0,0,0,0,80,3.836,3.833,0,0,0,0,5.098,69.98,755.5490071172,34.776904,6,P-GPS,,10.6
299700,2026-01-12 12:11:16,755.5490071172,37.72966,0.0,0.95172903308,3.5445211108,19,5,7.689,755.5490071172,34.776904,0.223694,0.95172903308,0.0,0.0,-0.894776,19.1,4.1,-1.9,0,0,1024,1024,1024,1024,0,0,0,0,0,0,0,80,3.836,3.833,0,0,0,0,5.098,69.98,755.5490071172,34.776904,6,P-GPS,,10.6
299800,2026-01-12 12:11:16,755.8770911172,38.057744,0.0,0.95946197296,3.562664156,19,5,7.689,755.8770911172,35.104988,0.223694,0.95946197296,0.0,0.0,-0.447388,19.1,4.0,-2.2,0,0,1024,1024,1024,1024,0,0,0,0,0,0,0,80,3.836,3.833,0,0,0,0,5.098,69.98,755.8770911172,35.104988,6,P-GPS,,10.7
299900,2026-01-12 12:11:16,755.8770911172,38.057744,0.0,0.967929821,3.5714568072,19,5,7.689,755.8770911172,35.104988,0.223694,0.967929821,0.0,0.0,0.0,19.2,3.8,-2.4,0,0,1024,1024,1024,1024,0,0,0,0,0,0,0,80,3.836,3.833,0,0,0,0,5.098,69.98,755.8770911172,35.104988,6,P-GPS,,10.7
300000,2026-01-12 12:11:16,755.8770911172,38.057744,0.0,0.95791997816,3.608759958,19,5,7.689,755.8770911172,35.104988,0.223694,0.967929821,0.0,0.0,0.0,19.4,4.0,-2.6,0,0,1024,1024,1024,1024,0,0,0,0,0,0,0,80,3.836,3.833,0,0,0,0,5.098,69.98,755.8770911172,35.104988,6,P-GPS,,10.7
300100,2026-01-12 12:11:16,756.2051751172,38.057744,0.0,0.94088585688,3.6296917172,19,5,7.741,756.2051751172,35.433072,0.223694,0.967929821,0.0,0.0,0.0,19.4,4.1,-3.0,0,0,1024,1024,1024,1024,0,0,0,0,0,0,0,80,3.873,3.869,0,0,0,0,3.879,69.98,756.2051751172,35.433072,6,P-GPS,,10.8
300200,2026-01-12 12:11:17,756.2051751172,38.057744,0.0,0.9309219458,3.6400591716,19,5,7.741,756.2051751172,35.433072,0.223694,0.967929821,0.0,0.0,0.0,19.3,4.4,-3.0,0,0,1024,1024,1024,1024,0,0,0,0,0,0,0,80,3.873,3.869,0,0,0,0,3.879,69.98,756.2051751172,35.433072,6,P-GPS,,10.8
300300,2026-01-12 12:11:17,756.2051751172,38.057744,0.0,0.9308727332,3.64829408,19,5,7.741,756.2051751172,35.433072,0.223694,0.967929821,0.0,0.0,0.0,19.1,5.2,-2.9,0,0,1024,1024,1024,1024,0,0,0,0,0,0,0,80,3.873,3.869,0,0,0,0,3.879,69.98,756.2051751172,35.433072,6,P-GPS,,10.8
300400,2026-01-12 12:11:17,756.2051751172,38.057744,0.0,0.92158467516,3.6661090412,19,5,7.741,756.2051751172,35.433072,0.223694,0.967929821,0.0,0.0,0.0,19.1,5.0,-2.8,0,0,1024,1024,1024,1024,0,0,0,0,0,0,0,80,3.873,3.869,0,0,0,0,3.879,69.98,756.2051751172,35.433072,6,P-GPS,,10.8
300500,2026-01-12 12:11:17,756.2051751172,38.057744,0.0,0.92535764116,3.6750001176,19,5,7.741,756.2051751172,35.433072,0.223694,0.967929821,0.0,0.0,0.0,19.2,5.3,-2.8,0,0,1024,1024,1024,1024,0,0,0,0,0,0,0,80,3.873,3.869,0,0,0,0,3.879,69.98,756.2051751172,35.433072,6,P-GPS,,10.8
300600,2026-01-12 12:11:17,756.2051751172,38.057744,0.0,0.93035436048,3.685695656,19,5,7.741,756.2051751172,35.433072,0.223694,0.967929821,0.0,0.0,0.0,19.2,5.2,-2.6,0,0,1024,1024,1024,1024,0,0,0,0,0,0,0,80,3.873,3.869,0,0,0,0,3.879,69.98,756.2051751172,35.433072,6,P-GPS,,10.8
300700,2026-01-12 12:11:17,756.2051751172,38.057744,0.0,0.9382546232,3.6995736092,19,5,7.741,756.2051751172,35.433072,0.223694,0.967929821,0.0,0.0,0.0,19.3,4.3,-2.9,0,0,1024,1024,1024,1024,0,0,0,0,0,0,0,80,3.873,3.869,0,0,0,0,3.879,69.98,756.2051751172,35.433072,6,P-GPS,,10.8
300800,2026-01-12 12:11:17,756.2051751172,38.057744,0.0,0.95466538488,3.7290683608,19,5,7.741,756.2051751172,35.433072,0.223694,0.967929821,0.0,0.0,0.0,19.3,4.1,-3.0,0,0,1024,1024,1024,1024,0,0,0,0,0,0,0,80,3.873,3.869,0,0,0,0,3.879,69.98,756.2051751172,35.433072,6,P-GPS,,10.8
300900,2026-01-12 12:11:17,756.2051751172,38.057744,0.0,0.95105646088,3.735072298,19,5,7.741,756.2051751172,35.433072,0.223694,0.967929821,0.0,0.0,0.0,19.3,4.2,-2.9,0,0,1024,1024,1024,1024,0,0,0,0,0,0,0,80,3.873,3.869,0,0,0,0,3.879,69.98,756.2051751172,35.433072,6,P-GPS,,10.8
301000,2026-01-12 12:11:17,756.2051751172,38.057744,0.0,0.94637798304,3.7411090436,19,5,7.741,756.2051751172,35.433072,0.223694,0.967929821,0.0,0.0,0.0,19.3,4.4,-3.2,0,0,1024,1024,1024,1024,0,0,0,0,0,0,0,80,3.873,3.869,0,0,0,0,3.879,69.98,756.2051751172,35.433072,6,P-GPS,,10.8
301100,2026-01-12 12:11:18,756.2051751172,38.057744,0.0,0.9402231272,3.7538715112,19,5,7.741,756.2051751172,35.433072,0.223694,0.967929821,0.0,0.0,0.0,19.2,4.8,-3.3,0,0,1024,1024,1024,1024,0,0,0,0,0,0,0,80,3.873,3.869,0,0,0,0,3.879,69.98,756.2051751172,35.433072,6,P-GPS,,10.8
301200,2026-01-12 12:11:18,756.2051751172,38.057744,0.0,0.93249018732,3.761647102,19,5,7.684,756.2051751172,35.433072,0.223694,0.967929821,0.0,0.0,0.0,19.1,4.8,-3.2,0,0,1024,1024,1024,1024,0,0,0,0,0,0,0,80,3.843,3.84,0,0,0,0,4.874,69.98,756.2051751172,35.433072,6,P-GPS,,10.8
301300,2026-01-12 12:11:18,756.2051751172,38.057744,0.0,0.94695213004,3.7955709876,19,5,7.684,756.2051751172,35.433072,0.223694,0.967929821,0.0,0.0,0.0,19.1,4.5,-3.0,0,0,1024,1024,1024,1024,0,0,0,0,0,0,0,80,3.843,3.84,0,0,0,0,4.874,69.98,756.2051751172,35.433072,6,P-GPS,,10.8
301400,2026-01-12 12:11:18,756.2051751172,38.057744,0.0,0.93412404564,3.8132875236,19,5,7.684,756.2051751172,35.433072,0.223694,0.967929821,0.0,0.0,0.0,19.1,4.3,-2.8,0,0,1024,1024,1024,1024,0,0,0,0,0,0,0,80,3.843,3.84,0,0,0,0,4.874,69.98,756.2051751172,35.433072,6,P-GPS,,10.8
301500,2026-01-12 12:11:18,756.2051751172,38.057744,0.0,0.91291669588,3.8354003852,19,5,7.684,756.2051751172,35.433072,0.223694,0.967929821,0.0,0.0,0.0,19.1,4.6,-2.7,0,0,1024,1024,1024,1024,0,0,0,0,0,0,0,80,3.843,3.84,0,0,0,0,4.874,69.98,756.2051751172,35.433072,6,P-GPS,,10.8
301600,2026-01-12 12:11:18,756.2051751172,38.057744,0.0,0.88412732488,3.8642061604,19,5,7.684,756.2051751172,35.433072,0.223694,0.967929821,0.0,0.0,0.0,19.2,4.7,-2.6,0,0,1024,1024,1024,1024,0,0,0,0,0,0,0,80,3.843,3.84,0,0,0,0,4.874,69.98,756.2051751172,35.433072,6,P-GPS,,10.8
301700,2026-01-12 12:11:18,756.2051751172,38.057744,0.0,0.8265912338,3.9251313592,19,5,7.684,756.2051751172,35.433072,0.223694,0.967929821,0.0,0.0,0.0,19.1,5.0,-2.7,0,0,1024,1024,1024,1024,0,0,0,0,0,0,0,80,3.843,3.84,0,0,0,0,4.874,69.98,756.2051751172,35.433072,6,P-GPS,,10.8
301800,2026-01-12 12:11:18,756.2051751172,38.057744,0.0,0.78315947388,3.9687993396,19,5,7.684,756.2051751172,35.433072,0.223694,0.967929821,0.0,0.0,0.0,19.1,4.9,-2.7,0,0,1024,1024,1024,1024,0,0,0,0,0,0,0,80,3.843,3.84,0,0,0,0,4.874,69.98,756.2051751172,35.433072,6,P-GPS,,10.8
301900,2026-01-12 12:11:18,756.2051751172,38.057744,0.0,0.73145999716,4.0205381864,19,5,7.684,756.2051751172,35.433072,0.223694,0.967929821,0.0,0.0,0.0,19.0,5.4,-2.2,0,0,1024,1024,1024,1024,0,0,0,0,0,0,0,80,3.843,3.84,0,0,0,0,4.874,69.98,756.2051751172,35.433072,6,P-GPS,,10.8
302000,2026-01-12 12:11:18,756.2051751172,38.057744,0.0,0.6776739062,4.07480328,19,5,7.684,756.2051751172,35.433072,0.223694,0.967929821,0.0,0.0,0.0,19.0,5.5,-2.1,0,0,1024,1024,1024,1024,0,0,0,0,0,0,0,80,3.843,3.84,0,0,0,0,4.874,69.98,756.2051751172,35.433072,6,P-GPS,,10.8
302100,2026-01-12 12:11:18,756.2051751172,38.057744,0.0,0.58224083228,4.1738518396,19,5,7.684,756.2051751172,35.433072,0.223694,0.967929821,0.0,0.0,0.0,19.0,5.6,-2.1,0,0,1024,1024,1024,1024,0,0,0,0,0,0,0,80,3.843,3.84,0,0,0,0,4.874,69.98,756.2051751172,35.433072,6,P-GPS,,10.8
302200,2026-01-12 12:11:19,756.2051751172,38.057744,0.0,0.53486222184,4.2235565656,19,5,7.684,756.2051751172,35.433072,0.223694,0.967929821,0.0,0.0,0.0,19.1,5.6,-2.4,0,0,1024,1024,1024,1024,0,0,0,0,0,0,0,80,3.843,3.84,0,0,0,0,4.874,69.98,756.2051751172,35.433072,6,P-GPS,,10.8
302300,2026-01-12 12:11:19,756.2051751172,38.057744,0.0,0.49163715484,4.2692586668,19,5,7.676,756.2051751172,35.433072,0.223694,0.967929821,0.0,0.0,0.0,19.1,5.8,-2.4,0,0,1024,1024,1024,1024,0,0,0,0,0,0,0,80,3.839,3.837,0,0,0,0,4.89,69.98,756.2051751172,35.433072,6,P-GPS,,10.8
302400,2026-01-12 12:11:19,756.2051751172,38.057744,0.0,0.45632547392,4.3048557808,19,5,7.676,756.2051751172,35.433072,0.223694,0.967929821,0.0,0.0,0.0,19.0,5.5,-2.3,0,0,1024,1024,1024,1024,0,0,0,0,0,0,0,80,3.839,3.837,0,0,0,0,4.89,69.98,756.2051751172,35.433072,6,P-GPS,,10.8
302500,2026-01-12 12:11:19,756.2051751172,38.057744,0.0,0.42524935744,4.3419948896,19,5,7.676,756.2051751172,35.433072,0.223694,0.967929821,0.0,0.0,0.0,19.0,5.3,-2.6,0,0,1024,1024,1024,1024,0,0,0,0,0,0,0,80,3.839,3.837,0,0,0,0,4.89,69.98,756.2051751172,35.433072,6,P-GPS,,10.8
302600,2026-01-12 12:11:19,755.8770911172,38.057744,0.0,0.39649935652,4.37089909,19,5,7.676,756.2051751172,35.433072,0.223694,0.967929821,0.0,0.0,0.0,18.9,5.2,-2.9,0,0,1024,1024,1024,1024,0,0,0,0,0,0,0,80,3.839,3.837,0,0,0,0,4.89,69.98,755.8770911172,35.104988,6,P-GPS,,10.7
302700,2026-01-12 12:11:19,755.8770911172,38.057744,0.0,0.3654199592,4.4020014532,19,5,7.676,756.2051751172,35.433072,0.223694,0.967929821,0.0,0.0,0.0,19.0,4.9,-2.6,0,0,1024,1024,1024,1024,0,0,0,0,0,0,0,80,3.839,3.837,0,0,0,0,4.89,69.98,755.8770911172,35.104988,6,P-GPS,,10.7
302800,2026-01-12 12:11:19,755.8770911172,38.057744,0.0,0.3414370188,4.4262468608,19,5,7.676,756.2051751172,35.433072,0.223694,0.967929821,0.0,0.0,0.0,19.0,4.7,-2.6,0,0,1024,1024,1024,1024,0,0,0,0,0,0,0,80,3.839,3.837,0,0,0,0,4.89,69.98,755.8770911172,35.104988,6,P-GPS,,10.7
302900,2026-01-12 12:11:19,755.8770911172,38.057744,0.0,0.320817923652,4.4485565728,19,5,7.676,756.2051751172,35.433072,0.223694,0.967929821,0.0,0.0,0.0,19.0,4.3,-2.7,0,0,1024,1024,1024,1024,0,0,0,0,0,0,0,80,3.839,3.837,0,0,0,0,4.89,69.98,755.8770911172,35.104988,6,P-GPS,,10.7
303000,2026-01-12 12:11:19,755.8770911172,38.057744,0.0,0.305994760448,4.463418778,19,5,7.676,756.2051751172,35.433072,0.223694,0.967929821,0.0,0.0,0.0,19.0,4.5,-2.4,0,0,1024,1024,1024,1024,0,0,0,0,0,0,0,80,3.839,3.837,0,0,0,0,4.89,69.98,755.8770911172,35.104988,6,P-GPS,,10.7
303100,2026-01-12 12:11:20,755.8770911172,38.057744,0.0,0.30142061332,4.4731300644,19,5,7.676,756.2051751172,35.433072,0.223694,0.967929821,0.0,0.0,0.0,18.9,4.6,-2.3,0,0,1024,1024,1024,1024,0,0,0,0,0,0,0,80,3.839,3.837,0,0,0,0,4.89,69.98,755.8770911172,35.104988,6,P-GPS,,10.7
303200,2026-01-12 12:11:20,755.8770911172,38.057744,0.0,0.293346137996,4.4886156292,19,5,7.676,756.2051751172,35.433072,0.223694,0.967929821,0.0,0.0,0.0,19.0,4.3,-1.8,0,0,1024,1024,1024,1024,0,0,0,0,0,0,0,80,3.839,3.837,0,0,0,0,4.89,69.98,755.8770911172,35.104988,6,P-GPS,,10.7
303300,2026-01-12 12:11:20,755.8770911172,38.057744,0.0,0.280247384296,4.5102691732,19,5,7.676,756.2051751172,35.433072,0.223694,0.967929821,0.0,0.0,0.0,19.1,3.8,-1.8,0,0,1024,1024,1024,1024,0,0,0,0,0,0,0,80,3.839,3.837,0,0,0,0,4.89,69.98,755.8770911172,35.104988,6,P-GPS,,10.7
303400,2026-01-12 12:11:20,755.5490071172,38.057744,0.0,0.279811688744,4.521981772,19,5,7.675,756.2051751172,35.433072,0.223694,0.967929821,0.0,0.0,0.0,19.0,4.3,-1.8,0,0,1024,1024,1024,1024,0,0,0,0,0,0,0,80,3.833,3.832,0,0,0,0,4.91,69.98,755.5490071172,34.776904,6,P-GPS,,10.6
303500,2026-01-12 12:11:20,755.5490071172,38.057744,0.0,0.290261820312,4.5350067068,19,5,7.675,756.2051751172,35.433072,0.223694,0.967929821,0.0,0.0,0.0,19.0,4.7,-2.1,0,0,1024,1024,1024,1024,0,0,0,0,0,0,0,80,3.833,3.832,0,0,0,0,4.91,69.98,755.5490071172,34.776904,6,P-GPS,,10.6
303600,2026-01-12 12:11:20,755.5490071172,38.057744,0.0,0.281342200604,4.5480972584,19,5,7.675,756.2051751172,35.433072,0.223694,0.967929821,0.0,0.0,0.0,19.0,5.0,-2.0,0,0,1024,1024,1024,1024,0,0,0,0,0,0,0,80,3.833,3.832,0,0,0,0,4.91,69.98,755.5490071172,34.776904,6,P-GPS,,10.6
303700,2026-01-12 12:11:20,755.5490071172,38.057744,0.0,0.251718183908,4.5813977844,19,5,7.675,756.2051751172,35.433072,0.223694,0.967929821,0.0,0.0,0.0,19.0,4.8,-1.7,0,0,1024,1024,1024,1024,0,0,0,0,0,0,0,80,3.833,3.832,0,0,0,0,4.91,69.98,755.5490071172,34.776904,6,P-GPS,,10.6
303800,2026-01-12 12:11:20,755.5490071172,38.057744,0.0,0.187748037504,4.6456038232,19,5,7.675,756.2051751172,35.433072,0.223694,0.967929821,0.0,0.0,0.0,19.0,5.1,-1.8,0,0,1024,1024,1024,1024,0,0,0,0,0,0,0,80,3.833,3.832,0,0,0,0,4.91,69.98,755.5490071172,34.776904,6,P-GPS,,10.6
303900,2026-01-12 12:11:20,755.5490071172,38.057744,0.0,0.159611881748,4.6743439816,19,5,7.675,756.2051751172,35.433072,0.223694,0.967929821,0.0,0.0,0.0,19.1,5.4,-1.8,0,0,1024,1024,1024,1024,0,0,0,0,0,0,0,80,3.833,3.832,0,0,0,0,4.91,69.98,755.5490071172,34.776904,6,P-GPS,,10.6
304000,2026-01-12 12:11:20,755.5490071172,38.057744,0.0,0.138565949316,4.6967521188,19,5,7.675,756.2051751172,35.433072,0.223694,0.967929821,0.0,0.0,0.0,19.2,5.1,-2.1,0,0,1024,1024,1024,1024,0,0,0,0,0,0,0,80,3.833,3.832,0,0,0,0,4.91,69.98,755.5490071172,34.776904,6,P-GPS,,10.6
304100,2026-01-12 12:11:20,755.5490071172,38.057744,0.0,0.123338914708,4.7149607808,19,5,7.675,756.2051751172,35.433072,0.223694,0.967929821,0.0,0.0,0.0,19.1,5.1,-2.1,0,0,1024,1024,1024,1024,0,0,0,0,0,0,0,80,3.833,3.832,0,0,0,0,4.91,69.98,755.5490071172,34.776904,6,P-GPS,,10.6
304200,2026-01-12 12:11:21,755.5490071172,38.057744,0.0,0.118370738696,4.7295277104,19,5,7.675,756.2051751172,35.433072,0.223694,0.967929821,0.0,0.0,0.0,19.0,5.3,-2.5,0,0,1024,1024,1024,1024,0,0,0,0,0,0,0,80,3.833,3.832,0,0,0,0,4.91,69.98,755.5490071172,34.776904,6,P-GPS,,10.6
304300,2026-01-12 12:11:21,755.5490071172,38.057744,0.0,0.1164206074,4.7341536948,19,5,7.675,756.2051751172,35.433072,0.223694,0.967929821,0.0,0.0,0.0,19.0,5.3,-2.7,0,0,1024,1024,1024,1024,0,0,0,0,0,0,0,80,3.833,3.832,0,0,0,0,4.91,69.98,755.5490071172,34.776904,6,P-GPS,,10.6
304400,2026-01-12 12:11:21,755.5490071172,38.057744,0.0,0.115474741228,4.737040834,19,5,7.675,756.2051751172,35.433072,0.223694,0.967929821,0.0,0.0,0.0,19.0,5.0,-2.8,0,0,1024,1024,1024,1024,0,0,0,0,0,0,0,80,3.833,3.832,0,0,0,0,4.91,69.98,755.5490071172,34.776904,6,P-GPS,,10.6
304500,2026-01-12 12:11:21,755.5490071172,38.057744,0.0,0.113355318588,4.7469161624,19,5,7.675,756.2051751172,35.433072,0.223694,0.967929821,0.0,0.0,0.0,19.0,4.8,-3.0,0,0,1024,1024,1024,1024,0,0,0,0,0,0,0,80,3.839,3.837,0,0,0,0,4.924,69.98,755.5490071172,34.776904,6,P-GPS,,10.6
304600,2026-01-12 12:11:21,755.5490071172,38.057744,0.0,0.118007877792,4.7602363728,19,5,7.675,756.2051751172,35.433072,0.223694,0.967929821,0.0,0.0,0.0,19.0,4.8,-3.0,0,0,1024,1024,1024,1024,0,0,0,0,0,0,0,80,3.839,3.837,0,0,0,0,4.924,69.98,755.5490071172,34.776904,6,P-GPS,,10.6
304700,2026-01-12 12:11:21,755.5490071172,38.057744,0.0,0.154263784464,4.8077757444,18,5,7.675,756.2051751172,35.433072,0.223694,0.967929821,0.0,0.0,0.0,19.0,4.3,-2.7,0,0,1024,1024,1024,1024,0,0,0,0,0,0,0,80,3.839,3.837,0,0,0,0,4.924,69.98,755.5490071172,34.776904,6,P-GPS,,10.6
304800,2026-01-12 12:11:21,755.5490071172,38.057744,0.0,0.1757381946,4.832021152,18,5,7.675,756.2051751172,35.433072,0.223694,0.967929821,0.0,0.0,0.0,19.1,4.0,-2.4,0,0,1024,1024,1024,1024,0,0,0,0,0,0,0,80,3.839,3.837,0,0,0,0,4.924,69.98,755.5490071172,34.776904,6,P-GPS,,10.6
304900,2026-01-12 12:11:21,755.5490071172,38.057744,0.0,0.206121725756,4.8627626228,18,5,7.675,756.2051751172,35.433072,0.223694,0.967929821,0.0,0.0,0.0,19.1,4.0,-2.5,0,0,1024,1024,1024,1024,0,0,0,0,0,0,0,80,3.839,3.837,0,0,0,0,4.924,69.98,755.5490071172,34.776904,6,P-GPS,,10.6
305000,2026-01-12 12:11:21,755.5490071172,38.057744,0.0,0.2259432487,4.885826928,19,5,7.675,756.2051751172,35.433072,0.223694,0.967929821,0.0,0.0,0.0,19.1,4.2,-2.2,0,0,1024,1024,1024,1024,0,0,0,0,0,0,0,80,3.839,3.837,0,0,0,0,4.924,69.98,755.5490071172,34.776904,6,P-GPS,,10.6
305100,2026-01-12 12:11:21,755.5490071172,38.057744,0.0,0.258880585712,4.9232941208,19,5,7.675,756.2051751172,35.433072,0.223694,0.967929821,0.0,0.0,0.0,19.1,4.0,-2.1,0,0,1024,1024,1024,1024,0,0,0,0,0,0,0,80,3.839,3.837,0,0,0,0,4.924,69.98,755.5490071172,34.776904,6,P-GPS,,10.6
305200,2026-01-12 12:11:22,755.5490071172,38.057744,0.0,0.272052830228,4.9423558012,19,5,7.675,756.2051751172,35.433072,0.223694,0.967929821,0.0,0.0,0.0,19.1,3.8,-2.2,0,0,1024,1024,1024,1024,0,0,0,0,0,0,0,80,3.839,3.837,0,0,0,0,4.924,69.98,755.5490071172,34.776904,6,P-GPS,,10.6
305300,2026-01-12 12:11:22,755.2209231172,38.057744,0.0,0.28921588852,4.9602363792,19,5,7.675,756.2051751172,35.433072,0.223694,0.967929821,0.0,0.0,0.0,19.1,4.0,-2.0,0,0,1024,1024,1024,1024,0,0,0,0,0,0,0,80,3.839,3.837,0,0,0,0,4.924,69.98,755.2209231172,34.44882,6,P-GPS,,10.5
305400,2026-01-12 12:11:22,755.2209231172,38.057744,0.0,0.30814797574,4.9795605268,19,5,7.675,756.2051751172,35.433072,0.223694,0.967929821,0.0,0.0,0.0,19.0,3.9,-2.2,0,0,1024,1024,1024,1024,0,0,0,0,0,0,0,80,3.839,3.837,0,0,0,0,4.924,69.98,755.2209231172,34.44882,6,P-GPS,,10.5
305500,2026-01-12 12:11:22,755.2209231172,38.057744,0.0,0.34428478792,5.0175198456,19,5,7.675,756.2051751172,35.433072,0.223694,0.967929821,0.0,0.0,0.0,19.0,3.8,-2.3,0,0,1024,1024,1024,1024,0,0,0,0,0,0,0,80,3.839,3.837,0,0,0,0,4.924,69.98,755.2209231172,34.44882,6,P-GPS,,10.5
305600,2026-01-12 12:11:22,755.2209231172,38.057744,0.0,0.35900919784,5.0346458304,19,5,7.681,756.2051751172,35.433072,0.223694,0.967929821,0.0,0.0,0.0,19.0,4.0,-2.2,0,0,1024,1024,1024,1024,0,0,0,0,0,0,0,80,3.842,3.838,0,0,0,0,4.84,69.98,755.2209231172,34.44882,6,P-GPS,,10.5
305700,2026-01-12 12:11:22,755.2209231172,38.057744,0.0,0.3658300642,5.049540844,19,5,7.681,756.2051751172,35.433072,0.223694,0.967929821,0.0,0.0,0.0,19.0,3.6,-2.1,0,0,1024,1024,1024,1024,0,0,0,0,0,0,0,80,3.842,3.838,0,0,0,0,4.84,69.98,755.2209231172,34.44882,6,P-GPS,,10.5
305800,2026-01-12 12:11:22,755.2209231172,38.057744,0.0,0.37525919836,5.0610894008,19,5,7.681,756.2051751172,35.433072,0.223694,0.967929821,0.0,0.0,0.0,19.0,3.3,-2.2,0,0,1024,1024,1024,1024,0,0,0,0,0,0,0,80,3.842,3.838,0,0,0,0,4.84,69.98,755.2209231172,34.44882,6,P-GPS,,10.5
305900,2026-01-12 12:11:22,755.2209231172,38.057744,0.0,0.37149279404,5.0763453068,19,5,7.681,756.2051751172,35.433072,0.223694,0.967929821,0.0,0.0,0.0,19.0,3.3,-2.1,0,0,1024,1024,1024,1024,0,0,0,0,0,0,0,80,3.842,3.838,0,0,0,0,4.84,69.98,755.2209231172,34.44882,6,P-GPS,,10.5
306000,2026-01-12 12:11:22,755.2209231172,38.057744,0.0,0.38529528792,5.0905841524,19,5,7.681,756.2051751172,35.433072,0.223694,0.967929821,0.0,0.0,0.0,19.1,3.7,-1.9,0,0,1024,1024,1024,1024,0,0,0,0,0,0,0,80,3.842,3.838,0,0,0,0,4.84,69.98,755.2209231172,34.44882,6,P-GPS,,10.5
306100,2026-01-12 12:11:22,754.8928391172,38.057744,0.0,0.40194555092,5.1091208984,19,5,7.681,756.2051751172,35.433072,0.223694,0.967929821,0.0,0.0,0.0,19.1,3.6,-1.8,0,0,1024,1024,1024,1024,0,0,0,0,0,0,0,80,3.842,3.838,0,0,0,0,4.84,69.98,754.8928391172,34.120736,6,P-GPS,,10.4
306200,2026-01-12 12:11:23,754.8928391172,38.057744,0.0,0.4174704858,5.1260828412,19,5,7.681,756.2051751172,35.433072,0.223694,0.967929821,0.0,0.0,0.0,19.1,3.2,-2.2,0,0,1024,1024,1024,1024,0,0,0,0,0,0,0,80,3.842,3.838,0,0,0,0,4.84,69.98,754.8928391172,34.120736,6,P-GPS,,10.4
306300,2026-01-12 12:11:23,754.8928391172,38.057744,0.0,0.43214568312,5.1425198496,19,5,7.681,756.2051751172,35.433072,0.223694,0.967929821,0.0,0.0,0.0,19.0,3.3,-2.3,0,0,1024,1024,1024,1024,0,0,0,0,0,0,0,80,3.842,3.838,0,0,0,0,4.84,69.98,754.8928391172,34.120736,6,P-GPS,,10.4
306400,2026-01-12 12:11:23,754.8928391172,38.057744,0.0,0.46505578916,5.1785762812,19,5,7.681,756.2051751172,35.433072,0.223694,0.967929821,0.0,0.0,0.0,19.0,3.3,-2.2,0,0,1024,1024,1024,1024,0,0,0,0,0,0,0,80,3.842,3.838,0,0,0,0,4.84,69.98,754.8928391172,34.120736,6,P-GPS,,10.4
306500,2026-01-12 12:11:23,754.8928391172,38.057744,0.0,0.47974739068,5.1946195888,19,5,7.681,756.2051751172,35.433072,0.223694,0.967929821,0.0,0.0,0.0,19.1,3.5,-2.0,0,0,1024,1024,1024,1024,0,0,0,0,0,0,0,80,3.842,3.838,0,0,0,0,4.84,69.98,754.8928391172,34.120736,6,P-GPS,,10.4
306600,2026-01-12 12:11:23,754.8928391172,38.057744,0.0,0.49397639376,5.2088584344,19,5,7.681,756.2051751172,35.433072,0.223694,0.967929821,0.0,0.0,0.0,19.1,3.3,-2.1,0,0,1024,1024,1024,1024,0,0,0,0,0,0,0,80,3.842,3.838,0,0,0,0,4.84,69.98,754.8928391172,34.120736,6,P-GPS,,10.4
306700,2026-01-12 12:11:23,754.8928391172,38.057744,0.0,0.50768046244,5.2241799572,19,5,7.673,756.2051751172,35.433072,0.223694,0.967929821,0.0,0.0,0.0,19.0,3.4,-2.2,0,0,1024,1024,1024,1024,0,0,0,0,0,0,0,80,3.838,3.835,0,0,0,0,4.786,70.16,754.8928391172,34.120736,6,P-GPS,,10.4
306800,2026-01-12 12:11:23,754.8928391172,38.057744,0.0,0.52566930816,5.2517718216,19,5,7.673,756.2051751172,35.433072,0.223694,0.967929821,0.0,0.0,0.0,19.0,3.0,-2.4,0,0,1024,1024,1024,1024,0,0,0,0,0,0,0,80,3.838,3.835,0,0,0,0,4.786,70.16,754.8928391172,34.120736,6,P-GPS,,10.4
306900,2026-01-12 12:11:23,754.8928391172,38.057744,0.0,0.52057416364,5.256889932,19,5,7.673,756.2051751172,35.433072,0.223694,0.967929821,0.0,0.0,0.0,19.0,3.0,-2.2,0,0,1024,1024,1024,1024,0,0,0,0,0,0,0,80,3.838,3.835,0,0,0,0,4.786,70.16,754.8928391172,34.120736,6,P-GPS,,10.4
307000,2026-01-12 12:11:23,754.8928391172,38.057744,0.0,0.52083335,5.2645670976,19,5,7.673,756.2051751172,35.433072,0.223694,0.967929821,0.0,0.0,0.0,19.0,3.5,-2.0,0,0,1024,1024,1024,1024,0,0,0,0,0,0,0,80,3.838,3.835,0,0,0,0,4.786,70.16,754.8928391172,34.120736,6,P-GPS,,10.4
307100,2026-01-12 12:11:23,754.8928391172,38.057744,0.0,0.5306102532,5.283628778,19,5,7.673,756.2051751172,35.433072,0.223694,0.967929821,0.0,0.0,0.0,19.0,3.4,-2.0,0,0,1024,1024,1024,1024,0,0,0,0,0,0,0,80,3.838,3.835,0,0,0,0,4.786,70.16,754.8928391172,34.120736,6,P-GPS,,10.4
307200,2026-01-12 12:11:24,754.5647551172,38.057744,0.0,0.55001970264,5.30593849,19,5,7.673,756.2051751172,35.433072,0.223694,0.967929821,0.0,0.0,0.0,19.0,3.4,-1.7,0,0,1024,1024,1024,1024,0,0,0,0,0,0,0,80,3.838,3.835,0,0,0,0,4.786,70.16,754.5647551172,33.792652,6,P-GPS,,10.3
307300,2026-01-12 12:11:24,754.5647551172,38.057744,0.0,0.56540028056,5.3242127688,19,5,7.673,756.2051751172,35.433072,0.223694,0.967929821,0.0,0.0,0.0,19.0,3.2,-1.3,0,0,1024,1024,1024,1024,0,0,0,0,0,0,0,80,3.838,3.835,0,0,0,0,4.786,70.16,754.5647551172,33.792652,6,P-GPS,,10.3
307400,2026-01-12 12:11:24,754.5647551172,38.057744,0.0,0.57664700008,5.3425854728,19,5,7.673,756.2051751172,35.433072,0.223694,0.967929821,0.0,0.0,0.0,19.0,3.3,-1.2,0,0,1024,1024,1024,1024,0,0,0,0,0,0,0,80,3.838,3.835,0,0,0,0,4.786,70.16,754.5647551172,33.792652,6,P-GPS,,10.3
307500,2026-01-12 12:11:24,754.5647551172,38.057744,0.0,0.58382219716,5.3641077832,19,5,7.673,756.2051751172,35.433072,0.223694,0.967929821,0.0,0.0,0.0,19.0,2.8,-1.5,0,0,1024,1024,1024,1024,0,0,0,0,0,0,0,80,3.838,3.835,0,0,0,0,4.786,70.16,754.5647551172,33.792652,6,P-GPS,,10.3
307600,2026-01-12 12:11:24,754.5647551172,38.057744,0.0,0.56544621232,5.3861222196,19,5,7.673,756.2051751172,35.433072,0.223694,0.967929821,0.0,0.0,0.0,19.0,2.9,-1.4,0,0,1024,1024,1024,1024,0,0,0,0,0,0,0,80,3.838,3.835,0,0,0,0,4.786,70.16,754.5647551172,33.792652,6,P-GPS,,10.3
307700,2026-01-12 12:11:24,754.5647551172,38.057744,0.0,0.56281497864,5.3915356056,19,5,7.673,756.2051751172,35.433072,0.223694,0.967929821,0.0,0.0,0.0,19.0,3.2,-1.2,0,0,1024,1024,1024,1024,0,0,0,0,0,0,0,80,3.838,3.835,0,0,0,0,4.786,70.16,754.5647551172,33.792652,6,P-GPS,,10.3
307800,2026-01-12 12:11:24,754.5647551172,38.057744,0.0,0.56124673712,5.3962928236,19,5,7.663,756.2051751172,35.433072,0.223694,0.967929821,0.0,0.0,0.0,19.0,2.8,-1.4,0,0,1024,1024,1024,1024,0,0,0,0,0,0,0,80,3.833,3.83,0,0,0,0,4.852,70.16,754.5647551172,33.792652,6,P-GPS,,10.3
307900,2026-01-12 12:11:24,754.5647551172,38.057744,0.0,0.56077429616,5.4019358684,19,5,7.663,756.2051751172,35.433072,0.223694,0.967929821,0.0,0.0,0.0,19.0,3.1,-1.3,0,0,1024,1024,1024,1024,0,0,0,0,0,0,0,80,3.833,3.83,0,0,0,0,4.852,70.16,754.5647551172,33.792652,6,P-GPS,,10.3
308000,2026-01-12 12:11:24,754.5647551172,38.057744,0.0,0.56028217016,5.4067915116,19,5,7.663,756.2051751172,35.433072,0.223694,0.967929821,0.0,0.0,0.0,19.0,2.9,-1.5,0,0,1024,1024,1024,1024,0,0,0,0,0,0,0,80,3.833,3.83,0,0,0,0,4.852,70.16,754.5647551172,33.792652,6,P-GPS,,10.3
308100,2026-01-12 12:11:24,754.5647551172,38.057744,0.0,0.55477035896,5.4135828504,19,5,7.663,756.2051751172,35.433072,0.223694,0.967929821,0.0,0.0,0.0,19.0,3.1,-1.5,0,0,1024,1024,1024,1024,0,0,0,0,0,0,0,80,3.833,3.83,0,0,0,0,4.852,70.16,754.5647551172,33.792652,6,P-GPS,,10.3
308200,2026-01-12 12:11:25,754.5647551172,38.057744,0.0,0.563648312,5.4229988612,19,5,7.663,756.2051751172,35.433072,0.223694,0.967929821,0.0,0.0,0.0,19.0,2.7,-1.7,0,0,1024,1024,1024,1024,0,0,0,0,0,0,0,80,3.833,3.83,0,0,0,0,4.852,70.16,754.5647551172,33.792652,6,P-GPS,,10.3
308300,2026-01-12 12:11:25,754.5647551172,38.057744,0.0,0.5819061866,5.4413059484,19,5,7.663,756.2051751172,35.433072,0.223694,0.967929821,0.0,0.0,0.0,19.1,2.7,-1.6,0,0,1024,1024,1024,1024,0,0,0,0,0,0,0,80,3.833,3.83,0,0,0,0,4.852,70.16,754.5647551172,33.792652,6,P-GPS,,10.3
308400,2026-01-12 12:11:25,754.5647551172,38.057744,0.0,0.5932907014,5.454232458,19,5,7.663,756.2051751172,35.433072,0.223694,0.967929821,0.0,0.0,0.0,19.2,2.9,-1.3,0,0,1024,1024,1024,1024,0,0,0,0,0,0,0,80,3.833,3.83,0,0,0,0,4.852,70.16,754.5647551172,33.792652,6,P-GPS,,10.3
308500,2026-01-12 12:11:25,754.5647551172,38.057744,0.0,0.63642390488,5.4989503072,19,5,7.663,756.2051751172,35.433072,0.223694,0.967929821,0.0,0.0,0.0,19.1,2.8,-1.5,0,0,1024,1024,1024,1024,0,0,0,0,0,0,0,80,3.833,3.83,0,0,0,0,4.852,70.16,754.5647551172,33.792652,6,P-GPS,,10.3
308600,2026-01-12 12:11:25,754.5647551172,38.057744,0.0,0.63441931164,5.5057744544,19,5,7.663,756.2051751172,35.433072,0.223694,0.967929821,0.0,0.0,0.0,19.1,3.1,-1.6,0,0,1024,1024,1024,1024,0,0,0,0,0,0,0,80,3.833,3.83,0,0,0,0,4.852,70.16,754.5647551172,33.792652,6,P-GPS,,10.3
308700,2026-01-12 12:11:25,754.5647551172,38.057744,0.0,0.62577429824,5.5151248484,19,5,7.663,756.2051751172,35.433072,0.223694,0.967929821,0.0,0.0,0.0,19.0,3.3,-1.8,0,0,1024,1024,1024,1024,0,0,0,0,0,0,0,80,3.833,3.83,0,0,0,0,4.852,70.16,754.5647551172,33.792652,6,P-GPS,,10.3
308800,2026-01-12 12:11:25,754.5647551172,38.057744,0.0,0.62702757912,5.5200133,19,5,7.663,756.2051751172,35.433072,0.223694,0.967929821,0.0,0.0,0.0,18.9,3.4,-1.8,0,0,1024,1024,1024,1024,0,0,0,0,0,0,0,80,3.833,3.83,0,0,0,0,4.852,70.16,754.5647551172,33.792652,6,P-GPS,,10.3
308900,2026-01-12 12:11:25,754.5647551172,38.057744,0.0,0.6548392598,5.5480972904,19,5,7.663,756.2051751172,35.433072,0.223694,0.967929821,0.0,0.0,0.0,18.9,3.4,-1.7,0,0,1024,1024,1024,1024,0,0,0,0,0,0,0,80,3.836,3.835,0,0,0,0,4.852,70.16,754.5647551172,33.792652,6,P-GPS,,10.3
309000,2026-01-12 12:11:25,754.5647551172,38.057744,0.0,0.66617128116,5.561187842,19,5,7.663,756.2051751172,35.433072,0.223694,0.967929821,0.0,0.0,0.0,19.0,3.3,-1.4,0,0,1024,1024,1024,1024,0,0,0,0,0,0,0,80,3.836,3.835,0,0,0,0,4.852,70.16,754.5647551172,33.792652,6,P-GPS,,10.3
309100,2026-01-12 12:11:25,754.5647551172,38.057744,0.0,0.67292324988,5.570210152,19,5,7.663,756.2051751172,35.433072,0.223694,0.967929821,0.0,0.0,0.0,19.0,3.3,-1.1,0,0,1024,1024,1024,1024,0,0,0,0,0,0,0,80,3.836,3.835,0,0,0,0,4.852,70.16,754.5647551172,33.792652,6,P-GPS,,10.3
309200,2026-01-12 12:11:26,754.5647551172,38.057744,0.0,0.68166340764,5.58316947,19,5,7.663,756.2051751172,35.433072,0.223694,0.967929821,0.0,0.0,0.0,19.0,3.2,-1.2,0,0,1024,1024,1024,1024,0,0,0,0,0,0,0,80,3.836,3.835,0,0,0,0,4.852,70.16,754.5647551172,33.792652,6,P-GPS,,10.3
309300,2026-01-12 12:11:26,754.5647551172,38.057744,0.0,0.69880579664,5.6080382372,19,5,7.663,756.2051751172,35.433072,0.223694,0.967929821,0.0,0.0,0.0,19.0,3.2,-1.3,0,0,1024,1024,1024,1024,0,0,0,0,0,0,0,80,3.836,3.835,0,0,0,0,4.852,70.16,754.5647551172,33.792652,6,P-GPS,,10.3
309400,2026-01-12 12:11:26,754.5647551172,38.057744,0.0,0.71029201748,5.6266734084,19,5,7.663,756.2051751172,35.433072,0.223694,0.967929821,0.0,0.0,0.0,19.0,3.3,-1.3,0,0,1024,1024,1024,1024,0,0,0,0,0,0,0,80,3.836,3.835,0,0,0,0,4.852,70.16,754.5647551172,33.792652,6,P-GPS,,10.3
309500,2026-01-12 12:11:26,754.5647551172,38.057744,0.0,0.72310041684,5.646981808,19,5,7.663,756.2051751172,35.433072,0.223694,0.967929821,0.0,0.0,0.0,18.9,3.3,-1.3,0,0,1024,1024,1024,1024,0,0,0,0,0,0,0,80,3.836,3.835,0,0,0,0,4.852,70.16,754.5647551172,33.792652,6,P-GPS,,10.3
309600,2026-01-12 12:11:26,754.5647551172,38.057744,0.0,0.73089897352,5.658464748,19,5,7.663,756.2051751172,35.433072,0.223694,0.967929821,0.0,0.0,0.0,19.0,3.1,-1.3,0,0,1024,1024,1024,1024,0,0,0,0,0,0,0,79,3.836,3.835,0,0,0,0,4.852,70.16,754.5647551172,33.792652,6,P-GPS,,10.3
309700,2026-01-12 12:11:26,754.5647551172,38.057744,0.0,0.73348755628,5.6611878452,19,5,7.663,756.2051751172,35.433072,0.223694,0.967929821,0.0,0.0,0.0,19.0,3.0,-1.3,0,0,1024,1024,1024,1024,0,0,0,0,0,0,0,79,3.836,3.835,0,0,0,0,4.852,70.16,754.5647551172,33.792652,6,P-GPS,,10.3
309800,2026-01-12 12:11:26,754.5647551172,38.057744,0.0,0.73704398684,5.6754266908,19,5,7.663,756.2051751172,35.433072,0.223694,0.967929821,0.0,0.0,0.0,19.0,2.9,-1.5,0,0,1024,1024,1024,1024,0,0,0,0,0,0,0,79,3.836,3.835,0,0,0,0,4.852,70.16,754.5647551172,33.792652,6,P-GPS,,10.3
309900,2026-01-12 12:11:26,754.5647551172,38.057744,0.0,0.75991800332,5.6982941456,19,5,7.663,756.2051751172,35.433072,0.223694,0.967929821,0.0,0.0,0.0,18.9,3.0,-1.3,0,0,1024,1024,1024,1024,0,0,0,0,0,0,0,79,3.836,3.835,0,0,0,0,4.852,70.16,754.5647551172,33.792652,6,P-GPS,,10.3
310000,2026-01-12 12:11:26,754.5647551172,38.057744,0.0,0.77925527428,5.7185369284,19,5,7.668,756.2051751172,35.433072,0.223694,0.967929821,0.0,0.0,0.0,18.9,3.0,-1.1,0,0,1024,1024,1024,1024,0,0,0,0,0,0,0,79,3.834,3.833,0,0,0,0,4.824,70.16,754.5647551172,33.792652,6,P-GPS,,10.3
310100,2026-01-12 12:11:27,754.5647551172,38.057744,0.0,0.795931784,5.7397639632,19,5,7.668,756.2051751172,35.433072,0.223694,0.967929821,0.0,0.0,0.0,19.0,2.8,-1.0,0,0,1024,1024,1024,1024,0,0,0,0,0,0,0,79,3.834,3.833,0,0,0,0,4.824,70.16,754.5647551172,33.792652,6,P-GPS,,10.3
310200,2026-01-12 12:11:27,754.5647551172,38.057744,0.0,0.8252788978,5.770013308,19,5,7.668,756.2051751172,35.433072,0.223694,0.967929821,0.0,0.0,0.0,19.0,3.1,-0.9,0,0,1024,1024,1024,1024,0,0,0,0,0,0,0,79,3.834,3.833,0,0,0,0,4.824,70.16,754.5647551172,33.792652,6,P-GPS,,10.3
310300,2026-01-12 12:11:27,754.5647551172,38.057744,0.0,0.83849084048,5.7907154084,19,5,7.668,756.2051751172,35.433072,0.223694,0.967929821,0.0,0.0,0.0,19.0,2.9,-1.0,0,0,1024,1024,1024,1024,0,0,0,0,0,0,0,79,3.834,3.833,0,0,0,0,4.824,70.16,754.5647551172,33.792652,6,P-GPS,,10.3
310400,2026-01-12 12:11:27,754.5647551172,38.057744,0.0,0.85698165472,5.8112206584,19,5,7.668,756.2051751172,35.433072,0.223694,0.967929821,0.0,0.0,0.0,19.0,2.8,-1.0,0,0,1024,1024,1024,1024,0,0,0,0,0,0,0,79,3.834,3.833,0,0,0,0,4.824,70.16,754.5647551172,33.792652,6,P-GPS,,10.3
310500,2026-01-12 12:11:27,754.5647551172,38.057744,0.0,0.88246065816,5.8369096356,19,5,7.668,756.2051751172,35.433072,0.223694,0.967929821,0.0,0.0,0.0,18.9,2.7,-0.9,0,0,1024,1024,1024,1024,0,0,0,0,0,0,0,79,3.834,3.833,0,0,0,0,4.824,70.16,754.5647551172,33.792652,6,P-GPS,,10.3
310600,2026-01-12 12:11:27,754.5647551172,38.057744,0.0,0.94574150008,5.9001970392,19,5,7.668,756.2051751172,35.433072,0.223694,0.967929821,0.0,0.0,0.0,18.9,2.7,-0.8,0,0,1024,1024,1024,1024,0,0,0,0,0,0,0,79,3.834,3.833,0,0,0,0,4.824,70.16,754.5647551172,33.792652,6,P-GPS,,10.3
310700,2026-01-12 12:11:27,754.5647551172,38.057744,0.0,0.9797244408,5.934875518,19,5,7.668,756.2051751172,35.433072,0.223694,0.9797244408,0.0,0.0,0.0,18.9,2.8,-0.8,0,0,1024,1024,1024,1024,0,0,0,0,0,0,0,79,3.834,3.833,0,0,0,0,4.824,70.16,754.5647551172,33.792652,6,P-GPS,,10.3
310800,2026-01-12 12:11:27,754.5647551172,38.057744,0.0,1.00135173808,5.9579398232,19,5,7.668,756.2051751172,35.433072,0.223694,1.00135173808,0.0,0.0,0.0,18.9,2.8,-0.8,0,0,1024,1024,1024,1024,0,0,0,0,0,0,0,79,3.834,3.833,0,0,0,0,4.824,70.16,754.5647551172,33.792652,6,P-GPS,,10.3
310900,2026-01-12 12:11:27,754.5647551172,38.057744,0.0,1.01128284076,5.9724083276,19,5,7.668,756.2051751172,35.433072,0.223694,1.01128284076,0.0,0.0,0.0,18.9,2.9,-0.8,0,0,1024,1024,1024,1024,0,0,0,0,0,0,0,79,3.834,3.833,0,0,0,0,4.824,70.16,754.5647551172,33.792652,6,P-GPS,,10.3
311000,2026-01-12 12:11:27,754.5647551172,38.057744,0.0,1.01698822152,5.9939962548,19,5,7.668,756.2051751172,35.433072,0.223694,1.01698822152,0.0,0.0,0.0,19.0,3.1,-0.7,0,0,1024,1024,1024,1024,0,0,0,0,0,0,0,79,3.834,3.833,0,0,0,0,4.824,70.16,754.5647551172,33.792652,6,P-GPS,,10.3
311100,2026-01-12 12:11:27,754.5647551172,38.057744,0.0,1.04001643748,6.0191274892,19,5,7.664,756.2051751172,35.433072,0.223694,1.04001643748,0.0,0.0,0.0,18.9,3.3,-0.9,0,0,1024,1024,1024,1024,0,0,0,0,0,0,0,79,3.833,3.829,0,0,0,0,4.759,70.16,754.5647551172,33.792652,6,P-GPS,,10.3
311200,2026-01-12 12:11:28,754.5647551172,38.057744,0.0,1.05657155612,6.038550062,19,5,7.664,756.2051751172,35.433072,0.223694,1.05657155612,0.0,0.0,0.0,18.9,3.0,-1.0,0,0,1024,1024,1024,1024,0,0,0,0,0,0,0,79,3.833,3.829,0,0,0,0,4.759,70.16,754.5647551172,33.792652,6,P-GPS,,10.3
311300,2026-01-12 12:11:28,754.5647551172,38.057744,0.0,1.0683727376,6.0549870704,19,5,7.664,756.2051751172,35.433072,0.223694,1.0683727376,0.0,0.0,0.0,18.9,2.9,-0.9,0,0,1024,1024,1024,1024,0,0,0,0,0,0,0,79,3.833,3.829,0,0,0,0,4.759,70.16,754.5647551172,33.792652,6,P-GPS,,10.3
311400,2026-01-12 12:11:28,754.5647551172,38.057744,0.0,1.08423887984,6.071850588,19,5,7.664,756.2051751172,35.433072,0.223694,1.08423887984,0.0,0.0,0.0,19.0,2.6,-0.7,0,0,1024,1024,1024,1024,0,0,0,0,0,0,0,79,3.833,3.829,0,0,0,0,4.759,70.16,754.5647551172,33.792652,6,P-GPS,,10.3
311500,2026-01-12 12:11:28,754.5647551172,38.057744,0.0,1.09497706916,6.0882219796,19,5,7.664,756.2051751172,35.433072,0.223694,1.09497706916,0.0,0.0,0.0,19.0,2.6,-0.5,0,0,1024,1024,1024,1024,0,0,0,0,0,0,0,79,3.833,3.829,0,0,0,0,4.759,70.16,754.5647551172,33.792652,6,P-GPS,,10.3
311600,2026-01-12 12:11:28,754.5647551172,38.057744,0.0,1.107529563,6.1009188304,19,5,7.664,756.2051751172,35.433072,0.223694,1.107529563,0.0,0.0,0.0,18.9,2.8,-0.5,0,0,1024,1024,1024,1024,0,0,0,0,0,0,0,79,3.833,3.829,0,0,0,0,4.759,70.16,754.5647551172,33.792652,6,P-GPS,,10.3
311700,2026-01-12 12:11:28,754.5647551172,38.057744,0.0,1.1136155212,6.1089568884,19,5,7.664,756.2051751172,35.433072,0.223694,1.1136155212,0.0,0.0,0.0,18.9,3.1,-0.8,0,0,1024,1024,1024,1024,0,0,0,0,0,0,0,79,3.833,3.829,0,0,0,0,4.759,70.16,754.5647551172,33.792652,6,P-GPS,,10.3
311800,2026-01-12 12:11:28,754.5647551172,38.057744,0.0,1.11632549504,6.1149280172,19,5,7.664,756.2051751172,35.433072,0.223694,1.11632549504,0.0,0.0,0.0,18.9,3.2,-0.9,0,0,1024,1024,1024,1024,0,0,0,0,0,0,0,79,3.833,3.829,0,0,0,0,4.759,70.16,754.5647551172,33.792652,6,P-GPS,,10.3
311900,2026-01-12 12:11:28,754.5647551172,38.057744,0.0,1.0919127646,6.1444227688,19,5,7.664,756.2051751172,35.433072,0.223694,1.11632549504,0.0,0.0,0.0,18.9,3.2,-0.9,0,0,1024,1024,1024,1024,0,0,0,0,0,0,0,79,3.833,3.829,0,0,0,0,4.759,70.16,754.5647551172,33.792652,6,P-GPS,,10.3
312000,2026-01-12 12:11:28,754.5647551172,38.057744,0.0,1.09416670168,6.1501970472,19,5,7.664,756.2051751172,35.433072,0.223694,1.11632549504,0.0,0.0,0.0,18.9,3.2,-0.9,0,0,1024,1024,1024,1024,0,0,0,0,0,0,0,79,3.833,3.829,0,0,0,0,4.759,70.16,754.5647551172,33.792652,6,P-GPS,,10.3
312100,2026-01-12 12:11:28,754.5647551172,38.057744,0.0,1.0980807438,6.1555448164,19,5,7.664,756.2051751172,35.433072,0.223694,1.11632549504,0.0,0.0,0.0,19.0,3.1,-1.2,0,0,1024,1024,1024,1024,0,0,0,0,0,0,0,79,3.833,3.829,0,0,0,0,4.759,70.16,754.5647551172,33.792652,6,P-GPS,,10.3
312200,2026-01-12 12:11:29,754.5647551172,38.057744,0.0,1.09992785672,6.1574477036,19,5,7.671,756.2051751172,35.433072,0.223694,1.11632549504,0.0,0.0,0.0,19.0,3.0,-1.4,0,0,1024,1024,1024,1024,0,0,0,0,0,0,0,79,3.837,3.833,0,0,0,0,4.639,70.16,754.5647551172,33.792652,6,P-GPS,,10.3
312300,2026-01-12 12:11:29,754.5647551172,38.057744,0.0,1.08100069076,6.1784450796,19,5,7.671,756.2051751172,35.433072,0.223694,1.11632549504,0.0,0.0,0.0,19.0,3.2,-1.5,0,0,1024,1024,1024,1024,0,0,0,0,0,0,0,79,3.837,3.833,0,0,0,0,4.639,70.16,754.5647551172,33.792652,6,P-GPS,,10.3
312400,2026-01-12 12:11:29,754.5647551172,38.057744,0.0,1.08791342064,6.1891734264,19,5,7.671,756.2051751172,35.433072,0.223694,1.11632549504,0.0,0.0,0.0,19.0,3.4,-1.5,0,0,1024,1024,1024,1024,0,0,0,0,0,0,0,79,3.837,3.833,0,0,0,0,4.639,70.16,754.5647551172,33.792652,6,P-GPS,,10.3
312500,2026-01-12 12:11:29,754.5647551172,38.057744,0.0,1.10458993036,6.2105645032,19,5,7.671,756.2051751172,35.433072,0.223694,1.11632549504,0.0,0.0,0.0,19.0,3.5,-1.4,0,0,1024,1024,1024,1024,0,0,0,0,0,0,0,79,3.837,3.833,0,0,0,0,4.639,70.16,754.5647551172,33.792652,6,P-GPS,,10.3
312600,2026-01-12 12:11:29,754.8928391172,38.057744,0.0,1.1180774636,6.2256235588,19,5,7.671,756.2051751172,35.433072,0.223694,1.1180774636,0.0,0.0,0.0,19.1,3.6,-1.2,0,0,1024,1024,1024,1024,0,0,0,0,0,0,0,79,3.837,3.833,0,0,0,0,4.639,70.16,754.8928391172,34.120736,6,P-GPS,,10.4
312700,2026-01-12 12:11:29,754.8928391172,38.057744,0.0,1.13265423572,6.2528873392,19,5,7.671,756.2051751172,35.433072,0.223694,1.13265423572,0.0,0.0,0.0,19.1,3.5,-1.0,0,0,1024,1024,1024,1024,0,0,0,0,0,0,0,79,3.837,3.833,0,0,0,0,4.639,70.16,754.8928391172,34.120736,6,P-GPS,,10.4
