time(millisecond),timestamp,altitude_above_seaLevel(feet),height_sonar(feet),speed(mph),distance(feet),mileage(feet),satellites,gpslevel,voltage(v),max_altitude(feet),max_ascent(feet),max_speed(mph),max_distance(feet), xSpeed(mph), ySpeed(mph), zSpeed(mph), compass_heading(degrees), pitch(degrees), roll(degrees),isPhoto,isVideo,rc_elevator,rc_aileron,rc_throttle,rc_rudder,rc_elevator(percent),rc_aileron(percent),rc_throttle(percent),rc_rudder(percent),gimbal_heading(degrees),gimbal_pitch(degrees),gimbal_roll(degrees),battery_percent,voltageCell1,voltageCell2,voltageCell3,voltageCell4,voltageCell5,voltageCell6,current(A),battery_temperature(f),altitude(feet),ascent(feet),flycStateRaw,flycState,message,height_above_takeoff(meters)
70100,2026-01-13 17:33:25,720.7103268685,0.656168,0.0,0.0,0.0,16,5,0.0,720.7103268685,0.0,0.0,0.0,0.0,0.0,0.0,36.3,4.0,1.3,0,0,1024,1024,1024,1024,0,0,0,0,0,0,0,93,4.015,4.014,0,0,0,0,0.0,66.2,720.7103268685,0.0,41,Motors_Started,SD card speed low SD card speed low. Normal use may be affected. Replace SD card (Code: 10028). Gimbal stuck. Make sure gimbal cover is removed and manually check whether gimbal can rotate freely (Code: 40002),0.0
70200,2026-01-13 17:33:25,720.7103268685,0.656168,0.0,0.0032147966908,0.0032147966908,16,5,0.0,720.7103268685,0.0,0.0,0.0032147966908,0.0,0.0,0.0,36.3,4.0,1.3,0,0,1024,1024,1024,1024,0,0,0,0,0,0,0,93,4.015,4.014,0,0,0,0,0.0,66.2,720.7103268685,0.0,41,Motors_Started,,0.0
70300,2026-01-13 17:33:25,720.7103268685,0.328084,0.0,0.0039881234872,0.0040070211256,16,5,0.0,720.7103268685,0.0,0.0,0.0039881234872,0.0,0.0,0.0,36.3,4.0,1.3,0,0,1024,1024,1024,1024,0,0,0,0,0,0,0,93,4.015,4.014,0,0,0,0,0.0,66.2,720.7103268685,0.0,41,Motors_Started,,0.0
70400,2026-01-13 17:33:25,720.7103268685,0.328084,0.0,0.0264700467788,0.026489174076,16,5,0.0,720.7103268685,0.0,0.0,0.0264700467788,0.0,0.0,0.0,36.2,4.0,1.4,0,0,1024,1024,1024,1024,0,0,0,0,0,0,0,93,4.015,4.014,0,0,0,0,0.0,66.2,720.7103268685,0.0,41,Motors_Started,,0.0
70500,2026-01-13 17:33:25,720.7103268685,0.328084,0.0,0.053419293048,0.05343832192,16,5,8.029,720.7103268685,0.0,0.0,0.053419293048,0.0,0.0,0.0,36.3,4.0,1.3,0,0,1024,1024,1024,1024,0,0,0,0,0,0,0,93,4.015,4.014,0,0,0,0,0.719,66.2,720.7103268685,0.0,41,Motors_Started,,0.0
70600,2026-01-13 17:33:25,720.7103268685,0.328084,0.0,0.061349083328,0.077179792496,16,5,8.029,720.7103268685,0.0,0.0,0.061349083328,0.0,0.0,0.0,36.1,4.0,1.3,0,0,1024,1024,1024,1024,0,0,0,0,0,0,0,93,4.015,4.014,0,0,0,0,0.719,66.2,720.7103268685,0.0,41,Motors_Started,,0.0
70700,2026-01-13 17:33:25,720.7103268685,0.328084,0.0,0.079806761084,0.097033795756,16,5,8.029,720.7103268685,0.0,0.0,0.079806761084,0.0,0.0,0.0,36.4,4.0,1.4,0,0,1024,1024,1024,1024,0,0,0,0,0,0,0,93,4.015,4.014,0,0,0,0,0.719,66.2,720.7103268685,0.0,41,Motors_Started,Setting new Return-To-Home altitude to 90m (295 ft). Data Recorder File Index is 37. Setting new Maximum Flight Altitude to 90m (295 ft),0.0
70800,2026-01-13 17:33:26,720.7103268685,0.328084,0.0,2.06003287432,0.11827756284,16,5,8.029,720.7103268685,0.0,0.0,2.06003287432,0.0,0.0,0.0,36.5,4.0,1.4,0,0,1024,1024,1024,1024,0,0,0,0,0,0,0,93,4.015,4.014,0,0,0,0,0.719,66.2,720.7103268685,0.0,41,Motors_Started,,0.0
70900,2026-01-13 17:33:26,720.7103268685,0.328084,0.0,2.04026581332,0.142266080668,16,5,8.029,720.7103268685,0.0,0.0,2.06003287432,0.0,0.0,0.0,36.7,4.0,1.4,0,0,1024,1024,1024,1024,0,0,0,0,0,0,0,93,4.015,4.014,0,0,0,0,0.719,66.2,720.7103268685,0.0,41,Motors_Started,,0.0
71000,2026-01-13 17:33:26,720.7103268685,0.328084,0.0,2.00763457868,0.187661423328,16,5,8.029,720.7103268685,0.0,0.0,2.06003287432,0.0,0.0,0.0,36.6,4.0,1.4,0,0,1024,1024,1024,1024,0,0,0,0,0,0,0,93,4.015,4.014,0,0,0,0,0.719,66.2,720.7103268685,0.0,41,Motors_Started,,0.0
71100,2026-01-13 17:33:26,720.7103268685,0.328084,0.0,1.9859416646,0.212623366384,16,5,8.029,720.7103268685,0.0,0.0,2.06003287432,0.0,0.0,0.0,36.8,4.0,1.4,0,0,1024,1024,1024,1024,0,0,0,0,0,0,0,93,4.015,4.014,0,0,0,0,0.719,66.2,720.7103268685,0.0,41,Motors_Started,,0.0
71200,2026-01-13 17:33:26,720.7103268685,0.328084,0.0,1.97204074552,0.227183078136,16,5,8.029,720.7103268685,0.0,0.0,2.06003287432,0.0,0.0,0.0,36.8,3.9,1.4,0,0,1024,1024,1024,1024,0,0,0,0,0,0,0,93,4.015,4.014,0,0,0,0,0.719,66.2,720.7103268685,0.0,11,AutoTakeoff,,0.0
71300,2026-01-13 17:33:26,720.7103268685,0.328084,0.0,1.95873365848,0.24189141194,16,5,8.029,720.7103268685,0.0,0.0,2.06003287432,0.0,0.0,0.0,36.8,3.9,1.4,0,0,1024,1024,1024,1024,0,0,0,0,0,0,0,93,4.015,4.014,0,0,0,0,0.719,66.2,720.7103268685,0.0,11,AutoTakeoff,,0.0
71400,2026-01-13 17:33:26,720.7103268685,0.328084,0.0,1.9391732904,0.275016741084,16,5,8.029,720.7103268685,0.0,0.0,2.06003287432,0.0,0.0,0.0,36.8,3.9,1.4,0,0,1024,1024,1024,1024,0,0,0,0,0,0,0,93,4.015,4.014,0,0,0,0,0.719,66.2,720.7103268685,0.0,11,AutoTakeoff,,0.0
71500,2026-01-13 17:33:26,720.7103268685,0.328084,0.0,1.9191601664,0.29539206982,16,5,8.029,720.7103268685,0.0,0.0,2.06003287432,0.0,0.0,0.0,36.8,3.9,1.4,0,0,1024,1024,1024,1024,0,0,0,0,0,0,0,93,4.015,4.014,0,0,0,0,0.719,66.2,720.7103268685,0.0,11,AutoTakeoff,,0.0
71600,2026-01-13 17:33:26,720.7103268685,0.328084,0.0,1.89895675368,0.317446204384,16,5,8.024,720.7103268685,0.0,0.0,2.06003287432,0.0,0.0,0.0,36.8,3.9,1.4,0,0,1024,1024,1024,1024,0,0,0,0,0,0,0,93,3.987,3.983,0,0,0,0,1.419,66.2,720.7103268685,0.0,11,AutoTakeoff,,0.0
71700,2026-01-13 17:33:27,720.7103268685,0.328084,0.0,1.87728680548,0.34103019464,16,5,8.024,720.7103268685,0.0,0.0,2.06003287432,0.0,0.0,0.0,37.3,3.9,1.4,0,0,1024,1024,1024,1024,0,0,0,0,0,0,0,93,3.987,3.983,0,0,0,0,1.419,66.2,720.7103268685,0.0,11,AutoTakeoff,,0.0
71800,2026-01-13 17:33:27,720.7103268685,0.328084,0.0,1.84707683076,0.38314633772,16,5,8.024,720.7103268685,0.0,0.0,2.06003287432,0.0,0.0,0.0,38.9,4.0,1.5,0,0,1024,1024,1024,1024,0,0,0,0,0,0,0,93,3.987,3.983,0,0,0,0,1.419,66.2,720.7103268685,0.0,11,AutoTakeoff,,0.0
71900,2026-01-13 17:33:27,720.7103268685,0.328084,0.0,1.81978024196,0.4105643176,16,5,8.024,720.7103268685,0.0,0.0,2.06003287432,0.0,0.0,0.0,40.2,2.8,1.2,0,0,1024,1024,1024,1024,0,0,0,0,0,0,0,93,3.987,3.983,0,0,0,0,1.419,66.2,720.7103268685,0.0,11,AutoTakeoff,,0.0
72000,2026-01-13 17:33:27,720.7103268685,0.328084,0.0,1.79200793136,0.4444225864,16,5,8.024,720.7103268685,0.0,0.0,2.06003287432,0.0,0.0,-0.223694,42.2,1.6,0.2,0,0,1024,1024,1024,1024,0,0,0,0,0,0,0,93,3.987,3.983,0,0,0,0,1.419,66.2,720.7103268685,0.0,11,AutoTakeoff,,0.0
72100,2026-01-13 17:33:27,720.7103268685,0.328084,0.223694,1.7541667228,0.4927329554,16,5,8.024,720.7103268685,0.0,0.223694,2.06003287432,0.0,0.223694,-0.447388,43.0,2.1,0.5,0,0,1024,1024,1024,1024,0,0,0,0,0,0,0,93,3.987,3.983,0,0,0,0,1.419,66.2,720.7103268685,0.0,11,AutoTakeoff,,0.0
72200,2026-01-13 17:33:27,721.0384108685,0.328084,0.223694,1.72046593432,0.53723426916,16,5,8.024,721.0384108685,0.328084,0.223694,2.06003287432,0.0,0.223694,-0.671082,42.6,1.1,-1.6,0,0,1024,1024,1024,1024,0,0,0,0,0,0,0,93,3.987,3.983,0,0,0,0,1.419,66.2,721.0384108685,0.328084,11,AutoTakeoff,,0.1
72300,2026-01-13 17:33:27,721.0384108685,0.656168,0.223694,1.70271658992,0.5740157664,16,5,8.024,721.0384108685,0.328084,0.223694,2.06003287432,0.0,0.223694,-1.11847,43.0,-0.4,-2.2,0,0,1024,1024,1024,1024,0,0,0,0,0,0,0,93,3.987,3.983,0,0,0,0,1.419,66.2,721.0384108685,0.328084,11,AutoTakeoff,,0.1
72400,2026-01-13 17:33:27,721.3664948685,0.656168,0.447388,1.65109257252,0.6360400466,16,5,8.024,721.3664948685,0.656168,0.447388,2.06003287432,0.0,0.447388,-1.565858,43.0,2.2,-0.8,0,0,1024,1024,1024,1024,0,0,0,0,0,0,0,93,3.987,3.983,0,0,0,0,1.419,66.2,721.3664948685,0.656168,11,AutoTakeoff,,0.2
72500,2026-01-13 17:33:27,722.0226628685,0.984252,0.671082,1.57184388232,0.72479989196,17,5,8.024,722.0226628685,1.312336,0.671082,2.06003287432,0.0,0.671082,-1.789552,42.8,4.3,-1.2,0,0,1024,1024,1024,1024,0,0,0,0,0,0,0,93,3.987,3.983,0,0,0,0,1.419,66.2,722.0226628685,1.312336,11,AutoTakeoff,,0.4
72600,2026-01-13 17:33:27,722.3507468685,1.312336,0.671082,1.472523013,0.84093506628,17,5,8.024,722.3507468685,1.64042,0.671082,2.06003287432,0.0,0.671082,-2.013246,42.6,4.8,-2.8,0,0,1024,1024,1342,1024,0,0,48,0,0,0,0,93,3.987,3.983,0,0,0,0,1.419,66.2,722.3507468685,1.64042,11,AutoTakeoff,,0.5
72700,2026-01-13 17:33:28,723.0069148685,1.312336,0.894776,1.40384190844,0.99085305008,16,5,7.759,723.0069148685,2.296588,0.894776,2.06003287432,0.0,0.894776,-2.23694,42.3,6.4,-4.1,0,0,1024,1024,1684,1024,0,0,100,0,0,0,0,93,3.879,3.88,0,0,0,0,5.044,66.2,723.0069148685,2.296588,11,AutoTakeoff,,0.7
72800,2026-01-13 17:33:28,723.6630828685,1.64042,0.894776,1.30897970068,1.12907812012,16,5,7.759,723.6630828685,2.952756,0.894776,2.06003287432,0.0,0.894776,-2.23694,42.1,6.9,-5.0,0,0,1024,1024,1684,1024,0,0,100,0,0,0,0,93,3.879,3.88,0,0,0,0,5.044,66.2,723.6630828685,2.952756,11,AutoTakeoff,Home Point updated. RTH altitude adjusted to 90 m (Code: 120852),0.9
72900,2026-01-13 17:33:28,723.9911668685,1.968504,0.894776,1.22396329376,1.27436355784,16,5,7.759,723.9911668685,3.28084,0.894776,2.06003287432,0.0,0.894776,-2.23694,42.1,7.1,-5.4,0,0,1024,1024,1684,1024,0,0,100,0,0,0,0,93,3.879,3.88,0,0,0,0,5.044,66.2,723.9911668685,3.28084,11,AutoTakeoff,,1.0
73000,2026-01-13 17:33:28,724.6473348685,2.296588,0.894776,1.11204727968,1.46576120176,16,5,7.759,724.6473348685,3.937008,0.894776,2.06003287432,0.0,0.894776,-2.684328,42.2,6.1,-5.0,0,0,1024,1024,1684,1024,0,0,100,0,0,0,0,93,3.879,3.88,0,0,0,0,5.044,66.2,724.6473348685,3.937008,11,AutoTakeoff,,1.2
73100,2026-01-13 17:33:28,725.3035028685,2.952756,0.671082,0.99128284012,1.78648627764,17,5,7.759,725.3035028685,4.593176,0.894776,2.06003287432,0.0,0.671082,-3.35541,42.3,5.7,-5.4,0,0,1024,1024,1684,1024,0,0,100,0,0,0,0,93,3.879,3.88,0,0,0,0,5.044,66.2,725.3035028685,4.593176,6,P-GPS,,1.4
73200,2026-01-13 17:33:28,725.9596708685,3.28084,0.671082,0.94793638204,1.92763129528,17,5,7.759,725.9596708685,5.249344,0.894776,2.06003287432,0.0,0.671082,-3.579104,42.2,6.5,-6.2,0,0,1024,1024,1684,1024,0,0,100,0,0,0,0,93,3.879,3.88,0,0,0,0,5.044,66.2,725.9596708685,5.249344,6,P-GPS,,1.6
73300,2026-01-13 17:33:28,726.9439228685,3.937008,0.671082,0.92838913732,2.06395675896,17,5,7.759,726.9439228685,6.233596,0.894776,2.06003287432,0.0,0.671082,-3.802798,42.3,6.2,-7.3,0,0,1024,1024,1684,1024,0,0,100,0,0,0,0,93,3.879,3.88,0,0,0,0,5.044,66.2,726.9439228685,6.233596,6,P-GPS,,1.9
73400,2026-01-13 17:33:28,727.6000908685,4.265092,0.671082,0.93043310064,2.19486883664,17,5,7.759,727.6000908685,6.889764,0.894776,2.06003287432,0.0,0.671082,-4.026492,42.4,6.4,-6.7,0,0,1024,1024,1684,1024,0,0,100,0,0,0,0,93,3.879,3.88,0,0,0,0,5.044,66.2,727.6000908685,6.889764,6,P-GPS,,2.1
73500,2026-01-13 17:33:28,728.5843428685,4.92126,0.894776,0.89123034348,2.31436687196,17,5,7.759,728.5843428685,7.874016,0.894776,2.06003287432,0.0,0.894776,-4.026492,42.1,7.9,-7.8,0,0,1024,1024,1684,1024,0,0,100,0,0,0,0,93,3.879,3.88,0,0,0,0,5.044,66.2,728.5843428685,7.874016,6,P-GPS,,2.4
73600,2026-01-13 17:33:28,729.5685948685,5.577428,0.894776,0.96353677624,2.46843183752,17,5,7.759,729.5685948685,8.858268,0.894776,2.06003287432,0.0,0.894776,-4.026492,42.6,6.3,-8.8,0,0,1024,1024,1684,1024,0,0,100,0,0,0,0,93,3.879,3.88,0,0,0,0,5.044,66.2,729.5685948685,8.858268,6,P-GPS,,2.7
73700,2026-01-13 17:33:29,730.2247628685,6.233596,0.894776,1.05089242208,2.63811032064,17,5,7.759,730.2247628685,9.514436,0.894776,2.06003287432,0.0,0.894776,-4.026492,42.2,7.9,-7.5,0,0,1024,1024,1684,1024,0,0,100,0,0,0,0,93,3.879,3.88,0,0,0,0,5.044,66.2,730.2247628685,9.514436,6,P-GPS,,2.9
73800,2026-01-13 17:33:29,731.2090148685,6.889764,0.894776,1.15153875076,2.80280848864,17,5,7.687,731.2090148685,10.498688,0.894776,2.06003287432,0.0,1.11847,-4.250186,42.0,10.0,-8.5,0,0,1024,1024,1684,1024,0,0,100,0,0,0,0,93,3.828,3.837,0,0,0,0,6.394,66.38,731.2090148685,10.498688,6,P-GPS,,3.2
73900,2026-01-13 17:33:29,732.1932668685,7.545932,1.1408394,1.26974741596,2.97896334992,17,5,7.687,732.1932668685,11.48294,1.1408394,2.06003287432,0.223694,1.11847,-3.802798,42.3,10.5,-8.0,0,0,1024,1024,1684,1024,0,0,100,0,0,0,0,93,3.828,3.837,0,0,0,0,6.394,66.38,732.1932668685,11.48294,6,P-GPS,,3.5
74000,2026-01-13 17:33:29,732.8494348685,8.2021,0.9171454,1.41857616088,3.17230325112,17,5,7.687,732.8494348685,12.139108,1.1408394,2.06003287432,0.223694,0.894776,-3.802798,42.3,11.0,-7.5,0,0,1024,1024,1684,1024,0,0,100,0,0,0,0,93,3.828,3.837,0,0,0,0,6.394,66.38,732.8494348685,12.139108,6,P-GPS,,3.7
74100,2026-01-13 17:33:29,733.8336868685,8.858268,0.894776,1.54155516744,3.3527560128,17,5,7.687,733.8336868685,13.12336,1.1408394,2.06003287432,0.0,0.894776,-3.802798,42.2,10.6,-7.7,0,0,1024,1024,1684,1024,0,0,100,0,0,0,0,93,3.828,3.837,0,0,0,0,6.394,66.38,733.8336868685,13.12336,6,P-GPS,,4.0
74200,2026-01-13 17:33:29,734.4898548685,9.514436,0.894776,1.73776580364,3.5778216368,17,5,7.687,734.4898548685,13.779528,1.1408394,2.06003287432,0.0,0.894776,-3.802798,42.3,9.8,-5.9,0,0,1024,1024,1684,1024,0,0,100,0,0,0,0,93,3.828,3.837,0,0,0,0,6.394,66.38,734.4898548685,13.779528,6,P-GPS,,4.2
74300,2026-01-13 17:33:29,735.1460228685,10.170604,0.7158208,1.94252302804,3.8017717752,17,5,7.687,735.1460228685,14.435696,1.1408394,2.06003287432,0.223694,0.671082,-4.250186,42.6,8.0,-4.7,0,0,1024,1024,1684,1024,0,0,100,0,0,0,0,93,3.828,3.837,0,0,0,0,6.394,66.38,735.1460228685,14.435696,6,P-GPS,,4.4
74400,2026-01-13 17:33:29,735.8021908685,10.826772,0.7158208,2.21134193428,4.1304463264,17,5,7.687,735.8021908685,15.091864,1.1408394,2.21134193428,0.223694,0.671082,-4.47388,42.5,7.3,-5.1,0,0,1024,1024,1684,1024,0,0,100,0,0,0,0,93,3.828,3.837,0,0,0,0,6.394,66.38,735.8021908685,15.091864,6,P-GPS,,4.6
74500,2026-01-13 17:33:29,736.4583588685,11.48294,0.7158208,2.33424876236,4.2977035496,17,5,7.687,736.4583588685,15.748032,1.1408394,2.33424876236,0.223694,0.671082,-4.697574,42.2,8.0,-5.4,0,0,1024,1024,1684,1024,0,0,100,0,0,0,0,93,3.828,3.837,0,0,0,0,6.394,66.38,736.4583588685,15.748032,6,P-GPS,,4.8
74600,2026-01-13 17:33:29,737.4426108685,12.139108,0.7158208,2.42740165248,4.4456366252,17,5,7.687,737.4426108685,16.732284,1.1408394,2.42740165248,0.223694,0.671082,-4.697574,42.3,7.7,-5.0,0,0,1024,1024,1684,1024,0,0,100,0,0,0,0,93,3.828,3.837,0,0,0,0,6.394,66.38,737.4426108685,16.732284,6,P-GPS,,5.1
74700,2026-01-13 17:33:30,738.0987788685,13.12336,0.7158208,2.52318905712,4.5998361052,17,5,7.687,738.0987788685,17.388452,1.1408394,2.52318905712,0.223694,0.671082,-4.697574,42.3,9.0,-4.6,0,0,1024,1024,1684,1024,0,0,100,0,0,0,0,93,3.828,3.837,0,0,0,0,6.394,66.38,738.0987788685,17.388452,6,P-GPS,,5.3
74800,2026-01-13 17:33:30,738.7549468685,13.779528,0.7158208,2.70387803928,4.8436353256,17,5,7.687,738.7549468685,18.04462,1.1408394,2.70387803928,0.223694,0.671082,-4.697574,42.3,9.5,-4.3,0,0,1024,1024,1684,1024,0,0,100,0,0,0,0,93,3.828,3.837,0,0,0,0,6.394,66.38,738.7549468685,18.04462,6,P-GPS,,5.5
74900,2026-01-13 17:33:30,739.4111148685,14.435696,0.7158208,2.8771490422,5.0341537044,17,5,7.673,739.4111148685,18.700788,1.1408394,2.8771490422,0.223694,0.671082,-4.47388,42.2,8.8,-4.6,0,0,1024,1024,1684,1024,0,0,100,0,0,0,0,93,3.835,3.837,0,0,0,0,7.627,66.38,739.4111148685,18.700788,6,P-GPS,,5.7
75000,2026-01-13 17:33:30,740.0672828685,15.091864,0.7158208,2.98308080412,5.1613846796,17,5,7.673,740.0672828685,19.356956,1.1408394,2.98308080412,0.223694,0.671082,-4.47388,42.3,8.1,-5.2,0,0,1024,1024,1684,1024,0,0,100,0,0,0,0,93,3.835,3.837,0,0,0,0,7.627,66.38,740.0672828685,19.356956,6,P-GPS,,5.9
75100,2026-01-13 17:33:30,741.0515348685,16.076116,0.7158208,3.08723106992,5.2895014816,17,5,7.673,741.0515348685,20.341208,1.1408394,3.08723106992,0.223694,0.671082,-4.47388,42.1,9.5,-5.1,0,0,1024,1024,1684,1024,0,0,100,0,0,0,0,93,3.835,3.837,0,0,0,0,7.627,66.38,741.0515348685,20.341208,6,P-GPS,,6.2
75200,2026-01-13 17:33:30,741.7077028685,16.732284,0.7158208,3.00327437432,5.400426682,17,5,7.673,741.7077028685,20.997376,1.1408394,3.08723106992,0.223694,0.671082,-4.47388,42.1,9.6,-5.3,0,0,1024,1024,1684,1024,0,0,100,0,0,0,0,93,3.835,3.837,0,0,0,0,7.627,66.38,741.7077028685,20.997376,6,P-GPS,,6.4
75300,2026-01-13 17:33:30,742.3638708685,17.388452,0.7158208,3.07871400928,5.4962600184,16,5,7.673,742.3638708685,21.653544,1.1408394,3.08723106992,0.223694,0.671082,-4.47388,42.1,9.2,-5.1,0,0,1024,1024,1684,1024,0,0,100,0,0,0,0,93,3.835,3.837,0,0,0,0,7.627,66.38,742.3638708685,21.653544,6,P-GPS,,6.6
75400,2026-01-13 17:33:30,743.0200388685,18.372704,0.7158208,3.12397975876,5.5584975532,16,5,7.673,743.0200388685,22.309712,1.1408394,3.12397975876,0.223694,0.671082,-4.47388,42.1,8.6,-5.4,0,0,1024,1024,1684,1024,0,0,100,0,0,0,0,93,3.835,3.837,0,0,0,0,7.627,66.38,743.0200388685,22.309712,6,P-GPS,,6.8
75500,2026-01-13 17:33:30,743.6762068685,19.028872,0.447388,3.166994852,5.6164371876,17,5,7.673,743.6762068685,22.96588,1.1408394,3.166994852,0.0,0.447388,-4.47388,42.1,9.1,-4.4,0,0,1024,1024,1684,1024,0,0,100,0,0,0,0,93,3.835,3.837,0,0,0,0,7.627,66.38,743.6762068685,22.96588,6,P-GPS,,7.0
75600,2026-01-13 17:33:30,744.3323748685,19.68504,0.447388,3.206857058,5.6605316772,17,5,7.673,744.3323748685,23.622048,1.1408394,3.206857058,0.0,0.447388,-4.47388,42.1,8.0,-5.4,0,0,1024,1024,1684,1024,0,0,100,0,0,0,0,93,3.835,3.837,0,0,0,0,7.627,66.38,744.3323748685,23.622048,6,P-GPS,,7.2
75700,2026-01-13 17:33:30,744.9885428685,20.669292,0.447388,3.10334983684,5.7663715756,16,5,7.673,744.9885428685,24.278216,1.1408394,3.206857058,0.0,0.447388,-4.47388,42.0,8.1,-5.8,0,0,1024,1024,1684,1024,0,0,100,0,0,0,0,93,3.835,3.837,0,0,0,0,7.627,66.38,744.9885428685,24.278216,6,P-GPS,,7.4
75800,2026-01-13 17:33:31,745.6447108685,21.32546,0.447388,3.14230981184,5.806922758,16,5,7.673,745.6447108685,24.934384,1.1408394,3.206857058,0.0,0.447388,-4.250186,42.3,7.2,-5.3,0,0,1024,1024,1684,1024,0,0,100,0,0,0,0,93,3.835,3.837,0,0,0,0,7.627,66.38,745.6447108685,24.934384,6,P-GPS,,7.6
75900,2026-01-13 17:33:31,746.3008788685,21.981628,0.447388,3.19065298924,5.859416198,17,5,7.673,746.3008788685,25.590552,1.1408394,3.206857058,0.0,0.447388,-4.250186,42.1,8.0,-6.0,0,0,1024,1024,1684,1024,0,0,100,0,0,0,0,93,3.835,3.837,0,0,0,0,7.627,66.38,746.3008788685,25.590552,6,P-GPS,,7.8
76000,2026-01-13 17:33:31,746.9570468685,22.96588,0.4921268,3.23975404068,5.9206694808,17,5,7.677,746.9570468685,26.24672,1.1408394,3.23975404068,0.223694,0.447388,-4.250186,42.1,9.5,-5.3,0,0,1024,1024,1684,1024,0,0,100,0,0,0,0,93,3.843,3.833,0,0,0,0,6.602,66.38,746.9570468685,26.24672,6,P-GPS,,8.0
76100,2026-01-13 17:33:31,747.6132148685,23.622048,0.447388,3.23587936864,5.952756096,17,5,7.677,747.6132148685,26.902888,1.1408394,3.23975404068,0.0,0.447388,-4.250186,42.0,8.9,-5.4,0,0,1024,1024,1684,1024,0,0,100,0,0,0,0,93,3.843,3.833,0,0,0,0,6.602,66.38,747.6132148685,26.902888,6,P-GPS,,8.2
76200,2026-01-13 17:33:31,748.2693828685,24.6063,0.447388,3.31200798,6.0324148912,17,5,7.677,748.2693828685,27.559056,1.1408394,3.31200798,0.0,0.447388,-4.47388,42.0,8.5,-6.2,0,0,1024,1024,1684,1024,0,0,100,0,0,0,0,93,3.843,3.833,0,0,0,0,6.602,66.38,748.2693828685,27.559056,6,P-GPS,,8.4
76300,2026-01-13 17:33:31,748.9255508685,25.262468,0.447388,3.3960959092,6.118438516,17,5,7.677,748.9255508685,28.215224,1.1408394,3.3960959092,0.0,0.447388,-4.250186,42.0,8.6,-6.4,0,0,1024,1024,1684,1024,0,0,100,0,0,0,0,93,3.843,3.833,0,0,0,0,6.602,66.38,748.9255508685,28.215224,6,P-GPS,,8.6
76400,2026-01-13 17:33:31,749.5817188685,25.918636,0.447388,3.4809056232,6.2084647656,17,5,7.677,749.5817188685,28.871392,1.1408394,3.4809056232,0.0,0.447388,-4.250186,41.9,9.3,-6.3,0,0,1024,1024,1684,1024,0,0,100,0,0,0,0,93,3.843,3.833,0,0,0,0,6.602,66.38,749.5817188685,28.871392,6,P-GPS,,8.8
76500,2026-01-13 17:33:31,750.5659708685,26.574804,0.447388,3.5996064144,6.3348427224,17,5,7.677,750.5659708685,29.855644,1.1408394,3.5996064144,0.0,0.447388,-4.250186,42.0,9.7,-6.4,0,0,1024,1024,1684,1024,0,0,100,0,0,0,0,93,3.843,3.833,0,0,0,0,6.602,66.38,750.5659708685,29.855644,6,P-GPS,,9.1
76600,2026-01-13 17:33:31,751.2221388685,29.855644,0.447388,3.6897638976,6.4272967936,17,5,7.677,751.2221388685,30.511812,1.1408394,3.6897638976,0.0,0.447388,-4.026492,42.0,8.8,-6.2,0,0,1024,1024,1684,1024,0,0,100,0,0,0,0,93,3.843,3.833,0,0,0,0,6.602,66.38,751.2221388685,30.511812,6,P-GPS,,9.3
76700,2026-01-13 17:33:32,751.8783068685,30.511812,0.223694,3.7766733492,6.5171918096,16,5,7.677,751.8783068685,31.16798,1.1408394,3.7766733492,0.0,0.223694,-4.026492,42.0,8.6,-5.6,0,0,1024,1024,1684,1024,0,0,100,0,0,0,0,93,3.843,3.833,0,0,0,0,6.602,66.38,751.8783068685,31.16798,6,P-GPS,,9.5
76800,2026-01-13 17:33:32,752.2063908685,31.16798,0.223694,3.8507547164,6.5942915496,16,5,7.677,752.2063908685,31.496064,1.1408394,3.8507547164,0.0,0.223694,-4.250186,42.3,6.9,-4.0,0,0,1024,1024,1333,1024,0,0,47,0,0,0,0,93,3.843,3.833,0,0,0,0,6.602,66.38,752.2063908685,31.496064,6,P-GPS,,9.6
76900,2026-01-13 17:33:32,752.8625588685,31.496064,0.3131716,3.9838583952,6.7289044148,16,5,7.677,752.8625588685,32.152232,1.1408394,3.9838583952,0.223694,0.223694,-4.47388,42.3,7.3,-4.0,0,0,1024,1024,1024,1024,0,0,0,0,0,0,0,93,3.843,3.833,0,0,0,0,6.602,66.38,752.8625588685,32.152232,6,P-GPS,,9.8
77000,2026-01-13 17:33:32,753.5187268685,31.824148,0.3131716,4.0500001296,6.815288932,16,5,7.677,753.5187268685,32.8084,1.1408394,4.0500001296,0.223694,0.223694,-4.697574,42.1,9.1,-3.9,0,0,1024,1024,1024,1024,0,0,0,0,0,0,0,93,3.843,3.833,0,0,0,0,6.602,66.38,753.5187268685,32.8084,6,P-GPS,,10.0
77100,2026-01-13 17:33:32,753.8468108685,32.480316,0.3131716,4.117782284,6.909120956,17,5,7.599,753.8468108685,33.136484,1.1408394,4.117782284,0.223694,0.223694,-4.47388,41.8,9.7,-3.8,0,0,1024,1024,1024,1024,0,0,0,0,0,0,0,93,3.834,3.826,0,0,0,0,7.123,66.38,753.8468108685,33.136484,6,P-GPS,,10.1
77200,2026-01-13 17:33:32,754.5029788685,33.136484,0.3131716,4.1375329408,6.9692915616,17,5,7.599,754.5029788685,33.792652,1.1408394,4.1375329408,0.223694,0.223694,-3.802798,41.8,10.2,-3.8,0,0,1024,1024,1024,1024,0,0,0,0,0,0,0,93,3.834,3.826,0,0,0,0,7.123,66.38,754.5029788685,33.792652,6,P-GPS,,10.3
77300,2026-01-13 17:33:32,754.5029788685,33.792652,0.3131716,4.1536746736,7.03001991,17,5,7.599,754.5029788685,33.792652,1.1408394,4.1536746736,0.223694,0.223694,-3.131716,41.8,10.4,-3.0,0,0,1024,1024,1024,1024,0,0,0,0,0,0,0,93,3.834,3.826,0,0,0,0,7.123,66.38,754.5029788685,33.792652,6,P-GPS,,10.3
77400,2026-01-13 17:33:32,754.8310628685,34.120736,0.3131716,4.1383203424,7.1208335612,17,5,7.599,754.8310628685,34.120736,1.1408394,4.1536746736,0.223694,0.223694,-2.23694,41.8,10.5,-3.3,0,0,1024,1024,1024,1024,0,0,0,0,0,0,0,93,3.834,3.826,0,0,0,0,7.123,66.38,754.8310628685,34.120736,6,P-GPS,,10.4
77500,2026-01-13 17:33:32,754.8310628685,34.44882,0.3131716,4.1223098432,7.2236878952,17,5,7.599,754.8310628685,34.120736,1.1408394,4.1536746736,0.223694,0.223694,-1.565858,41.6,12.4,-3.6,0,0,1024,1024,1024,1024,0,0,0,0,0,0,0,93,3.834,3.826,0,0,0,0,7.123,66.38,754.8310628685,34.120736,6,P-GPS,,10.4
77600,2026-01-13 17:33:32,754.8310628685,34.44882,0.3131716,4.1598754612,7.2833663748,17,5,7.599,754.8310628685,34.120736,1.1408394,4.1598754612,0.223694,0.223694,-0.671082,41.7,12.6,-3.3,0,0,1024,1024,1024,1024,0,0,0,0,0,0,0,93,3.834,3.826,0,0,0,0,7.123,66.38,754.8310628685,34.120736,6,P-GPS,,10.4
77700,2026-01-13 17:33:33,754.5029788685,34.44882,0.447388,4.212926644,7.3419293688,17,5,7.599,754.8310628685,34.120736,1.1408394,4.212926644,0.0,0.447388,0.0,41.9,11.9,-4.1,0,0,1024,1024,1024,1024,0,0,0,0,0,0,0,93,3.834,3.826,0,0,0,0,7.123,66.38,754.5029788685,33.792652,6,P-GPS,,10.3
77800,2026-01-13 17:33:33,754.5029788685,34.44882,0.223694,4.3651248116,7.4942259616,17,5,7.599,754.8310628685,34.120736,1.1408394,4.3651248116,0.0,0.223694,0.0,41.8,12.0,-4.8,0,0,1024,1024,1024,1024,0,0,0,0,0,0,0,93,3.834,3.826,0,0,0,0,7.123,66.38,754.5029788685,33.792652,6,P-GPS,,10.3
77900,2026-01-13 17:33:33,754.5029788685,34.44882,0.223694,4.4633859696,7.5931432876,17,5,7.599,754.8310628685,34.120736,1.1408394,4.4633859696,0.0,0.223694,0.0,41.9,11.0,-6.3,0,0,1024,1024,1024,1024,0,0,0,0,0,0,0,93,3.834,3.826,0,0,0,0,7.123,66.38,754.5029788685,33.792652,6,P-GPS,,10.3
78000,2026-01-13 17:33:33,754.1748948685,34.44882,0.223694,4.5389437148,7.6687666496,17,5,7.599,754.8310628685,34.120736,1.1408394,4.5389437148,0.0,0.223694,0.0,41.8,11.8,-6.4,0,0,1024,1024,1024,1024,0,0,0,0,0,0,0,93,3.834,3.826,0,0,0,0,7.123,66.38,754.1748948685,33.464568,6,P-GPS,,10.2
78100,2026-01-13 17:33:33,754.1748948685,34.44882,0.223694,4.5968177324,7.7270999848,17,5,7.599,754.8310628685,34.120736,1.1408394,4.5968177324,0.0,0.223694,0.0,41.9,11.1,-5.4,0,0,1024,1024,1024,1024,0,0,0,0,0,0,0,93,3.834,3.826,0,0,0,0,7.123,66.38,754.1748948685,33.464568,6,P-GPS,,10.2
78200,2026-01-13 17:33:33,753.8468108685,34.44882,0.0,4.6865487064,7.8259188856,17,5,7.698,754.8310628685,34.120736,1.1408394,4.6865487064,0.0,0.0,0.0,41.8,11.8,-5.2,0,0,1024,1024,1024,1024,0,0,0,0,0,0,0,93,3.849,3.849,0,0,0,0,4.897,66.38,753.8468108685,33.136484,6,P-GPS,,10.1
78300,2026-01-13 17:33:33,753.8468108685,34.44882,0.0,4.7284122248,7.8677495956,17,5,7.698,754.8310628685,34.120736,1.1408394,4.7284122248,0.0,0.0,0.0,41.8,11.9,-5.1,0,0,1024,1024,1024,1024,0,0,0,0,0,0,0,93,3.849,3.849,0,0,0,0,4.897,66.38,753.8468108685,33.136484,6,P-GPS,,10.1
78400,2026-01-13 17:33:33,753.5187268685,34.44882,0.0,4.7357941148,7.8786419844,17,5,7.698,754.8310628685,34.120736,1.1408394,4.7357941148,0.0,0.0,0.0,41.8,12.4,-4.8,0,0,1024,1024,1024,1024,0,0,0,0,0,0,0,93,3.849,3.849,0,0,0,0,4.897,66.38,753.5187268685,32.8084,6,P-GPS,,10.0
78500,2026-01-13 17:33:33,753.1906428685,34.44882,0.0,4.7292652432,7.8917653444,17,5,7.698,754.8310628685,34.120736,1.1408394,4.7357941148,0.0,0.0,0.0,42.0,10.6,-4.4,0,0,1024,1024,1024,1024,0,0,0,0,0,0,0,93,3.849,3.849,0,0,0,0,4.897,66.38,753.1906428685,32.480316,6,P-GPS,,9.9
78600,2026-01-13 17:33:33,753.1906428685,34.44882,0.0,4.6525920124,7.9776577356,17,5,7.698,754.8310628685,34.120736,1.1408394,4.7357941148,0.0,0.0,0.0,41.9,11.4,-4.4,0,0,1024,1024,1024,1024,0,0,0,0,0,0,0,93,3.849,3.849,0,0,0,0,4.897,66.38,753.1906428685,32.480316,6,P-GPS,,9.9
78700,2026-01-13 17:33:34,752.8625588685,34.44882,0.0,4.6257875496,8.0274936952,17,5,7.698,754.8310628685,34.120736,1.1408394,4.7357941148,0.0,0.0,0.0,41.8,11.9,-2.9,0,0,1024,1024,1024,1024,0,0,0,0,0,0,0,93,3.849,3.849,0,0,0,0,4.897,66.38,752.8625588685,32.152232,6,P-GPS,,9.8
78800,2026-01-13 17:33:34,752.8625588685,34.44882,0.0,4.574803296,8.086942516,17,5,7.698,754.8310628685,34.120736,1.1408394,4.7357941148,0.0,0.0,0.0,41.8,12.6,-1.9,0,0,1024,1024,1024,1024,0,0,0,0,0,0,0,93,3.849,3.849,0,0,0,0,4.897,66.38,752.8625588685,32.152232,6,P-GPS,,9.8
78900,2026-01-13 17:33:34,752.5344748685,34.44882,0.223694,4.511811168,8.1542325444,17,5,7.698,754.8310628685,34.120736,1.1408394,4.7357941148,0.0,-0.223694,0.0,42.1,11.4,-1.4,0,0,1024,1024,1024,1024,0,0,0,0,0,0,0,93,3.849,3.849,0,0,0,0,4.897,66.38,752.5344748685,31.824148,6,P-GPS,,9.7
79000,2026-01-13 17:33:34,752.2063908685,34.44882,0.223694,4.452427964,8.2245409456,17,5,7.698,754.8310628685,34.120736,1.1408394,4.7357941148,0.0,-0.223694,0.0,42.2,10.9,-1.2,0,0,1024,1024,1024,1024,0,0,0,0,0,0,0,93,3.849,3.849,0,0,0,0,4.897,66.38,752.2063908685,31.496064,6,P-GPS,,9.6
79100,2026-01-13 17:33:34,752.2063908685,34.44882,0.223694,4.3305775664,8.360564572,17,5,7.698,754.8310628685,34.120736,1.1408394,4.7357941148,0.0,-0.223694,0.0,42.2,10.7,-0.9,0,0,1024,1024,1024,1024,0,0,0,0,0,0,0,93,3.849,3.849,0,0,0,0,4.897,66.38,752.2063908685,31.496064,6,P-GPS,,9.6
79200,2026-01-13 17:33:34,751.8783068685,34.44882,0.223694,4.2707022364,8.4259189048,17,5,7.698,754.8310628685,34.120736,1.1408394,4.7357941148,0.0,-0.223694,0.0,42.3,10.2,-1.2,0,0,1024,1024,1024,1024,0,0,0,0,0,0,0,93,3.849,3.849,0,0,0,0,4.897,66.38,751.8783068685,31.16798,6,P-GPS,,9.5
79300,2026-01-13 17:33:34,751.8783068685,34.44882,0.0,4.2144358304,8.4841866232,17,5,7.698,754.8310628685,34.120736,1.1408394,4.7357941148,0.0,0.0,0.0,42.3,9.9,-1.9,0,0,1024,1024,1024,1024,0,0,0,0,0,0,0,93,3.858,3.861,0,0,0,0,4.897,66.38,751.8783068685,31.16798,6,P-GPS,,9.5
79400,2026-01-13 17:33:34,751.8783068685,34.44882,0.0,4.1700460652,8.530348042,17,5,7.698,754.8310628685,34.120736,1.1408394,4.7357941148,0.0,0.0,0.0,42.2,9.6,-2.8,0,0,1024,1024,1024,1024,0,0,0,0,0,0,0,93,3.858,3.861,0,0,0,0,4.897,66.38,751.8783068685,31.16798,6,P-GPS,,9.5
79500,2026-01-13 17:33:34,751.8783068685,34.44882,0.0,4.1079725724,8.593996338,17,5,7.698,754.8310628685,34.120736,1.1408394,4.7357941148,0.0,0.0,0.0,42.1,10.1,-3.3,0,0,1024,1024,1024,1024,0,0,0,0,0,0,0,93,3.858,3.861,0,0,0,0,4.897,66.38,751.8783068685,31.16798,6,P-GPS,,9.5
79600,2026-01-13 17:33:34,751.8783068685,34.44882,0.0,4.1039699476,8.6204399084,17,5,7.698,754.8310628685,34.120736,1.1408394,4.7357941148,0.0,0.0,0.0,42.2,8.8,-3.9,0,0,1024,1024,1024,1024,0,0,0,0,0,0,0,93,3.858,3.861,0,0,0,0,4.897,66.38,751.8783068685,31.16798,6,P-GPS,,9.5
79700,2026-01-13 17:33:35,752.2063908685,34.44882,0.0,4.109580184,8.6493441088,17,5,7.698,754.8310628685,34.120736,1.1408394,4.7357941148,0.0,0.0,-0.223694,41.8,11.4,-4.8,0,0,1024,1024,1024,1024,0,0,0,0,0,0,0,93,3.858,3.861,0,0,0,0,4.897,66.38,752.2063908685,31.496064,6,P-GPS,,9.6
79800,2026-01-13 17:33:35,752.2063908685,34.44882,0.223694,4.1074148296,8.6823165508,17,5,7.698,754.8310628685,34.120736,1.1408394,4.7357941148,-0.223694,0.0,0.0,42.1,9.1,-4.2,0,0,1024,1024,1024,1024,0,0,0,0,0,0,0,93,3.858,3.861,0,0,0,0,4.897,66.38,752.2063908685,31.496064,6,P-GPS,,9.6
79900,2026-01-13 17:33:35,752.2063908685,34.44882,0.223694,4.136975198,8.7286092032,17,5,7.698,754.8310628685,34.120736,1.1408394,4.7357941148,-0.223694,0.0,-0.223694,42.3,8.1,-3.8,0,0,1024,1024,1024,1024,0,0,0,0,0,0,0,93,3.858,3.861,0,0,0,0,4.897,66.38,752.2063908685,31.496064,6,P-GPS,,9.6
80000,2026-01-13 17:33:35,752.2063908685,34.44882,0.223694,4.128280972,8.7678480496,17,5,7.698,754.8310628685,34.120736,1.1408394,4.7357941148,-0.223694,0.0,-0.223694,42.2,8.3,-3.8,0,0,1024,1024,1024,1024,0,0,0,0,0,0,0,93,3.858,3.861,0,0,0,0,4.897,66.38,752.2063908685,31.496064,6,P-GPS,,9.6
80100,2026-01-13 17:33:35,752.2063908685,34.44882,0.223694,4.1285434392,8.8124674736,16,5,7.698,754.8310628685,34.120736,1.1408394,4.7357941148,-0.223694,0.0,-0.223694,42.1,7.5,-4.8,0,0,1024,1024,1024,1024,0,0,0,0,0,0,0,93,3.858,3.861,0,0,0,0,4.897,66.38,752.2063908685,31.496064,6,P-GPS,,9.6
80200,2026-01-13 17:33:35,752.2063908685,34.44882,0.223694,4.145013256,8.8460632752,16,5,7.698,754.8310628685,34.120736,1.1408394,4.7357941148,-0.223694,0.0,-0.223694,41.9,8.7,-4.4,0,0,1024,1024,1024,1024,0,0,0,0,0,0,0,93,3.858,3.861,0,0,0,0,4.897,66.38,752.2063908685,31.496064,6,P-GPS,,9.6
80300,2026-01-13 17:33:35,752.2063908685,34.44882,0.223694,4.1808072204,8.886811308,17,5,7.698,754.8310628685,34.120736,1.1408394,4.7357941148,0.0,0.0,0.0,41.9,8.9,-5.1,0,0,1024,1024,1024,1024,0,0,0,0,0,0,0,93,3.858,3.861,0,0,0,0,4.897,66.38,752.2063908685,31.496064,6,P-GPS,,9.6
80400,2026-01-13 17:33:35,752.2063908685,34.44882,0.0,4.1979003968,8.9166341436,17,5,7.719,754.8310628685,34.120736,1.1408394,4.7357941148,0.0,0.0,0.0,41.9,7.9,-6.0,0,0,1024,1024,1024,1024,0,0,0,0,0,0,0,93,3.877,3.863,0,0,0,0,5.685,66.56,752.2063908685,31.496064,6,P-GPS,,9.6
80500,2026-01-13 17:33:35,752.2063908685,34.44882,0.0,4.2146654892,8.9414701024,17,5,7.719,754.8310628685,34.120736,1.1408394,4.7357941148,0.0,0.0,0.0,41.8,9.5,-6.0,0,0,1024,1024,1024,1024,0,0,0,0,0,0,0,93,3.877,3.863,0,0,0,0,5.685,66.56,752.2063908685,31.496064,6,P-GPS,,9.6
80600,2026-01-13 17:33:35,752.2063908685,34.44882,0.0,4.2350066972,8.9713257464,17,5,7.719,754.8310628685,34.120736,1.1408394,4.7357941148,0.0,0.0,0.0,41.6,10.3,-5.5,0,0,1024,1024,1024,1024,0,0,0,0,0,0,0,93,3.877,3.863,0,0,0,0,5.685,66.56,752.2063908685,31.496064,6,P-GPS,,9.6
80700,2026-01-13 17:33:35,752.2063908685,34.44882,0.0,4.2399279572,8.9937995004,17,5,7.719,754.8310628685,34.120736,1.1408394,4.7357941148,0.0,0.0,0.0,42.1,9.0,-3.2,0,0,1024,1024,1024,1024,0,0,0,0,0,0,0,93,3.877,3.863,0,0,0,0,5.685,66.56,752.2063908685,31.496064,6,P-GPS,,9.6
80800,2026-01-13 17:33:36,751.8783068685,34.44882,0.0,4.2635828136,9.0230974016,17,5,7.719,754.8310628685,34.120736,1.1408394,4.7357941148,0.0,0.0,-0.223694,42.0,7.1,-4.3,0,0,1024,1024,1024,1024,0,0,0,0,0,0,0,93,3.877,3.863,0,0,0,0,5.685,66.56,751.8783068685,31.16798,6,P-GPS,,9.5
80900,2026-01-13 17:33:36,751.8783068685,34.44882,0.0,4.2947179852,9.06085987,17,5,7.719,754.8310628685,34.120736,1.1408394,4.7357941148,0.0,0.0,0.0,41.6,10.0,-5.1,0,0,1024,1024,1024,1024,0,0,0,0,0,0,0,93,3.877,3.863,0,0,0,0,5.685,66.56,751.8783068685,31.16798,6,P-GPS,,9.5
81000,2026-01-13 17:33:36,751.8783068685,34.44882,0.223694,4.3008203476,9.0859911044,17,5,7.719,754.8310628685,34.120736,1.1408394,4.7357941148,-0.223694,0.0,0.223694,41.9,8.2,-4.5,0,0,1024,1024,1024,1024,0,0,0,0,0,0,0,93,3.877,3.863,0,0,0,0,5.685,66.56,751.8783068685,31.16798,6,P-GPS,,9.5
81100,2026-01-13 17:33:36,751.8783068685,34.44882,0.223694,4.295603812,9.1181433364,17,5,7.719,754.8310628685,34.120736,1.1408394,4.7357941148,-0.223694,0.0,0.0,41.9,5.6,-5.3,0,0,1024,1024,1024,1024,0,0,0,0,0,0,0,93,3.877,3.863,0,0,0,0,5.685,66.56,751.8783068685,31.16798,6,P-GPS,,9.5
81200,2026-01-13 17:33:36,751.8783068685,34.44882,0.223694,4.2732284832,9.170932052,17,5,7.719,754.8310628685,34.120736,1.1408394,4.7357941148,-0.223694,0.0,0.0,41.6,7.7,-5.1,0,0,1024,1024,1024,1024,0,0,0,0,0,0,0,93,3.877,3.863,0,0,0,0,5.685,66.56,751.8783068685,31.16798,6,P-GPS,,9.5
81300,2026-01-13 17:33:36,751.5502228685,34.44882,0.3131716,4.2500985612,9.2220475392,17,5,7.719,754.8310628685,34.120736,1.1408394,4.7357941148,-0.223694,-0.223694,0.223694,41.8,7.2,-4.9,0,0,1024,1024,1024,1024,0,0,0,0,0,0,0,93,3.877,3.863,0,0,0,0,5.685,66.56,751.5502228685,30.839896,6,P-GPS,,9.4
81400,2026-01-13 17:33:36,751.5502228685,34.44882,0.3131716,4.217027694,9.27821552,17,5,7.719,754.8310628685,34.120736,1.1408394,4.7357941148,-0.223694,-0.223694,0.0,42.2,4.1,-3.9,0,0,1024,1024,1024,1024,0,0,0,0,0,0,0,93,3.877,3.863,0,0,0,0,5.685,66.56,751.5502228685,30.839896,6,P-GPS,,9.4
81500,2026-01-13 17:33:36,751.8783068685,34.44882,0.3131716,4.180938454,9.3378939996,17,5,7.755,754.8310628685,34.120736,1.1408394,4.7357941148,-0.223694,-0.223694,0.0,42.1,2.2,-3.9,0,0,1024,1024,1024,1024,0,0,0,0,0,0,0,93,3.884,3.871,0,0,0,0,4.756,66.56,751.8783068685,31.16798,6,P-GPS,,9.5
81600,2026-01-13 17:33:36,751.8783068685,34.44882,0.3131716,4.112861024,9.4211617188,17,5,7.755,754.8310628685,34.120736,1.1408394,4.7357941148,-0.223694,-0.223694,0.0,41.9,1.7,-3.7,0,0,1024,1024,1024,1024,0,0,0,0,0,0,0,93,3.884,3.871,0,0,0,0,4.756,66.56,751.8783068685,31.16798,6,P-GPS,,9.5
81700,2026-01-13 17:33:37,751.5502228685,34.44882,0.0,4.0764437,9.468012114,17,5,7.755,754.8310628685,34.120736,1.1408394,4.7357941148,0.0,0.0,-0.223694,41.9,1.3,-3.8,0,0,1024,1024,1024,1024,0,0,0,0,0,0,0,93,3.884,3.871,0,0,0,0,4.756,66.56,751.5502228685,30.839896,6,P-GPS,,9.4
81800,2026-01-13 17:33:37,751.5502228685,34.44882,0.0,4.0321851684,9.5189635592,17,5,7.755,754.8310628685,34.120736,1.1408394,4.7357941148,0.0,0.0,-0.223694,41.6,5.3,-4.2,0,0,1024,1024,1024,1024,0,0,0,0,0,0,0,93,3.884,3.871,0,0,0,0,4.756,66.56,751.5502228685,30.839896,6,P-GPS,,9.4
81900,2026-01-13 17:33:37,751.2221388685,34.44882,0.223694,3.9792980276,9.579396632,17,5,7.755,754.8310628685,34.120736,1.1408394,4.7357941148,0.0,-0.223694,0.0,41.6,4.6,-4.0,0,0,1024,1024,1024,1024,0,0,0,0,0,0,0,93,3.884,3.871,0,0,0,0,4.756,66.56,751.2221388685,30.511812,6,P-GPS,,9.3
82000,2026-01-13 17:33:37,751.2221388685,34.44882,0.223694,3.8533793884,9.7192916496,17,5,7.755,754.8310628685,34.120736,1.1408394,4.7357941148,0.0,-0.223694,0.0,41.6,3.3,-3.9,0,0,1024,1024,1024,1024,0,0,0,0,0,0,0,93,3.884,3.871,0,0,0,0,4.756,66.56,751.2221388685,30.511812,6,P-GPS,,9.3
82100,2026-01-13 17:33:37,751.2221388685,34.44882,0.223694,3.8009515652,9.7803152736,17,5,7.755,754.8310628685,34.120736,1.1408394,4.7357941148,0.0,-0.223694,0.223694,41.9,4.0,-3.9,0,0,1024,1024,1024,1024,0,0,0,0,0,0,0,93,3.884,3.871,0,0,0,0,4.756,66.56,751.2221388685,30.511812,6,P-GPS,,9.3
82200,2026-01-13 17:33:37,751.2221388685,34.44882,0.0,3.7641733488,9.8219491332,17,5,7.755,754.8310628685,34.120736,1.1408394,4.7357941148,0.0,0.0,0.223694,42.0,3.7,-3.7,0,0,1024,1024,1024,1024,0,0,0,0,0,0,0,93,3.884,3.871,0,0,0,0,4.756,66.56,751.2221388685,30.511812,6,P-GPS,,9.3
82300,2026-01-13 17:33:37,750.8940548685,34.44882,0.0,3.7316930328,9.8580055648,17,5,7.755,754.8310628685,34.120736,1.1408394,4.7357941148,0.0,0.0,0.223694,42.0,4.7,-3.6,0,0,1024,1024,1024,1024,0,0,0,0,0,0,0,93,3.884,3.871,0,0,0,0,4.756,66.56,750.8940548685,30.183728,6,P-GPS,,9.2
82400,2026-01-13 17:33:37,751.2221388685,34.44882,0.0,3.7074804336,9.8830055656,17,5,7.755,754.8310628685,34.120736,1.1408394,4.7357941148,0.0,0.0,0.223694,42.1,6.2,-4.1,0,0,1024,1024,1024,1024,0,0,0,0,0,0,0,93,3.884,3.871,0,0,0,0,4.756,66.56,751.2221388685,30.511812,6,P-GPS,,9.3
82500,2026-01-13 17:33:37,751.2221388685,34.44882,0.0,3.683235026,9.9082352252,17,5,7.755,754.8310628685,34.120736,1.1408394,4.7357941148,0.0,0.0,0.223694,42.3,6.3,-4.4,0,0,1024,1024,1024,1024,0,0,0,0,0,0,0,93,3.884,3.871,0,0,0,0,4.756,66.56,751.2221388685,30.511812,6,P-GPS,,9.3
82600,2026-01-13 17:33:37,751.2221388685,34.44882,0.0,3.6766077292,9.9241144908,17,5,7.806,754.8310628685,34.120736,1.1408394,4.7357941148,0.0,0.0,0.223694,42.4,6.2,-4.3,0,0,1024,1024,1024,1024,0,0,0,0,0,0,0,93,3.88,3.873,0,0,0,0,3.911,66.56,751.2221388685,30.511812,6,P-GPS,,9.3
82700,2026-01-13 17:33:37,751.5502228685,34.44882,0.0,3.6795604852,9.9459648852,17,5,7.806,754.8310628685,34.120736,1.1408394,4.7357941148,0.0,0.0,0.0,42.4,6.2,-4.5,0,0,1024,1024,1024,1024,0,0,0,0,0,0,0,93,3.88,3.873,0,0,0,0,3.911,66.56,751.5502228685,30.839896,6,P-GPS,,9.4
82800,2026-01-13 17:33:38,751.5502228685,34.44882,0.0,3.6998360764,9.9687995316,17,5,7.806,754.8310628685,34.120736,1.1408394,4.7357941148,0.0,0.0,0.0,42.4,6.9,-5.0,0,0,1024,1024,1024,1024,0,0,0,0,0,0,0,93,3.88,3.873,0,0,0,0,3.911,66.56,751.5502228685,30.839896,6,P-GPS,,9.4
82900,2026-01-13 17:33:38,751.8783068685,34.44882,0.223694,3.7466864716,10.0356630508,17,5,7.806,754.8310628685,34.120736,1.1408394,4.7357941148,0.0,0.223694,0.0,42.2,7.6,-6.1,0,0,1024,1024,1024,1024,0,0,0,0,0,0,0,93,3.88,3.873,0,0,0,0,3.911,66.56,751.8783068685,31.16798,6,P-GPS,,9.5
83000,2026-01-13 17:33:38,751.8783068685,34.44882,0.223694,3.794455502,10.0897641024,17,5,7.806,754.8310628685,34.120736,1.1408394,4.7357941148,0.0,0.223694,0.0,42.2,8.2,-5.7,0,0,1024,1024,1024,1024,0,0,0,0,0,0,0,93,3.88,3.873,0,0,0,0,3.911,66.56,751.8783068685,31.16798,6,P-GPS,,9.5
83100,2026-01-13 17:33:38,751.8783068685,34.44882,0.223694,3.846620858,10.1502956004,17,5,7.806,754.8310628685,34.120736,1.1408394,4.7357941148,0.0,0.223694,0.0,42.1,8.2,-5.7,0,0,1024,1024,1024,1024,0,0,0,0,0,0,0,93,3.88,3.873,0,0,0,0,3.911,66.56,751.8783068685,31.16798,6,P-GPS,,9.5
83200,2026-01-13 17:33:38,752.2063908685,34.44882,0.223694,3.8896654788,10.2014767044,17,5,7.806,754.8310628685,34.120736,1.1408394,4.7357941148,0.0,0.223694,0.0,42.1,8.1,-6.0,0,0,1024,1024,1024,1024,0,0,0,0,0,0,0,93,3.88,3.873,0,0,0,0,3.911,66.56,752.2063908685,31.496064,6,P-GPS,,9.6
83300,2026-01-13 17:33:38,752.2063908685,34.44882,0.223694,3.9513780792,10.2716210636,17,5,7.806,754.8310628685,34.120736,1.1408394,4.7357941148,0.0,0.223694,0.0,42.0,8.7,-6.2,0,0,1024,1024,1024,1024,0,0,0,0,0,0,0,93,3.88,3.873,0,0,0,0,3.911,66.56,752.2063908685,31.496064,6,P-GPS,,9.6
83400,2026-01-13 17:33:38,752.2063908685,34.44882,0.223694,4.0049541964,10.3361551864,17,5,7.806,754.8310628685,34.120736,1.1408394,4.7357941148,0.0,0.223694,0.0,42.0,9.0,-6.0,0,0,1024,1024,1024,1024,0,0,0,0,0,0,0,93,3.88,3.873,0,0,0,0,3.911,66.56,752.2063908685,31.496064,6,P-GPS,,9.6
83500,2026-01-13 17:33:38,751.8783068685,34.44882,0.0,4.0596786076,10.4038389156,17,5,7.806,754.8310628685,34.120736,1.1408394,4.7357941148,0.0,0.0,0.0,42.0,8.9,-6.2,0,0,1024,1024,1024,1024,0,0,0,0,0,0,0,93,3.88,3.873,0,0,0,0,3.911,66.56,751.8783068685,31.16798,6,P-GPS,,9.5
83600,2026-01-13 17:33:38,751.8783068685,34.44882,0.0,4.0838583984,10.4557746128,17,5,7.806,754.8310628685,34.120736,1.1408394,4.7357941148,0.0,0.0,0.223694,41.9,9.9,-6.1,0,0,1024,1024,1024,1024,0,0,0,0,0,0,0,93,3.88,3.873,0,0,0,0,3.911,66.56,751.8783068685,31.16798,6,P-GPS,,9.5
83700,2026-01-13 17:33:39,751.8783068685,34.44882,0.0,4.0704725712,10.52657514,17,5,7.81,754.8310628685,34.120736,1.1408394,4.7357941148,0.0,0.0,0.223694,41.8,10.3,-4.8,0,0,1024,1024,1024,1024,0,0,0,0,0,0,0,93,3.9,3.911,0,0,0,0,4.442,66.56,751.8783068685,31.16798,6,P-GPS,,9.5
83800,2026-01-13 17:33:39,751.8783068685,34.44882,0.0,4.0618767704,10.570374354,17,5,7.81,754.8310628685,34.120736,1.1408394,4.7357941148,0.0,0.0,0.223694,42.1,8.8,-4.2,0,0,1024,1024,1024,1024,0,0,0,0,0,0,0,93,3.9,3.911,0,0,0,0,4.442,66.56,751.8783068685,31.16798,6,P-GPS,,9.5
83900,2026-01-13 17:33:39,751.5502228685,34.44882,0.0,4.0486221768,10.6129924656,17,5,7.81,754.8310628685,34.120736,1.1408394,4.7357941148,0.0,0.0,0.223694,42.3,8.1,-3.9,0,0,1024,1024,1024,1024,0,0,0,0,0,0,0,93,3.9,3.911,0,0,0,0,4.442,66.56,751.5502228685,30.839896,6,P-GPS,,9.4
84000,2026-01-13 17:33:39,751.5502228685,34.44882,0.0,4.0264765068,10.6507877424,17,5,7.81,754.8310628685,34.120736,1.1408394,4.7357941148,0.0,0.0,0.223694,42.2,8.3,-3.6,0,0,1024,1024,1024,1024,0,0,0,0,0,0,0,93,3.9,3.911,0,0,0,0,4.442,66.56,751.5502228685,30.839896,6,P-GPS,,9.4
84100,2026-01-13 17:33:39,751.5502228685,34.44882,0.0,4.0050526216,10.6850725204,17,5,7.81,754.8310628685,34.120736,1.1408394,4.7357941148,0.0,0.0,0.223694,42.3,8.2,-3.3,0,0,1024,1024,1024,1024,0,0,0,0,0,0,0,93,3.9,3.911,0,0,0,0,4.442,66.56,751.5502228685,30.839896,6,P-GPS,,9.4
84200,2026-01-13 17:33:39,751.5502228685,34.44882,0.0,3.948326898,10.7434058556,17,5,7.81,754.8310628685,34.120736,1.1408394,4.7357941148,0.0,0.0,0.0,42.2,6.8,-4.4,0,0,1024,1024,1024,1024,0,0,0,0,0,0,0,93,3.9,3.911,0,0,0,0,4.442,66.56,751.5502228685,30.839896,6,P-GPS,,9.4
84300,2026-01-13 17:33:39,751.5502228685,34.44882,0.0,3.8811024864,10.8150265928,17,5,7.81,754.8310628685,34.120736,1.1408394,4.7357941148,0.0,0.0,0.0,42.1,7.3,-4.9,0,0,1024,1024,1024,1024,0,0,0,0,0,0,0,93,3.9,3.911,0,0,0,0,4.442,66.56,751.5502228685,30.839896,6,P-GPS,,9.4
84400,2026-01-13 17:33:39,751.5502228685,34.44882,0.0,3.8484909368,10.8571853868,17,5,7.81,754.8310628685,34.120736,1.1408394,4.7357941148,0.0,0.0,0.0,41.9,7.9,-5.0,0,0,1024,1024,1024,1024,0,0,0,0,0,0,0,93,3.9,3.911,0,0,0,0,4.442,66.56,751.5502228685,30.839896,6,P-GPS,,9.4
84500,2026-01-13 17:33:39,751.5502228685,34.44882,0.0,3.8181431668,10.8981958868,17,5,7.81,754.8310628685,34.120736,1.1408394,4.7357941148,0.0,0.0,0.223694,41.9,7.6,-4.5,0,0,1024,1024,1024,1024,0,0,0,0,0,0,0,93,3.9,3.911,0,0,0,0,4.442,66.56,751.5502228685,30.839896,6,P-GPS,,9.4
84600,2026-01-13 17:33:39,751.5502228685,34.44882,0.0,3.7894358168,10.9672575688,17,5,7.81,754.8310628685,34.120736,1.1408394,4.7357941148,0.0,0.0,0.223694,42.1,6.4,-4.3,0,0,1024,1024,1024,1024,0,0,0,0,0,0,0,93,3.9,3.911,0,0,0,0,4.442,66.56,751.5502228685,30.839896,6,P-GPS,,9.4
84700,2026-01-13 17:33:40,751.2221388685,34.44882,0.0,3.760170724,10.9979662312,17,5,7.81,754.8310628685,34.120736,1.1408394,4.7357941148,0.0,0.0,0.0,42.1,6.0,-4.1,0,0,1024,1024,1024,1024,0,0,0,0,0,0,0,93,3.9,3.911,0,0,0,0,4.442,66.56,751.2221388685,30.511812,6,P-GPS,,9.3
84800,2026-01-13 17:33:40,751.2221388685,34.44882,0.0,3.7353019568,11.0231630824,17,5,7.76,754.8310628685,34.120736,1.1408394,4.7357941148,0.0,0.0,0.0,42.1,5.8,-3.8,0,0,1024,1024,1024,1024,0,0,0,0,0,0,0,93,3.878,3.879,0,0,0,0,4.876,66.74,751.2221388685,30.511812,6,P-GPS,,9.3
84900,2026-01-13 17:33:40,751.2221388685,34.44882,0.0,3.7157809588,11.0429465476,17,5,7.76,754.8310628685,34.120736,1.1408394,4.7357941148,0.0,0.0,0.0,42.1,5.8,-4.1,0,0,1024,1024,1024,1024,0,0,0,0,0,0,0,93,3.878,3.879,0,0,0,0,4.876,66.74,751.2221388685,30.511812,6,P-GPS,,9.3
85000,2026-01-13 17:33:40,751.5502228685,34.44882,0.0,3.7229988068,11.1001972056,17,5,7.76,754.8310628685,34.120736,1.1408394,4.7357941148,0.0,0.0,0.0,42.1,5.5,-4.1,0,0,1024,1024,1024,1024,0,0,0,0,0,0,0,93,3.878,3.879,0,0,0,0,4.876,66.74,751.5502228685,30.839896,6,P-GPS,,9.4
85100,2026-01-13 17:33:40,751.5502228685,34.44882,0.0,3.7205053684,11.1229334268,17,5,7.76,754.8310628685,34.120736,1.1408394,4.7357941148,0.0,0.0,0.0,42.0,6.2,-4.8,0,0,1024,1024,1024,1024,0,0,0,0,0,0,0,93,3.878,3.879,0,0,0,0,4.876,66.74,751.5502228685,30.839896,6,P-GPS,,9.4
85200,2026-01-13 17:33:40,751.5502228685,34.44882,0.0,3.7184384392,11.1454727976,17,5,7.76,754.8310628685,34.120736,1.1408394,4.7357941148,0.0,0.0,0.0,42.1,6.9,-4.7,0,0,1024,1024,1024,1024,0,0,0,0,0,0,0,93,3.878,3.879,0,0,0,0,4.876,66.74,751.5502228685,30.839896,6,P-GPS,,9.4
85300,2026-01-13 17:33:40,751.5502228685,34.44882,0.0,3.7161746596,11.1719491764,17,5,7.76,754.8310628685,34.120736,1.1408394,4.7357941148,0.0,0.0,0.0,42.2,7.2,-4.1,0,0,1024,1024,1024,1024,0,0,0,0,0,0,0,93,3.878,3.879,0,0,0,0,4.876,66.74,751.5502228685,30.839896,6,P-GPS,,9.4
85400,2026-01-13 17:33:40,751.5502228685,34.44882,0.0,3.730151038,11.1913389408,17,5,7.76,754.8310628685,34.120736,1.1408394,4.7357941148,0.0,0.0,0.0,42.2,7.3,-3.7,0,0,1024,1024,1024,1024,0,0,0,0,0,0,0,93,3.878,3.879,0,0,0,0,4.876,66.74,751.5502228685,30.839896,6,P-GPS,,9.4
85500,2026-01-13 17:33:40,751.5502228685,34.44882,0.0,3.7399279412,11.2011814608,16,5,7.76,754.8310628685,34.120736,1.1408394,4.7357941148,0.0,0.0,0.0,42.2,7.5,-3.7,0,0,1024,1024,1024,1024,0,0,0,0,0,0,0,93,3.878,3.879,0,0,0,0,4.876,66.74,751.5502228685,30.839896,6,P-GPS,,9.4
85600,2026-01-13 17:33:40,751.5502228685,34.44882,0.0,3.750656288,11.2119754244,16,5,7.76,754.8310628685,34.120736,1.1408394,4.7357941148,0.0,0.0,0.0,42.2,8.3,-4.1,0,0,1024,1024,1024,1024,0,0,0,0,0,0,0,93,3.878,3.879,0,0,0,0,4.876,66.74,751.5502228685,30.839896,6,P-GPS,,9.4
85700,2026-01-13 17:33:40,751.5502228685,34.44882,0.0,3.7651904092,11.2275922228,16,5,7.76,754.8310628685,34.120736,1.1408394,4.7357941148,0.0,0.0,0.0,42.1,7.6,-4.6,0,0,1024,1024,1024,1024,0,0,0,0,0,0,0,93,3.878,3.879,0,0,0,0,4.876,66.74,751.5502228685,30.839896,6,P-GPS,,9.4
85800,2026-01-13 17:33:41,751.5502228685,34.44882,0.0,3.7716864724,11.2352037716,16,5,7.76,754.8310628685,34.120736,1.1408394,4.7357941148,0.0,0.0,0.0,42.0,7.4,-4.9,0,0,1024,1024,1024,1024,0,0,0,0,0,0,0,93,3.878,3.879,0,0,0,0,4.876,66.74,751.5502228685,30.839896,6,P-GPS,,9.4
85900,2026-01-13 17:33:41,751.5502228685,34.44882,0.0,3.7555119312,11.2581040348,16,5,7.727,754.8310628685,34.120736,1.1408394,4.7357941148,0.0,0.0,0.0,42.1,6.6,-5.0,0,0,1024,1024,1024,1024,0,0,0,0,0,0,0,92,3.861,3.865,0,0,0,0,5.102,66.74,751.5502228685,30.839896,6,P-GPS,,9.4
86000,2026-01-13 17:33:41,751.5502228685,34.44882,0.0,3.7659778108,11.27214603,16,5,7.727,754.8310628685,34.120736,1.1408394,4.7357941148,0.0,0.0,0.0,42.2,7.0,-4.7,0,0,1024,1024,1024,1024,0,0,0,0,0,0,0,92,3.861,3.865,0,0,0,0,5.102,66.74,751.5502228685,30.839896,6,P-GPS,,9.4
86100,2026-01-13 17:33:41,751.5502228685,34.44882,0.0,3.782972562,11.2917654532,17,5,7.727,754.8310628685,34.120736,1.1408394,4.7357941148,0.0,0.0,0.0,42.2,7.1,-4.6,0,0,1024,1024,1024,1024,0,0,0,0,0,0,0,92,3.861,3.865,0,0,0,0,5.102,66.74,751.5502228685,30.839896,6,P-GPS,,9.4
86200,2026-01-13 17:33:41,751.5502228685,34.44882,0.0,3.8071523528,11.3168966876,17,5,7.727,754.8310628685,34.120736,1.1408394,4.7357941148,0.0,0.0,0.0,42.1,7.4,-4.8,0,0,1024,1024,1024,1024,0,0,0,0,0,0,0,92,3.861,3.865,0,0,0,0,5.102,66.74,751.5502228685,30.839896,6,P-GPS,,9.4
86300,2026-01-13 17:33:41,751.8783068685,34.44882,0.0,3.8312993352,11.359252332,17,5,7.727,754.8310628685,34.120736,1.1408394,4.7357941148,0.0,0.0,0.0,42.0,7.3,-5.3,0,0,1024,1024,1024,1024,0,0,0,0,0,0,0,92,3.861,3.865,0,0,0,0,5.102,66.74,751.8783068685,31.16798,6,P-GPS,,9.5
86400,2026-01-13 17:33:41,751.8783068685,34.44882,0.0,3.8483268948,11.3772641436,17,5,7.727,754.8310628685,34.120736,1.1408394,4.7357941148,0.0,0.0,0.0,42.0,8.1,-5.2,0,0,1024,1024,1024,1024,0,0,0,0,0,0,0,92,3.861,3.865,0,0,0,0,5.102,66.74,751.8783068685,31.16798,6,P-GPS,,9.5
86500,2026-01-13 17:33:41,751.8783068685,34.44882,0.0,3.8659450056,11.3970476088,17,5,7.727,754.8310628685,34.120736,1.1408394,4.7357941148,0.0,0.0,0.0,42.0,9.0,-4.8,0,0,1024,1024,1024,1024,0,0,0,0,0,0,0,92,3.861,3.865,0,0,0,0,5.102,66.74,751.8783068685,31.16798,6,P-GPS,,9.5
86600,2026-01-13 17:33:41,751.8783068685,34.44882,0.0,3.8867455312,11.418799578,17,5,7.727,754.8310628685,34.120736,1.1408394,4.7357941148,0.0,0.0,0.0,42.0,8.7,-5.1,0,0,1024,1024,1024,1024,0,0,0,0,0,0,0,92,3.861,3.865,0,0,0,0,5.102,66.74,751.8783068685,31.16798,6,P-GPS,,9.5
86700,2026-01-13 17:33:42,751.8783068685,34.44882,0.0,3.8848754524,11.4554465608,17,5,7.727,754.8310628685,34.120736,1.1408394,4.7357941148,0.0,0.0,0.0,42.0,8.5,-5.0,0,0,1024,1024,1024,1024,0,0,0,0,0,0,0,92,3.861,3.865,0,0,0,0,5.102,66.74,751.8783068685,31.16798,6,P-GPS,,9.5
86800,2026-01-13 17:33:42,751.5502228685,34.44882,0.0,3.8806431688,11.4636486608,17,5,7.727,754.8310628685,34.120736,1.1408394,4.7357941148,0.0,0.0,0.0,42.1,7.6,-5.2,0,0,1024,1024,1024,1024,0,0,0,0,0,0,0,92,3.861,3.865,0,0,0,0,5.102,66.74,751.5502228685,30.839896,6,P-GPS,,9.4
86900,2026-01-13 17:33:42,751.5502228685,34.44882,0.0,3.8698820136,11.4754924932,17,5,7.727,754.8310628685,34.120736,1.1408394,4.7357941148,0.0,0.0,0.0,42.1,7.3,-4.7,0,0,1024,1024,1024,1024,0,0,0,0,0,0,0,92,3.861,3.865,0,0,0,0,5.102,66.74,751.5502228685,30.839896,6,P-GPS,,9.4
87000,2026-01-13 17:33:42,751.5502228685,34.44882,0.0,3.8474738764,11.4979006304,17,5,7.751,754.8310628685,34.120736,1.1408394,4.7357941148,0.0,0.0,0.0,42.1,6.8,-4.7,0,0,1024,1024,1024,1024,0,0,0,0,0,0,0,92,3.874,3.877,0,0,0,0,5.068,66.74,751.5502228685,30.839896,6,P-GPS,,9.4
87100,2026-01-13 17:33:42,751.5502228685,34.44882,0.0,3.7562009076,11.5892720244,17,5,7.751,754.8310628685,34.120736,1.1408394,4.7357941148,0.0,0.0,0.0,42.1,6.8,-4.6,0,0,1024,1024,1024,1024,0,0,0,0,0,0,0,92,3.874,3.877,0,0,0,0,5.068,66.74,751.5502228685,30.839896,6,P-GPS,,9.4
87200,2026-01-13 17:33:42,751.5502228685,34.44882,0.0,3.7319883084,11.6155515528,17,5,7.751,754.8310628685,34.120736,1.1408394,4.7357941148,0.0,0.0,0.0,42.2,6.3,-4.1,0,0,1024,1024,1024,1024,0,0,0,0,0,0,0,92,3.874,3.877,0,0,0,0,5.068,66.74,751.5502228685,30.839896,6,P-GPS,,9.4
87300,2026-01-13 17:33:42,751.5502228685,34.44882,0.0,3.7100394888,11.64042032,17,5,7.751,754.8310628685,34.120736,1.1408394,4.7357941148,0.0,0.0,0.0,42.0,6.7,-4.0,0,0,1024,1024,1024,1024,0,0,0,0,0,0,0,92,3.874,3.877,0,0,0,0,5.068,66.74,751.5502228685,30.839896,6,P-GPS,,9.4
87400,2026-01-13 17:33:42,751.5502228685,34.44882,0.0,3.6906825328,11.659777276,17,5,7.751,754.8310628685,34.120736,1.1408394,4.7357941148,0.0,0.0,0.0,42.0,6.5,-4.3,0,0,1024,1024,1024,1024,0,0,0,0,0,0,0,92,3.874,3.877,0,0,0,0,5.068,66.74,751.5502228685,30.839896,6,P-GPS,,9.4
87500,2026-01-13 17:33:42,751.5502228685,34.44882,0.0,3.6715552356,11.6793638908,17,5,7.751,754.8310628685,34.120736,1.1408394,4.7357941148,0.0,0.0,0.0,42.0,6.7,-4.4,0,0,1024,1024,1024,1024,0,0,0,0,0,0,0,92,3.874,3.877,0,0,0,0,5.068,66.74,751.5502228685,30.839896,6,P-GPS,,9.4
87600,2026-01-13 17:33:42,751.2221388685,34.44882,0.0,3.6286418484,11.723589614,17,5,7.751,754.8310628685,34.120736,1.1408394,4.7357941148,0.0,0.0,0.0,42.0,6.9,-4.0,0,0,1024,1024,1024,1024,0,0,0,0,0,0,0,92,3.874,3.877,0,0,0,0,5.068,66.74,751.2221388685,30.511812,6,P-GPS,,9.3
87700,2026-01-13 17:33:42,751.2221388685,34.44882,0.0,3.617290142,11.7379596932,17,5,7.751,754.8310628685,34.120736,1.1408394,4.7357941148,0.0,0.0,0.0,42.1,7.0,-3.9,0,0,1024,1024,1024,1024,0,0,0,0,0,0,0,92,3.874,3.877,0,0,0,0,5.068,66.74,751.2221388685,30.511812,6,P-GPS,,9.3
87800,2026-01-13 17:33:43,751.2221388685,34.44882,0.0,3.6099410604,11.759022686,17,5,7.751,754.8310628685,34.120736,1.1408394,4.7357941148,0.0,0.0,0.0,42.2,6.9,-3.9,0,0,1024,1024,1024,1024,0,0,0,0,0,0,0,92,3.874,3.877,0,0,0,0,5.068,66.74,751.2221388685,30.511812,6,P-GPS,,9.3
87900,2026-01-13 17:33:43,751.2221388685,34.44882,0.0,3.6031497216,11.7806106132,17,5,7.751,754.8310628685,34.120736,1.1408394,4.7357941148,0.0,0.0,0.0,42.1,6.8,-4.0,0,0,1024,1024,1024,1024,0,0,0,0,0,0,0,92,3.874,3.877,0,0,0,0,5.068,66.74,751.2221388685,30.511812,6,P-GPS,,9.3
88000,2026-01-13 17:33:43,751.2221388685,34.44882,0.0,3.6071851548,11.8561027416,17,5,7.751,754.8310628685,34.120736,1.1408394,4.7357941148,0.0,0.0,0.0,42.1,6.6,-3.9,0,0,1024,1024,1024,1024,0,0,0,0,0,0,0,92,3.874,3.877,0,0,0,0,5.068,66.74,751.2221388685,30.511812,6,P-GPS,,9.3
88100,2026-01-13 17:33:43,751.2221388685,34.44882,0.0,3.5998360732,11.8844491992,17,5,7.763,754.8310628685,34.120736,1.1408394,4.7357941148,0.0,0.0,0.0,42.2,6.3,-3.4,0,0,1024,1024,1024,1024,0,0,0,0,0,0,0,92,3.884,3.881,0,0,0,0,4.902,66.92,751.2221388685,30.511812,6,P-GPS,,9.3
88200,2026-01-13 17:33:43,751.2221388685,34.44882,0.0,3.606627412,11.912237914,17,5,7.763,754.8310628685,34.120736,1.1408394,4.7357941148,0.0,0.0,0.0,42.2,6.6,-3.2,0,0,1024,1024,1024,1024,0,0,0,0,0,0,0,92,3.884,3.881,0,0,0,0,4.902,66.92,751.2221388685,30.511812,6,P-GPS,,9.3
88300,2026-01-13 17:33:43,751.2221388685,34.44882,0.0,3.6202757064,11.9451119308,17,5,7.763,754.8310628685,34.120736,1.1408394,4.7357941148,0.0,0.0,0.0,42.2,6.9,-3.3,0,0,1024,1024,1024,1024,0,0,0,0,0,0,0,92,3.884,3.881,0,0,0,0,4.902,66.92,751.2221388685,30.511812,6,P-GPS,,9.3
88400,2026-01-13 17:33:43,751.2221388685,34.44882,0.0,3.6382219012,11.9958665256,17,5,7.763,754.8310628685,34.120736,1.1408394,4.7357941148,0.0,0.0,0.0,42.1,7.5,-3.6,0,0,1024,1024,1024,1024,0,0,0,0,0,0,0,92,3.884,3.881,0,0,0,0,4.902,66.92,751.2221388685,30.511812,6,P-GPS,,9.3
88500,2026-01-13 17:33:43,751.2221388685,34.44882,0.0,3.642716652,12.0243770252,17,5,7.763,754.8310628685,34.120736,1.1408394,4.7357941148,0.0,0.0,0.0,42.2,7.6,-3.5,0,0,1024,1024,1024,1024,0,0,0,0,0,0,0,92,3.884,3.881,0,0,0,0,4.902,66.92,751.2221388685,30.511812,6,P-GPS,,9.3
88600,2026-01-13 17:33:43,751.2221388685,34.44882,0.0,3.6526904056,12.0480318816,17,5,7.763,754.8310628685,34.120736,1.1408394,4.7357941148,0.0,0.0,0.0,42.2,7.4,-3.4,0,0,1024,1024,1024,1024,0,0,0,0,0,0,0,92,3.884,3.881,0,0,0,0,4.902,66.92,751.2221388685,30.511812,6,P-GPS,,9.3
88700,2026-01-13 17:33:44,751.2221388685,34.44882,0.0,3.6659121908,12.0720804388,17,5,7.763,754.8310628685,34.120736,1.1408394,4.7357941148,0.0,0.0,0.0,42.2,7.3,-3.6,0,0,1024,1024,1024,1024,0,0,0,0,0,0,0,92,3.884,3.881,0,0,0,0,4.902,66.92,751.2221388685,30.511812,6,P-GPS,,9.3
88800,2026-01-13 17:33:44,751.2221388685,34.44882,0.0,3.71965235,12.1271985508,17,5,7.763,754.8310628685,34.120736,1.1408394,4.7357941148,0.0,0.0,0.0,42.1,7.4,-3.3,0,0,1024,1024,1024,1024,0,0,0,0,0,0,0,92,3.884,3.881,0,0,0,0,4.902,66.92,751.2221388685,30.511812,6,P-GPS,,9.3
88900,2026-01-13 17:33:44,750.8940548685,34.44882,0.0,3.7405513008,12.1503612812,17,5,7.763,754.8310628685,34.120736,1.1408394,4.7357941148,0.0,0.0,0.0,42.1,7.7,-3.4,0,0,1024,1024,1024,1024,0,0,0,0,0,0,0,92,3.884,3.881,0,0,0,0,4.902,66.92,750.8940548685,30.183728,6,P-GPS,,9.2
89000,2026-01-13 17:33:44,750.8940548685,34.44882,0.0,3.756889884,12.1695213868,17,5,7.763,754.8310628685,34.120736,1.1408394,4.7357941148,0.0,0.0,0.0,42.2,7.9,-2.8,0,0,1024,1024,1024,1024,0,0,0,0,0,0,0,92,3.884,3.881,0,0,0,0,4.902,66.92,750.8940548685,30.183728,6,P-GPS,,9.2
89100,2026-01-13 17:33:44,750.8940548685,34.44882,0.0,3.7693242676,12.184875718,17,5,7.763,754.8310628685,34.120736,1.1408394,4.7357941148,0.0,0.0,0.0,42.2,6.9,-2.4,0,0,1024,1024,1024,1024,0,0,0,0,0,0,0,92,3.884,3.881,0,0,0,0,4.902,66.92,750.8940548685,30.183728,6,P-GPS,,9.2
89200,2026-01-13 17:33:44,750.8940548685,34.44882,0.0,3.7792652128,12.1991801804,17,5,7.766,754.8310628685,34.120736,1.1408394,4.7357941148,0.0,0.0,0.0,42.1,7.2,-2.6,0,0,1024,1024,1024,1024,0,0,0,0,0,0,0,92,3.885,3.881,0,0,0,0,4.653,66.92,750.8940548685,30.183728,6,P-GPS,,9.2
89300,2026-01-13 17:33:44,750.8940548685,34.44882,0.0,3.8045276808,12.2244426484,17,5,7.766,754.8310628685,34.120736,1.1408394,4.7357941148,0.0,0.0,0.0,42.2,7.3,-2.2,0,0,1024,1024,1024,1024,0,0,0,0,0,0,0,92,3.885,3.881,0,0,0,0,4.653,66.92,750.8940548685,30.183728,6,P-GPS,,9.2
89400,2026-01-13 17:33:44,750.8940548685,34.44882,0.0,3.8164043216,12.2434715204,17,5,7.766,754.8310628685,34.120736,1.1408394,4.7357941148,0.0,0.0,0.0,42.2,7.2,-2.3,0,0,1024,1024,1024,1024,0,0,0,0,0,0,0,92,3.885,3.881,0,0,0,0,4.653,66.92,750.8940548685,30.183728,6,P-GPS,,9.2
89500,2026-01-13 17:33:44,750.8940548685,34.44882,0.0,3.8292980228,12.261483332,17,5,7.766,754.8310628685,34.120736,1.1408394,4.7357941148,0.0,0.0,0.0,42.2,7.1,-2.5,0,0,1024,1024,1024,1024,0,0,0,0,0,0,0,92,3.885,3.881,0,0,0,0,4.653,66.92,750.8940548685,30.183728,6,P-GPS,,9.2
89600,2026-01-13 17:33:44,750.8940548685,34.44882,0.0,3.8348754508,12.273458398,17,5,7.766,754.8310628685,34.120736,1.1408394,4.7357941148,0.0,0.0,0.0,42.3,6.9,-2.5,0,0,1024,1024,1024,1024,0,0,0,0,0,0,0,92,3.885,3.881,0,0,0,0,4.653,66.92,750.8940548685,30.183728,6,P-GPS,,9.2
89700,2026-01-13 17:33:45,750.8940548685,34.44882,0.0,3.8359909364,12.2914374012,17,5,7.766,754.8310628685,34.120736,1.1408394,4.7357941148,0.0,0.0,0.0,42.2,6.6,-2.1,0,0,1024,1024,1024,1024,0,0,0,0,0,0,0,92,3.885,3.881,0,0,0,0,4.653,66.92,750.8940548685,30.183728,6,P-GPS,,9.2
89800,2026-01-13 17:33:45,750.8940548685,34.44882,0.0,3.8527560288,12.3091211288,17,5,7.766,754.8310628685,34.120736,1.1408394,4.7357941148,0.0,0.0,0.0,42.1,7.6,-2.8,0,0,1024,1024,1024,1024,0,0,0,0,0,0,0,92,3.885,3.881,0,0,0,0,4.653,66.92,750.8940548685,30.183728,6,P-GPS,,9.2
89900,2026-01-13 17:33:45,750.5659708685,34.44882,0.0,3.8680775516,12.3257221792,17,5,7.766,754.8310628685,34.120736,1.1408394,4.7357941148,0.0,0.0,0.0,42.0,7.2,-2.9,0,0,1024,1024,1024,1024,0,0,0,0,0,0,0,92,3.885,3.881,0,0,0,0,4.653,66.92,750.5659708685,29.855644,6,P-GPS,,9.1
90000,2026-01-13 17:33:45,750.5659708685,34.44882,0.0,3.8775263708,12.3401578752,17,5,7.766,754.8310628685,34.120736,1.1408394,4.7357941148,0.0,0.0,0.0,42.0,7.2,-2.3,0,0,1024,1024,1024,1024,0,0,0,0,0,0,0,92,3.885,3.881,0,0,0,0,4.653,66.92,750.5659708685,29.855644,6,P-GPS,,9.1
90100,2026-01-13 17:33:45,750.5659708685,34.44882,0.0,3.9012140356,12.367290422,17,5,7.766,754.8310628685,34.120736,1.1408394,4.7357941148,0.0,0.0,0.0,42.0,6.6,-1.9,0,0,1024,1024,1024,1024,0,0,0,0,0,0,0,92,3.885,3.881,0,0,0,0,4.653,66.92,750.5659708685,29.855644,6,P-GPS,,9.1
90200,2026-01-13 17:33:45,750.5659708685,34.44882,0.0,3.8909778148,12.3840555144,17,5,7.766,754.8310628685,34.120736,1.1408394,4.7357941148,0.0,0.0,0.0,42.0,6.3,-1.6,0,0,1024,1024,1024,1024,0,0,0,0,0,0,0,92,3.885,3.881,0,0,0,0,4.653,66.92,750.5659708685,29.855644,6,P-GPS,,9.1
90300,2026-01-13 17:33:45,750.2378868685,34.44882,0.223694,3.8762140348,12.4058074836,17,5,7.766,754.8310628685,34.120736,1.1408394,4.7357941148,0.0,-0.223694,0.0,42.0,5.9,-1.1,0,0,1024,1024,1024,1024,0,0,0,0,0,0,0,92,3.888,3.885,0,0,0,0,4.653,66.92,750.2378868685,29.52756,6,P-GPS,,9.0
90400,2026-01-13 17:33:45,750.2378868685,34.44882,0.223694,3.8567258452,12.4292654896,17,5,7.766,754.8310628685,34.120736,1.1408394,4.7357941148,0.0,-0.223694,0.0,42.1,5.7,-0.7,0,0,1024,1024,1024,1024,0,0,0,0,0,0,0,92,3.888,3.885,0,0,0,0,4.653,66.92,750.2378868685,29.52756,6,P-GPS,,9.0
90500,2026-01-13 17:33:45,750.2378868685,34.44882,0.223694,3.8148623268,12.4711618164,17,5,7.766,754.8310628685,34.120736,1.1408394,4.7357941148,0.0,-0.223694,0.0,42.0,5.0,-0.4,0,0,1024,1024,1024,1024,0,0,0,0,0,0,0,92,3.888,3.885,0,0,0,0,4.653,66.92,750.2378868685,29.52756,6,P-GPS,,9.0
90600,2026-01-13 17:33:45,750.2378868685,34.44882,0.0,3.79101062,12.4971788776,17,5,7.766,754.8310628685,34.120736,1.1408394,4.7357941148,0.0,0.0,0.0,42.1,4.6,-0.1,0,0,1024,1024,1024,1024,0,0,0,0,0,0,0,92,3.888,3.885,0,0,0,0,4.653,66.92,750.2378868685,29.52756,6,P-GPS,,9.0
90700,2026-01-13 17:33:46,750.2378868685,34.44882,0.0,3.7718505144,12.517716936,17,5,7.766,754.8310628685,34.120736,1.1408394,4.7357941148,0.0,0.0,0.0,42.1,5.3,-0.7,0,0,1024,1024,1024,1024,0,0,0,0,0,0,0,92,3.888,3.885,0,0,0,0,4.653,66.92,750.2378868685,29.52756,6,P-GPS,,9.0
