time(millisecond),timestamp,altitude_above_seaLevel(feet),height_sonar(feet),speed(mph),distance(feet),mileage(feet),satellites,gpslevel,voltage(v),max_altitude(feet),max_ascent(feet),max_speed(mph),max_distance(feet), xSpeed(mph), ySpeed(mph), zSpeed(mph), compass_heading(degrees), pitch(degrees), roll(degrees),isPhoto,isVideo,rc_elevator,rc_aileron,rc_throttle,rc_rudder,rc_elevator(percent),rc_aileron(percent),rc_throttle(percent),rc_rudder(percent),gimbal_heading(degrees),gimbal_pitch(degrees),gimbal_roll(degrees),battery_percent,voltageCell1,voltageCell2,voltageCell3,voltageCell4,voltageCell5,voltageCell6,current(A),battery_temperature(f),altitude(feet),ascent(feet),flycStateRaw,flycState,message,height_above_takeoff(meters)
135900,2026-01-11 17:20:02,720.55413460629,0.0,0.0,0.0,0.0,14,5,7.976,720.55413460629,0.0,0.0,0.0,0.0,0.0,0.0,26.9,2.9,0.6,0,0,1024,1024,1024,1024,0,0,0,0,0,0,0,90,3.989,3.987,0,0,0,0,0.678,58.82,720.55413460629,0.0,41,Motors_Started,SD card speed low SD card speed low. Normal use may be affected. Replace SD card (Code: 10028). Gimbal stuck. Make sure gimbal cover is removed and manually check whether gimbal can rotate freely (Code: 40002),0.0
136000,2026-01-11 17:20:02,720.55413460629,0.0,0.0,0.0156383535188,0.0156383535188,14,5,7.976,720.55413460629,0.0,0.0,0.0156383535188,0.0,0.0,0.0,26.7,2.9,0.5,0,0,1024,1024,1024,1024,0,0,0,0,0,0,0,90,3.989,3.987,0,0,0,0,0.678,58.82,720.55413460629,0.0,41,Motors_Started,,0.0
136100,2026-01-11 17:20:02,720.55413460629,0.328084,0.0,0.0252939312556,0.0316588264724,14,5,7.976,720.55413460629,0.0,0.0,0.0252939312556,0.0,0.0,0.0,26.5,2.9,0.5,0,0,1024,1024,1024,1024,0,0,0,0,0,0,0,90,3.989,3.987,0,0,0,0,0.678,58.82,720.55413460629,0.0,41,Motors_Started,Setting new Return-To-Home altitude to 90m (295 ft). Data Recorder File Index is 34. Setting new Maximum Flight Altitude to 90m (295 ft),0.0
136200,2026-01-11 17:20:02,720.55413460629,0.328084,0.0,3.7633531388,0.034075460408,14,5,7.976,720.55413460629,0.0,0.0,3.7633531388,0.0,0.0,0.0,26.4,2.9,0.5,0,0,1024,1024,1024,1024,0,0,0,0,0,0,0,90,3.989,3.987,0,0,0,0,0.678,58.82,720.55413460629,0.0,41,Motors_Started,,0.0
136300,2026-01-11 17:20:02,720.55413460629,0.328084,0.0,3.760170724,0.039633859536,15,5,7.976,720.55413460629,0.0,0.0,3.7633531388,0.0,0.0,0.0,26.2,2.9,0.5,0,0,1024,1024,1024,1024,0,0,0,0,0,0,0,90,3.989,3.987,0,0,0,0,0.678,58.82,720.55413460629,0.0,41,Motors_Started,,0.0
136400,2026-01-11 17:20:02,720.55413460629,0.328084,0.0,3.7490486764,0.054937993884,15,5,7.976,720.55413460629,0.0,0.0,3.7633531388,0.0,0.0,0.0,26.0,2.9,0.5,0,0,1024,1024,1024,1024,0,0,0,0,0,0,0,90,3.989,3.987,0,0,0,0,0.678,58.82,720.55413460629,0.0,41,Motors_Started,,0.0
136500,2026-01-11 17:20:02,720.55413460629,0.328084,0.0,3.7377953952,0.070869096756,15,5,7.976,720.55413460629,0.0,0.0,3.7633531388,0.0,0.0,0.0,26.0,2.9,0.6,0,0,1024,1024,1024,1024,0,0,0,0,0,0,0,90,3.989,3.987,0,0,0,0,0.678,58.82,720.55413460629,0.0,41,Motors_Started,,0.0
136600,2026-01-11 17:20:02,720.88221860629,0.328084,0.0,3.6873032676,0.124651906876,15,5,7.976,720.88221860629,0.328084,0.0,3.7633531388,0.0,0.0,0.0,25.9,2.9,0.5,0,0,1024,1024,1024,1024,0,0,0,0,0,0,0,90,3.989,3.987,0,0,0,0,0.678,58.82,720.88221860629,0.328084,41,Motors_Started,,0.1
136700,2026-01-11 17:20:03,720.88221860629,0.328084,0.0,3.6738190152,0.140330385068,15,5,7.976,720.88221860629,0.328084,0.0,3.7633531388,0.0,0.0,0.0,25.8,2.9,0.5,0,0,1024,1024,1024,1024,0,0,0,0,0,0,0,90,3.989,3.987,0,0,0,0,0.678,58.82,720.88221860629,0.328084,41,Motors_Started,,0.1
136800,2026-01-11 17:20:03,720.88221860629,0.328084,0.0,3.664534238,0.15256234084,15,5,7.976,720.88221860629,0.328084,0.0,3.7633531388,0.0,0.0,0.0,25.8,2.9,0.5,0,0,1024,1024,1024,1024,0,0,0,0,0,0,0,90,3.989,3.987,0,0,0,0,0.678,58.82,720.88221860629,0.328084,41,Motors_Started,,0.1
136900,2026-01-11 17:20:03,720.88221860629,0.328084,0.0,3.654691718,0.163319230948,15,5,7.976,720.88221860629,0.328084,0.0,3.7633531388,0.0,0.0,0.0,25.6,2.8,0.5,0,0,1024,1024,1024,1024,0,0,0,0,0,0,0,90,3.989,3.987,0,0,0,0,0.678,58.82,720.88221860629,0.328084,41,Motors_Started,,0.1
137000,2026-01-11 17:20:03,720.88221860629,0.328084,0.0,3.6309712448,0.195047250336,15,5,7.906,720.88221860629,0.328084,0.0,3.7633531388,0.0,0.0,0.0,25.6,2.8,0.6,0,0,1024,1024,1024,1024,0,0,0,0,0,0,0,90,3.978,3.928,0,0,0,0,1.187,58.82,720.88221860629,0.328084,11,AutoTakeoff,,0.1
137100,2026-01-11 17:20:03,720.88221860629,0.328084,0.0,3.6221785936,0.205630255924,15,5,7.906,720.88221860629,0.328084,0.0,3.7633531388,0.0,0.0,0.0,25.5,2.8,0.6,0,0,1024,1024,1024,1024,0,0,0,0,0,0,0,90,3.978,3.928,0,0,0,0,1.187,58.82,720.88221860629,0.328084,11,AutoTakeoff,,0.1
137200,2026-01-11 17:20:03,720.88221860629,0.328084,0.0,3.6233925044,0.208172906924,15,5,7.906,720.88221860629,0.328084,0.0,3.7633531388,0.0,0.0,0.0,25.4,2.9,0.6,0,0,1024,1024,1024,1024,0,0,0,0,0,0,0,90,3.978,3.928,0,0,0,0,1.187,58.82,720.88221860629,0.328084,11,AutoTakeoff,,0.1
137300,2026-01-11 17:20:03,720.88221860629,0.328084,0.0,3.622539486,0.212812342768,15,5,7.906,720.88221860629,0.328084,0.0,3.7633531388,0.0,0.0,0.0,25.3,2.9,0.6,0,0,1024,1024,1024,1024,0,0,0,0,0,0,0,90,3.978,3.928,0,0,0,0,1.187,58.82,720.88221860629,0.328084,11,AutoTakeoff,,0.1
137400,2026-01-11 17:20:03,720.88221860629,0.328084,0.0,3.6172245252,0.225453091204,15,5,7.906,720.88221860629,0.328084,0.0,3.7633531388,0.0,0.0,0.0,25.1,2.8,0.5,0,0,1024,1024,1024,1024,0,0,0,0,0,0,0,90,3.978,3.928,0,0,0,0,1.187,58.82,720.88221860629,0.328084,11,AutoTakeoff,,0.1
137500,2026-01-11 17:20:03,720.88221860629,0.328084,0.0,3.6086943412,0.237346464288,15,5,7.906,720.88221860629,0.328084,0.0,3.7633531388,0.0,0.0,0.0,25.2,2.8,0.5,0,0,1024,1024,1194,1024,0,0,26,0,0,0,0,90,3.978,3.928,0,0,0,0,1.187,58.82,720.88221860629,0.328084,11,AutoTakeoff,,0.1
137600,2026-01-11 17:20:04,720.88221860629,0.328084,0.0,3.5999673068,0.24704397116,15,5,7.906,720.88221860629,0.328084,0.0,3.7633531388,0.0,0.0,0.0,25.8,2.9,0.6,0,0,1024,1024,1533,1024,0,0,77,0,0,0,0,90,3.978,3.928,0,0,0,0,1.187,58.82,720.88221860629,0.328084,11,AutoTakeoff,,0.1
137700,2026-01-11 17:20:04,720.88221860629,0.328084,0.0,3.5877297736,0.25994751488,15,5,7.906,720.88221860629,0.328084,0.0,3.7633531388,0.0,0.0,0.0,26.7,2.4,1.0,0,0,1024,1024,1684,1024,0,0,100,0,0,0,0,90,3.978,3.928,0,0,0,0,1.187,58.82,720.88221860629,0.328084,11,AutoTakeoff,,0.1
137800,2026-01-11 17:20:04,721.21030260629,0.328084,0.0,3.5522310848,0.298839904576,15,5,7.906,721.21030260629,0.656168,0.0,3.7633531388,0.0,0.0,-0.223694,27.9,1.7,0.6,0,0,1024,1024,1684,1024,0,0,100,0,0,0,0,90,3.978,3.928,0,0,0,0,1.187,58.82,721.21030260629,0.656168,11,AutoTakeoff,,0.2
137900,2026-01-11 17:20:04,721.21030260629,0.328084,0.3131716,3.5340224228,0.34656825256,14,5,7.906,721.21030260629,0.656168,0.3131716,3.7633531388,-0.223694,0.223694,-0.447388,28.1,1.5,-0.4,0,0,1024,1024,1684,1068,0,0,100,7,0,0,0,90,3.978,3.928,0,0,0,0,1.187,58.82,721.21030260629,0.656168,11,AutoTakeoff,,0.2
138000,2026-01-11 17:20:04,721.21030260629,0.656168,0.3131716,3.5227363332,0.39950132512,14,5,7.906,721.21030260629,0.656168,0.3131716,3.7633531388,-0.223694,0.223694,-0.671082,27.9,1.2,-1.9,0,0,1024,1024,1684,1178,0,0,100,23,0,0,0,90,3.978,3.928,0,0,0,0,1.187,58.82,721.21030260629,0.656168,11,AutoTakeoff,,0.2
138100,2026-01-11 17:20:04,721.53838660629,0.656168,0.223694,3.5106300336,0.44098754692,15,5,7.727,721.53838660629,0.984252,0.3131716,3.7633531388,-0.223694,0.0,-1.11847,28.1,0.8,-1.2,0,0,1024,1024,1684,1268,0,0,100,37,0,0,0,90,3.873,3.854,0,0,0,0,3.804,58.82,721.53838660629,0.984252,11,AutoTakeoff,,0.3
138200,2026-01-11 17:20:04,721.53838660629,0.656168,0.223694,3.4975722904,0.46965880768,15,5,7.727,721.53838660629,0.984252,0.3131716,3.7633531388,-0.223694,0.0,-1.565858,28.6,0.4,-0.9,0,0,1024,1024,1684,1684,0,0,100,100,0,0,0,90,3.873,3.854,0,0,0,0,3.804,58.82,721.53838660629,0.984252,11,AutoTakeoff,,0.3
138300,2026-01-11 17:20:04,721.86647060629,0.984252,0.223694,3.4988846264,0.47320867656,15,5,7.727,721.86647060629,1.312336,0.3131716,3.7633531388,0.0,0.223694,-2.013246,29.5,0.7,-1.6,0,0,1024,1024,1684,1684,0,0,100,100,0,0,0,90,3.873,3.854,0,0,0,0,3.804,58.82,721.86647060629,1.312336,11,AutoTakeoff,Home Point updated. RTH altitude adjusted to 90 m (Code: 120852),0.4
138400,2026-01-11 17:20:04,722.19455460629,1.312336,0.223694,3.495899062,0.5308891246,15,5,7.727,722.19455460629,1.64042,0.3131716,3.7633531388,0.0,0.223694,-2.684328,31.9,0.8,-2.5,0,0,1024,1024,1684,1684,0,0,100,100,0,0,0,90,3.873,3.854,0,0,0,0,3.804,58.82,722.19455460629,1.64042,11,AutoTakeoff,,0.5
138500,2026-01-11 17:20:04,722.52263860629,1.64042,0.0,3.4978347576,0.57899608152,15,5,7.727,722.52263860629,1.968504,0.3131716,3.7633531388,0.0,0.0,-3.35541,40.3,1.0,-3.2,0,0,1024,1024,1684,1024,0,0,100,0,0,0,0,90,3.873,3.854,0,0,0,0,3.804,58.82,722.52263860629,1.968504,11,AutoTakeoff,,0.6
138600,2026-01-11 17:20:04,723.17880660629,2.296588,0.0,3.50393712,0.61528217192,15,5,7.727,723.17880660629,2.624672,0.3131716,3.7633531388,0.0,0.0,-3.802798,53.4,1.7,-1.7,0,0,1024,1024,1684,1024,0,0,100,0,0,0,0,90,3.873,3.854,0,0,0,0,3.804,58.82,723.17880660629,2.624672,11,AutoTakeoff,,0.8
138700,2026-01-11 17:20:05,723.83497460629,2.624672,0.223694,3.5122048368,0.67161747556,15,5,7.727,723.83497460629,3.28084,0.3131716,3.7633531388,0.0,0.223694,-4.250186,56.0,2.3,0.2,0,0,1024,1024,1684,1024,0,0,100,0,0,0,0,90,3.873,3.854,0,0,0,0,3.804,58.82,723.83497460629,3.28084,11,AutoTakeoff,,1.0
138800,2026-01-11 17:20:05,724.49114260629,3.28084,0.223694,3.5401575936,0.70643374964,15,5,7.727,724.49114260629,3.937008,0.3131716,3.7633531388,0.0,0.223694,-4.47388,56.0,3.3,-1.3,0,0,1024,1024,1684,1024,0,0,100,0,0,0,0,90,3.873,3.854,0,0,0,0,3.804,58.82,724.49114260629,3.937008,6,P-GPS,,1.2
138900,2026-01-11 17:20:05,725.14731060629,3.937008,0.223694,3.5773623192,0.7463582916,15,5,7.727,725.14731060629,4.593176,0.3131716,3.7633531388,0.0,0.223694,-4.697574,55.9,4.0,-1.9,0,0,1024,1024,1684,1024,0,0,100,0,0,0,0,90,3.873,3.854,0,0,0,0,3.804,58.82,725.14731060629,4.593176,6,P-GPS,,1.4
139000,2026-01-11 17:20:05,725.80347860629,4.593176,0.223694,3.6475394868,0.81852692908,15,5,7.727,725.80347860629,5.249344,0.3131716,3.7633531388,0.0,0.223694,-4.697574,56.1,3.7,-2.1,0,0,1024,1024,1684,944,0,0,100,-12,0,0,0,90,3.873,3.854,0,0,0,0,3.804,58.82,725.80347860629,5.249344,6,P-GPS,,1.6
139100,2026-01-11 17:20:05,726.78773060629,5.249344,0.223694,3.7177822712,0.90146984512,15,5,7.727,726.78773060629,6.233596,0.3131716,3.7633531388,0.0,0.223694,-4.697574,56.1,3.8,-2.0,0,0,1024,1024,1684,502,0,0,100,-79,0,0,0,90,3.873,3.854,0,0,0,0,3.804,58.82,726.78773060629,6.233596,6,P-GPS,,1.9
139200,2026-01-11 17:20:05,727.44389860629,5.905512,0.0,3.8048885732,1.04343179192,15,5,7.642,727.44389860629,6.889764,0.3131716,3.8048885732,0.0,0.0,-4.47388,56.1,3.9,-1.7,0,0,1024,1024,1684,364,0,0,100,-100,0,0,0,90,3.823,3.82,0,0,0,0,6.563,58.82,727.44389860629,6.889764,6,P-GPS,,2.1
139300,2026-01-11 17:20:05,728.10006660629,6.56168,0.0,3.8772310952,1.15395672984,15,5,7.642,728.10006660629,7.545932,0.3131716,3.8772310952,0.0,0.0,-4.47388,55.0,3.8,-1.3,0,0,1024,1024,1684,364,0,0,100,-100,0,0,0,90,3.823,3.82,0,0,0,0,6.563,58.82,728.10006660629,7.545932,6,P-GPS,,2.3
139400,2026-01-11 17:20:05,728.75623460629,7.217848,0.0,3.9069226972,1.18371394864,15,5,7.642,728.75623460629,8.2021,0.3131716,3.9069226972,0.0,0.0,-4.47388,47.2,3.8,-1.0,0,0,1024,1024,1684,364,0,0,100,-100,0,0,0,90,3.823,3.82,0,0,0,0,6.563,58.82,728.75623460629,8.2021,6,P-GPS,,2.5
139500,2026-01-11 17:20:05,729.41240260629,7.874016,0.0,3.8782481556,1.21342851652,15,5,7.642,729.41240260629,8.858268,0.3131716,3.9069226972,0.0,0.0,-4.47388,34.6,3.1,-2.2,0,0,1024,1024,1684,1024,0,0,100,0,0,0,0,90,3.823,3.82,0,0,0,0,6.563,58.82,729.41240260629,8.858268,6,P-GPS,,2.7
139600,2026-01-11 17:20:05,730.06857060629,8.2021,0.0,3.8730972368,1.22875003932,15,5,7.642,730.06857060629,9.514436,0.3131716,3.9069226972,0.0,0.0,-4.47388,21.8,2.1,-3.2,0,0,1024,1024,1684,1024,0,0,100,0,0,0,0,90,3.823,3.82,0,0,0,0,6.563,58.82,730.06857060629,9.514436,6,P-GPS,,2.9
139700,2026-01-11 17:20:06,730.72473860629,8.858268,0.0,3.8577100972,1.24518376688,15,5,7.642,730.72473860629,10.170604,0.3131716,3.9069226972,0.0,0.0,-4.250186,20.1,2.0,-3.7,0,0,1024,1024,1684,1024,0,0,100,0,0,0,0,90,3.823,3.82,0,0,0,0,6.563,58.82,730.72473860629,10.170604,6,P-GPS,,3.1
139800,2026-01-11 17:20:06,731.38090660629,9.514436,0.0,3.819553928,1.29453088132,15,5,7.642,731.38090660629,10.826772,0.3131716,3.9069226972,0.0,0.0,-4.250186,20.0,1.1,-2.1,0,0,1024,1024,1684,1337,0,0,100,47,0,0,0,90,3.823,3.82,0,0,0,0,6.563,58.82,731.38090660629,10.826772,6,P-GPS,,3.3
139900,2026-01-11 17:20:06,732.03707460629,10.170604,0.0,3.7810368664,1.3455709092,15,5,7.642,732.03707460629,11.48294,0.3131716,3.9069226972,0.0,0.0,-4.250186,20.0,0.6,-1.9,0,0,1024,1024,1684,1589,0,0,100,86,0,0,0,90,3.823,3.82,0,0,0,0,6.563,58.82,732.03707460629,11.48294,6,P-GPS,,3.5
140000,2026-01-11 17:20:06,732.69324260629,10.498688,0.0,3.6659778076,1.634350446,15,5,7.642,732.69324260629,12.139108,0.3131716,3.9069226972,0.0,0.0,-4.250186,20.1,0.0,-2.0,0,0,1024,1024,1684,1049,0,0,100,4,0,0,0,90,3.823,3.82,0,0,0,0,6.563,58.82,732.69324260629,12.139108,6,P-GPS,,3.7
140100,2026-01-11 17:20:06,733.34941060629,11.154856,0.0,3.6434384368,1.67587275704,15,5,7.642,733.34941060629,12.795276,0.3131716,3.9069226972,0.0,0.0,-4.250186,26.5,0.5,-2.4,0,0,1024,1024,1684,1024,0,0,100,0,0,0,0,90,3.823,3.82,0,0,0,0,6.563,58.82,733.34941060629,12.795276,6,P-GPS,,3.9
140200,2026-01-11 17:20:06,734.00557860629,11.811024,0.0,3.6313321372,1.69974742972,15,5,7.642,734.00557860629,13.451444,0.3131716,3.9069226972,0.0,0.0,-4.250186,34.5,1.1,-0.5,0,0,1024,1024,1684,1024,0,0,100,0,0,0,0,90,3.823,3.82,0,0,0,0,6.563,58.82,734.00557860629,13.451444,6,P-GPS,,4.1
140300,2026-01-11 17:20:06,734.66174660629,12.467192,0.223694,3.6291995912,1.72979664328,15,5,7.675,734.66174660629,14.107612,0.3131716,3.9069226972,0.223694,0.0,-4.250186,35.3,1.3,0.2,0,0,1024,1024,1684,1024,0,0,100,0,0,0,0,90,3.829,3.835,0,0,0,0,5.533,58.82,734.66174660629,14.107612,6,P-GPS,,4.3
140400,2026-01-11 17:20:06,735.31791460629,13.12336,0.223694,3.6057743936,1.89497381392,15,5,7.675,735.31791460629,14.76378,0.3131716,3.9069226972,0.223694,0.0,-4.250186,35.3,2.2,0.5,0,0,1024,1024,1684,1024,0,0,100,0,0,0,0,90,3.829,3.835,0,0,0,0,5.533,58.82,735.31791460629,14.76378,6,P-GPS,,4.5
140500,2026-01-11 17:20:06,735.97408260629,13.451444,0.0,3.613517176,1.94682092844,15,5,7.675,735.97408260629,15.419948,0.3131716,3.9069226972,0.0,0.0,-4.250186,35.4,2.4,0.4,0,0,1024,1024,1684,1024,0,0,100,0,0,0,0,90,3.829,3.835,0,0,0,0,5.533,58.82,735.97408260629,15.419948,6,P-GPS,,4.7
140600,2026-01-11 17:20:06,736.63025060629,14.107612,0.0,3.6146326616,2.0044456022,15,5,7.675,736.63025060629,16.076116,0.3131716,3.9069226972,0.0,0.0,-4.250186,35.1,2.6,0.1,0,0,1024,1024,1684,1024,0,0,100,0,0,0,0,90,3.829,3.835,0,0,0,0,5.533,58.82,736.63025060629,16.076116,6,P-GPS,,4.9
140700,2026-01-11 17:20:07,737.28641860629,14.76378,0.223694,3.6398295128,2.0638780188,15,5,7.675,737.28641860629,16.732284,0.3131716,3.9069226972,0.223694,0.0,-4.250186,34.9,3.7,0.3,0,0,1024,1024,1684,1024,0,0,100,0,0,0,0,90,3.829,3.835,0,0,0,0,5.533,58.82,737.28641860629,16.732284,6,P-GPS,,5.1
140800,2026-01-11 17:20:07,737.94258660629,15.419948,0.223694,3.8440618028,2.34524613804,15,5,7.675,737.94258660629,17.388452,0.3131716,3.9069226972,0.223694,0.0,-4.250186,34.5,4.1,0.3,0,0,1024,1024,1684,1024,0,0,100,0,0,0,0,90,3.829,3.835,0,0,0,0,5.533,58.82,737.94258660629,17.388452,6,P-GPS,,5.3
140900,2026-01-11 17:20:07,738.92683860629,16.076116,0.223694,3.9234581308,2.43333997288,15,5,7.675,738.92683860629,18.372704,0.3131716,3.9234581308,0.223694,0.0,-4.250186,34.3,4.3,0.6,0,0,1024,1024,1684,1024,0,0,100,0,0,0,0,90,3.829,3.835,0,0,0,0,5.533,58.82,738.92683860629,18.372704,6,P-GPS,,5.6
141000,2026-01-11 17:20:07,739.58300660629,16.732284,0.0,3.9746392348,2.48659456776,15,5,7.675,739.58300660629,19.028872,0.3131716,3.9746392348,0.0,0.0,-4.250186,34.2,4.2,0.4,0,0,1024,1024,1684,1024,0,0,100,0,0,0,0,90,3.829,3.835,0,0,0,0,5.533,58.82,739.58300660629,19.028872,6,P-GPS,,5.8
141100,2026-01-11 17:20:07,740.23917460629,17.388452,0.0,4.0108597084,2.52631897848,16,5,7.675,740.23917460629,19.68504,0.3131716,4.0108597084,0.0,0.0,-4.250186,34.3,3.7,1.2,0,0,1024,1024,1684,1024,0,0,100,0,0,0,0,90,3.829,3.835,0,0,0,0,5.533,58.82,740.23917460629,19.68504,6,P-GPS,,6.0
141200,2026-01-11 17:20:07,740.89534260629,18.372704,0.0,4.07808412,2.64763131832,16,5,7.675,740.89534260629,20.341208,0.3131716,4.07808412,0.0,0.0,-4.47388,34.3,3.2,0.7,0,0,1024,1024,1684,1024,0,0,100,0,0,0,0,90,3.829,3.835,0,0,0,0,5.533,58.82,740.89534260629,20.341208,6,P-GPS,,6.2
141300,2026-01-11 17:20:07,741.55151060629,19.028872,0.0,4.0909778212,2.6664699016,16,5,7.675,741.55151060629,20.997376,0.3131716,4.0909778212,0.0,0.0,-4.250186,34.4,2.7,0.0,0,0,1024,1024,1684,1024,0,0,100,0,0,0,0,90,3.829,3.835,0,0,0,0,5.533,58.82,741.55151060629,20.997376,6,P-GPS,,6.4
141400,2026-01-11 17:20:07,742.20767860629,20.013124,0.0,4.0855316268,2.69262475808,16,5,7.682,742.20767860629,21.653544,0.3131716,4.0909778212,0.0,0.0,-4.47388,34.7,2.8,-0.4,0,0,1024,1024,1684,1024,0,0,100,0,0,0,0,90,3.842,3.84,0,0,0,0,5.221,59.0,742.20767860629,21.653544,6,P-GPS,,6.6
141500,2026-01-11 17:20:07,742.86384660629,20.669292,0.223694,4.0741143036,2.73275271212,16,5,7.682,742.86384660629,22.309712,0.3131716,4.0909778212,0.0,0.223694,-4.47388,34.9,2.6,-1.0,0,0,1024,1024,1684,1024,0,0,100,0,0,0,0,90,3.842,3.84,0,0,0,0,5.221,59.0,742.86384660629,22.309712,6,P-GPS,,6.8
141600,2026-01-11 17:20:07,743.52001460629,21.653544,0.223694,4.0442258512,2.81191610048,16,5,7.682,743.52001460629,22.96588,0.3131716,4.0909778212,0.0,0.223694,-4.47388,34.8,3.1,-1.3,0,0,1024,1024,1684,1024,0,0,100,0,0,0,0,90,3.842,3.84,0,0,0,0,5.221,59.0,743.52001460629,22.96588,6,P-GPS,,7.0
141700,2026-01-11 17:20:08,744.50426660629,22.309712,0.0,3.9454069504,3.0328413044,16,5,7.682,744.50426660629,23.950132,0.3131716,4.0909778212,0.0,0.0,-4.250186,34.6,3.1,-1.5,0,0,1024,1024,1684,1024,0,0,100,0,0,0,0,90,3.842,3.84,0,0,0,0,5.221,59.0,744.50426660629,23.950132,6,P-GPS,,7.3
141800,2026-01-11 17:20:08,745.16043460629,23.293964,0.0,3.9447835908,3.07661099084,16,5,7.682,745.16043460629,24.6063,0.3131716,4.0909778212,0.0,0.0,-4.250186,34.6,3.0,-1.0,0,0,1024,1024,1684,1024,0,0,100,0,0,0,0,90,3.842,3.84,0,0,0,0,5.221,59.0,745.16043460629,24.6063,6,P-GPS,,7.5
141900,2026-01-11 17:20:08,745.81660260629,23.950132,0.0,3.9433400212,3.11637477164,16,5,7.682,745.81660260629,25.262468,0.3131716,4.0909778212,0.0,0.0,-4.250186,34.7,2.9,-1.1,0,0,1024,1024,1684,1024,0,0,100,0,0,0,0,90,3.842,3.84,0,0,0,0,5.221,59.0,745.81660260629,25.262468,6,P-GPS,,7.7
142000,2026-01-11 17:20:08,746.47277060629,24.6063,0.0,3.9436352968,3.16037411688,16,5,7.682,746.47277060629,25.918636,0.3131716,4.0909778212,0.0,0.0,-4.250186,34.9,2.4,-0.6,0,0,1024,1024,1684,1024,0,0,100,0,0,0,0,90,3.842,3.84,0,0,0,0,5.221,59.0,746.47277060629,25.918636,6,P-GPS,,7.9
142100,2026-01-11 17:20:08,747.12893860629,25.262468,0.0,3.9604331976,3.2630906556,16,5,7.682,747.12893860629,26.574804,0.3131716,4.0909778212,0.0,0.0,-4.47388,35.1,1.6,-0.4,0,0,1024,1024,1684,1024,0,0,100,0,0,0,0,90,3.842,3.84,0,0,0,0,5.221,59.0,747.12893860629,26.574804,6,P-GPS,,8.1
142200,2026-01-11 17:20:08,747.78510660629,25.590552,0.0,3.9366471076,3.289698268,16,5,7.682,747.78510660629,27.230972,0.3131716,4.0909778212,0.0,0.0,-4.47388,35.0,1.7,-0.9,0,0,1024,1024,1684,1024,0,0,100,0,0,0,0,90,3.842,3.84,0,0,0,0,5.221,59.0,747.78510660629,27.230972,6,P-GPS,,8.3
142300,2026-01-11 17:20:08,748.44127460629,29.855644,0.0,3.9254594432,3.3018701844,16,5,7.682,748.44127460629,27.88714,0.3131716,4.0909778212,0.0,0.0,-4.47388,34.9,2.6,-1.9,0,0,1024,1024,1684,1024,0,0,100,0,0,0,0,90,3.842,3.84,0,0,0,0,5.221,59.0,748.44127460629,27.88714,6,P-GPS,,8.5
142400,2026-01-11 17:20:08,749.42552660629,30.511812,0.0,3.9266405456,3.3081693972,16,5,7.682,749.42552660629,28.871392,0.3131716,4.0909778212,0.0,0.0,-4.47388,34.7,2.8,-2.3,0,0,1024,1024,1684,1024,0,0,100,0,0,0,0,90,3.842,3.84,0,0,0,0,5.221,59.0,749.42552660629,28.871392,6,P-GPS,,8.8
142500,2026-01-11 17:20:08,750.08169460629,31.16798,0.223694,3.9262468448,3.3202428884,16,5,7.673,750.08169460629,29.52756,0.3131716,4.0909778212,0.0,0.223694,-4.250186,34.7,2.9,-3.0,0,0,1024,1024,1684,1024,0,0,100,0,0,0,0,90,3.838,3.834,0,0,0,0,5.456,59.0,750.08169460629,29.52756,6,P-GPS,,9.0
142600,2026-01-11 17:20:08,750.73786260629,31.824148,0.223694,3.9208334588,3.35629932,16,5,7.673,750.73786260629,30.183728,0.3131716,4.0909778212,0.0,0.0,-4.250186,34.9,2.9,-3.0,0,0,1024,1024,1684,1024,0,0,100,0,0,0,0,90,3.838,3.834,0,0,0,0,5.456,59.0,750.73786260629,30.183728,6,P-GPS,,9.2
142700,2026-01-11 17:20:09,751.39403060629,32.480316,0.0,3.9083990752,3.3792980084,16,5,7.673,751.39403060629,30.839896,0.3131716,4.0909778212,0.0,0.0,-4.250186,35.0,2.2,-2.4,0,0,1024,1024,1684,1024,0,0,100,0,0,0,0,90,3.838,3.834,0,0,0,0,5.456,59.0,751.39403060629,30.839896,6,P-GPS,,9.4
142800,2026-01-11 17:20:09,752.05019860629,33.136484,0.0,3.887139232,3.4014764868,16,5,7.673,752.05019860629,31.496064,0.3131716,4.0909778212,0.0,0.0,-4.47388,34.9,2.0,-2.2,0,0,1024,1024,1684,1024,0,0,100,0,0,0,0,90,3.838,3.834,0,0,0,0,5.456,59.0,752.05019860629,31.496064,6,P-GPS,,9.6
142900,2026-01-11 17:20:09,752.70636660629,33.792652,0.0,3.832349204,3.4691274076,16,5,7.673,752.70636660629,32.152232,0.3131716,4.0909778212,0.0,0.0,-4.47388,35.0,2.3,-2.2,0,0,1024,1024,1684,1024,0,0,100,0,0,0,0,90,3.838,3.834,0,0,0,0,5.456,59.0,752.70636660629,32.152232,6,P-GPS,,9.8
143000,2026-01-11 17:20:09,753.36253460629,34.44882,0.0,3.8178478912,3.4840224212,16,5,7.673,753.36253460629,32.8084,0.3131716,4.0909778212,0.0,0.0,-4.47388,34.8,1.7,-2.4,0,0,1024,1024,1024,1024,0,0,0,0,0,0,0,90,3.838,3.834,0,0,0,0,5.456,59.0,753.36253460629,32.8084,6,P-GPS,,10.0
143100,2026-01-11 17:20:09,754.34678660629,35.104988,0.223694,3.8187665264,3.492618222,16,5,7.673,754.34678660629,33.792652,0.3131716,4.0909778212,0.0,0.223694,-4.47388,34.8,1.5,-2.7,0,0,1024,1024,1024,1024,0,0,0,0,0,0,0,90,3.838,3.834,0,0,0,0,5.456,59.0,754.34678660629,33.792652,6,P-GPS,,10.3
143200,2026-01-11 17:20:09,755.00295460629,35.761156,0.0,3.8707022236,3.5603019512,16,5,7.673,755.00295460629,34.44882,0.3131716,4.0909778212,0.0,0.0,-4.250186,34.7,2.2,-2.8,0,0,1024,1024,1024,1024,0,0,0,0,0,0,0,90,3.838,3.834,0,0,0,0,5.456,59.0,755.00295460629,34.44882,6,P-GPS,,10.5
143300,2026-01-11 17:20:09,755.65912260629,36.417324,0.0,3.9047245344,3.599409564,16,5,7.673,755.65912260629,35.104988,0.3131716,4.0909778212,0.0,0.0,-3.802798,34.7,2.2,-1.9,0,0,1024,1024,1024,1024,0,0,0,0,0,0,0,90,3.838,3.834,0,0,0,0,5.456,59.0,755.65912260629,35.104988,6,P-GPS,,10.7
143400,2026-01-11 17:20:09,755.98720660629,36.745408,0.0,3.9544292604,3.6497376496,16,5,7.673,755.98720660629,35.433072,0.3131716,4.0909778212,0.0,0.0,-2.908022,34.8,1.5,-1.6,0,0,1024,1024,1024,1024,0,0,0,0,0,0,0,90,3.838,3.834,0,0,0,0,5.456,59.0,755.98720660629,35.433072,6,P-GPS,,10.8
143500,2026-01-11 17:20:09,756.31529060629,37.073492,0.0,3.9267061624,3.69258542,16,5,7.673,756.31529060629,35.761156,0.3131716,4.0909778212,0.0,0.0,-2.23694,34.8,1.2,-1.4,0,0,1024,1024,1024,1024,0,0,0,0,0,0,0,90,3.838,3.834,0,0,0,0,5.456,59.0,756.31529060629,35.761156,6,P-GPS,,10.9
143600,2026-01-11 17:20:09,756.64337460629,37.401576,0.0,3.865485688,3.7574148184,16,5,7.761,756.64337460629,36.08924,0.3131716,4.0909778212,0.0,0.0,-1.342164,34.9,1.0,-1.2,0,0,1024,1024,1024,1024,0,0,0,0,0,0,0,89,3.881,3.88,0,0,0,0,4.495,59.0,756.64337460629,36.08924,6,P-GPS,,11.0
143700,2026-01-11 17:20:10,756.97145860629,37.401576,0.0,3.8114174448,3.8139765,16,5,7.761,756.97145860629,36.417324,0.3131716,4.0909778212,0.0,0.0,-0.671082,35.0,0.9,-1.2,0,0,1024,1024,1024,1024,0,0,0,0,0,0,0,89,3.881,3.88,0,0,0,0,4.495,59.0,756.97145860629,36.417324,6,P-GPS,,11.1
143800,2026-01-11 17:20:10,756.97145860629,37.401576,0.0,3.6480644212,3.9783793924,16,5,7.761,756.97145860629,36.417324,0.3131716,4.0909778212,0.0,0.0,-0.223694,35.0,0.7,-1.1,0,0,1024,1024,1024,1024,0,0,0,0,0,0,0,89,3.881,3.88,0,0,0,0,4.495,59.0,756.97145860629,36.417324,6,P-GPS,,11.1
143900,2026-01-11 17:20:10,757.29954260629,37.401576,0.0,3.6166995908,4.0104331992,16,5,7.761,757.29954260629,36.745408,0.3131716,4.0909778212,0.0,0.0,0.0,35.0,0.9,-1.3,0,0,1024,1024,1024,1024,0,0,0,0,0,0,0,89,3.881,3.88,0,0,0,0,4.495,59.0,757.29954260629,36.745408,6,P-GPS,,11.2
144000,2026-01-11 17:20:10,757.29954260629,37.401576,0.0,3.5952100888,4.0333334624,16,5,7.761,757.29954260629,36.745408,0.3131716,4.0909778212,0.0,0.0,0.0,35.0,1.0,-1.5,0,0,1024,1024,1024,1024,0,0,0,0,0,0,0,89,3.881,3.88,0,0,0,0,4.495,59.0,757.29954260629,36.745408,6,P-GPS,,11.2
144100,2026-01-11 17:20:10,757.29954260629,37.401576,0.0,3.5799213744,4.0566930432,16,5,7.761,757.29954260629,36.745408,0.3131716,4.0909778212,0.0,0.0,0.0,34.9,1.3,-1.7,0,0,1024,1024,1024,1024,0,0,0,0,0,0,0,89,3.881,3.88,0,0,0,0,4.495,59.0,757.29954260629,36.745408,6,P-GPS,,11.2
144200,2026-01-11 17:20:10,757.29954260629,37.401576,0.0,3.5324148112,4.1764437032,16,5,7.761,757.29954260629,36.745408,0.3131716,4.0909778212,0.0,0.0,0.0,35.1,1.6,-0.8,0,0,1024,1024,1024,1024,0,0,0,0,0,0,0,89,3.881,3.88,0,0,0,0,4.495,59.0,757.29954260629,36.745408,6,P-GPS,,11.2
144300,2026-01-11 17:20:10,757.29954260629,37.401576,0.0,3.5330381708,4.2151576152,16,5,7.761,757.29954260629,36.745408,0.3131716,4.0909778212,0.0,0.0,0.0,35.2,2.0,-0.2,0,0,1024,1024,1024,1024,0,0,0,0,0,0,0,89,3.881,3.88,0,0,0,0,4.495,59.0,757.29954260629,36.745408,6,P-GPS,,11.2
144400,2026-01-11 17:20:10,757.29954260629,37.401576,0.0,3.548064418,4.2312665396,16,5,7.761,757.29954260629,36.745408,0.3131716,4.0909778212,0.0,0.0,0.0,35.2,2.3,-0.1,0,0,1024,1024,1024,1024,0,0,0,0,0,0,0,89,3.881,3.88,0,0,0,0,4.495,59.0,757.29954260629,36.745408,6,P-GPS,,11.2
144500,2026-01-11 17:20:10,757.29954260629,37.401576,0.0,3.5627297728,4.246063128,16,5,7.761,757.29954260629,36.745408,0.3131716,4.0909778212,0.0,0.0,0.0,35.1,2.9,-0.1,0,0,1024,1024,1024,1024,0,0,0,0,0,0,0,89,3.881,3.88,0,0,0,0,4.495,59.0,757.29954260629,36.745408,6,P-GPS,,11.2
144600,2026-01-11 17:20:10,757.29954260629,37.401576,0.0,3.56217203,4.251640556,16,5,7.761,757.29954260629,36.745408,0.3131716,4.0909778212,0.0,0.0,0.0,35.1,2.9,-1.0,0,0,1024,1024,1024,1024,0,0,0,0,0,0,0,89,3.854,3.851,0,0,0,0,4.495,59.0,757.29954260629,36.745408,6,P-GPS,,11.2
144700,2026-01-11 17:20:11,757.29954260629,37.401576,0.0,3.5742783296,4.2638124724,16,5,7.761,757.29954260629,36.745408,0.3131716,4.0909778212,0.0,0.0,0.0,34.9,3.4,-0.7,0,0,1024,1024,1024,1024,0,0,0,0,0,0,0,89,3.854,3.851,0,0,0,0,4.495,59.0,757.29954260629,36.745408,6,P-GPS,,11.2
144800,2026-01-11 17:20:11,757.29954260629,37.401576,0.0,3.5975066768,4.2891077488,16,5,7.761,757.29954260629,36.745408,0.3131716,4.0909778212,0.0,0.0,0.0,35.0,3.4,-0.7,0,0,1024,1024,1024,1024,0,0,0,0,0,0,0,89,3.854,3.851,0,0,0,0,4.495,59.0,757.29954260629,36.745408,6,P-GPS,,11.2
144900,2026-01-11 17:20:11,757.29954260629,37.401576,0.0,3.6187009032,4.3140749412,16,5,7.761,757.29954260629,36.745408,0.3131716,4.0909778212,0.0,0.0,0.0,35.0,3.1,-1.2,0,0,1024,1024,1024,1024,0,0,0,0,0,0,0,89,3.854,3.851,0,0,0,0,4.495,59.0,757.29954260629,36.745408,6,P-GPS,,11.2
145000,2026-01-11 17:20:11,757.29954260629,37.401576,0.0,3.6431103528,4.3408137872,16,5,7.761,757.29954260629,36.745408,0.3131716,4.0909778212,0.0,0.0,0.0,34.9,3.0,-2.0,0,0,1024,1024,1024,1024,0,0,0,0,0,0,0,89,3.854,3.851,0,0,0,0,4.495,59.0,757.29954260629,36.745408,6,P-GPS,,11.2
145100,2026-01-11 17:20:11,757.29954260629,37.401576,0.0,3.6877625852,4.3879922664,16,5,7.761,757.29954260629,36.745408,0.3131716,4.0909778212,0.0,0.0,0.0,35.0,2.8,-2.1,0,0,1024,1024,1024,1024,0,0,0,0,0,0,0,89,3.854,3.851,0,0,0,0,4.495,59.0,757.29954260629,36.745408,6,P-GPS,,11.2
145200,2026-01-11 17:20:11,757.29954260629,37.401576,0.223694,3.6995079924,4.412237674,16,5,7.761,757.29954260629,36.745408,0.3131716,4.0909778212,0.0,0.223694,0.0,35.1,2.6,-2.4,0,0,1024,1024,1024,1024,0,0,0,0,0,0,0,89,3.854,3.851,0,0,0,0,4.495,59.0,757.29954260629,36.745408,6,P-GPS,,11.2
145300,2026-01-11 17:20:11,757.29954260629,37.401576,0.223694,3.7149935572,4.4380906932,16,5,7.761,757.29954260629,36.745408,0.3131716,4.0909778212,0.0,0.223694,0.0,34.8,2.8,-3.1,0,0,1024,1024,1024,1024,0,0,0,0,0,0,0,89,3.854,3.851,0,0,0,0,4.495,59.0,757.29954260629,36.745408,6,P-GPS,,11.2
145400,2026-01-11 17:20:11,757.29954260629,37.401576,0.0,3.7326444764,4.4630578856,16,5,7.761,757.29954260629,36.745408,0.3131716,4.0909778212,0.0,0.0,0.0,34.8,3.4,-2.2,0,0,1024,1024,1024,1024,0,0,0,0,0,0,0,89,3.854,3.851,0,0,0,0,4.495,59.0,757.29954260629,36.745408,6,P-GPS,,11.2
145500,2026-01-11 17:20:11,757.29954260629,37.401576,0.0,3.7413387024,4.4725395132,16,5,7.761,757.29954260629,36.745408,0.3131716,4.0909778212,0.0,0.0,0.0,35.0,3.7,-2.1,0,0,1024,1024,1024,1024,0,0,0,0,0,0,0,89,3.854,3.851,0,0,0,0,4.495,59.0,757.29954260629,36.745408,6,P-GPS,,11.2
145600,2026-01-11 17:20:11,757.62762660629,37.401576,0.0,3.7550526136,4.5020998816,16,5,7.761,757.62762660629,37.073492,0.3131716,4.0909778212,0.0,0.223694,0.0,35.3,3.4,-2.3,0,0,1024,1024,1024,1024,0,0,0,0,0,0,0,89,3.854,3.851,0,0,0,0,4.495,59.0,757.62762660629,37.073492,6,P-GPS,,11.3
145700,2026-01-11 17:20:11,757.62762660629,37.401576,0.223694,3.7834974964,4.5438977832,16,5,7.761,757.62762660629,37.073492,0.3131716,4.0909778212,0.0,0.223694,0.0,35.4,4.0,-2.7,0,0,1024,1024,1024,1024,0,0,0,0,0,0,0,89,3.854,3.851,0,0,0,0,4.495,59.0,757.62762660629,37.073492,6,P-GPS,,11.3
145800,2026-01-11 17:20:12,757.62762660629,37.401576,0.223694,3.8478675772,4.6188977856,16,5,7.686,757.62762660629,37.073492,0.3131716,4.0909778212,0.0,0.223694,0.0,35.4,4.9,-3.2,0,0,1024,1024,1024,1024,0,0,0,0,0,0,0,89,3.849,3.846,0,0,0,0,5.021,59.0,757.62762660629,37.073492,6,P-GPS,,11.3
145900,2026-01-11 17:20:12,757.62762660629,37.401576,0.223694,3.9153872644,4.6950788904,16,5,7.686,757.62762660629,37.073492,0.3131716,4.0909778212,0.0,0.223694,0.0,35.3,6.0,-3.6,0,0,1024,1024,1024,1024,0,0,0,0,0,0,0,89,3.849,3.846,0,0,0,0,5.021,59.0,757.62762660629,37.073492,6,P-GPS,,11.3
146000,2026-01-11 17:20:12,757.62762660629,37.401576,0.223694,3.9820539332,4.7696523836,16,5,7.686,757.62762660629,37.073492,0.3131716,4.0909778212,0.0,0.223694,0.223694,35.2,6.5,-3.4,0,0,1024,1024,1024,1024,0,0,0,0,0,0,0,89,3.849,3.846,0,0,0,0,5.021,59.0,757.62762660629,37.073492,6,P-GPS,,11.3
146100,2026-01-11 17:20:12,757.62762660629,37.401576,0.223694,4.0360565596,4.8324148528,16,5,7.686,757.62762660629,37.073492,0.3131716,4.0909778212,0.0,0.223694,0.0,35.4,5.8,-2.5,0,0,1024,1024,1024,1024,0,0,0,0,0,0,0,89,3.849,3.846,0,0,0,0,5.021,59.0,757.62762660629,37.073492,6,P-GPS,,11.3
146200,2026-01-11 17:20:12,757.62762660629,37.401576,0.223694,4.0873360888,4.8972770596,16,5,7.686,757.62762660629,37.073492,0.3131716,4.0909778212,0.0,0.223694,0.0,35.4,5.0,-2.8,0,0,1024,1024,1024,1024,0,0,0,0,0,0,0,89,3.849,3.846,0,0,0,0,5.021,59.0,757.62762660629,37.073492,6,P-GPS,,11.3
146300,2026-01-11 17:20:12,757.95571060629,37.401576,0.0,4.2013124704,5.0234909744,16,5,7.686,757.95571060629,37.401576,0.3131716,4.2013124704,0.0,0.0,0.0,35.4,5.5,-3.0,0,0,1024,1024,1024,1024,0,0,0,0,0,0,0,89,3.849,3.846,0,0,0,0,5.021,59.0,757.95571060629,37.401576,6,P-GPS,,11.4
146400,2026-01-11 17:20:12,757.95571060629,37.401576,0.0,4.2351379308,5.0685040992,16,5,7.686,757.95571060629,37.401576,0.3131716,4.2351379308,0.0,0.0,0.0,35.4,5.6,-3.3,0,0,1024,1024,1024,1024,0,0,0,0,0,0,0,89,3.849,3.846,0,0,0,0,5.021,59.0,757.95571060629,37.401576,6,P-GPS,,11.4
146500,2026-01-11 17:20:12,757.95571060629,37.401576,0.0,4.2552822884,5.1057416332,16,5,7.686,757.95571060629,37.401576,0.3131716,4.2552822884,0.0,0.0,0.0,35.3,6.0,-3.7,0,0,1024,1024,1024,1024,0,0,0,0,0,0,0,89,3.849,3.846,0,0,0,0,5.021,59.0,757.95571060629,37.401576,6,P-GPS,,11.4
146600,2026-01-11 17:20:12,757.95571060629,37.401576,0.0,4.249836094,5.1444883536,16,5,7.686,757.95571060629,37.401576,0.3131716,4.2552822884,0.0,0.0,0.0,35.3,5.8,-3.9,0,0,1024,1024,1024,1024,0,0,0,0,0,0,0,89,3.849,3.846,0,0,0,0,5.021,59.0,757.95571060629,37.401576,6,P-GPS,,11.4
146700,2026-01-11 17:20:13,757.62762660629,37.401576,0.0,4.2324148336,5.1798886172,16,5,7.686,757.95571060629,37.401576,0.3131716,4.2552822884,0.0,0.0,0.223694,35.3,4.3,-2.9,0,0,1024,1024,1024,1024,0,0,0,0,0,0,0,89,3.849,3.846,0,0,0,0,5.021,59.0,757.62762660629,37.073492,6,P-GPS,,11.3
146800,2026-01-11 17:20:13,757.62762660629,37.401576,0.0,4.1572179808,5.258202268,16,5,7.686,757.95571060629,37.401576,0.3131716,4.2552822884,0.0,0.0,0.0,35.3,3.5,-3.4,0,0,1024,1024,1024,1024,0,0,0,0,0,0,0,89,3.849,3.846,0,0,0,0,5.021,59.0,757.62762660629,37.073492,6,P-GPS,,11.3
146900,2026-01-11 17:20:13,757.62762660629,37.401576,0.0,4.1381563004,5.2867127676,16,5,7.677,757.95571060629,37.401576,0.3131716,4.2552822884,0.0,0.0,0.0,35.3,4.0,-3.2,0,0,1024,1024,1024,1024,0,0,0,0,0,0,0,89,3.841,3.836,0,0,0,0,5.024,59.0,757.62762660629,37.073492,6,P-GPS,,11.3
147000,2026-01-11 17:20:13,757.62762660629,37.401576,0.0,4.134022442,5.3089240544,16,5,7.677,757.95571060629,37.401576,0.3131716,4.2552822884,0.0,0.0,0.223694,35.3,4.1,-3.9,0,0,1024,1024,1024,1024,0,0,0,0,0,0,0,89,3.841,3.836,0,0,0,0,5.024,59.0,757.62762660629,37.073492,6,P-GPS,,11.3
147100,2026-01-11 17:20:13,757.62762660629,37.401576,0.0,4.1236549876,5.3311681496,16,5,7.677,757.95571060629,37.401576,0.3131716,4.2552822884,0.0,0.0,0.223694,35.2,4.7,-4.2,0,0,1024,1024,1024,1024,0,0,0,0,0,0,0,89,3.841,3.836,0,0,0,0,5.024,59.0,757.62762660629,37.073492,6,P-GPS,,11.3
147200,2026-01-11 17:20:13,757.62762660629,37.401576,0.0,4.0807744088,5.3813650016,16,5,7.677,757.95571060629,37.401576,0.3131716,4.2552822884,0.0,0.0,0.223694,35.2,4.2,-3.4,0,0,1024,1024,1024,1024,0,0,0,0,0,0,0,89,3.841,3.836,0,0,0,0,5.024,59.0,757.62762660629,37.073492,6,P-GPS,,11.3
147300,2026-01-11 17:20:13,757.62762660629,37.401576,0.0,4.0518045916,5.4129922992,16,5,7.677,757.95571060629,37.401576,0.3131716,4.2552822884,0.0,0.0,0.0,35.3,3.4,-2.9,0,0,1024,1024,1024,1024,0,0,0,0,0,0,0,89,3.841,3.836,0,0,0,0,5.024,59.0,757.62762660629,37.073492,6,P-GPS,,11.3
147400,2026-01-11 17:20:13,757.29954260629,37.401576,0.0,4.0412074784,5.4242455804,16,5,7.677,757.95571060629,37.401576,0.3131716,4.2552822884,0.0,0.0,0.0,35.1,3.6,-3.1,0,0,1024,1024,1024,1024,0,0,0,0,0,0,0,89,3.841,3.836,0,0,0,0,5.024,59.0,757.29954260629,36.745408,6,P-GPS,,11.2
147500,2026-01-11 17:20:13,757.29954260629,37.401576,0.0,4.0249017036,5.4408794392,16,5,7.677,757.95571060629,37.401576,0.3131716,4.2552822884,0.0,0.0,0.0,35.0,3.1,-3.9,0,0,1024,1024,1024,1024,0,0,0,0,0,0,0,89,3.841,3.836,0,0,0,0,5.024,59.0,757.29954260629,36.745408,6,P-GPS,,11.2
147600,2026-01-11 17:20:13,757.29954260629,37.401576,0.0,4.0429135152,5.474245582,16,5,7.677,757.95571060629,37.401576,0.3131716,4.2552822884,0.0,0.0,0.0,35.0,2.5,-4.1,0,0,1024,1024,1024,1024,0,0,0,0,0,0,0,89,3.841,3.836,0,0,0,0,5.024,59.0,757.29954260629,36.745408,6,P-GPS,,11.2
147700,2026-01-11 17:20:14,757.29954260629,37.401576,0.0,4.008694354,5.5105316724,16,5,7.677,757.95571060629,37.401576,0.3131716,4.2552822884,0.0,0.0,0.0,35.0,1.8,-4.3,0,0,1024,1024,1024,1024,0,0,0,0,0,0,0,89,3.841,3.836,0,0,0,0,5.024,59.0,757.29954260629,36.745408,6,P-GPS,,11.2
147800,2026-01-11 17:20:14,756.97145860629,37.401576,0.223694,3.9528216488,5.5666996532,16,5,7.677,757.95571060629,37.401576,0.3131716,4.2552822884,0.0,-0.223694,0.0,34.9,1.6,-3.5,0,0,1024,1024,1024,1024,0,0,0,0,0,0,0,89,3.841,3.836,0,0,0,0,5.024,59.0,756.97145860629,36.417324,6,P-GPS,,11.1
147900,2026-01-11 17:20:14,756.97145860629,37.401576,0.223694,3.9052822772,5.6158466364,16,5,7.677,757.95571060629,37.401576,0.3131716,4.2552822884,0.0,-0.223694,0.0,34.9,1.6,-2.8,0,0,1024,1024,1024,1024,0,0,0,0,0,0,0,89,3.841,3.836,0,0,0,0,5.024,59.0,756.97145860629,36.417324,6,P-GPS,,11.1
148000,2026-01-11 17:20:14,756.64337460629,37.401576,0.223694,3.8283793876,5.6935369276,16,5,7.692,757.95571060629,37.401576,0.3131716,4.2552822884,0.0,-0.223694,0.0,34.9,1.4,-2.3,0,0,1024,1024,1024,1024,0,0,0,0,0,0,0,89,3.848,3.845,0,0,0,0,4.978,59.0,756.64337460629,36.08924,6,P-GPS,,11.0
148100,2026-01-11 17:20:14,756.64337460629,37.401576,0.223694,3.7973754496,5.7298558264,16,5,7.692,757.95571060629,37.401576,0.3131716,4.2552822884,0.0,-0.223694,0.0,35.0,1.2,-2.6,0,0,1024,1024,1024,1024,0,0,0,0,0,0,0,89,3.848,3.845,0,0,0,0,4.978,59.0,756.64337460629,36.08924,6,P-GPS,,11.0
148200,2026-01-11 17:20:14,756.64337460629,37.401576,0.223694,3.7692258424,5.7740159328,16,5,7.692,757.95571060629,37.401576,0.3131716,4.2552822884,0.0,-0.223694,0.0,35.2,1.8,-2.0,0,0,1024,1024,1024,1024,0,0,0,0,0,0,0,89,3.848,3.845,0,0,0,0,4.978,59.0,756.64337460629,36.08924,6,P-GPS,,11.0
148300,2026-01-11 17:20:14,756.31529060629,37.401576,0.223694,3.7507875216,5.8171917872,16,5,7.692,757.95571060629,37.401576,0.3131716,4.2552822884,0.0,-0.223694,0.0,35.3,1.9,-1.6,0,0,1024,1024,1024,1024,0,0,0,0,0,0,0,89,3.848,3.845,0,0,0,0,4.978,59.0,756.31529060629,35.761156,6,P-GPS,,10.9
148400,2026-01-11 17:20:14,756.31529060629,37.401576,0.0,3.7448163928,5.8662731536,16,5,7.692,757.95571060629,37.401576,0.3131716,4.2552822884,0.0,0.0,0.0,35.1,1.9,-1.3,0,0,1024,1024,1024,1024,0,0,0,0,0,0,0,89,3.848,3.845,0,0,0,0,4.978,59.0,756.31529060629,35.761156,6,P-GPS,,10.9
148500,2026-01-11 17:20:14,756.31529060629,37.401576,0.0,3.7441602248,5.9305120008,16,5,7.692,757.95571060629,37.401576,0.3131716,4.2552822884,0.0,0.0,0.0,35.1,1.9,-0.8,0,0,1024,1024,1024,1024,0,0,0,0,0,0,0,89,3.848,3.845,0,0,0,0,4.978,59.0,756.31529060629,35.761156,6,P-GPS,,10.9
148600,2026-01-11 17:20:14,756.31529060629,37.401576,0.0,3.7776576012,5.9909450736,16,5,7.692,757.95571060629,37.401576,0.3131716,4.2552822884,0.0,0.0,0.0,35.3,1.9,-1.1,0,0,1024,1024,1024,1024,0,0,0,0,0,0,0,89,3.848,3.845,0,0,0,0,4.978,59.0,756.31529060629,35.761156,6,P-GPS,,10.9
148700,2026-01-11 17:20:15,756.31529060629,37.401576,0.0,3.816109046,6.0470474376,16,5,7.692,757.95571060629,37.401576,0.3131716,4.2552822884,0.0,0.0,0.0,35.4,2.3,-1.6,0,0,1024,1024,1024,1024,0,0,0,0,0,0,0,89,3.848,3.845,0,0,0,0,4.978,59.0,756.31529060629,35.761156,6,P-GPS,,10.9
148800,2026-01-11 17:20:15,756.31529060629,37.401576,0.0,3.8540355564,6.0999345784,16,5,7.692,757.95571060629,37.401576,0.3131716,4.2552822884,0.0,0.0,0.0,35.2,3.8,-2.0,0,0,1024,1024,1024,1024,0,0,0,0,0,0,0,89,3.848,3.845,0,0,0,0,4.978,59.0,756.31529060629,35.761156,6,P-GPS,,10.9
148900,2026-01-11 17:20:15,756.31529060629,37.401576,0.0,3.9206694168,6.2041668652,16,5,7.692,757.95571060629,37.401576,0.3131716,4.2552822884,0.0,0.0,0.0,35.2,4.6,-2.8,0,0,1024,1024,1024,1024,0,0,0,0,0,0,0,89,3.848,3.845,0,0,0,0,4.978,59.0,756.31529060629,35.761156,6,P-GPS,,10.9
149000,2026-01-11 17:20:15,756.31529060629,37.401576,0.0,3.9640421216,6.248523822,16,5,7.692,757.95571060629,37.401576,0.3131716,4.2552822884,0.0,0.0,0.0,35.4,4.1,-3.2,0,0,1024,1024,1024,1024,0,0,0,0,0,0,0,89,3.848,3.845,0,0,0,0,4.978,59.0,756.31529060629,35.761156,6,P-GPS,,10.9
149100,2026-01-11 17:20:15,756.31529060629,37.401576,0.0,4.0018373984,6.2872049256,16,5,7.698,757.95571060629,37.401576,0.3131716,4.2552822884,0.0,0.0,0.0,35.2,3.3,-3.2,0,0,1024,1024,1024,1024,0,0,0,0,0,0,0,89,3.854,3.843,0,0,0,0,4.791,59.18,756.31529060629,35.761156,6,P-GPS,,10.9
149200,2026-01-11 17:20:15,756.64337460629,37.401576,0.0,4.0346457984,6.3208007272,16,5,7.698,757.95571060629,37.401576,0.3131716,4.2552822884,0.0,0.0,0.0,35.0,3.4,-2.8,0,0,1024,1024,1024,1024,0,0,0,0,0,0,0,89,3.854,3.843,0,0,0,0,4.791,59.18,756.64337460629,36.08924,6,P-GPS,,11.0
149300,2026-01-11 17:20:15,756.31529060629,37.401576,0.0,4.0724082668,6.3603020408,16,5,7.698,757.95571060629,37.401576,0.3131716,4.2552822884,0.0,0.0,0.0,34.9,4.1,-1.8,0,0,1024,1024,1024,1024,0,0,0,0,0,0,0,89,3.854,3.843,0,0,0,0,4.791,59.18,756.31529060629,35.761156,6,P-GPS,,10.9
149400,2026-01-11 17:20:15,756.31529060629,37.401576,0.0,4.1280513132,6.4172902316,16,5,7.698,757.95571060629,37.401576,0.3131716,4.2552822884,0.0,0.0,0.0,34.9,4.4,-1.6,0,0,1024,1024,1024,1024,0,0,0,0,0,0,0,89,3.854,3.843,0,0,0,0,4.791,59.18,756.31529060629,35.761156,6,P-GPS,,10.9
149500,2026-01-11 17:20:15,756.31529060629,37.401576,0.0,4.1700460652,6.4610566372,16,5,7.698,757.95571060629,37.401576,0.3131716,4.2552822884,0.0,0.0,0.0,34.9,4.5,-1.3,0,0,1024,1024,1024,1024,0,0,0,0,0,0,0,89,3.854,3.843,0,0,0,0,4.791,59.18,756.31529060629,35.761156,6,P-GPS,,10.9
149600,2026-01-11 17:20:15,756.31529060629,37.401576,0.0,4.1889437036,6.4873361656,16,5,7.698,757.95571060629,37.401576,0.3131716,4.2552822884,0.0,0.0,0.0,35.0,4.3,-1.2,0,0,1024,1024,1024,1024,0,0,0,0,0,0,0,89,3.854,3.843,0,0,0,0,4.791,59.18,756.31529060629,35.761156,6,P-GPS,,10.9
149700,2026-01-11 17:20:16,756.31529060629,37.401576,0.0,4.1796917348,6.5276904976,16,5,7.698,757.95571060629,37.401576,0.3131716,4.2552822884,0.0,0.0,0.0,35.1,4.0,-0.9,0,0,1024,1024,1024,1024,0,0,0,0,0,0,0,89,3.854,3.843,0,0,0,0,4.791,59.18,756.31529060629,35.761156,6,P-GPS,,10.9
149800,2026-01-11 17:20:16,755.98720660629,37.401576,0.0,4.1795276928,6.545439842,16,5,7.698,757.95571060629,37.401576,0.3131716,4.2552822884,0.0,0.0,0.0,35.3,3.8,-1.3,0,0,1024,1024,1024,1024,0,0,0,0,0,0,0,89,3.854,3.843,0,0,0,0,4.791,59.18,755.98720660629,35.433072,6,P-GPS,,10.8
149900,2026-01-11 17:20:16,755.98720660629,37.401576,0.0,4.1764437032,6.5610566404,16,5,7.698,757.95571060629,37.401576,0.3131716,4.2552822884,0.0,0.0,0.0,35.3,3.7,-1.3,0,0,1024,1024,1024,1024,0,0,0,0,0,0,0,89,3.854,3.843,0,0,0,0,4.791,59.18,755.98720660629,35.433072,6,P-GPS,,10.8
150000,2026-01-11 17:20:16,755.98720660629,37.401576,0.0,4.1745736244,6.57398315,16,5,7.698,757.95571060629,37.401576,0.3131716,4.2552822884,0.0,0.0,0.0,35.3,3.3,-1.1,0,0,1024,1024,1024,1024,0,0,0,0,0,0,0,89,3.854,3.843,0,0,0,0,4.791,59.18,755.98720660629,35.433072,6,P-GPS,,10.8
150100,2026-01-11 17:20:16,755.98720660629,37.401576,0.0,4.175525068,6.5842193708,16,5,7.698,757.95571060629,37.401576,0.3131716,4.2552822884,0.0,0.0,0.0,35.3,3.6,-1.0,0,0,1024,1024,1024,1024,0,0,0,0,0,0,0,89,3.854,3.843,0,0,0,0,4.791,59.18,755.98720660629,35.433072,6,P-GPS,,10.8
150200,2026-01-11 17:20:16,755.98720660629,37.401576,0.0,4.1984253312,6.6149608416,16,5,7.719,757.95571060629,37.401576,0.3131716,4.2552822884,0.0,0.0,0.0,35.3,3.5,-0.9,0,0,1024,1024,1024,1024,0,0,0,0,0,0,0,89,3.861,3.858,0,0,0,0,4.35,59.18,755.98720660629,35.433072,6,P-GPS,,10.8
150300,2026-01-11 17:20:16,755.98720660629,37.401576,0.0,4.2091208696,6.62565638,16,5,7.719,757.95571060629,37.401576,0.3131716,4.2552822884,0.0,0.0,0.0,35.3,4.0,-0.9,0,0,1024,1024,1024,1024,0,0,0,0,0,0,0,89,3.861,3.858,0,0,0,0,4.35,59.18,755.98720660629,35.433072,6,P-GPS,,10.8
150400,2026-01-11 17:20:16,755.98720660629,37.401576,0.0,4.2104988224,6.6426183228,16,5,7.719,757.95571060629,37.401576,0.3131716,4.2552822884,0.0,0.0,0.0,35.2,4.2,-1.4,0,0,1024,1024,1024,1024,0,0,0,0,0,0,0,89,3.861,3.858,0,0,0,0,4.35,59.18,755.98720660629,35.433072,6,P-GPS,,10.8
150500,2026-01-11 17:20:16,755.98720660629,37.401576,0.0,4.2125657516,6.6606629428,16,5,7.719,757.95571060629,37.401576,0.3131716,4.2552822884,0.0,0.0,0.0,35.3,4.0,-1.9,0,0,1024,1024,1024,1024,0,0,0,0,0,0,0,89,3.861,3.858,0,0,0,0,4.35,59.18,755.98720660629,35.433072,6,P-GPS,,10.8
150600,2026-01-11 17:20:16,755.98720660629,37.401576,0.0,4.2294620776,6.6930448336,16,5,7.719,757.95571060629,37.401576,0.3131716,4.2552822884,0.0,0.0,0.0,35.2,4.3,-1.9,0,0,1024,1024,1024,1024,0,0,0,0,0,0,0,89,3.861,3.858,0,0,0,0,4.35,59.18,755.98720660629,35.433072,6,P-GPS,,10.8
150700,2026-01-11 17:20:17,755.65912260629,37.401576,0.0,4.2356628652,6.699803364,16,5,7.719,757.95571060629,37.401576,0.3131716,4.2552822884,0.0,0.0,0.0,35.2,4.3,-1.8,0,0,1024,1024,1024,1024,0,0,0,0,0,0,0,89,3.861,3.858,0,0,0,0,4.35,59.18,755.65912260629,35.104988,6,P-GPS,,10.7
150800,2026-01-11 17:20:17,755.65912260629,37.401576,0.0,4.2392061724,6.708661632,16,5,7.719,757.95571060629,37.401576,0.3131716,4.2552822884,0.0,0.0,0.0,35.2,3.9,-1.5,0,0,1024,1024,1024,1024,0,0,0,0,0,0,0,89,3.861,3.858,0,0,0,0,4.35,59.18,755.65912260629,35.104988,6,P-GPS,,10.7
150900,2026-01-11 17:20:17,755.65912260629,37.401576,0.0,4.2393702144,6.7190947032,16,5,7.719,757.95571060629,37.401576,0.3131716,4.2552822884,0.0,0.0,0.0,35.2,3.6,-1.1,0,0,1024,1024,1024,1024,0,0,0,0,0,0,0,89,3.861,3.858,0,0,0,0,4.35,59.18,755.65912260629,35.104988,6,P-GPS,,10.7
151000,2026-01-11 17:20:17,755.65912260629,37.401576,0.0,4.2812009244,6.7798230516,16,5,7.719,757.95571060629,37.401576,0.3131716,4.2812009244,0.0,0.0,0.0,35.2,3.4,-1.1,0,0,1024,1024,1024,1024,0,0,0,0,0,0,0,89,3.861,3.858,0,0,0,0,4.35,59.18,755.65912260629,35.104988,6,P-GPS,,10.7
151100,2026-01-11 17:20:17,755.65912260629,37.401576,0.0,4.278051318,6.7938978552,16,5,7.719,757.95571060629,37.401576,0.3131716,4.2812009244,0.0,0.0,0.0,35.2,3.4,-0.8,0,0,1024,1024,1024,1024,0,0,0,0,0,0,0,89,3.861,3.858,0,0,0,0,4.35,59.18,755.65912260629,35.104988,6,P-GPS,,10.7
151200,2026-01-11 17:20:17,755.33103860629,37.401576,0.0,4.2592521048,6.8183729216,16,5,7.719,757.95571060629,37.401576,0.3131716,4.2812009244,0.0,0.0,0.0,35.2,3.6,-0.7,0,0,1024,1024,1024,1024,0,0,0,0,0,0,0,89,3.861,3.858,0,0,0,0,4.35,59.18,755.33103860629,34.776904,6,P-GPS,,10.6
151300,2026-01-11 17:20:17,755.33103860629,37.401576,0.0,4.237368902,6.8461616364,16,5,7.718,757.95571060629,37.401576,0.3131716,4.2812009244,0.0,0.0,0.0,35.2,3.2,-0.4,0,0,1024,1024,1024,1024,0,0,0,0,0,0,0,89,3.862,3.857,0,0,0,0,4.461,59.18,755.33103860629,34.776904,6,P-GPS,,10.6
151400,2026-01-11 17:20:17,755.33103860629,37.401576,0.0,4.1794948844,6.9135828984,16,5,7.718,757.95571060629,37.401576,0.3131716,4.2812009244,0.0,0.0,0.0,35.2,3.0,-0.5,0,0,1024,1024,1024,1024,0,0,0,0,0,0,0,89,3.862,3.857,0,0,0,0,4.461,59.18,755.33103860629,34.776904,6,P-GPS,,10.6
151500,2026-01-11 17:20:17,755.33103860629,37.401576,0.0,4.153871524,6.9424542904,16,5,7.718,757.95571060629,37.401576,0.3131716,4.2812009244,0.0,0.0,0.0,35.1,2.9,-0.4,0,0,1024,1024,1024,1024,0,0,0,0,0,0,0,89,3.862,3.857,0,0,0,0,4.461,59.18,755.33103860629,34.776904,6,P-GPS,,10.6
151600,2026-01-11 17:20:17,755.00295460629,37.401576,0.0,4.1235565624,6.9728020604,16,5,7.718,757.95571060629,37.401576,0.3131716,4.2812009244,0.0,0.0,0.0,35.2,2.7,-0.4,0,0,1024,1024,1024,1024,0,0,0,0,0,0,0,89,3.862,3.857,0,0,0,0,4.461,59.18,755.00295460629,34.44882,6,P-GPS,,10.5
151700,2026-01-11 17:20:18,755.00295460629,37.401576,0.0,4.1002625984,6.9967850008,16,5,7.718,757.95571060629,37.401576,0.3131716,4.2812009244,0.0,0.0,0.0,35.3,2.8,-0.9,0,0,1024,1024,1024,1024,0,0,0,0,0,0,0,89,3.862,3.857,0,0,0,0,4.461,59.18,755.00295460629,34.44882,6,P-GPS,,10.5
151800,2026-01-11 17:20:18,755.00295460629,37.401576,0.0,4.0916339892,7.0070212216,16,5,7.718,757.95571060629,37.401576,0.3131716,4.2812009244,0.0,0.0,0.0,35.2,2.4,-1.4,0,0,1024,1024,1024,1024,0,0,0,0,0,0,0,89,3.862,3.857,0,0,0,0,4.461,59.18,755.00295460629,34.44882,6,P-GPS,,10.5
151900,2026-01-11 17:20:18,755.00295460629,37.401576,0.0,4.091371522,7.0216865764,16,5,7.718,757.95571060629,37.401576,0.3131716,4.2812009244,0.0,0.0,0.0,35.1,3.0,-1.4,0,0,1024,1024,1024,1024,0,0,0,0,0,0,0,89,3.862,3.857,0,0,0,0,4.461,59.18,755.00295460629,34.44882,6,P-GPS,,10.5
152000,2026-01-11 17:20:18,755.00295460629,37.401576,0.0,4.095636614,7.0342193852,16,5,7.718,757.95571060629,37.401576,0.3131716,4.2812009244,0.0,0.0,0.0,35.1,3.9,-0.9,0,0,1024,1024,1024,1024,0,0,0,0,0,0,0,89,3.862,3.857,0,0,0,0,4.461,59.18,755.00295460629,34.44882,6,P-GPS,,10.5
152100,2026-01-11 17:20:18,755.00295460629,37.401576,0.0,4.103674672,7.0476380208,16,5,7.718,757.95571060629,37.401576,0.3131716,4.2812009244,0.0,0.0,0.0,35.0,4.0,-1.4,0,0,1024,1024,1024,1024,0,0,0,0,0,0,0,89,3.862,3.857,0,0,0,0,4.461,59.18,755.00295460629,34.44882,6,P-GPS,,10.5
152200,2026-01-11 17:20:18,755.00295460629,37.401576,0.0,4.123359712,7.0734582316,16,5,7.718,757.95571060629,37.401576,0.3131716,4.2812009244,0.0,0.0,0.0,35.0,3.7,-1.3,0,0,1024,1024,1024,1024,0,0,0,0,0,0,0,89,3.862,3.857,0,0,0,0,4.461,59.18,755.00295460629,34.44882,6,P-GPS,,10.5
152300,2026-01-11 17:20:18,755.00295460629,37.401576,0.0,4.195866276,7.1677823816,16,5,7.718,757.95571060629,37.401576,0.3131716,4.2812009244,0.0,0.0,0.0,35.2,3.8,-0.7,0,0,1024,1024,1024,1024,0,0,0,0,0,0,0,89,3.862,3.857,0,0,0,0,4.461,59.18,755.00295460629,34.44882,6,P-GPS,,10.5
152400,2026-01-11 17:20:18,755.00295460629,37.401576,0.0,4.223425332,7.1971130912,16,5,7.708,757.95571060629,37.401576,0.3131716,4.2812009244,0.0,0.0,0.0,35.3,3.6,-1.2,0,0,1024,1024,1024,1024,0,0,0,0,0,0,0,89,3.856,3.852,0,0,0,0,4.519,59.36,755.00295460629,34.44882,6,P-GPS,,10.5
152500,2026-01-11 17:20:18,755.00295460629,37.401576,0.0,4.2485565664,7.224737764,16,5,7.708,757.95571060629,37.401576,0.3131716,4.2812009244,0.0,0.0,0.0,35.3,3.9,-1.0,0,0,1024,1024,1024,1024,0,0,0,0,0,0,0,89,3.856,3.852,0,0,0,0,4.519,59.36,755.00295460629,34.44882,6,P-GPS,,10.5
152600,2026-01-11 17:20:18,755.00295460629,37.401576,0.0,4.2625657532,7.2479661112,16,5,7.708,757.95571060629,37.401576,0.3131716,4.2812009244,0.0,0.0,0.0,35.3,4.2,-0.6,0,0,1024,1024,1024,1024,0,0,0,0,0,0,0,89,3.856,3.852,0,0,0,0,4.519,59.36,755.00295460629,34.44882,6,P-GPS,,10.5
152700,2026-01-11 17:20:19,755.00295460629,37.401576,0.0,4.275098562,7.2760172932,16,5,7.708,757.95571060629,37.401576,0.3131716,4.2812009244,0.0,0.0,0.0,35.2,4.1,-0.5,0,0,1024,1024,1024,1024,0,0,0,0,0,0,0,89,3.856,3.852,0,0,0,0,4.519,59.36,755.00295460629,34.44882,6,P-GPS,,10.5
152800,2026-01-11 17:20:19,754.67487060629,37.401576,0.0,4.2892389824,7.323162964,16,5,7.708,757.95571060629,37.401576,0.3131716,4.2892389824,0.0,0.0,0.0,35.2,4.0,-0.7,0,0,1024,1024,1024,1024,0,0,0,0,0,0,0,89,3.856,3.852,0,0,0,0,4.519,59.36,754.67487060629,34.120736,6,P-GPS,,10.4
152900,2026-01-11 17:20:19,754.67487060629,37.401576,0.0,4.30282166,7.3617456424,16,5,7.708,757.95571060629,37.401576,0.3131716,4.30282166,0.0,0.0,0.0,35.2,3.8,-0.4,0,0,1024,1024,1024,1024,0,0,0,0,0,0,0,89,3.856,3.852,0,0,0,0,4.519,59.36,754.67487060629,34.120736,6,P-GPS,,10.4
153000,2026-01-11 17:20:19,754.67487060629,37.401576,0.0,4.31758544,7.3814962992,16,5,7.708,757.95571060629,37.401576,0.3131716,4.31758544,0.0,0.0,0.0,35.2,3.9,-0.2,0,0,1024,1024,1024,1024,0,0,0,0,0,0,0,89,3.856,3.852,0,0,0,0,4.519,59.36,754.67487060629,34.120736,6,P-GPS,,10.4
153100,2026-01-11 17:20:19,754.67487060629,37.401576,0.0,4.3476379344,7.4119753028,16,5,7.708,757.95571060629,37.401576,0.3131716,4.3476379344,0.0,0.0,0.0,35.1,4.2,0.0,0,0,1024,1024,1024,1024,0,0,0,0,0,0,0,89,3.856,3.852,0,0,0,0,4.519,59.36,754.67487060629,34.120736,6,P-GPS,,10.4
153200,2026-01-11 17:20:19,754.67487060629,37.401576,0.0,4.3649279612,7.4308073244,16,5,7.708,757.95571060629,37.401576,0.3131716,4.3649279612,0.0,0.0,0.0,35.1,4.6,0.0,0,0,1024,1024,1024,1024,0,0,0,0,0,0,0,89,3.856,3.852,0,0,0,0,4.519,59.36,754.67487060629,34.120736,6,P-GPS,,10.4
153300,2026-01-11 17:20:19,754.67487060629,37.401576,0.0,4.3760828172,7.4424543064,16,5,7.708,757.95571060629,37.401576,0.3131716,4.3760828172,0.0,0.0,0.0,35.0,4.4,-0.2,0,0,1024,1024,1024,1024,0,0,0,0,0,0,0,89,3.856,3.852,0,0,0,0,4.519,59.36,754.67487060629,34.120736,6,P-GPS,,10.4
153400,2026-01-11 17:20:19,754.67487060629,37.401576,0.0,4.3739830796,7.4474739916,16,5,7.708,757.95571060629,37.401576,0.3131716,4.3760828172,0.0,0.0,0.0,34.9,4.3,0.0,0,0,1024,1024,1024,1024,0,0,0,0,0,0,0,89,3.856,3.852,0,0,0,0,4.519,59.36,754.67487060629,34.120736,6,P-GPS,,10.4
153500,2026-01-11 17:20:19,754.67487060629,37.401576,0.0,4.3718505336,7.4520015508,16,5,7.706,757.95571060629,37.401576,0.3131716,4.3760828172,0.0,0.0,0.0,35.0,4.4,0.4,0,0,1024,1024,1024,1024,0,0,0,0,0,0,0,89,3.854,3.856,0,0,0,0,4.502,59.36,754.67487060629,34.120736,6,P-GPS,,10.4
153600,2026-01-11 17:20:19,754.67487060629,37.401576,0.0,4.3629266488,7.4747049636,16,5,7.706,757.95571060629,37.401576,0.3131716,4.3760828172,0.0,0.0,0.0,35.0,4.3,0.1,0,0,1024,1024,1024,1024,0,0,0,0,0,0,0,89,3.854,3.856,0,0,0,0,4.502,59.36,754.67487060629,34.120736,6,P-GPS,,10.4
153700,2026-01-11 17:20:20,754.67487060629,37.401576,0.0,4.3638780924,7.4782810792,16,5,7.706,757.95571060629,37.401576,0.3131716,4.3760828172,0.0,0.0,0.0,34.9,4.0,-0.3,0,0,1024,1024,1024,1024,0,0,0,0,0,0,0,89,3.854,3.856,0,0,0,0,4.502,59.36,754.67487060629,34.120736,6,P-GPS,,10.4
153800,2026-01-11 17:20:20,754.67487060629,37.401576,0.0,4.3601379348,7.4844818668,16,5,7.706,757.95571060629,37.401576,0.3131716,4.3760828172,0.0,0.0,0.0,34.9,4.1,-0.5,0,0,1024,1024,1024,1024,0,0,0,0,0,0,0,89,3.854,3.856,0,0,0,0,4.502,59.36,754.67487060629,34.120736,6,P-GPS,,10.4
153900,2026-01-11 17:20:20,754.67487060629,37.401576,0.0,4.3538715304,7.490813888,16,5,7.706,757.95571060629,37.401576,0.3131716,4.3760828172,0.0,0.0,0.0,34.7,4.1,-0.7,0,0,1024,1024,1024,1024,0,0,0,0,0,0,0,89,3.854,3.856,0,0,0,0,4.502,59.36,754.67487060629,34.120736,6,P-GPS,,10.4
154000,2026-01-11 17:20:20,754.67487060629,37.401576,0.0,4.329560506,7.5151905292,16,5,7.706,757.95571060629,37.401576,0.3131716,4.3760828172,0.0,0.0,0.0,34.8,4.4,-0.5,0,0,1024,1024,1024,1024,0,0,0,0,0,0,0,89,3.854,3.856,0,0,0,0,4.502,59.36,754.67487060629,34.120736,6,P-GPS,,10.4
154100,2026-01-11 17:20:20,754.67487060629,37.401576,0.0,4.3176510568,7.5366144144,16,5,7.706,757.95571060629,37.401576,0.3131716,4.3760828172,0.0,0.0,0.0,35.0,4.5,-0.8,0,0,1024,1024,1024,1024,0,0,0,0,0,0,0,89,3.854,3.856,0,0,0,0,4.502,59.36,754.67487060629,34.120736,6,P-GPS,,10.4
154200,2026-01-11 17:20:20,754.67487060629,37.401576,0.0,4.3057087992,7.560039612,16,5,7.706,757.95571060629,37.401576,0.3131716,4.3760828172,0.0,0.0,0.0,35.0,4.5,-1.0,0,0,1024,1024,1024,1024,0,0,0,0,0,0,0,89,3.854,3.856,0,0,0,0,4.502,59.36,754.67487060629,34.120736,6,P-GPS,,10.4
154300,2026-01-11 17:20:20,754.67487060629,37.401576,0.0,4.2929463316,7.5851708464,16,5,7.706,757.95571060629,37.401576,0.3131716,4.3760828172,0.0,0.0,0.0,35.0,4.4,-1.0,0,0,1024,1024,1024,1024,0,0,0,0,0,0,0,89,3.854,3.856,0,0,0,0,4.502,59.36,754.67487060629,34.120736,6,P-GPS,,10.4
154400,2026-01-11 17:20:20,755.00295460629,37.401576,0.0,4.2714240212,7.6436026068,16,5,7.706,757.95571060629,37.401576,0.3131716,4.3760828172,0.0,0.0,0.0,35.0,4.5,-0.9,0,0,1024,1024,1024,1024,0,0,0,0,0,0,0,89,3.854,3.856,0,0,0,0,4.502,59.36,755.00295460629,34.44882,6,P-GPS,,10.5
154500,2026-01-11 17:20:20,755.00295460629,37.401576,0.0,4.2542980364,7.6721787232,16,5,7.706,757.95571060629,37.401576,0.3131716,4.3760828172,0.0,0.0,0.0,35.0,4.6,-0.6,0,0,1024,1024,1024,1024,0,0,0,0,0,0,0,89,3.854,3.856,0,0,0,0,4.502,59.36,755.00295460629,34.44882,6,P-GPS,,10.5
154600,2026-01-11 17:20:20,755.00295460629,37.401576,0.0,4.24130591,7.6919949968,16,5,7.705,757.95571060629,37.401576,0.3131716,4.3760828172,0.0,0.0,0.0,35.1,3.8,-0.9,0,0,1024,1024,1024,1024,0,0,0,0,0,0,0,89,3.855,3.849,0,0,0,0,4.597,59.36,755.00295460629,34.44882,6,P-GPS,,10.5
154700,2026-01-11 17:20:21,755.00295460629,37.401576,0.0,4.2291011852,7.7110566772,16,5,7.705,757.95571060629,37.401576,0.3131716,4.3760828172,0.0,0.0,0.0,35.2,3.2,-0.9,0,0,1024,1024,1024,1024,0,0,0,0,0,0,0,89,3.855,3.849,0,0,0,0,4.597,59.36,755.00295460629,34.44882,6,P-GPS,,10.5
154800,2026-01-11 17:20:21,755.00295460629,37.401576,0.0,4.2875001372,7.7707023484,16,5,7.705,757.95571060629,37.401576,0.3131716,4.3760828172,0.0,0.0,0.0,35.2,2.9,-1.3,0,0,1024,1024,1024,1024,0,0,0,0,0,0,0,89,3.855,3.849,0,0,0,0,4.597,59.36,755.00295460629,34.44882,6,P-GPS,,10.5
154900,2026-01-11 17:20:21,755.00295460629,37.401576,0.0,4.281332158,7.7844162596,16,5,7.705,757.95571060629,37.401576,0.3131716,4.3760828172,0.0,0.0,0.0,35.2,3.1,-0.5,0,0,1024,1024,1024,1024,0,0,0,0,0,0,0,89,3.855,3.849,0,0,0,0,4.597,59.36,755.00295460629,34.44882,6,P-GPS,,10.5
155000,2026-01-11 17:20:21,755.00295460629,37.401576,0.0,4.2613518424,7.8069556304,16,5,7.705,757.95571060629,37.401576,0.3131716,4.3760828172,0.0,0.0,0.0,35.2,2.7,-0.6,0,0,1024,1024,1024,1024,0,0,0,0,0,0,0,89,3.855,3.849,0,0,0,0,4.597,59.36,755.00295460629,34.44882,6,P-GPS,,10.5
155100,2026-01-11 17:20:21,755.00295460629,37.401576,0.0,4.2511812384,7.8276577308,16,5,7.705,757.95571060629,37.401576,0.3131716,4.3760828172,0.0,0.0,0.0,35.3,2.7,-0.9,0,0,1024,1024,1024,1024,0,0,0,0,0,0,0,89,3.855,3.849,0,0,0,0,4.597,59.36,755.00295460629,34.44882,6,P-GPS,,10.5
155200,2026-01-11 17:20:21,755.00295460629,37.401576,0.0,4.254265228,7.8593506452,16,5,7.705,757.95571060629,37.401576,0.3131716,4.3760828172,0.0,0.0,0.0,35.3,3.4,-1.9,0,0,1024,1024,1024,1024,0,0,0,0,0,0,0,89,3.855,3.849,0,0,0,0,4.597,59.36,755.00295460629,34.44882,6,P-GPS,,10.5
155300,2026-01-11 17:20:21,755.00295460629,37.401576,0.0,4.2576444932,7.8882220372,16,5,7.705,757.95571060629,37.401576,0.3131716,4.3760828172,0.0,0.0,0.0,35.3,3.7,-1.9,0,0,1024,1024,1024,1024,0,0,0,0,0,0,0,89,3.855,3.849,0,0,0,0,4.597,59.36,755.00295460629,34.44882,6,P-GPS,,10.5
155400,2026-01-11 17:20:21,755.00295460629,37.401576,0.0,4.2443242828,7.9087272872,16,5,7.705,757.95571060629,37.401576,0.3131716,4.3760828172,0.0,0.0,0.0,35.3,3.3,-1.5,0,0,1024,1024,1024,1024,0,0,0,0,0,0,0,89,3.855,3.849,0,0,0,0,4.597,59.36,755.00295460629,34.44882,6,P-GPS,,10.5
155500,2026-01-11 17:20:21,755.33103860629,37.401576,0.0,4.2418636528,7.91748713,16,5,7.705,757.95571060629,37.401576,0.3131716,4.3760828172,0.0,0.0,0.0,35.3,3.9,-1.3,0,0,1024,1024,1024,1024,0,0,0,0,0,0,0,89,3.855,3.849,0,0,0,0,4.597,59.36,755.33103860629,34.776904,6,P-GPS,,10.6
155600,2026-01-11 17:20:21,755.33103860629,37.401576,0.0,4.266404336,7.94209343,16,5,7.705,757.95571060629,37.401576,0.3131716,4.3760828172,0.0,0.0,0.0,35.4,4.1,-0.9,0,0,1024,1024,1024,1024,0,0,0,0,0,0,0,89,3.858,3.857,0,0,0,0,4.597,59.36,755.33103860629,34.776904,6,P-GPS,,10.6
155700,2026-01-11 17:20:22,755.33103860629,37.401576,0.0,4.2914371452,7.9736223024,16,5,7.705,757.95571060629,37.401576,0.3131716,4.3760828172,0.0,0.0,0.0,35.3,4.1,-1.2,0,0,1024,1024,1024,1024,0,0,0,0,0,0,0,89,3.858,3.857,0,0,0,0,4.597,59.36,755.33103860629,34.776904,6,P-GPS,,10.6
155800,2026-01-11 17:20:22,755.33103860629,37.401576,0.0,4.292815098,7.9773296516,16,5,7.705,757.95571060629,37.401576,0.3131716,4.3760828172,0.0,0.0,0.0,35.2,4.0,-1.4,0,0,1024,1024,1024,1024,0,0,0,0,0,0,0,89,3.858,3.857,0,0,0,0,4.597,59.36,755.33103860629,34.776904,6,P-GPS,,10.6
155900,2026-01-11 17:20:22,755.33103860629,37.401576,0.0,4.2962927884,7.9819884444,16,5,7.705,757.95571060629,37.401576,0.3131716,4.3760828172,0.0,0.0,0.0,35.2,3.8,-1.3,0,0,1024,1024,1024,1024,0,0,0,0,0,0,0,89,3.858,3.857,0,0,0,0,4.597,59.36,755.33103860629,34.776904,6,P-GPS,,10.6
156000,2026-01-11 17:20:22,755.33103860629,37.401576,0.0,4.3072836024,7.9929792584,16,5,7.705,757.95571060629,37.401576,0.3131716,4.3760828172,0.0,0.0,0.0,35.1,4.5,-1.0,0,0,1024,1024,1024,1024,0,0,0,0,0,0,0,89,3.858,3.857,0,0,0,0,4.597,59.36,755.33103860629,34.776904,6,P-GPS,,10.6
156100,2026-01-11 17:20:22,755.33103860629,37.401576,0.0,4.3057087992,7.9947837204,16,5,7.705,757.95571060629,37.401576,0.3131716,4.3760828172,0.0,0.0,0.0,35.1,4.7,-0.6,0,0,1024,1024,1024,1024,0,0,0,0,0,0,0,89,3.858,3.857,0,0,0,0,4.597,59.36,755.33103860629,34.776904,6,P-GPS,,10.6
156200,2026-01-11 17:20:22,755.33103860629,37.401576,0.0,4.267388588,8.0343834592,16,5,7.705,757.95571060629,37.401576,0.3131716,4.3760828172,0.0,0.0,0.0,35.1,4.6,-0.8,0,0,1024,1024,1024,1024,0,0,0,0,0,0,0,89,3.858,3.857,0,0,0,0,4.597,59.36,755.33103860629,34.776904,6,P-GPS,,10.6
156300,2026-01-11 17:20:22,755.33103860629,37.401576,0.0,4.2321851748,8.072342778,16,5,7.705,757.95571060629,37.401576,0.3131716,4.3760828172,0.0,0.0,0.0,35.1,4.0,-1.4,0,0,1024,1024,1024,1024,0,0,0,0,0,0,0,89,3.858,3.857,0,0,0,0,4.597,59.36,755.33103860629,34.776904,6,P-GPS,,10.6
156400,2026-01-11 17:20:22,755.33103860629,37.401576,0.0,4.217191736,8.0978020964,16,5,7.705,757.95571060629,37.401576,0.3131716,4.3760828172,0.0,0.0,0.0,35.2,3.4,-1.6,0,0,1024,1024,1024,1024,0,0,0,0,0,0,0,89,3.858,3.857,0,0,0,0,4.597,59.36,755.33103860629,34.776904,6,P-GPS,,10.6
156500,2026-01-11 17:20:22,755.33103860629,37.401576,0.0,4.230971264,8.1139438292,16,5,7.705,757.95571060629,37.401576,0.3131716,4.3760828172,0.0,0.0,0.0,35.3,2.9,-1.3,0,0,1024,1024,1024,1024,0,0,0,0,0,0,0,89,3.858,3.857,0,0,0,0,4.597,59.36,755.33103860629,34.776904,6,P-GPS,,10.6
