time(millisecond),timestamp,altitude_above_seaLevel(feet),height_sonar(feet),speed(mph),distance(feet),mileage(feet),satellites,gpslevel,voltage(v),max_altitude(feet),max_ascent(feet),max_speed(mph),max_distance(feet), xSpeed(mph), ySpeed(mph), zSpeed(mph), compass_heading(degrees), pitch(degrees), roll(degrees),isPhoto,isVideo,rc_elevator,rc_aileron,rc_throttle,rc_rudder,rc_elevator(percent),rc_aileron(percent),rc_throttle(percent),rc_rudder(percent),gimbal_heading(degrees),gimbal_pitch(degrees),gimbal_roll(degrees),battery_percent,voltageCell1,voltageCell2,voltageCell3,voltageCell4,voltageCell5,voltageCell6,current(A),battery_temperature(f),altitude(feet),ascent(feet),flycStateRaw,flycState,message,height_above_takeoff(meters)
270400,2026-01-11 17:22:23,720.72734786642,0.656168,0.0,0.0,0.0,15,5,0.0,720.72734786642,0.0,0.0,0.0,0.0,0.0,0.0,21.8,4.3,0.5,0,0,1024,1024,1024,1024,0,0,0,0,0,0,0,81,3.919,3.919,0,0,0,0,0.0,60.62,720.72734786642,0.0,41,Motors_Started,SD card speed low SD card speed low. Normal use may be affected. Replace SD card (Code: 10028),0.0
270500,2026-01-11 17:22:23,720.72734786642,0.656168,0.0,0.0036767061544,0.0036767061544,15,5,0.0,720.72734786642,0.0,0.0,0.0036767061544,0.0,0.0,0.0,21.8,4.3,0.5,0,0,1024,1024,1024,1024,0,0,0,0,0,0,0,81,3.919,3.919,0,0,0,0,0.0,60.62,720.72734786642,0.0,41,Motors_Started,,0.0
270600,2026-01-11 17:22:23,720.72734786642,0.328084,0.0,0.0061452101704,0.00622867474,15,5,0.0,720.72734786642,0.0,0.0,0.0061452101704,0.0,0.0,0.0,21.8,4.3,0.5,0,0,1024,1024,1024,1024,0,0,0,0,0,0,0,81,3.919,3.919,0,0,0,0,0.0,60.62,720.72734786642,0.0,41,Motors_Started,,0.0
270700,2026-01-11 17:22:23,720.72734786642,0.328084,0.0,0.0161045936912,0.0166265753352,15,5,0.0,720.72734786642,0.0,0.0,0.0161045936912,0.0,0.0,0.0,21.8,4.3,0.5,0,0,1024,1024,1024,1024,0,0,0,0,0,0,0,81,3.919,3.919,0,0,0,0,0.0,60.62,720.72734786642,0.0,41,Motors_Started,Setting new Return-To-Home altitude to 90m (295 ft). Data Recorder File Index is 34. Setting new Maximum Flight Altitude to 90m (295 ft),0.0
270800,2026-01-11 17:22:23,720.72734786642,0.328084,0.0,0.80491472392,0.044269358372,15,5,0.0,720.72734786642,0.0,0.0,0.80491472392,0.0,0.0,0.0,21.8,4.3,0.5,0,0,1024,1024,1024,1024,0,0,0,0,0,0,0,81,3.919,3.919,0,0,0,0,0.0,60.62,720.72734786642,0.0,41,Motors_Started,,0.0
270900,2026-01-11 17:22:23,720.72734786642,0.328084,0.0,0.80291013068,0.047025592056,15,5,0.0,720.72734786642,0.0,0.0,0.80491472392,0.0,0.0,0.0,21.8,4.3,0.5,0,0,1024,1024,1024,1024,0,0,0,0,0,0,0,81,3.919,3.919,0,0,0,0,0.0,60.62,720.72734786642,0.0,41,Motors_Started,,0.0
271000,2026-01-11 17:22:23,720.72734786642,0.328084,0.0,0.80131564244,0.048657809956,15,5,0.0,720.72734786642,0.0,0.0,0.80491472392,0.0,0.0,0.0,21.7,4.3,0.4,0,0,1024,1024,1024,1024,0,0,0,0,0,0,0,81,3.919,3.919,0,0,0,0,0.0,60.62,720.72734786642,0.0,41,Motors_Started,,0.0
271100,2026-01-11 17:22:23,720.72734786642,0.328084,0.0,0.78204726912,0.067928479864,15,5,0.0,720.72734786642,0.0,0.0,0.80491472392,0.0,0.0,0.0,21.7,4.3,0.4,0,0,1024,1024,1024,1024,0,0,0,0,0,0,0,81,3.919,3.919,0,0,0,0,0.0,60.62,720.72734786642,0.0,41,Motors_Started,,0.0
271200,2026-01-11 17:22:23,720.72734786642,0.328084,0.0,0.75970146788,0.09027395302,15,5,0.0,720.72734786642,0.0,0.0,0.80491472392,0.0,0.0,0.0,21.7,4.3,0.5,0,0,1024,1024,1024,1024,0,0,0,0,0,0,0,81,3.919,3.919,0,0,0,0,0.0,60.62,720.72734786642,0.0,41,Motors_Started,,0.0
271300,2026-01-11 17:22:24,720.72734786642,0.328084,0.0,0.77413388304,0.108068244928,15,5,0.0,720.72734786642,0.0,0.0,0.80491472392,0.0,0.0,0.0,21.6,4.3,0.5,0,0,1024,1024,1024,1024,0,0,0,0,0,0,0,81,3.919,3.919,0,0,0,0,0.0,60.62,720.72734786642,0.0,41,Motors_Started,,0.0
271400,2026-01-11 17:22:24,720.39926386642,0.328084,0.0,0.78499346344,0.120523953988,15,5,7.835,720.72734786642,0.0,0.0,0.80491472392,0.0,0.0,0.0,21.6,4.3,0.5,0,0,1024,1024,1024,1024,0,0,0,0,0,0,0,81,3.919,3.919,0,0,0,0,1.513,60.62,720.39926386642,-0.328084,41,Motors_Started,,-0.1
271500,2026-01-11 17:22:24,720.39926386642,0.328084,0.0,0.78703086508,0.131969492412,15,5,7.835,720.72734786642,0.0,0.0,0.80491472392,0.0,0.0,0.0,21.6,4.2,0.5,0,0,1024,1024,1024,1024,0,0,0,0,0,0,0,81,3.919,3.919,0,0,0,0,1.513,60.62,720.39926386642,-0.328084,11,AutoTakeoff,,-0.1
271600,2026-01-11 17:22:24,720.39926386642,0.328084,0.0,0.7874672168,0.143916015104,15,5,7.835,720.72734786642,0.0,0.0,0.80491472392,0.0,0.0,0.0,21.6,4.3,0.5,0,0,1024,1024,1024,1024,0,0,0,0,0,0,0,81,3.919,3.919,0,0,0,0,1.513,60.62,720.39926386642,-0.328084,11,AutoTakeoff,,-0.1
271700,2026-01-11 17:22:24,720.39926386642,0.328084,0.0,0.79421918552,0.160638784668,15,5,7.835,720.72734786642,0.0,0.0,0.80491472392,0.0,0.0,0.0,21.6,4.3,0.5,0,0,1024,1024,1036,1024,0,0,2,0,0,0,0,81,3.919,3.919,0,0,0,0,1.513,60.62,720.39926386642,-0.328084,11,AutoTakeoff,,-0.1
271800,2026-01-11 17:22:24,720.39926386642,0.328084,0.0,0.79428480232,0.162046593112,15,5,7.835,720.72734786642,0.0,0.0,0.80491472392,0.0,0.0,0.0,21.6,4.2,0.5,0,0,1024,1024,1036,1024,0,0,2,0,0,0,0,81,3.919,3.919,0,0,0,0,1.513,60.62,720.39926386642,-0.328084,11,AutoTakeoff,,-0.1
271900,2026-01-11 17:22:24,720.39926386642,0.328084,0.0,0.78920278116,0.171907157732,15,5,7.835,720.72734786642,0.0,0.0,0.80491472392,0.0,0.0,0.0,21.6,4.2,0.5,0,0,1024,1024,1057,1024,0,0,5,0,0,0,0,81,3.919,3.919,0,0,0,0,1.513,60.62,720.39926386642,-0.328084,11,AutoTakeoff,,-0.1
272000,2026-01-11 17:22:24,720.39926386642,0.328084,0.0,0.78320868648,0.183560045244,15,5,7.835,720.72734786642,0.0,0.0,0.80491472392,0.0,0.0,0.0,21.6,4.2,0.5,0,0,1024,1024,1102,1024,0,0,12,0,0,0,0,81,3.919,3.919,0,0,0,0,1.513,60.62,720.39926386642,-0.328084,11,AutoTakeoff,,-0.1
272100,2026-01-11 17:22:24,720.39926386642,0.328084,0.0,0.77759516924,0.191183076984,15,5,7.835,720.72734786642,0.0,0.0,0.80491472392,0.0,0.0,0.0,22.1,4.2,0.5,0,0,1024,1024,1228,1024,0,0,31,0,0,0,0,81,3.919,3.919,0,0,0,0,1.513,60.62,720.39926386642,-0.328084,11,AutoTakeoff,,-0.1
272200,2026-01-11 17:22:24,720.39926386642,0.328084,0.0,0.78323165236,0.201889114072,15,5,7.835,720.72734786642,0.0,0.0,0.80491472392,0.0,0.0,0.0,23.5,3.2,0.4,0,0,1024,1024,1275,1024,0,0,38,0,0,0,0,81,3.919,3.919,0,0,0,0,1.513,60.62,720.39926386642,-0.328084,11,AutoTakeoff,,-0.1
272300,2026-01-11 17:22:25,720.39926386642,0.328084,0.0,0.795685721,0.219331043764,15,5,7.835,720.72734786642,0.0,0.0,0.80491472392,0.0,0.0,-0.223694,24.7,1.6,-0.2,0,0,1024,1024,1419,1024,0,0,60,0,0,0,0,81,3.919,3.919,0,0,0,0,1.513,60.62,720.39926386642,-0.328084,11,AutoTakeoff,,-0.1
272400,2026-01-11 17:22:25,720.39926386642,0.328084,0.0,0.81150593148,0.243491477608,15,5,7.835,720.72734786642,0.0,0.0,0.81150593148,0.0,0.0,-0.447388,25.3,1.2,0.0,0,0,1024,1024,1684,1024,0,0,100,0,0,0,0,81,3.919,3.919,0,0,0,0,1.513,60.62,720.39926386642,-0.328084,11,AutoTakeoff,,-0.1
272500,2026-01-11 17:22:25,720.39926386642,0.656168,0.0,0.83441275636,0.268924221204,15,5,7.679,720.72734786642,0.0,0.0,0.83441275636,0.0,0.0,-0.894776,25.4,0.7,-0.8,0,0,1024,1024,1684,1024,0,0,100,0,0,0,0,81,3.843,3.836,0,0,0,0,3.515,60.62,720.39926386642,-0.328084,11,AutoTakeoff,,-0.1
272600,2026-01-11 17:22:25,720.72734786642,0.656168,0.223694,0.8466699746,0.304047253824,15,5,7.679,720.72734786642,0.0,0.223694,0.8466699746,0.0,0.223694,-1.11847,25.5,1.3,-0.4,0,0,1024,1024,1684,1024,0,0,100,0,0,0,0,81,3.843,3.836,0,0,0,0,3.515,60.62,720.72734786642,0.0,11,AutoTakeoff,,0.0
272700,2026-01-11 17:22:25,720.72734786642,0.656168,0.223694,0.84252955452,0.34859581168,15,5,7.679,720.72734786642,0.0,0.223694,0.8466699746,0.0,0.223694,-1.565858,25.5,1.6,-0.7,0,0,1024,1024,1684,1024,0,0,100,0,0,0,0,81,3.843,3.836,0,0,0,0,3.515,60.62,720.72734786642,0.0,11,AutoTakeoff,,0.0
272800,2026-01-11 17:22:25,720.72734786642,0.984252,0.223694,0.83085304496,0.40741799204,15,5,7.679,720.72734786642,0.0,0.223694,0.8466699746,0.0,0.223694,-2.23694,25.7,1.6,-1.4,0,0,1024,1024,1684,1024,0,0,100,0,0,0,0,81,3.843,3.836,0,0,0,0,3.515,60.62,720.72734786642,0.0,11,AutoTakeoff,Home Point updated. RTH altitude adjusted to 90 m (Code: 120852),0.0
272900,2026-01-11 17:22:25,721.05543186642,1.312336,0.447388,0.81690947496,0.4805938474,15,5,7.679,721.05543186642,0.328084,0.447388,0.8466699746,0.0,0.447388,-2.908022,25.7,1.9,-2.1,0,0,1024,1024,1684,1024,0,0,100,0,0,0,0,81,3.843,3.836,0,0,0,0,3.515,60.62,721.05543186642,0.328084,11,AutoTakeoff,,0.1
273000,2026-01-11 17:22:25,721.71159986642,1.64042,0.447388,0.79261157392,0.60118768328,15,5,7.679,721.71159986642,0.984252,0.447388,0.8466699746,0.0,0.447388,-3.579104,25.6,3.1,-3.4,0,0,1024,1024,1684,1024,0,0,100,0,0,0,0,81,3.843,3.836,0,0,0,0,3.515,60.62,721.71159986642,0.984252,11,AutoTakeoff,,0.3
273100,2026-01-11 17:22:25,722.36776786642,2.296588,0.447388,0.77761485428,0.68508204292,15,5,7.679,722.36776786642,1.64042,0.447388,0.8466699746,0.0,0.447388,-4.026492,25.5,3.6,-3.7,0,0,1024,1024,1684,1039,0,0,100,2,0,0,0,81,3.843,3.836,0,0,0,0,3.515,60.62,722.36776786642,1.64042,11,AutoTakeoff,,0.5
273200,2026-01-11 17:22:25,723.02393586642,2.952756,0.3131716,0.76329070684,0.77107614016,15,5,7.679,723.02393586642,2.296588,0.447388,0.8466699746,0.223694,0.223694,-4.250186,25.4,4.5,-3.7,0,0,1024,1024,1684,1080,0,0,100,8,0,0,0,81,3.843,3.836,0,0,0,0,3.515,60.62,723.02393586642,2.296588,11,AutoTakeoff,,0.7
273300,2026-01-11 17:22:26,723.68010386642,3.28084,0.3131716,0.7407644594,0.87763126168,15,5,7.679,723.68010386642,2.952756,0.447388,0.8466699746,0.223694,0.223694,-4.47388,25.1,5.0,-4.2,0,0,1024,1024,1684,1106,0,0,100,12,0,0,0,81,3.843,3.836,0,0,0,0,3.515,60.62,723.68010386642,2.952756,6,P-GPS,,0.9
273400,2026-01-11 17:22:26,724.33627186642,3.937008,0.223694,0.72777889468,1.06481630704,15,5,7.679,724.33627186642,3.608924,0.447388,0.8466699746,0.0,0.223694,-4.47388,25.2,5.4,-4.2,0,0,1024,1024,1684,1110,0,0,100,13,0,0,0,81,3.843,3.836,0,0,0,0,3.515,60.62,724.33627186642,3.608924,6,P-GPS,,1.1
273500,2026-01-11 17:22:26,724.99243986642,4.593176,0.0,0.7451935934,1.13226381576,15,5,7.679,724.99243986642,4.265092,0.447388,0.8466699746,0.0,0.0,-4.47388,25.8,5.0,-3.6,0,0,1024,1024,1684,1110,0,0,100,13,0,0,0,81,3.843,3.836,0,0,0,0,3.515,60.62,724.99243986642,4.265092,6,P-GPS,,1.3
273600,2026-01-11 17:22:26,725.97669186642,5.249344,0.0,0.76514766228,1.19013783336,15,5,7.564,725.97669186642,5.249344,0.447388,0.8466699746,0.0,0.0,-4.47388,26.3,5.1,-3.3,0,0,1024,1024,1684,1110,0,0,100,13,0,0,0,81,3.794,3.796,0,0,0,0,6.721,60.62,725.97669186642,5.249344,6,P-GPS,,1.6
273700,2026-01-11 17:22:26,726.63285986642,5.905512,0.0,0.775016429,1.201853713,15,5,7.564,726.63285986642,5.905512,0.447388,0.8466699746,0.0,0.0,-4.250186,26.9,4.7,-3.0,0,0,1024,1024,1684,1109,0,0,100,13,0,0,0,81,3.794,3.796,0,0,0,0,6.721,60.62,726.63285986642,5.905512,6,P-GPS,,1.8
273800,2026-01-11 17:22:26,727.28902786642,6.56168,0.0,0.8011975322,1.27669951592,15,5,7.564,727.28902786642,6.56168,0.447388,0.8466699746,0.0,0.0,-4.250186,27.5,5.3,-2.5,0,0,1024,1024,1684,1108,0,0,100,13,0,0,0,81,3.794,3.796,0,0,0,0,6.721,60.62,727.28902786642,6.56168,6,P-GPS,,2.0
273900,2026-01-11 17:22:26,727.94519586642,6.889764,0.0,0.8018537002,1.32507222088,15,5,7.564,727.94519586642,7.217848,0.447388,0.8466699746,0.0,0.0,-4.250186,28.1,5.5,-2.5,0,0,1024,1024,1684,1105,0,0,100,12,0,0,0,81,3.794,3.796,0,0,0,0,6.721,60.62,727.94519586642,7.217848,6,P-GPS,SD card speed low. Normal use may be affected. Replace SD card (Code: 10028). Gimbal stuck. Make sure gimbal cover is removed and manually check whether gimbal can rotate freely (Code: 40002). Home Point updated. RTH altitude adjusted to 90 m (Code: ,2.2
274000,2026-01-11 17:22:26,728.60136386642,7.545932,0.0,0.80335960576,1.37895017536,15,5,7.564,728.60136386642,7.874016,0.447388,0.8466699746,0.0,0.0,-4.026492,28.7,5.4,-2.0,0,0,1024,1024,1684,1024,0,0,100,0,0,0,0,81,3.794,3.796,0,0,0,0,6.721,60.62,728.60136386642,7.874016,6,P-GPS,,2.4
274100,2026-01-11 17:22:26,729.25753186642,8.2021,0.0,0.7870899202,1.396653588,15,5,7.564,729.25753186642,8.530184,0.447388,0.8466699746,0.0,0.0,-4.026492,29.4,4.8,-1.4,0,0,1024,1024,1684,1024,0,0,100,0,0,0,0,81,3.794,3.796,0,0,0,0,6.721,60.62,729.25753186642,8.530184,6,P-GPS,,2.6
274200,2026-01-11 17:22:26,729.91369986642,8.530184,0.0,0.74740159872,1.45473429852,15,5,7.564,729.91369986642,9.186352,0.447388,0.8466699746,0.0,0.0,-4.250186,29.6,4.7,-2.1,0,0,1024,1024,1684,1024,0,0,100,0,0,0,0,81,3.794,3.796,0,0,0,0,6.721,60.62,729.91369986642,9.186352,6,P-GPS,,2.8
274300,2026-01-11 17:22:27,730.56986786642,9.186352,0.0,0.75637141528,1.48958994268,15,5,7.564,730.56986786642,9.84252,0.447388,0.8466699746,0.0,0.0,-4.250186,29.7,5.1,-2.7,0,0,1024,1024,1684,1024,0,0,100,0,0,0,0,81,3.794,3.796,0,0,0,0,6.721,60.62,730.56986786642,9.84252,6,P-GPS,,3.0
274400,2026-01-11 17:22:27,731.22603586642,9.84252,0.0,0.76881236056,1.5312008364,15,5,7.564,731.22603586642,10.498688,0.447388,0.8466699746,0.0,0.0,-4.47388,29.7,5.1,-2.5,0,0,1024,1024,1684,1024,0,0,100,0,0,0,0,81,3.794,3.796,0,0,0,0,6.721,60.62,731.22603586642,10.498688,6,P-GPS,,3.2
274500,2026-01-11 17:22:27,731.88220386642,10.498688,0.0,0.76275921076,1.5421916504,15,5,7.564,731.88220386642,11.154856,0.447388,0.8466699746,0.0,0.0,-4.250186,29.8,4.4,-2.3,0,0,1024,1024,1684,1024,0,0,100,0,0,0,0,81,3.794,3.796,0,0,0,0,6.721,60.62,731.88220386642,11.154856,6,P-GPS,,3.4
274600,2026-01-11 17:22:27,732.53837186642,10.826772,0.0,0.75340881676,1.56003285832,15,5,7.564,732.53837186642,11.811024,0.447388,0.8466699746,0.0,0.0,-4.47388,29.8,4.8,-2.6,0,0,1024,1024,1684,1024,0,0,100,0,0,0,0,81,3.794,3.796,0,0,0,0,6.721,60.62,732.53837186642,11.811024,6,P-GPS,,3.6
274700,2026-01-11 17:22:27,733.19453986642,11.48294,0.223694,0.79008204628,1.68081698292,15,5,7.565,733.19453986642,12.467192,0.447388,0.8466699746,0.223694,0.0,-4.250186,29.6,7.1,-3.2,0,0,1024,1024,1684,1024,0,0,100,0,0,0,0,81,3.782,3.781,0,0,0,0,6.212,60.62,733.19453986642,12.467192,6,P-GPS,,3.8
274800,2026-01-11 17:22:27,734.17879186642,12.139108,0.0,0.798310393,1.72490163,14,5,7.565,734.17879186642,13.451444,0.447388,0.8466699746,0.0,0.0,-4.250186,29.8,6.8,-3.0,0,0,1024,1024,1684,1024,0,0,100,0,0,0,0,81,3.782,3.781,0,0,0,0,6.212,60.62,734.17879186642,13.451444,6,P-GPS,,4.1
274900,2026-01-11 17:22:27,734.83495986642,12.467192,0.0,0.80578086568,1.73312997672,14,5,7.565,734.83495986642,14.107612,0.447388,0.8466699746,0.0,0.0,-4.250186,29.6,5.9,-3.9,0,0,1024,1024,1684,1024,0,0,100,0,0,0,0,81,3.782,3.781,0,0,0,0,6.212,60.62,734.83495986642,14.107612,6,P-GPS,,4.3
275000,2026-01-11 17:22:27,735.49112786642,13.12336,0.0,0.80812994712,1.74068903208,15,5,7.565,735.49112786642,14.76378,0.447388,0.8466699746,0.0,0.0,-4.026492,29.5,7.1,-3.0,0,0,1024,1024,1684,1024,0,0,100,0,0,0,0,81,3.782,3.781,0,0,0,0,6.212,60.62,735.49112786642,14.76378,6,P-GPS,,4.5
275100,2026-01-11 17:22:27,736.14729586642,13.779528,0.0,0.81086288684,1.87060045356,15,5,7.565,736.14729586642,15.419948,0.447388,0.8466699746,0.0,0.0,-4.250186,29.7,4.9,-2.2,0,0,1024,1024,1684,1024,0,0,100,0,0,0,0,81,3.782,3.781,0,0,0,0,6.212,60.62,736.14729586642,15.419948,6,P-GPS,,4.7
275200,2026-01-11 17:22:27,737.13154786642,14.435696,0.0,0.80527889716,1.89997053324,15,5,7.565,737.13154786642,16.4042,0.447388,0.8466699746,0.0,0.0,-4.250186,29.8,4.7,-2.1,0,0,1024,1024,1684,1024,0,0,100,0,0,0,0,81,3.782,3.781,0,0,0,0,6.212,60.62,737.13154786642,16.4042,6,P-GPS,,5.0
275300,2026-01-11 17:22:28,737.78771586642,15.091864,0.0,0.7988517316,1.91017722648,15,5,7.565,737.78771586642,17.060368,0.447388,0.8466699746,0.0,0.0,-4.250186,29.6,4.6,-2.2,0,0,1024,1024,1684,1024,0,0,100,0,0,0,0,81,3.782,3.781,0,0,0,0,6.212,60.62,737.78771586642,17.060368,6,P-GPS,,5.2
275400,2026-01-11 17:22:28,738.44388386642,15.748032,0.0,0.79439307004,1.91918313228,16,5,7.565,738.44388386642,17.716536,0.447388,0.8466699746,0.0,0.0,-4.250186,29.5,3.9,-2.6,0,0,1024,1024,1684,1024,0,0,100,0,0,0,0,81,3.782,3.781,0,0,0,0,6.212,60.62,738.44388386642,17.716536,6,P-GPS,,5.4
275500,2026-01-11 17:22:28,739.10005186642,16.4042,0.0,0.82713913408,2.00989507744,16,5,7.565,739.10005186642,18.372704,0.447388,0.8466699746,0.0,0.0,-4.47388,29.7,3.1,-3.2,0,0,1024,1024,1684,1024,0,0,100,0,0,0,0,81,3.782,3.781,0,0,0,0,6.212,60.62,739.10005186642,18.372704,6,P-GPS,,5.6
275600,2026-01-11 17:22:28,739.75621986642,17.060368,0.0,0.83286091904,2.02852368696,16,5,7.565,739.75621986642,19.028872,0.447388,0.8466699746,0.0,0.0,-4.47388,29.6,3.9,-3.5,0,0,1024,1024,1684,1024,0,0,100,0,0,0,0,81,3.782,3.781,0,0,0,0,6.212,60.62,739.75621986642,19.028872,6,P-GPS,,5.8
275700,2026-01-11 17:22:28,740.41238786642,17.716536,0.0,0.83099084024,2.03484914648,16,5,7.565,740.41238786642,19.68504,0.447388,0.8466699746,0.0,0.0,-4.47388,29.6,4.5,-2.8,0,0,1024,1024,1684,1024,0,0,100,0,0,0,0,81,3.782,3.781,0,0,0,0,6.212,60.62,740.41238786642,19.68504,6,P-GPS,,6.0
275800,2026-01-11 17:22:28,741.06855586642,18.700788,0.671082,0.82903217876,2.044373425,16,5,7.54,741.06855586642,20.341208,0.671082,0.8466699746,0.0,0.671082,-4.47388,29.5,5.4,-3.7,0,0,1024,1024,1684,1024,0,0,100,0,0,0,0,81,3.771,3.77,0,0,0,0,6.388,60.62,741.06855586642,20.341208,6,P-GPS,,6.2
275900,2026-01-11 17:22:28,741.72472386642,19.356956,0.447388,1.34376316636,2.590141159,16,5,7.54,741.72472386642,20.997376,0.671082,1.34376316636,0.0,0.447388,-4.47388,29.3,6.8,-6.2,0,0,1024,1024,1684,1024,0,0,100,0,0,0,0,81,3.771,3.77,0,0,0,0,6.388,60.62,741.72472386642,20.997376,6,P-GPS,,6.4
276000,2026-01-11 17:22:28,742.38089186642,20.341208,0.0,1.52450136112,2.77994431468,16,5,7.54,742.38089186642,21.653544,0.671082,1.52450136112,0.0,0.0,-4.47388,29.1,7.7,-8.1,0,0,1024,1024,1684,1024,0,0,100,0,0,0,0,81,3.771,3.77,0,0,0,0,6.388,60.62,742.38089186642,21.653544,6,P-GPS,,6.6
276100,2026-01-11 17:22:28,743.03705986642,20.997376,0.0,1.5881398146,2.84399287316,16,5,7.54,743.03705986642,22.309712,0.671082,1.5881398146,0.0,0.0,-4.47388,29.4,6.4,-7.1,0,0,1024,1024,1684,1024,0,0,100,0,0,0,0,81,3.771,3.77,0,0,0,0,6.388,60.62,743.03705986642,22.309712,6,P-GPS,,6.8
276200,2026-01-11 17:22:28,743.69322786642,21.653544,0.447388,1.60852695436,2.86498696832,16,5,7.54,743.69322786642,22.96588,0.671082,1.60852695436,0.0,-0.447388,-4.47388,30.1,4.7,-4.6,0,0,1024,1024,1684,1024,0,0,100,0,0,0,0,81,3.771,3.77,0,0,0,0,6.388,60.62,743.69322786642,22.96588,6,P-GPS,,7.0
276300,2026-01-11 17:22:29,744.34939586642,22.309712,0.447388,1.51959650532,2.96195547536,16,5,7.54,744.34939586642,23.622048,0.671082,1.60852695436,0.0,-0.447388,-4.47388,30.2,3.5,-3.1,0,0,1024,1024,1684,1024,0,0,100,0,0,0,0,81,3.771,3.77,0,0,0,0,6.388,60.62,744.34939586642,23.622048,6,P-GPS,,7.2
276400,2026-01-11 17:22:29,745.00556386642,24.934384,0.4921268,1.3233596224,3.194964013,16,5,7.54,745.00556386642,24.278216,0.671082,1.60852695436,0.223694,-0.447388,-4.697574,29.8,3.1,-0.8,0,0,1024,1024,1684,1024,0,0,100,0,0,0,0,81,3.771,3.77,0,0,0,0,6.388,60.62,745.00556386642,24.278216,6,P-GPS,,7.4
276500,2026-01-11 17:22:29,745.66173186642,25.918636,0.3131716,1.22803153536,3.2921260896,16,5,7.54,745.66173186642,24.934384,0.671082,1.60852695436,0.223694,-0.223694,-4.697574,29.6,5.1,-1.7,0,0,1024,1024,1684,1024,0,0,100,0,0,0,0,81,3.771,3.77,0,0,0,0,6.388,60.62,745.66173186642,24.934384,6,P-GPS,,7.6
276600,2026-01-11 17:22:29,746.31789986642,26.574804,0.3131716,1.12930121724,3.3970801612,16,5,7.54,746.31789986642,25.590552,0.671082,1.60852695436,0.223694,-0.447388,-4.47388,30.3,6.1,-0.8,0,0,1024,1024,1684,1024,0,0,100,0,0,0,0,81,3.771,3.77,0,0,0,0,6.388,60.62,746.31789986642,25.590552,6,P-GPS,,7.8
276700,2026-01-11 17:22:29,746.97406786642,27.559056,0.4921268,0.97628283964,3.5500985388,16,5,7.54,746.97406786642,26.24672,0.671082,1.60852695436,0.223694,-0.447388,-4.47388,30.9,5.6,0.0,0,0,1024,1024,1684,1024,0,0,100,0,0,0,0,81,3.771,3.77,0,0,0,0,6.388,60.62,746.97406786642,26.24672,6,P-GPS,,8.0
276800,2026-01-11 17:22:29,747.63023586642,28.215224,0.671082,0.57089568756,3.9694555076,16,5,7.54,747.63023586642,26.902888,0.671082,1.60852695436,0.0,-0.671082,-4.250186,31.0,5.1,0.5,0,0,1024,1024,1684,1024,0,0,100,0,0,0,0,81,3.771,3.77,0,0,0,0,6.388,60.62,747.63023586642,26.902888,6,P-GPS,,8.2
276900,2026-01-11 17:22:29,747.95831986642,28.871392,0.447388,0.44170605088,4.1187337276,16,5,7.597,747.95831986642,27.230972,0.671082,1.60852695436,0.0,-0.447388,-4.250186,30.9,4.2,0.5,0,0,1024,1024,1684,1024,0,0,100,0,0,0,0,81,3.799,3.799,0,0,0,0,5.766,60.62,747.95831986642,27.230972,6,P-GPS,,8.3
277000,2026-01-11 17:22:29,748.61448786642,29.52756,0.671082,0.34561680896,4.2628938372,16,5,7.597,748.61448786642,27.88714,0.671082,1.60852695436,0.0,-0.671082,-4.250186,30.9,3.1,0.5,0,0,1024,1024,1684,1024,0,0,100,0,0,0,0,81,3.799,3.799,0,0,0,0,5.766,60.62,748.61448786642,27.88714,6,P-GPS,,8.5
277100,2026-01-11 17:22:29,749.27065586642,30.183728,0.447388,0.33109909196,4.3885828176,16,5,7.597,749.27065586642,28.543308,0.671082,1.60852695436,0.0,-0.447388,-4.250186,31.0,1.6,0.9,0,0,1024,1024,1684,1024,0,0,100,0,0,0,0,81,3.799,3.799,0,0,0,0,5.766,60.62,749.27065586642,28.543308,6,P-GPS,,8.7
277200,2026-01-11 17:22:29,749.92682386642,30.839896,0.4921268,0.49911090836,4.6824804648,16,5,7.597,749.92682386642,29.199476,0.671082,1.60852695436,-0.223694,-0.447388,-4.250186,31.0,0.5,1.1,0,0,1024,1024,1684,1024,0,0,100,0,0,0,0,81,3.799,3.799,0,0,0,0,5.766,60.62,749.92682386642,29.199476,6,P-GPS,,8.9
277300,2026-01-11 17:22:30,750.58299186642,31.496064,0.3131716,0.59163059636,4.7817258748,16,5,7.597,750.58299186642,29.855644,0.671082,1.60852695436,-0.223694,-0.223694,-4.47388,31.0,-0.5,0.7,0,0,1024,1024,1684,1024,0,0,100,0,0,0,0,81,3.799,3.799,0,0,0,0,5.766,60.62,750.58299186642,29.855644,6,P-GPS,,9.1
277400,2026-01-11 17:22:30,751.23915986642,32.152232,0.0,0.67063978524,4.860892544,16,5,7.597,751.23915986642,30.511812,0.671082,1.60852695436,0.0,0.0,-4.47388,31.0,1.2,-0.4,0,0,1024,1024,1684,1024,0,0,100,0,0,0,0,81,3.799,3.799,0,0,0,0,5.766,60.62,751.23915986642,30.511812,6,P-GPS,,9.3
277500,2026-01-11 17:22:30,751.89532786642,32.8084,0.0,0.69247377544,4.8844489752,16,5,7.597,751.89532786642,31.16798,0.671082,1.60852695436,0.0,0.0,-4.250186,30.8,2.0,-1.9,0,0,1024,1024,1684,1024,0,0,100,0,0,0,0,81,3.799,3.799,0,0,0,0,5.766,60.62,751.89532786642,31.16798,6,P-GPS,,9.5
277600,2026-01-11 17:22:30,752.55149586642,33.464568,0.0,0.74967850168,4.951443728,16,5,7.597,752.55149586642,31.824148,0.671082,1.60852695436,0.0,0.0,-4.250186,30.7,1.1,-2.8,0,0,1024,1024,1684,1024,0,0,100,0,0,0,0,81,3.799,3.799,0,0,0,0,5.766,60.62,752.55149586642,31.824148,6,P-GPS,,9.7
277700,2026-01-11 17:22:30,753.20766386642,34.120736,0.0,0.76027889572,4.9966865116,16,5,7.597,753.20766386642,32.480316,0.671082,1.60852695436,0.0,0.0,-4.250186,30.7,1.9,-3.0,0,0,1024,1024,1684,1024,0,0,100,0,0,0,0,81,3.799,3.799,0,0,0,0,5.766,60.62,753.20766386642,32.480316,6,P-GPS,,9.9
277800,2026-01-11 17:22:30,753.86383186642,34.776904,0.0,0.7711778462,5.0492455684,16,5,7.597,753.86383186642,33.136484,0.671082,1.60852695436,0.0,0.0,-4.250186,30.7,1.7,-3.2,0,0,1024,1024,1684,1024,0,0,100,0,0,0,0,81,3.799,3.799,0,0,0,0,5.766,60.62,753.86383186642,33.136484,6,P-GPS,,10.1
277900,2026-01-11 17:22:30,754.51999986642,35.433072,0.0,0.74466209732,5.09514452,16,5,7.597,754.51999986642,33.792652,0.671082,1.60852695436,0.0,0.0,-4.250186,30.6,2.0,-3.2,0,0,1024,1024,1684,1024,0,0,100,0,0,0,0,81,3.799,3.799,0,0,0,0,5.766,60.62,754.51999986642,33.792652,6,P-GPS,,10.3
278000,2026-01-11 17:22:30,755.17616786642,36.08924,0.0,0.70728020636,5.1468833668,16,5,7.597,755.17616786642,34.44882,0.671082,1.60852695436,0.0,0.0,-4.250186,30.5,2.8,-2.7,0,0,1024,1024,1684,1024,0,0,100,0,0,0,0,81,3.799,3.799,0,0,0,0,5.766,60.62,755.17616786642,34.44882,6,P-GPS,,10.5
278100,2026-01-11 17:22:30,755.83233586642,36.417324,0.0,0.5911089428,5.2646655228,16,5,7.568,755.83233586642,35.104988,0.671082,1.60852695436,0.0,0.0,-4.250186,30.8,2.4,-2.2,0,0,1024,1024,1684,1024,0,0,100,0,0,0,0,81,3.785,3.782,0,0,0,0,5.549,60.62,755.83233586642,35.104988,6,P-GPS,,10.7
278200,2026-01-11 17:22:30,756.81658786642,36.417324,0.0,0.55600067396,5.3006563376,16,5,7.568,756.81658786642,36.08924,0.671082,1.60852695436,0.0,0.0,-4.250186,30.6,3.6,-2.6,0,0,1024,1024,1024,1024,0,0,0,0,0,0,0,81,3.785,3.782,0,0,0,0,5.549,60.62,756.81658786642,36.08924,6,P-GPS,,11.0
278300,2026-01-11 17:22:31,757.47275586642,36.417324,0.0,0.52084647336,5.3380251052,16,5,7.568,757.47275586642,36.745408,0.671082,1.60852695436,0.0,0.0,-4.250186,30.4,4.2,-2.5,0,0,1024,1024,1024,1024,0,0,0,0,0,0,0,81,3.785,3.782,0,0,0,0,5.549,60.62,757.47275586642,36.745408,6,P-GPS,,11.2
278400,2026-01-11 17:22:31,758.12892386642,36.417324,0.223694,0.48855644608,5.3770014844,16,5,7.568,758.12892386642,37.401576,0.671082,1.60852695436,0.0,0.223694,-4.250186,30.3,3.4,-2.9,0,0,1024,1024,1024,1024,0,0,0,0,0,0,0,81,3.785,3.782,0,0,0,0,5.549,60.62,758.12892386642,37.401576,6,P-GPS,,11.4
278500,2026-01-11 17:22:31,758.78509186642,36.417324,0.223694,0.322277241284,5.5440290488,16,5,7.568,758.78509186642,38.057744,0.671082,1.60852695436,0.0,0.223694,-3.802798,30.1,4.6,-3.5,0,0,1024,1024,1024,1024,0,0,0,0,0,0,0,81,3.785,3.782,0,0,0,0,5.549,60.62,758.78509186642,38.057744,6,P-GPS,,11.6
278600,2026-01-11 17:22:31,759.44125986642,36.417324,0.223694,0.260423564764,5.6281497864,16,5,7.568,759.44125986642,38.713912,0.671082,1.60852695436,0.0,0.223694,-3.131716,29.9,5.0,-4.0,0,0,1024,1024,1024,1024,0,0,0,0,0,0,0,81,3.785,3.782,0,0,0,0,5.549,60.62,759.44125986642,38.713912,6,P-GPS,,11.8
278700,2026-01-11 17:22:31,760.09742786642,36.417324,0.223694,0.247648958056,5.6816274784,16,5,7.568,760.09742786642,39.37008,0.671082,1.60852695436,0.0,0.223694,-2.460634,29.8,4.9,-4.4,0,0,1024,1024,364,1024,0,0,-100,0,0,0,0,81,3.785,3.782,0,0,0,0,5.549,60.62,760.09742786642,39.37008,6,P-GPS,,12.0
278800,2026-01-11 17:22:31,760.42551186642,36.417324,0.223694,0.256442265424,5.734744278,16,5,7.568,760.42551186642,39.698164,0.671082,1.60852695436,0.0,0.223694,-1.565858,29.7,4.5,-5.0,0,0,1024,1024,364,1024,0,0,-100,0,0,0,0,81,3.785,3.782,0,0,0,0,5.549,60.62,760.42551186642,39.698164,6,P-GPS,,12.1
278900,2026-01-11 17:22:31,760.42551186642,36.417324,0.223694,0.263059719704,5.7909450672,16,5,7.568,760.42551186642,39.698164,0.671082,1.60852695436,0.0,0.223694,-0.894776,29.7,4.4,-5.4,0,0,1024,1024,364,1024,0,0,-100,0,0,0,0,81,3.785,3.782,0,0,0,0,5.549,60.62,760.42551186642,39.698164,6,P-GPS,,12.1
279000,2026-01-11 17:22:31,760.75359586642,36.417324,0.223694,0.29599902522,5.8566931008,16,5,7.568,760.75359586642,40.026248,0.671082,1.60852695436,0.0,0.223694,0.0,29.6,3.7,-6.0,0,0,1024,1024,364,1024,0,0,-100,0,0,0,0,81,3.785,3.782,0,0,0,0,5.549,60.62,760.75359586642,40.026248,6,P-GPS,,12.2
279100,2026-01-11 17:22:31,760.75359586642,36.417324,0.223694,0.35586943396,5.9274608196,16,5,7.568,760.75359586642,40.026248,0.671082,1.60852695436,0.0,0.223694,0.447388,29.6,3.3,-6.4,0,0,1024,1024,364,1024,0,0,-100,0,0,0,0,81,3.785,3.782,0,0,0,0,5.549,60.62,760.75359586642,40.026248,6,P-GPS,,12.2
279200,2026-01-11 17:22:31,760.42551186642,36.417324,0.0,0.41862206064,5.9961944176,16,5,7.568,760.75359586642,40.026248,0.671082,1.60852695436,0.0,0.0,1.11847,29.5,3.5,-5.8,0,0,1024,1024,364,1024,0,0,-100,0,0,0,0,81,3.865,3.866,0,0,0,0,5.549,60.62,760.42551186642,39.698164,6,P-GPS,,12.1
279300,2026-01-11 17:22:32,760.09742786642,36.417324,0.0,0.5493438496,6.1282482276,16,5,7.568,760.75359586642,40.026248,0.671082,1.60852695436,0.0,0.0,1.565858,29.3,4.8,-4.8,0,0,1024,1024,364,1024,0,0,-100,0,0,0,0,81,3.865,3.866,0,0,0,0,5.549,60.62,760.09742786642,39.37008,6,P-GPS,,12.0
279400,2026-01-11 17:22:32,759.76934386642,36.417324,0.0,0.60612862832,6.1854004604,16,5,7.568,760.75359586642,40.026248,0.671082,1.60852695436,0.0,0.0,2.013246,29.3,3.6,-4.5,0,0,1024,1024,364,1024,0,0,-100,0,0,0,0,81,3.865,3.866,0,0,0,0,5.549,60.62,759.76934386642,39.041996,6,P-GPS,,11.9
279500,2026-01-11 17:22:32,759.44125986642,36.417324,0.0,0.63461944288,6.2141078104,16,5,7.568,760.75359586642,40.026248,0.671082,1.60852695436,0.0,0.0,2.460634,29.3,3.4,-4.6,0,0,1024,1024,364,1024,0,0,-100,0,0,0,0,81,3.865,3.866,0,0,0,0,5.549,60.62,759.44125986642,38.713912,6,P-GPS,,11.8
279600,2026-01-11 17:22:32,759.11317586642,36.417324,0.0,0.65829070348,6.23851726,16,5,7.568,760.75359586642,40.026248,0.671082,1.60852695436,0.0,0.0,2.684328,29.4,3.0,-4.7,0,0,1024,1024,1024,1024,0,0,0,0,0,0,0,81,3.865,3.866,0,0,0,0,5.549,60.62,759.11317586642,38.385828,6,P-GPS,,11.7
279700,2026-01-11 17:22:32,758.45700786642,36.417324,0.0,0.67342193756,6.2542981004,16,5,7.568,760.75359586642,40.026248,0.671082,1.60852695436,0.0,0.0,2.908022,29.5,2.9,-4.2,0,0,1024,1024,1024,1024,0,0,0,0,0,0,0,81,3.865,3.866,0,0,0,0,5.549,60.62,758.45700786642,37.72966,6,P-GPS,,11.5
279800,2026-01-11 17:22:32,757.80083986642,36.417324,0.0,0.64221458748,6.3007219864,16,5,7.568,760.75359586642,40.026248,0.671082,1.60852695436,0.0,0.0,3.131716,29.4,4.8,-4.4,0,0,1024,1024,1024,1024,0,0,0,0,0,0,0,81,3.865,3.866,0,0,0,0,5.549,60.62,757.80083986642,37.073492,6,P-GPS,,11.3
279900,2026-01-11 17:22:32,757.47275586642,36.417324,0.0,0.65547574276,6.3507547964,16,5,7.568,760.75359586642,40.026248,0.671082,1.60852695436,0.0,0.0,2.684328,29.5,0.9,-3.8,0,0,1024,1024,1024,1024,0,0,0,0,0,0,0,81,3.865,3.866,0,0,0,0,5.549,60.62,757.47275586642,36.745408,6,P-GPS,,11.2
280000,2026-01-11 17:22:32,757.14467186642,36.417324,0.0,0.67256891916,6.4077757956,16,5,7.568,760.75359586642,40.026248,0.671082,1.60852695436,0.0,0.0,2.013246,29.4,2.2,-3.9,0,0,1024,1024,1024,1024,0,0,0,0,0,0,0,81,3.865,3.866,0,0,0,0,5.549,60.62,757.14467186642,36.417324,6,P-GPS,,11.1
280100,2026-01-11 17:22:32,757.14467186642,36.417324,0.0,0.69480645268,6.4326117544,16,5,7.568,760.75359586642,40.026248,0.671082,1.60852695436,0.0,0.0,1.342164,29.3,4.7,-4.4,0,0,1024,1024,1024,1024,0,0,0,0,0,0,0,81,3.865,3.866,0,0,0,0,5.549,60.62,757.14467186642,36.417324,6,P-GPS,,11.1
280200,2026-01-11 17:22:33,757.14467186642,36.417324,0.223694,0.7261647214,6.4868440396,16,5,7.568,760.75359586642,40.026248,0.671082,1.60852695436,-0.223694,0.0,0.894776,29.3,5.0,-4.4,0,0,1024,1024,1024,1024,0,0,0,0,0,0,0,81,3.865,3.866,0,0,0,0,5.549,60.62,757.14467186642,36.417324,6,P-GPS,,11.1
280300,2026-01-11 17:22:33,757.14467186642,36.417324,0.223694,0.82219162736,6.5917981112,16,5,7.703,760.75359586642,40.026248,0.671082,1.60852695436,-0.223694,0.0,0.447388,29.4,1.3,-5.2,0,0,1024,1024,1024,1024,0,0,0,0,0,0,0,81,3.78,3.783,0,0,0,0,4.29,60.62,757.14467186642,36.417324,6,P-GPS,,11.1
280400,2026-01-11 17:22:33,757.14467186642,36.417324,0.223694,0.9366962242,6.7136485088,16,5,7.703,760.75359586642,40.026248,0.671082,1.60852695436,-0.223694,0.0,0.0,29.4,1.2,-6.9,0,0,1024,1024,1024,1024,0,0,0,0,0,0,0,81,3.78,3.783,0,0,0,0,4.29,60.62,757.14467186642,36.417324,6,P-GPS,,11.1
280500,2026-01-11 17:22:33,757.14467186642,36.417324,0.223694,1.02250987524,6.8012141284,16,5,7.703,760.75359586642,40.026248,0.671082,1.60852695436,-0.223694,0.0,0.0,29.7,0.0,-7.2,0,0,1024,1024,1024,1024,0,0,0,0,0,0,0,81,3.78,3.783,0,0,0,0,4.29,60.62,757.14467186642,36.417324,6,P-GPS,,11.1
280600,2026-01-11 17:22:33,757.14467186642,36.417324,0.0,1.24184387176,7.0239175476,16,5,7.703,760.75359586642,40.026248,0.671082,1.60852695436,0.0,0.0,0.0,29.8,1.1,-6.9,0,0,1024,1024,1024,1024,0,0,0,0,0,0,0,81,3.78,3.783,0,0,0,0,4.29,60.62,757.14467186642,36.417324,6,P-GPS,,11.1
280700,2026-01-11 17:22:33,757.14467186642,36.417324,0.0,1.28469820384,7.0667981264,16,5,7.703,760.75359586642,40.026248,0.671082,1.60852695436,0.0,0.0,0.0,29.6,2.9,-7.2,0,0,1024,1024,1024,1024,0,0,0,0,0,0,0,81,3.78,3.783,0,0,0,0,4.29,60.62,757.14467186642,36.417324,6,P-GPS,,11.1
280800,2026-01-11 17:22:33,757.14467186642,36.417324,0.0,1.3155020106,7.0976380224,16,5,7.703,760.75359586642,40.026248,0.671082,1.60852695436,0.0,0.0,0.0,29.6,3.8,-6.8,0,0,1024,1024,1024,1024,0,0,0,0,0,0,0,81,3.78,3.783,0,0,0,0,4.29,60.62,757.14467186642,36.417324,6,P-GPS,,11.1
280900,2026-01-11 17:22:33,757.14467186642,36.417324,0.0,1.33188652556,7.1147968156,16,5,7.703,760.75359586642,40.026248,0.671082,1.60852695436,0.0,0.0,0.0,29.6,3.8,-6.4,0,0,1024,1024,1024,1024,0,0,0,0,0,0,0,81,3.78,3.783,0,0,0,0,4.29,60.62,757.14467186642,36.417324,6,P-GPS,,11.1
281000,2026-01-11 17:22:33,757.14467186642,36.417324,0.0,1.3469980746,7.130577656,16,5,7.703,760.75359586642,40.026248,0.671082,1.60852695436,0.0,0.0,0.0,29.8,3.0,-5.9,0,0,1024,1024,1024,1024,0,0,0,0,0,0,0,81,3.78,3.783,0,0,0,0,4.29,60.62,757.14467186642,36.417324,6,P-GPS,,11.1
281100,2026-01-11 17:22:33,757.14467186642,36.417324,0.0,1.32861552808,7.1563978668,16,5,7.703,760.75359586642,40.026248,0.671082,1.60852695436,0.0,0.0,0.0,29.8,3.8,-6.1,0,0,1024,1024,1024,1024,0,0,0,0,0,0,0,81,3.78,3.783,0,0,0,0,4.29,60.62,757.14467186642,36.417324,6,P-GPS,,11.1
281200,2026-01-11 17:22:33,757.14467186642,36.417324,0.0,1.29909124892,7.19242149,16,5,7.703,760.75359586642,40.026248,0.671082,1.60852695436,0.0,0.0,0.0,29.8,3.7,-5.5,0,0,1024,1024,1024,1024,0,0,0,0,0,0,0,81,3.78,3.783,0,0,0,0,4.29,60.62,757.14467186642,36.417324,6,P-GPS,,11.1
281300,2026-01-11 17:22:34,756.81658786642,36.417324,0.0,1.25134846524,7.2446524628,16,5,7.703,760.75359586642,40.026248,0.671082,1.60852695436,0.0,0.0,0.0,29.8,4.1,-5.2,0,0,1024,1024,1024,1024,0,0,0,0,0,0,0,81,3.78,3.783,0,0,0,0,4.29,60.62,756.81658786642,36.08924,6,P-GPS,,11.0
281400,2026-01-11 17:22:34,756.81658786642,36.417324,0.0,1.19436355528,7.3056760868,16,5,7.627,760.75359586642,40.026248,0.671082,1.60852695436,0.0,0.0,0.0,29.7,4.4,-4.9,0,0,1024,1024,1024,1024,0,0,0,0,0,0,0,81,3.813,3.819,0,0,0,0,4.614,60.8,756.81658786642,36.08924,6,P-GPS,,11.0
281500,2026-01-11 17:22:34,756.81658786642,36.417324,0.223694,1.09983927404,7.4001970872,16,5,7.627,760.75359586642,40.026248,0.671082,1.60852695436,0.0,-0.223694,0.0,29.8,4.6,-5.0,0,0,1024,1024,1024,1024,0,0,0,0,0,0,0,81,3.813,3.819,0,0,0,0,4.614,60.8,756.81658786642,36.08924,6,P-GPS,,11.0
281600,2026-01-11 17:22:34,756.48850386642,36.417324,0.223694,1.04915029604,7.4527889524,16,5,7.627,760.75359586642,40.026248,0.671082,1.60852695436,0.0,-0.223694,0.0,29.9,5.0,-4.7,0,0,1024,1024,1024,1024,0,0,0,0,0,0,0,81,3.813,3.819,0,0,0,0,4.614,60.8,756.48850386642,35.761156,6,P-GPS,,10.9
281700,2026-01-11 17:22:34,756.48850386642,36.417324,0.3131716,0.99756892956,7.5070868544,16,5,7.627,760.75359586642,40.026248,0.671082,1.60852695436,0.223694,-0.223694,0.0,30.0,5.3,-4.1,0,0,1024,1024,1024,1024,0,0,0,0,0,0,0,81,3.813,3.819,0,0,0,0,4.614,60.8,756.48850386642,35.761156,6,P-GPS,,10.9
281800,2026-01-11 17:22:34,756.48850386642,36.417324,0.223694,0.93644359952,7.5710960428,16,5,7.627,760.75359586642,40.026248,0.671082,1.60852695436,0.0,-0.223694,0.0,30.0,4.8,-3.8,0,0,1024,1024,1024,1024,0,0,0,0,0,0,0,81,3.813,3.819,0,0,0,0,4.614,60.8,756.48850386642,35.761156,6,P-GPS,,10.9
281900,2026-01-11 17:22:34,756.16041986642,36.417324,0.3131716,0.88987535656,7.6480317408,16,5,7.627,760.75359586642,40.026248,0.671082,1.60852695436,0.223694,-0.223694,0.0,29.8,5.8,-3.1,0,0,1024,1024,1024,1024,0,0,0,0,0,0,0,81,3.813,3.819,0,0,0,0,4.614,60.8,756.16041986642,35.433072,6,P-GPS,,10.8
282000,2026-01-11 17:22:34,756.16041986642,36.417324,0.3131716,0.81666013112,7.7242784624,16,5,7.627,760.75359586642,40.026248,0.671082,1.60852695436,0.0,-0.223694,0.0,29.9,5.1,-2.7,0,0,1024,1024,1024,1024,0,0,0,0,0,0,0,81,3.813,3.819,0,0,0,0,4.614,60.8,756.16041986642,35.433072,6,P-GPS,,10.8
282100,2026-01-11 17:22:34,756.16041986642,36.417324,0.223694,0.75398296376,7.8010829268,16,5,7.627,760.75359586642,40.026248,0.671082,1.60852695436,0.0,-0.223694,0.0,29.9,5.0,-2.4,0,0,1024,1024,1024,1024,0,0,0,0,0,0,0,81,3.813,3.819,0,0,0,0,4.614,60.8,756.16041986642,35.433072,6,P-GPS,,10.8
282200,2026-01-11 17:22:34,755.83233586642,36.417324,0.223694,0.69456038968,7.8807745304,16,5,7.627,760.75359586642,40.026248,0.671082,1.60852695436,0.0,-0.223694,0.0,29.9,5.3,-2.2,0,0,1024,1024,1024,1024,0,0,0,0,0,0,0,81,3.813,3.819,0,0,0,0,4.614,60.8,755.83233586642,35.104988,6,P-GPS,,10.7
282300,2026-01-11 17:22:35,755.83233586642,36.417324,0.223694,0.67136485088,7.9454726952,16,5,7.627,760.75359586642,40.026248,0.671082,1.60852695436,0.0,-0.223694,0.0,29.8,5.1,-2.1,0,0,1024,1024,1024,1024,0,0,0,0,0,0,0,81,3.813,3.819,0,0,0,0,4.614,60.8,755.83233586642,35.104988,6,P-GPS,,10.7
282400,2026-01-11 17:22:35,755.83233586642,36.417324,0.223694,0.62155841884,8.00278897,16,5,7.627,760.75359586642,40.026248,0.671082,1.60852695436,0.0,-0.223694,0.0,29.8,4.5,-1.6,0,0,1024,1024,1024,1024,0,0,0,0,0,0,0,81,3.813,3.819,0,0,0,0,4.614,60.8,755.83233586642,35.104988,6,P-GPS,,10.7
282500,2026-01-11 17:22:35,755.50425186642,36.417324,0.223694,0.59382875916,8.0412404148,16,5,7.606,760.75359586642,40.026248,0.671082,1.60852695436,0.0,-0.223694,0.0,29.9,4.1,-1.6,0,0,1024,1024,1024,1024,0,0,0,0,0,0,0,81,3.803,3.804,0,0,0,0,4.719,60.8,755.50425186642,34.776904,6,P-GPS,,10.6
282600,2026-01-11 17:22:35,755.50425186642,36.417324,0.0,0.57226379784,8.0728020956,16,5,7.606,760.75359586642,40.026248,0.671082,1.60852695436,0.0,0.0,0.0,29.7,4.2,-2.1,0,0,1024,1024,1024,1024,0,0,0,0,0,0,0,81,3.803,3.804,0,0,0,0,4.719,60.8,755.50425186642,34.776904,6,P-GPS,,10.6
282700,2026-01-11 17:22:35,755.50425186642,36.417324,0.0,0.62273295956,8.1319228324,16,5,7.606,760.75359586642,40.026248,0.671082,1.60852695436,0.0,0.0,0.0,29.6,5.1,-2.7,0,0,1024,1024,1024,1024,0,0,0,0,0,0,0,81,3.803,3.804,0,0,0,0,4.719,60.8,755.50425186642,34.776904,6,P-GPS,,10.6
282800,2026-01-11 17:22:35,755.50425186642,36.417324,0.0,0.6125984448,8.1421918616,16,5,7.606,760.75359586642,40.026248,0.671082,1.60852695436,0.0,0.0,0.0,29.7,5.4,-2.4,0,0,1024,1024,1024,1024,0,0,0,0,0,0,0,81,3.803,3.804,0,0,0,0,4.719,60.8,755.50425186642,34.776904,6,P-GPS,,10.6
282900,2026-01-11 17:22:35,755.50425186642,36.417324,0.0,0.58863847028,8.167487138,16,5,7.606,760.75359586642,40.026248,0.671082,1.60852695436,0.0,0.0,0.0,29.8,5.3,-2.2,0,0,1024,1024,1024,1024,0,0,0,0,0,0,0,81,3.803,3.804,0,0,0,0,4.719,60.8,755.50425186642,34.776904,6,P-GPS,,10.6
283000,2026-01-11 17:22:35,755.50425186642,36.417324,0.0,0.56353020176,8.1948493436,16,5,7.606,760.75359586642,40.026248,0.671082,1.60852695436,0.0,0.0,0.0,29.6,5.4,-2.6,0,0,1024,1024,1024,1024,0,0,0,0,0,0,0,81,3.803,3.804,0,0,0,0,4.719,60.8,755.50425186642,34.776904,6,P-GPS,,10.6
283100,2026-01-11 17:22:35,755.50425186642,36.417324,0.0,0.54874017504,8.2106958008,16,5,7.606,760.75359586642,40.026248,0.671082,1.60852695436,0.0,0.0,0.0,29.5,5.4,-2.7,0,0,1024,1024,1024,1024,0,0,0,0,0,0,0,81,3.803,3.804,0,0,0,0,4.719,60.8,755.50425186642,34.776904,6,P-GPS,,10.6
283200,2026-01-11 17:22:35,755.50425186642,36.417324,0.0,0.53048558128,8.2409123372,16,5,7.606,760.75359586642,40.026248,0.671082,1.60852695436,0.0,0.0,0.0,29.5,4.8,-2.7,0,0,1024,1024,1024,1024,0,0,0,0,0,0,0,81,3.803,3.804,0,0,0,0,4.719,60.8,755.50425186642,34.776904,6,P-GPS,,10.6
283300,2026-01-11 17:22:36,755.50425186642,36.417324,0.0,0.51129922896,8.2619425216,16,5,7.606,760.75359586642,40.026248,0.671082,1.60852695436,0.0,0.0,0.0,29.6,4.9,-3.2,0,0,1024,1024,1024,1024,0,0,0,0,0,0,0,81,3.803,3.804,0,0,0,0,4.719,60.8,755.50425186642,34.776904,6,P-GPS,,10.6
283400,2026-01-11 17:22:36,755.50425186642,36.417324,0.0,0.48839896576,8.2885173256,16,5,7.606,760.75359586642,40.026248,0.671082,1.60852695436,0.0,0.0,0.0,29.6,4.9,-3.1,0,0,1024,1024,1024,1024,0,0,0,0,0,0,0,81,3.803,3.804,0,0,0,0,4.719,60.8,755.50425186642,34.776904,6,P-GPS,,10.6
283500,2026-01-11 17:22:36,755.50425186642,36.417324,0.0,0.45742783616,8.3263454108,16,5,7.606,760.75359586642,40.026248,0.671082,1.60852695436,0.0,0.0,0.0,29.7,4.7,-3.0,0,0,1024,1024,1024,1024,0,0,0,0,0,0,0,81,3.803,3.804,0,0,0,0,4.719,60.8,755.50425186642,34.776904,6,P-GPS,,10.6
283600,2026-01-11 17:22:36,755.50425186642,36.417324,0.0,0.36534778072,8.4319884588,16,5,7.632,760.75359586642,40.026248,0.671082,1.60852695436,0.0,0.0,0.0,29.7,5.0,-2.4,0,0,1024,1024,1024,1024,0,0,0,0,0,0,0,81,3.816,3.816,0,0,0,0,4.619,60.8,755.50425186642,34.776904,6,P-GPS,,10.6
283700,2026-01-11 17:22:36,755.50425186642,36.417324,0.0,0.34840552296,8.466371662,16,5,7.632,760.75359586642,40.026248,0.671082,1.60852695436,0.0,0.0,0.0,29.7,4.4,-1.6,0,0,1024,1024,1024,1024,0,0,0,0,0,0,0,81,3.816,3.816,0,0,0,0,4.619,60.8,755.50425186642,34.776904,6,P-GPS,,10.6
283800,2026-01-11 17:22:36,755.50425186642,36.417324,0.0,0.34374673016,8.4987535528,16,5,7.632,760.75359586642,40.026248,0.671082,1.60852695436,0.0,0.0,0.0,29.7,3.5,-2.3,0,0,1024,1024,1024,1024,0,0,0,0,0,0,0,81,3.816,3.816,0,0,0,0,4.619,60.8,755.50425186642,34.776904,6,P-GPS,,10.6
283900,2026-01-11 17:22:36,755.50425186642,36.417324,0.0,0.35598426336,8.5278546036,16,5,7.632,760.75359586642,40.026248,0.671082,1.60852695436,0.0,0.0,0.0,29.6,3.9,-2.4,0,0,1024,1024,1024,1024,0,0,0,0,0,0,0,81,3.816,3.816,0,0,0,0,4.619,60.8,755.50425186642,34.776904,6,P-GPS,,10.6
284000,2026-01-11 17:22:36,755.50425186642,36.417324,0.0,0.38490486796,8.5614832136,16,5,7.632,760.75359586642,40.026248,0.671082,1.60852695436,0.0,0.0,0.0,29.7,3.4,-2.3,0,0,1024,1024,1024,1024,0,0,0,0,0,0,0,81,3.816,3.816,0,0,0,0,4.619,60.8,755.50425186642,34.776904,6,P-GPS,,10.6
284100,2026-01-11 17:22:36,755.50425186642,36.417324,0.0,0.40458662712,8.581693188,16,5,7.632,760.75359586642,40.026248,0.671082,1.60852695436,0.0,0.0,0.0,29.6,3.5,-2.5,0,0,1024,1024,1024,1024,0,0,0,0,0,0,0,81,3.816,3.816,0,0,0,0,4.619,60.8,755.50425186642,34.776904,6,P-GPS,,10.6
284200,2026-01-11 17:22:36,755.50425186642,36.417324,0.0,0.42694555172,8.6041013252,16,5,7.632,760.75359586642,40.026248,0.671082,1.60852695436,0.0,0.0,0.0,29.5,2.8,-2.6,0,0,1024,1024,1024,1024,0,0,0,0,0,0,0,81,3.816,3.816,0,0,0,0,4.619,60.8,755.50425186642,34.776904,6,P-GPS,,10.6
284300,2026-01-11 17:22:37,755.50425186642,36.417324,0.0,0.44215552596,8.6215225856,16,5,7.632,760.75359586642,40.026248,0.671082,1.60852695436,0.0,0.0,0.0,29.8,2.8,-2.7,0,0,1024,1024,1024,1024,0,0,0,0,0,0,0,81,3.816,3.816,0,0,0,0,4.619,60.8,755.50425186642,34.776904,6,P-GPS,,10.6
284400,2026-01-11 17:22:37,755.17616786642,36.417324,0.0,0.4771653696,8.7163388616,16,5,7.632,760.75359586642,40.026248,0.671082,1.60852695436,0.0,0.0,0.0,29.6,2.9,-2.8,0,0,1024,1024,1024,1024,0,0,0,0,0,0,0,81,3.816,3.816,0,0,0,0,4.619,60.8,755.17616786642,34.44882,6,P-GPS,,10.5
284500,2026-01-11 17:22:37,755.17616786642,36.417324,0.0,0.4911253438,8.7319884684,16,5,7.632,760.75359586642,40.026248,0.671082,1.60852695436,0.0,0.0,0.0,29.5,4.3,-2.7,0,0,1024,1024,1024,1024,0,0,0,0,0,0,0,81,3.816,3.816,0,0,0,0,4.619,60.8,755.17616786642,34.44882,6,P-GPS,,10.5
284600,2026-01-11 17:22:37,755.17616786642,36.417324,0.0,0.50907481944,8.75000028,16,5,7.632,760.75359586642,40.026248,0.671082,1.60852695436,0.0,0.0,0.0,29.5,3.7,-2.6,0,0,1024,1024,1024,1024,0,0,0,0,0,0,0,81,3.816,3.816,0,0,0,0,4.619,60.8,755.17616786642,34.44882,6,P-GPS,,10.5
284700,2026-01-11 17:22:37,755.17616786642,36.417324,0.0,0.51316930776,8.754757498,16,5,7.625,760.75359586642,40.026248,0.671082,1.60852695436,0.0,0.0,0.0,29.5,3.0,-2.7,0,0,1024,1024,1024,1024,0,0,0,0,0,0,0,81,3.816,3.814,0,0,0,0,4.597,60.8,755.17616786642,34.44882,6,P-GPS,,10.5
284800,2026-01-11 17:22:37,755.17616786642,36.417324,0.0,0.51286418964,8.759678758,16,5,7.625,760.75359586642,40.026248,0.671082,1.60852695436,0.0,0.0,0.0,29.6,2.7,-2.6,0,0,1024,1024,1024,1024,0,0,0,0,0,0,0,81,3.816,3.814,0,0,0,0,4.597,60.8,755.17616786642,34.44882,6,P-GPS,,10.5
284900,2026-01-11 17:22:37,755.17616786642,36.417324,0.0,0.48181431988,8.8384845348,16,5,7.625,760.75359586642,40.026248,0.671082,1.60852695436,0.0,0.0,0.0,29.6,3.1,-2.8,0,0,1024,1024,1024,1024,0,0,0,0,0,0,0,81,3.816,3.814,0,0,0,0,4.597,60.8,755.17616786642,34.44882,6,P-GPS,,10.5
285000,2026-01-11 17:22:37,755.17616786642,36.417324,0.0,0.46269030352,8.858103958,16,5,7.625,760.75359586642,40.026248,0.671082,1.60852695436,0.0,0.0,0.0,29.6,3.3,-2.3,0,0,1024,1024,1024,1024,0,0,0,0,0,0,0,81,3.816,3.814,0,0,0,0,4.597,60.8,755.17616786642,34.44882,6,P-GPS,,10.5
285100,2026-01-11 17:22:37,755.17616786642,36.417324,0.0,0.43217849152,8.8924871612,16,5,7.625,760.75359586642,40.026248,0.671082,1.60852695436,0.0,0.0,0.0,29.6,3.8,-1.1,0,0,1024,1024,1024,1024,0,0,0,0,0,0,0,81,3.816,3.814,0,0,0,0,4.597,60.8,755.17616786642,34.44882,6,P-GPS,,10.5
285200,2026-01-11 17:22:37,755.17616786642,36.417324,0.0,0.40115814932,8.9307089472,16,5,7.625,760.75359586642,40.026248,0.671082,1.60852695436,0.0,0.0,0.0,29.4,4.2,-0.6,0,0,1024,1024,1024,1024,0,0,0,0,0,0,0,81,3.816,3.814,0,0,0,0,4.597,60.8,755.17616786642,34.44882,6,P-GPS,,10.5
285300,2026-01-11 17:22:37,755.17616786642,36.417324,0.0,0.35358925016,9.0071525192,16,5,7.625,760.75359586642,40.026248,0.671082,1.60852695436,0.0,0.0,0.0,29.4,4.1,-0.6,0,0,1024,1024,1024,1024,0,0,0,0,0,0,0,81,3.816,3.814,0,0,0,0,4.597,60.8,755.17616786642,34.44882,6,P-GPS,,10.5
285400,2026-01-11 17:22:38,755.17616786642,36.417324,0.0,0.343503948,9.0385829664,16,5,7.625,760.75359586642,40.026248,0.671082,1.60852695436,0.0,0.0,0.0,29.4,3.7,-0.6,0,0,1024,1024,1024,1024,0,0,0,0,0,0,0,81,3.816,3.814,0,0,0,0,4.597,60.8,755.17616786642,34.44882,6,P-GPS,,10.5
285500,2026-01-11 17:22:38,755.17616786642,36.417324,0.0,0.34082022088,9.0710632824,16,5,7.625,760.75359586642,40.026248,0.671082,1.60852695436,0.0,0.0,0.0,29.5,3.3,-0.5,0,0,1024,1024,1024,1024,0,0,0,0,0,0,0,81,3.816,3.814,0,0,0,0,4.597,60.8,755.17616786642,34.44882,6,P-GPS,,10.5
285600,2026-01-11 17:22:38,755.17616786642,36.417324,0.0,0.3475393812,9.0967194512,16,5,7.625,760.75359586642,40.026248,0.671082,1.60852695436,0.0,0.0,0.0,29.6,3.1,-1.2,0,0,1024,1024,1024,1024,0,0,0,0,0,0,0,81,3.816,3.814,0,0,0,0,4.597,60.8,755.17616786642,34.44882,6,P-GPS,,10.5
285700,2026-01-11 17:22:38,755.17616786642,36.417324,0.223694,0.40347442236,9.1575134164,16,5,7.625,760.75359586642,40.026248,0.671082,1.60852695436,-0.223694,0.0,0.0,29.6,2.8,-2.3,0,0,1024,1024,1024,1024,0,0,0,0,0,0,0,81,3.816,3.814,0,0,0,0,4.597,60.8,755.17616786642,34.44882,6,P-GPS,,10.5
285800,2026-01-11 17:22:38,755.17616786642,36.417324,0.223694,0.442257232,9.1977693232,16,5,7.627,760.75359586642,40.026248,0.671082,1.60852695436,-0.223694,0.0,0.0,29.4,3.5,-3.1,0,0,1024,1024,1024,1024,0,0,0,0,0,0,0,81,3.815,3.812,0,0,0,0,4.458,60.8,755.17616786642,34.44882,6,P-GPS,,10.5
285900,2026-01-11 17:22:38,755.50425186642,36.417324,0.223694,0.48040027784,9.245571162,16,5,7.627,760.75359586642,40.026248,0.671082,1.60852695436,-0.223694,0.0,0.0,29.0,3.2,-3.6,0,0,1024,1024,1024,1024,0,0,0,0,0,0,0,81,3.815,3.812,0,0,0,0,4.458,60.8,755.50425186642,34.776904,6,P-GPS,,10.6
286000,2026-01-11 17:22:38,755.50425186642,36.417324,0.223694,0.52856300904,9.3024281192,16,5,7.627,760.75359586642,40.026248,0.671082,1.60852695436,-0.223694,0.0,0.0,29.1,2.7,-4.0,0,0,1024,1024,1024,1024,0,0,0,0,0,0,0,81,3.815,3.812,0,0,0,0,4.458,60.8,755.50425186642,34.776904,6,P-GPS,,10.6
286100,2026-01-11 17:22:38,755.50425186642,36.417324,0.223694,0.64621721228,9.453248334,16,5,7.627,760.75359586642,40.026248,0.671082,1.60852695436,-0.223694,0.0,0.0,28.9,2.8,-5.1,0,0,1024,1024,1024,1024,0,0,0,0,0,0,0,81,3.815,3.812,0,0,0,0,4.458,60.8,755.50425186642,34.776904,6,P-GPS,,10.6
286200,2026-01-11 17:22:38,755.83233586642,36.417324,0.223694,0.72558073188,9.536089544,16,5,7.627,760.75359586642,40.026248,0.671082,1.60852695436,-0.223694,0.0,0.0,28.9,2.3,-5.5,0,0,1024,1024,1024,1024,0,0,0,0,0,0,0,81,3.815,3.812,0,0,0,0,4.458,60.8,755.83233586642,35.104988,6,P-GPS,,10.7
286300,2026-01-11 17:22:39,755.83233586642,36.417324,0.223694,0.798802519,9.6095147432,16,5,7.627,760.75359586642,40.026248,0.671082,1.60852695436,-0.223694,0.0,0.0,29.1,1.1,-5.5,0,0,1024,1024,1024,1024,0,0,0,0,0,0,0,81,3.815,3.812,0,0,0,0,4.458,60.8,755.83233586642,35.104988,6,P-GPS,,10.7
286400,2026-01-11 17:22:39,755.83233586642,36.417324,0.223694,0.87842522496,9.6893375804,16,5,7.627,760.75359586642,40.026248,0.671082,1.60852695436,-0.223694,0.0,0.0,29.1,0.1,-5.3,0,0,1024,1024,1024,1024,0,0,0,0,0,0,0,81,3.815,3.812,0,0,0,0,4.458,60.8,755.83233586642,35.104988,6,P-GPS,,10.7
286500,2026-01-11 17:22:39,756.16041986642,36.417324,0.223694,0.93421919,9.7460961124,16,5,7.627,760.75359586642,40.026248,0.671082,1.60852695436,-0.223694,0.0,0.0,29.2,-0.5,-5.2,0,0,1024,1024,1024,1024,0,0,0,0,0,0,0,81,3.815,3.812,0,0,0,0,4.458,60.8,756.16041986642,35.433072,6,P-GPS,,10.8
286600,2026-01-11 17:22:39,756.16041986642,36.417324,0.223694,0.96127627748,9.7738192104,16,5,7.627,760.75359586642,40.026248,0.671082,1.60852695436,-0.223694,0.0,0.0,29.4,-1.4,-4.9,0,0,1024,1024,1024,1024,0,0,0,0,0,0,0,81,3.815,3.812,0,0,0,0,4.458,60.8,756.16041986642,35.433072,6,P-GPS,,10.8
286700,2026-01-11 17:22:39,756.16041986642,36.417324,0.223694,1.0202264106,9.8342522832,16,5,7.627,760.75359586642,40.026248,0.671082,1.60852695436,-0.223694,0.0,0.0,29.5,-2.0,-5.1,0,0,1024,1024,1024,1024,0,0,0,0,0,0,0,81,3.815,3.812,0,0,0,0,4.458,60.8,756.16041986642,35.433072,6,P-GPS,,10.8
286800,2026-01-11 17:22:39,756.48850386642,36.417324,0.223694,1.0763943914,9.8907155396,16,5,7.627,760.75359586642,40.026248,0.671082,1.60852695436,-0.223694,0.0,0.0,29.5,-1.7,-5.4,0,0,1024,1024,1024,1024,0,0,0,0,0,0,0,81,3.815,3.812,0,0,0,0,4.458,60.8,756.48850386642,35.761156,6,P-GPS,,10.9
286900,2026-01-11 17:22:39,756.48850386642,36.417324,0.223694,1.11547903832,9.9304137036,16,5,7.603,760.75359586642,40.026248,0.671082,1.60852695436,-0.223694,0.0,0.0,29.6,-1.0,-5.7,0,0,1024,1024,1024,1024,0,0,0,0,0,0,0,81,3.798,3.796,0,0,0,0,4.897,60.8,756.48850386642,35.761156,6,P-GPS,,10.9
287000,2026-01-11 17:22:39,756.48850386642,36.417324,0.223694,1.13772313352,9.9539373264,16,5,7.603,760.75359586642,40.026248,0.671082,1.60852695436,-0.223694,0.0,0.0,29.5,-0.7,-6.3,0,0,1024,1024,1024,1024,0,0,0,0,0,0,0,81,3.798,3.796,0,0,0,0,4.897,60.8,756.48850386642,35.761156,6,P-GPS,,10.9
287100,2026-01-11 17:22:39,756.81658786642,36.417324,0.223694,1.1773622424,9.9938979576,16,5,7.603,760.75359586642,40.026248,0.671082,1.60852695436,-0.223694,0.0,0.0,29.8,-0.6,-6.6,0,0,1024,1024,1024,1024,0,0,0,0,0,0,0,81,3.798,3.796,0,0,0,0,4.897,60.8,756.81658786642,36.08924,6,P-GPS,,11.0
287200,2026-01-11 17:22:39,756.81658786642,36.417324,0.0,1.22028219128,10.0369753868,16,5,7.603,760.75359586642,40.026248,0.671082,1.60852695436,0.0,0.0,0.223694,29.7,-1.1,-6.5,0,0,1024,1024,1024,1024,0,0,0,0,0,0,0,81,3.798,3.796,0,0,0,0,4.897,60.8,756.81658786642,36.08924,6,P-GPS,,11.0
287300,2026-01-11 17:22:40,756.81658786642,36.417324,0.0,1.22187011784,10.0576774872,16,5,7.603,760.75359586642,40.026248,0.671082,1.60852695436,0.0,0.0,0.223694,29.7,-0.9,-7.0,0,0,1024,1024,1024,1024,0,0,0,0,0,0,0,81,3.798,3.796,0,0,0,0,4.897,60.8,756.81658786642,36.08924,6,P-GPS,,11.0
287400,2026-01-11 17:22:40,756.81658786642,36.417324,0.0,1.16137142824,10.1462273588,16,5,7.603,760.75359586642,40.026248,0.671082,1.60852695436,0.0,0.0,0.0,29.6,-0.7,-6.5,0,0,1024,1024,1024,1024,0,0,0,0,0,0,0,81,3.798,3.796,0,0,0,0,4.897,60.8,756.81658786642,36.08924,6,P-GPS,,11.0
287500,2026-01-11 17:22:40,756.81658786642,36.417324,0.0,1.16120082456,10.1563979628,16,5,7.603,760.75359586642,40.026248,0.671082,1.60852695436,0.0,0.0,0.0,29.8,-1.2,-6.2,0,0,1024,1024,1024,1024,0,0,0,0,0,0,0,81,3.798,3.796,0,0,0,0,4.897,60.8,756.81658786642,36.08924,6,P-GPS,,11.0
287600,2026-01-11 17:22:40,756.81658786642,36.417324,0.0,1.15599741232,10.16650295,16,5,7.603,760.75359586642,40.026248,0.671082,1.60852695436,0.0,0.0,0.0,29.9,-2.0,-5.7,0,0,1024,1024,1024,1024,0,0,0,0,0,0,0,81,3.798,3.796,0,0,0,0,4.897,60.8,756.81658786642,36.08924,6,P-GPS,,11.0
287700,2026-01-11 17:22:40,756.81658786642,36.417324,0.0,1.13439308092,10.1919622684,16,5,7.603,760.75359586642,40.026248,0.671082,1.60852695436,0.0,0.0,0.0,29.8,-1.0,-5.5,0,0,1024,1024,1024,1024,0,0,0,0,0,0,0,81,3.798,3.796,0,0,0,0,4.897,60.8,756.81658786642,36.08924,6,P-GPS,,11.0
287800,2026-01-11 17:22:40,756.81658786642,36.417324,0.223694,1.07920935212,10.2595803808,16,5,7.603,760.75359586642,40.026248,0.671082,1.60852695436,0.223694,0.0,0.0,30.0,-0.3,-5.4,0,0,1024,1024,1024,1024,0,0,0,0,0,0,0,81,3.798,3.796,0,0,0,0,4.897,60.8,756.81658786642,36.08924,6,P-GPS,,11.0
287900,2026-01-11 17:22:40,756.48850386642,36.417324,0.223694,1.02358270992,10.3202431124,16,5,7.603,760.75359586642,40.026248,0.671082,1.60852695436,0.223694,0.0,0.0,29.9,2.0,-4.8,0,0,1024,1024,1024,1024,0,0,0,0,0,0,0,81,3.798,3.796,0,0,0,0,4.897,60.8,756.48850386642,35.761156,6,P-GPS,,10.9
288000,2026-01-11 17:22:40,756.48850386642,36.417324,0.447388,0.95382548984,10.3956368156,16,5,7.594,760.75359586642,40.026248,0.671082,1.60852695436,0.447388,0.0,0.0,29.7,3.7,-3.9,0,0,1024,1024,1024,1024,0,0,0,0,0,0,0,80,3.796,3.797,0,0,0,0,5.086,60.8,756.48850386642,35.761156,6,P-GPS,,10.9
288100,2026-01-11 17:22:40,756.16041986642,36.417324,0.223694,0.88158795472,10.4695541408,16,5,7.594,760.75359586642,40.026248,0.671082,1.60852695436,0.223694,0.0,0.223694,29.5,4.4,-3.6,0,0,1024,1024,1024,1024,0,0,0,0,0,0,0,80,3.796,3.797,0,0,0,0,5.086,60.8,756.16041986642,35.433072,6,P-GPS,,10.8
288200,2026-01-11 17:22:40,756.16041986642,36.417324,0.223694,0.81284123336,10.5386158228,16,5,7.594,760.75359586642,40.026248,0.671082,1.60852695436,0.223694,0.0,0.223694,29.2,4.1,-3.1,0,0,1024,1024,1024,1024,0,0,0,0,0,0,0,80,3.796,3.797,0,0,0,0,5.086,60.8,756.16041986642,35.433072,6,P-GPS,,10.8
288300,2026-01-11 17:22:41,756.16041986642,36.417324,0.0,0.72570212296,10.6374019152,16,5,7.594,760.75359586642,40.026248,0.671082,1.60852695436,0.0,0.0,0.223694,29.2,3.6,-3.6,0,0,1024,1024,1024,1024,0,0,0,0,0,0,0,80,3.796,3.797,0,0,0,0,5.086,60.8,756.16041986642,35.433072,6,P-GPS,,10.8
288400,2026-01-11 17:22:41,756.16041986642,36.417324,0.223694,0.67948164904,10.6850069036,16,5,7.594,760.75359586642,40.026248,0.671082,1.60852695436,0.0,-0.223694,0.223694,29.5,2.1,-3.3,0,0,1024,1024,1024,1024,0,0,0,0,0,0,0,80,3.796,3.797,0,0,0,0,5.086,60.8,756.16041986642,35.433072,6,P-GPS,,10.8
288500,2026-01-11 17:22:41,755.83233586642,36.417324,0.223694,0.64134844572,10.734416354,16,5,7.594,760.75359586642,40.026248,0.671082,1.60852695436,0.0,-0.223694,0.223694,29.6,1.6,-3.0,0,0,1024,1024,1024,1024,0,0,0,0,0,0,0,80,3.796,3.797,0,0,0,0,5.086,60.8,755.83233586642,35.104988,6,P-GPS,,10.7
288600,2026-01-11 17:22:41,755.83233586642,36.417324,0.223694,0.60453742092,10.7889111064,16,5,7.594,760.75359586642,40.026248,0.671082,1.60852695436,0.0,-0.223694,0.0,29.7,0.6,-2.5,0,0,1024,1024,1024,1024,0,0,0,0,0,0,0,80,3.796,3.797,0,0,0,0,5.086,60.8,755.83233586642,35.104988,6,P-GPS,,10.7
288700,2026-01-11 17:22:41,755.83233586642,36.417324,0.223694,0.57720474288,10.8807746264,16,5,7.594,760.75359586642,40.026248,0.671082,1.60852695436,0.0,-0.223694,0.0,29.6,1.5,-2.5,0,0,1024,1024,1024,1024,0,0,0,0,0,0,0,80,3.796,3.797,0,0,0,0,5.086,60.8,755.83233586642,35.104988,6,P-GPS,,10.7
288800,2026-01-11 17:22:41,755.83233586642,36.417324,0.0,0.54918965012,10.9269688536,16,5,7.594,760.75359586642,40.026248,0.671082,1.60852695436,0.0,0.0,0.0,29.8,1.6,-2.3,0,0,1024,1024,1024,1024,0,0,0,0,0,0,0,80,3.796,3.797,0,0,0,0,5.086,60.8,755.83233586642,35.104988,6,P-GPS,,10.7
288900,2026-01-11 17:22:41,755.50425186642,36.417324,0.0,0.54384516176,10.953576466,16,5,7.594,760.75359586642,40.026248,0.671082,1.60852695436,0.0,0.0,0.0,30.2,1.5,-1.7,0,0,1024,1024,1024,1024,0,0,0,0,0,0,0,80,3.796,3.797,0,0,0,0,5.086,60.8,755.50425186642,34.776904,6,P-GPS,,10.6
289000,2026-01-11 17:22:41,755.50425186642,36.417324,0.0,0.53856300936,10.968340246,16,5,7.594,760.75359586642,40.026248,0.671082,1.60852695436,0.0,0.0,0.0,30.2,2.1,-2.0,0,0,1024,1024,1024,1024,0,0,0,0,0,0,0,80,3.796,3.797,0,0,0,0,5.086,60.8,755.50425186642,34.776904,6,P-GPS,,10.6
289100,2026-01-11 17:22:41,755.50425186642,36.417324,0.0,0.52745736596,10.9900594068,16,5,7.572,760.75359586642,40.026248,0.671082,1.60852695436,0.0,0.0,0.0,30.0,2.9,-2.7,0,0,1024,1024,1024,1024,0,0,0,0,0,0,0,80,3.787,3.785,0,0,0,0,5.261,60.8,755.50425186642,34.776904,6,P-GPS,,10.6
289200,2026-01-11 17:22:41,755.50425186642,36.417324,0.0,0.49002954324,11.0283468096,16,5,7.572,760.75359586642,40.026248,0.671082,1.60852695436,0.0,0.0,0.0,29.9,3.4,-3.1,0,0,1024,1024,1024,1024,0,0,0,0,0,0,0,80,3.787,3.785,0,0,0,0,5.261,60.8,755.50425186642,34.776904,6,P-GPS,,10.6
289300,2026-01-11 17:22:42,755.50425186642,36.417324,0.0,0.46097770504,11.0587930048,16,5,7.572,760.75359586642,40.026248,0.671082,1.60852695436,0.0,0.0,0.0,29.8,3.6,-3.3,0,0,1024,1024,1024,1024,0,0,0,0,0,0,0,80,3.787,3.785,0,0,0,0,5.261,60.8,755.50425186642,34.776904,6,P-GPS,,10.6
289400,2026-01-11 17:22:42,755.50425186642,36.417324,0.0,0.43418964644,11.0867129532,16,5,7.572,760.75359586642,40.026248,0.671082,1.60852695436,0.0,0.0,0.0,29.9,3.4,-2.7,0,0,1024,1024,1024,1024,0,0,0,0,0,0,0,80,3.787,3.785,0,0,0,0,5.261,60.8,755.50425186642,34.776904,6,P-GPS,,10.6
289500,2026-01-11 17:22:42,755.17616786642,36.417324,0.0,0.3796588048,11.1694885464,16,5,7.572,760.75359586642,40.026248,0.671082,1.60852695436,0.0,0.0,0.0,30.0,3.7,-2.6,0,0,1024,1024,1024,1024,0,0,0,0,0,0,0,80,3.787,3.785,0,0,0,0,5.261,60.8,755.17616786642,34.44882,6,P-GPS,,10.5
289600,2026-01-11 17:22:42,755.17616786642,36.417324,0.223694,0.34360565404,11.2076447156,16,5,7.572,760.75359586642,40.026248,0.671082,1.60852695436,0.223694,0.0,0.0,29.9,4.0,-2.3,0,0,1024,1024,1024,1024,0,0,0,0,0,0,0,80,3.787,3.785,0,0,0,0,5.261,60.8,755.17616786642,34.44882,6,P-GPS,,10.5
289700,2026-01-11 17:22:42,755.17616786642,36.417324,0.0,0.312839248856,11.23933763,16,5,7.572,760.75359586642,40.026248,0.671082,1.60852695436,0.0,0.0,0.0,30.0,4.4,-1.6,0,0,1024,1024,1024,1024,0,0,0,0,0,0,0,80,3.787,3.785,0,0,0,0,5.261,60.8,755.17616786642,34.44882,6,P-GPS,,10.5
289800,2026-01-11 17:22:42,755.17616786642,36.417324,0.0,0.287208670608,11.2665357936,16,5,7.572,760.75359586642,40.026248,0.671082,1.60852695436,0.0,0.0,0.0,30.2,3.4,-1.6,0,0,1024,1024,1024,1024,0,0,0,0,0,0,0,80,3.787,3.785,0,0,0,0,5.261,60.8,755.17616786642,34.44882,6,P-GPS,,10.5
289900,2026-01-11 17:22:42,755.17616786642,36.417324,0.0,0.260786753752,11.2939964244,16,5,7.572,760.75359586642,40.026248,0.671082,1.60852695436,0.0,0.0,0.0,30.2,4.2,-1.8,0,0,1024,1024,1024,1024,0,0,0,0,0,0,0,80,3.787,3.785,0,0,0,0,5.261,60.8,755.17616786642,34.44882,6,P-GPS,,10.5
290000,2026-01-11 17:22:42,755.17616786642,36.417324,0.0,0.220261489988,11.3383533812,16,5,7.572,760.75359586642,40.026248,0.671082,1.60852695436,0.0,0.0,0.0,30.0,5.1,-2.4,0,0,1024,1024,1024,1024,0,0,0,0,0,0,0,80,3.787,3.785,0,0,0,0,5.261,60.8,755.17616786642,34.44882,6,P-GPS,,10.5
290100,2026-01-11 17:22:42,755.17616786642,36.417324,0.223694,0.207985899044,11.3719819912,16,5,7.572,760.75359586642,40.026248,0.671082,1.60852695436,0.0,0.223694,0.0,30.0,5.2,-3.2,0,0,1024,1024,1024,1024,0,0,0,0,0,0,0,80,3.787,3.785,0,0,0,0,5.261,60.8,755.17616786642,34.44882,6,P-GPS,,10.5
290200,2026-01-11 17:22:42,755.17616786642,36.417324,0.223694,0.208073169388,11.410269394,16,5,7.572,760.75359586642,40.026248,0.671082,1.60852695436,0.0,0.223694,0.0,29.8,5.4,-4.1,0,0,1024,1024,1024,1024,0,0,0,0,0,0,0,80,3.797,3.794,0,0,0,0,5.261,60.8,755.17616786642,34.44882,6,P-GPS,,10.5
290300,2026-01-11 17:22:43,755.17616786642,36.417324,0.223694,0.215561686688,11.451279894,16,5,7.572,760.75359586642,40.026248,0.671082,1.60852695436,0.0,0.223694,0.0,29.7,5.8,-4.3,0,0,1024,1024,1024,1024,0,0,0,0,0,0,0,80,3.797,3.794,0,0,0,0,5.261,60.8,755.17616786642,34.44882,6,P-GPS,,10.5
290400,2026-01-11 17:22:43,755.17616786642,36.417324,0.223694,0.214197513416,11.5039045676,16,5,7.572,760.75359586642,40.026248,0.671082,1.60852695436,0.0,0.223694,0.0,29.6,6.1,-4.4,0,0,1024,1024,1024,1024,0,0,0,0,0,0,0,80,3.797,3.794,0,0,0,0,5.261,60.8,755.17616786642,34.44882,6,P-GPS,,10.5
290500,2026-01-11 17:22:43,755.17616786642,36.417324,0.0,0.261145677648,11.557415068,16,5,7.572,760.75359586642,40.026248,0.671082,1.60852695436,0.0,0.0,0.0,29.4,5.8,-4.6,0,0,1024,1024,1024,1024,0,0,0,0,0,0,0,80,3.797,3.794,0,0,0,0,5.261,60.8,755.17616786642,34.44882,6,P-GPS,,10.5
290600,2026-01-11 17:22:43,755.17616786642,36.417324,0.0,0.317697188644,11.6153547024,16,5,7.572,760.75359586642,40.026248,0.671082,1.60852695436,0.0,0.0,0.0,29.4,5.4,-5.0,0,0,1024,1024,1024,1024,0,0,0,0,0,0,0,80,3.797,3.794,0,0,0,0,5.261,60.8,755.17616786642,34.44882,6,P-GPS,,10.5
290700,2026-01-11 17:22:43,755.50425186642,36.417324,0.0,0.35566274104,11.6560699268,16,5,7.572,760.75359586642,40.026248,0.671082,1.60852695436,0.0,0.0,0.0,29.5,4.9,-5.3,0,0,1024,1024,1024,1024,0,0,0,0,0,0,0,80,3.797,3.794,0,0,0,0,5.261,60.8,755.50425186642,34.776904,6,P-GPS,,10.6
