time(millisecond),timestamp,altitude_above_seaLevel(feet),height_sonar(feet),speed(mph),distance(feet),mileage(feet),satellites,gpslevel,voltage(v),max_altitude(feet),max_ascent(feet),max_speed(mph),max_distance(feet), xSpeed(mph), ySpeed(mph), zSpeed(mph), compass_heading(degrees), pitch(degrees), roll(degrees),isPhoto,isVideo,rc_elevator,rc_aileron,rc_throttle,rc_rudder,rc_elevator(percent),rc_aileron(percent),rc_throttle(percent),rc_rudder(percent),gimbal_heading(degrees),gimbal_pitch(degrees),gimbal_roll(degrees),battery_percent,voltageCell1,voltageCell2,voltageCell3,voltageCell4,voltageCell5,voltageCell6,current(A),battery_temperature(f),altitude(feet),ascent(feet),flycStateRaw,flycState,message,height_above_takeoff(meters)
411100,2026-01-11 17:24:51,720.72734786642,0.328084,0.0,0.0,0.0,15,5,0.0,720.72734786642,0.0,0.0,0.0,0.0,0.0,0.0,26.6,2.3,0.0,0,0,1024,1024,1024,1024,0,0,0,0,0,0,0,72,3.847,3.844,0,0,0,0,0.0,62.6,720.72734786642,0.0,41,Motors_Started,SD card speed low SD card speed low. Normal use may be affected. Replace SD card (Code: 10028),0.0
411200,2026-01-11 17:24:51,720.72734786642,0.328084,0.0,0.0232858275168,0.0232858275168,15,5,0.0,720.72734786642,0.0,0.0,0.0232858275168,0.0,0.0,0.0,26.6,2.3,0.0,0,0,1024,1024,1024,1024,0,0,0,0,0,0,0,72,3.847,3.844,0,0,0,0,0.0,62.6,720.72734786642,0.0,41,Motors_Started,,0.0
411300,2026-01-11 17:24:51,720.72734786642,0.328084,0.0,0.081146328056,0.081511813632,15,5,0.0,720.72734786642,0.0,0.0,0.081146328056,0.0,0.0,0.0,26.6,2.3,0.0,0,0,1024,1024,1024,1024,0,0,0,0,0,0,0,72,3.847,3.844,0,0,0,0,0.0,62.6,720.72734786642,0.0,41,Motors_Started,Setting new Return-To-Home altitude to 90m (295 ft). Data Recorder File Index is 34. Setting new Maximum Flight Altitude to 90m (295 ft),0.0
411400,2026-01-11 17:24:51,720.72734786642,0.328084,0.0,1.24183731008,0.10056430768,15,5,0.0,720.72734786642,0.0,0.0,1.24183731008,0.0,0.0,0.0,26.6,2.3,0.0,0,0,1024,1024,1024,1024,0,0,0,0,0,0,0,72,3.847,3.844,0,0,0,0,0.0,62.6,720.72734786642,0.0,41,Motors_Started,,0.0
411500,2026-01-11 17:24:51,720.72734786642,0.328084,0.0,1.24479334692,0.103527234284,15,5,0.0,720.72734786642,0.0,0.0,1.24479334692,0.0,0.0,0.0,26.6,2.3,0.0,0,0,1024,1024,1024,1024,0,0,0,0,0,0,0,72,3.847,3.844,0,0,0,0,0.0,62.6,720.72734786642,0.0,41,Motors_Started,,0.0
411600,2026-01-11 17:24:51,720.72734786642,0.328084,0.0,1.24767392444,0.112349741128,15,5,7.69,720.72734786642,0.0,0.0,1.24767392444,0.0,0.0,0.0,26.6,2.3,0.0,0,0,1024,1024,1024,1024,0,0,0,0,0,0,0,72,3.847,3.844,0,0,0,0,1.272,62.6,720.72734786642,0.0,41,Motors_Started,,0.0
411700,2026-01-11 17:24:51,720.72734786642,0.328084,0.0,1.2524278616,0.134450135536,15,5,7.69,720.72734786642,0.0,0.0,1.2524278616,0.0,0.0,0.0,26.6,2.2,-0.1,0,0,1024,1024,1024,1024,0,0,0,0,0,0,0,72,3.847,3.844,0,0,0,0,1.272,62.6,720.72734786642,0.0,41,Motors_Started,,0.0
411800,2026-01-11 17:24:52,720.72734786642,0.328084,0.0,1.22907156164,0.16915518914,15,5,7.69,720.72734786642,0.0,0.0,1.2524278616,0.0,0.0,0.0,26.6,2.3,0.0,0,0,1024,1024,1024,1024,0,0,0,0,0,0,0,72,3.847,3.844,0,0,0,0,1.272,62.6,720.72734786642,0.0,41,Motors_Started,,0.0
411900,2026-01-11 17:24:52,720.72734786642,0.328084,0.0,1.24875988248,0.190471462788,15,5,7.69,720.72734786642,0.0,0.0,1.2524278616,0.0,0.0,0.0,26.6,2.4,0.0,0,0,1024,1024,1024,1024,0,0,0,0,0,0,0,72,3.847,3.844,0,0,0,0,1.272,62.6,720.72734786642,0.0,41,Motors_Started,,0.0
412000,2026-01-11 17:24:52,720.72734786642,0.328084,0.0,1.26594164156,0.21240322202,15,5,7.69,720.72734786642,0.0,0.0,1.26594164156,0.0,0.0,0.0,26.6,2.3,0.0,0,0,1024,1024,1024,1024,0,0,0,0,0,0,0,72,3.847,3.844,0,0,0,0,1.272,62.6,720.72734786642,0.0,41,Motors_Started,,0.0
412100,2026-01-11 17:24:52,720.72734786642,0.328084,0.0,1.28054794124,0.239927173032,15,5,7.69,720.72734786642,0.0,0.0,1.28054794124,0.0,0.0,0.0,26.6,2.3,0.0,0,0,1024,1024,1024,1024,0,0,0,0,0,0,0,72,3.847,3.844,0,0,0,0,1.272,62.6,720.72734786642,0.0,41,Motors_Started,,0.0
412200,2026-01-11 17:24:52,720.72734786642,0.328084,0.0,1.30851710224,0.282907817452,15,5,7.69,720.72734786642,0.0,0.0,1.30851710224,0.0,0.0,0.0,26.6,2.3,0.0,0,0,1024,1024,1024,1024,0,0,0,0,0,0,0,72,3.847,3.844,0,0,0,0,1.272,62.6,720.72734786642,0.0,11,AutoTakeoff,,0.0
412300,2026-01-11 17:24:52,720.72734786642,0.328084,0.0,1.33069886148,0.306020351,15,5,7.69,720.72734786642,0.0,0.0,1.33069886148,0.0,0.0,0.0,26.6,2.3,0.0,0,0,1024,1024,1024,1024,0,0,0,0,0,0,0,72,3.847,3.844,0,0,0,0,1.272,62.6,720.72734786642,0.0,11,AutoTakeoff,,0.0
412400,2026-01-11 17:24:52,720.72734786642,0.328084,0.0,1.3530348202,0.32856300264,15,5,7.69,720.72734786642,0.0,0.0,1.3530348202,0.0,0.0,0.0,26.7,2.3,0.0,0,0,1024,1024,1024,1024,0,0,0,0,0,0,0,72,3.847,3.844,0,0,0,0,1.272,62.6,720.72734786642,0.0,11,AutoTakeoff,,0.0
412500,2026-01-11 17:24:52,720.72734786642,0.328084,0.0,1.37742130392,0.35295932888,15,5,7.69,720.72734786642,0.0,0.0,1.37742130392,0.0,0.0,0.0,26.7,2.3,0.0,0,0,1024,1024,1024,1024,0,0,0,0,0,0,0,72,3.847,3.844,0,0,0,0,1.272,62.6,720.72734786642,0.0,11,AutoTakeoff,,0.0
412600,2026-01-11 17:24:52,720.72734786642,0.328084,0.0,1.41894361496,0.39451116748,15,5,7.69,720.72734786642,0.0,0.0,1.41894361496,0.0,0.0,0.0,26.9,2.3,0.0,0,0,1024,1024,1024,1024,0,0,0,0,0,0,0,72,3.847,3.844,0,0,0,0,1.272,62.6,720.72734786642,0.0,11,AutoTakeoff,,0.0
412700,2026-01-11 17:24:53,720.72734786642,0.328084,0.0,1.43157484896,0.4179954202,15,5,7.69,720.72734786642,0.0,0.0,1.43157484896,0.0,0.0,0.0,28.1,2.3,0.0,0,0,1024,1024,1024,1024,0,0,0,0,0,0,0,72,3.811,3.807,0,0,0,0,1.272,62.6,720.72734786642,0.0,11,AutoTakeoff,,0.0
412800,2026-01-11 17:24:53,720.72734786642,0.328084,0.0,1.44189965244,0.43536418716,15,5,7.69,720.72734786642,0.0,0.0,1.44189965244,0.0,0.0,0.0,30.1,2.7,0.3,0,0,1024,1024,1024,1024,0,0,0,0,0,0,0,72,3.811,3.807,0,0,0,0,1.272,62.6,720.72734786642,0.0,11,AutoTakeoff,,0.0
412900,2026-01-11 17:24:53,720.72734786642,0.328084,0.0,1.44177498052,0.44203741572,15,5,7.69,720.72734786642,0.0,0.0,1.44189965244,0.0,0.0,0.0,32.5,3.1,0.8,0,0,1024,1024,1079,1024,0,0,8,0,0,0,0,72,3.811,3.807,0,0,0,0,1.272,62.6,720.72734786642,0.0,11,AutoTakeoff,,0.0
413000,2026-01-11 17:24:53,720.72734786642,0.328084,0.223694,1.41044295852,0.48136156396,15,5,7.69,720.72734786642,0.0,0.223694,1.44189965244,-0.223694,0.0,-0.223694,35.3,2.6,0.8,0,0,1024,1024,1135,1024,0,0,17,0,0,0,0,72,3.811,3.807,0,0,0,0,1.272,62.6,720.72734786642,0.0,11,AutoTakeoff,,0.0
413100,2026-01-11 17:24:53,720.72734786642,0.328084,0.223694,1.3489009618,0.54959319344,15,5,7.69,720.72734786642,0.0,0.223694,1.44189965244,-0.447388,0.223694,-0.447388,37.3,2.1,-0.1,0,0,1024,1024,1183,1024,0,0,24,0,0,0,0,72,3.811,3.807,0,0,0,0,1.272,62.6,720.72734786642,0.0,11,AutoTakeoff,,0.0
413200,2026-01-11 17:24:53,720.72734786642,0.328084,0.4921268,1.27412405652,0.62897639808,15,5,7.69,720.72734786642,0.0,0.4921268,1.44189965244,-0.447388,0.223694,-0.671082,37.2,1.8,-2.3,0,0,1024,1024,1236,1024,0,0,32,0,0,0,0,72,3.811,3.807,0,0,0,0,1.272,62.6,720.72734786642,0.0,11,AutoTakeoff,,0.0
413300,2026-01-11 17:24:53,720.72734786642,0.656168,0.4921268,1.19664701992,0.70976708308,15,5,7.69,720.72734786642,0.0,0.4921268,1.44189965244,-0.447388,0.223694,-0.894776,37.2,-0.1,-2.6,0,0,1024,1024,1316,1024,0,0,44,0,0,0,0,72,3.811,3.807,0,0,0,0,1.272,62.6,720.72734786642,0.0,11,AutoTakeoff,,0.0
413400,2026-01-11 17:24:53,721.05543186642,0.656168,0.4921268,1.11091867072,0.79808729588,15,5,7.69,721.05543186642,0.328084,0.4921268,1.44189965244,-0.447388,0.223694,-1.342164,37.0,-0.5,-3.0,0,0,1024,1024,1684,1024,0,0,100,0,0,0,0,72,3.811,3.807,0,0,0,0,1.272,62.6,721.05543186642,0.328084,11,AutoTakeoff,SD card speed low. Normal use may be affected. Replace SD card (Code: 10028). Gimbal stuck. Make sure gimbal cover is removed and manually check whether gimbal can rotate freely (Code: 40002). Home Point updated. RTH altitude adjusted to 90 m (Code: ,0.1
413500,2026-01-11 17:24:53,721.05543186642,0.984252,0.4921268,0.9788058056,0.93215882248,15,5,7.69,721.05543186642,0.328084,0.4921268,1.44189965244,-0.447388,0.223694,-1.789552,37.1,-0.1,-2.8,0,0,1024,1024,1684,1024,0,0,100,0,0,0,0,72,3.811,3.807,0,0,0,0,1.272,62.6,721.05543186642,0.328084,11,AutoTakeoff,,0.1
413600,2026-01-11 17:24:53,721.38351586642,0.984252,0.4921268,0.87814307272,1.03293638476,15,5,7.69,721.38351586642,0.656168,0.4921268,1.44189965244,-0.223694,0.447388,-2.23694,37.2,-0.1,-3.9,0,0,1024,1024,1684,1024,0,0,100,0,0,0,0,72,3.811,3.807,0,0,0,0,1.272,62.6,721.38351586642,0.656168,11,AutoTakeoff,,0.2
413700,2026-01-11 17:24:53,722.03968386642,1.312336,0.4921268,0.77046262308,1.14567917052,15,5,7.69,722.03968386642,1.312336,0.4921268,1.44189965244,-0.223694,0.447388,-2.684328,37.3,0.6,-4.8,0,0,1024,1024,1684,1024,0,0,100,0,0,0,0,72,3.811,3.807,0,0,0,0,1.272,62.6,722.03968386642,1.312336,11,AutoTakeoff,,0.4
413800,2026-01-11 17:24:54,722.36776786642,1.64042,0.4921268,0.67075461464,1.24927169352,15,5,7.69,722.36776786642,1.64042,0.4921268,1.44189965244,-0.223694,0.447388,-3.131716,37.2,1.2,-4.9,0,0,1024,1024,1684,1024,0,0,100,0,0,0,0,72,3.811,3.807,0,0,0,0,1.272,62.6,722.36776786642,1.64042,11,AutoTakeoff,,0.5
413900,2026-01-11 17:24:54,723.02393586642,2.296588,0.4921268,0.5228346624,1.40086290572,15,5,7.43,723.02393586642,2.296588,0.4921268,1.44189965244,-0.223694,0.447388,-3.579104,37.1,1.3,-5.4,0,0,1024,1024,1684,1024,0,0,100,0,0,0,0,72,3.719,3.712,0,0,0,0,5.911,62.6,723.02393586642,2.296588,11,AutoTakeoff,,0.7
414000,2026-01-11 17:24:54,723.68010386642,2.624672,0.3131716,0.44753610356,1.47944886624,15,5,7.43,723.68010386642,2.952756,0.4921268,1.44189965244,-0.223694,0.223694,-3.802798,37.1,1.0,-5.5,0,0,1024,1024,1684,1024,0,0,100,0,0,0,0,72,3.719,3.712,0,0,0,0,5.911,62.6,723.68010386642,2.952756,11,AutoTakeoff,,0.9
414100,2026-01-11 17:24:54,724.00818786642,3.28084,0.223694,0.39664699432,1.53724414368,15,5,7.43,724.00818786642,3.28084,0.4921268,1.44189965244,0.0,0.223694,-4.026492,37.1,0.8,-4.8,0,0,1024,1024,1684,1024,0,0,100,0,0,0,0,72,3.719,3.712,0,0,0,0,5.911,62.6,724.00818786642,3.28084,6,P-GPS,,1.0
414200,2026-01-11 17:24:54,724.66435586642,3.937008,0.223694,0.36150263624,1.58859257052,16,5,7.43,724.66435586642,3.937008,0.4921268,1.44189965244,0.0,0.223694,-4.250186,37.2,0.7,-3.4,0,0,1024,1024,1684,1024,0,0,100,0,0,0,0,72,3.719,3.712,0,0,0,0,5.911,62.6,724.66435586642,3.937008,6,P-GPS,,1.2
414300,2026-01-11 17:24:54,725.32052386642,4.593176,0.223694,0.34696851504,1.72747052772,16,5,7.43,725.32052386642,4.593176,0.4921268,1.44189965244,0.0,0.223694,-4.47388,37.1,1.3,-2.9,0,0,1024,1024,1684,1024,0,0,100,0,0,0,0,72,3.719,3.712,0,0,0,0,5.911,62.6,725.32052386642,4.593176,6,P-GPS,,1.4
414400,2026-01-11 17:24:54,725.97669186642,5.249344,0.223694,0.38120736128,1.78924874492,16,5,7.43,725.97669186642,5.249344,0.4921268,1.44189965244,0.0,0.223694,-4.47388,37.0,1.8,-2.5,0,0,1024,1024,1684,1024,0,0,100,0,0,0,0,72,3.719,3.712,0,0,0,0,5.911,62.6,725.97669186642,5.249344,6,P-GPS,,1.6
414500,2026-01-11 17:24:54,726.63285986642,5.905512,0.223694,0.45573164188,1.8667323432,16,5,7.43,726.63285986642,5.905512,0.4921268,1.44189965244,0.0,0.223694,-4.47388,36.9,2.5,-2.6,0,0,1024,1024,1684,1068,0,0,100,7,0,0,0,72,3.719,3.712,0,0,0,0,5.911,62.6,726.63285986642,5.905512,6,P-GPS,,1.8
414600,2026-01-11 17:24:54,727.28902786642,6.56168,0.223694,0.50819555432,1.91943575696,15,5,7.43,727.28902786642,6.56168,0.4921268,1.44189965244,0.0,0.0,-4.47388,37.1,2.1,-1.7,0,0,1024,1024,1684,1075,0,0,100,8,0,0,0,72,3.719,3.712,0,0,0,0,5.911,62.6,727.28902786642,6.56168,6,P-GPS,,2.0
414700,2026-01-11 17:24:54,727.94519586642,6.889764,0.0,0.60578414012,2.04457355624,15,5,7.43,727.94519586642,7.217848,0.4921268,1.44189965244,0.0,0.0,-4.47388,37.1,2.3,-1.7,0,0,1024,1024,1684,1075,0,0,100,8,0,0,0,72,3.719,3.712,0,0,0,0,5.911,62.6,727.94519586642,7.217848,6,P-GPS,,2.2
414800,2026-01-11 17:24:55,728.60136386642,7.545932,0.0,0.62601379956,2.06500006608,15,5,7.43,728.60136386642,7.874016,0.4921268,1.44189965244,0.0,0.0,-4.47388,37.5,1.8,-1.5,0,0,1024,1024,1684,1127,0,0,100,16,0,0,0,72,3.719,3.712,0,0,0,0,5.911,62.6,728.60136386642,7.874016,6,P-GPS,,2.4
414900,2026-01-11 17:24:55,729.25753186642,8.2021,0.223694,0.64990815728,2.08899612984,15,5,7.43,729.25753186642,8.530184,0.4921268,1.44189965244,0.0,0.223694,-4.47388,38.0,2.0,-2.4,0,0,1024,1024,1684,948,0,0,100,-12,0,0,0,72,3.719,3.712,0,0,0,0,5.911,62.6,729.25753186642,8.530184,6,P-GPS,,2.6
415000,2026-01-11 17:24:55,729.91369986642,8.858268,0.223694,0.673802515,2.120488913,15,5,7.441,729.91369986642,9.186352,0.4921268,1.44189965244,0.0,0.223694,-4.250186,39.1,3.1,-2.1,0,0,1024,1024,1684,929,0,0,100,-14,0,0,0,72,3.731,3.73,0,0,0,0,6.188,62.78,729.91369986642,9.186352,6,P-GPS,,2.8
415100,2026-01-11 17:24:55,730.56986786642,9.514436,0.223694,0.69460960228,2.16744757592,15,5,7.441,730.56986786642,9.84252,0.4921268,1.44189965244,0.0,0.223694,-4.250186,39.3,3.0,-2.3,0,0,1024,1024,1684,931,0,0,100,-14,0,0,0,72,3.731,3.73,0,0,0,0,6.188,62.78,730.56986786642,9.84252,6,P-GPS,,3.0
415200,2026-01-11 17:24:55,731.22603586642,9.84252,0.223694,0.69446524532,2.20683406012,15,5,7.441,731.22603586642,10.498688,0.4921268,1.44189965244,0.0,0.223694,-4.250186,38.7,3.1,-2.3,0,0,1024,1024,1684,930,0,0,100,-14,0,0,0,72,3.731,3.73,0,0,0,0,6.188,62.78,731.22603586642,10.498688,6,P-GPS,,3.2
415300,2026-01-11 17:24:55,731.88220386642,10.498688,0.223694,0.68051511364,2.28507553244,15,5,7.441,731.88220386642,11.154856,0.4921268,1.44189965244,0.0,0.223694,-4.250186,38.6,2.3,-2.8,0,0,1024,1024,1684,1024,0,0,100,0,0,0,0,72,3.731,3.73,0,0,0,0,6.188,62.78,731.88220386642,11.154856,6,P-GPS,,3.4
415400,2026-01-11 17:24:55,732.53837186642,11.154856,0.447388,0.69019687248,2.3878609688,15,5,7.441,732.53837186642,11.811024,0.4921268,1.44189965244,0.0,0.447388,-4.47388,38.1,4.0,-5.3,0,0,1024,1024,1684,1024,0,0,100,0,0,0,0,72,3.731,3.73,0,0,0,0,6.188,62.78,732.53837186642,11.811024,6,P-GPS,,3.6
415500,2026-01-11 17:24:55,733.19453986642,11.811024,0.447388,0.74337600804,2.52395677368,15,5,7.441,733.19453986642,12.467192,0.4921268,1.44189965244,0.0,0.447388,-4.47388,38.0,4.2,-6.3,0,0,1024,1024,1684,1024,0,0,100,0,0,0,0,72,3.731,3.73,0,0,0,0,6.188,62.78,733.19453986642,12.467192,6,P-GPS,,3.8
415600,2026-01-11 17:24:55,734.17879186642,12.467192,0.223694,0.89947181356,2.80332029968,16,5,7.441,734.17879186642,13.451444,0.4921268,1.44189965244,0.0,0.223694,-4.250186,38.1,4.4,-5.2,0,0,1024,1024,1684,1024,0,0,100,0,0,0,0,72,3.731,3.73,0,0,0,0,6.188,62.78,734.17879186642,13.451444,6,P-GPS,,4.1
415700,2026-01-11 17:24:55,734.83495986642,13.12336,0.0,0.94605974156,2.85668972396,16,5,7.441,734.83495986642,14.107612,0.4921268,1.44189965244,0.0,0.0,-4.250186,38.1,3.1,-4.5,0,0,1024,1024,1684,1024,0,0,100,0,0,0,0,72,3.731,3.73,0,0,0,0,6.188,62.78,734.83495986642,14.107612,6,P-GPS,,4.3
415800,2026-01-11 17:24:56,735.49112786642,13.451444,0.0,0.97119753764,2.89517069632,16,5,7.441,735.49112786642,14.76378,0.4921268,1.44189965244,0.0,0.0,-4.47388,38.2,2.4,-4.6,0,0,1024,1024,1684,1024,0,0,100,0,0,0,0,72,3.731,3.73,0,0,0,0,6.188,62.78,735.49112786642,14.76378,6,P-GPS,,4.5
415900,2026-01-11 17:24:56,736.14729586642,14.107612,0.0,0.98005908648,2.93692266616,16,5,7.441,736.14729586642,15.419948,0.4921268,1.44189965244,0.0,0.0,-4.47388,38.3,3.4,-4.8,0,0,1024,1024,1684,1024,0,0,100,0,0,0,0,72,3.731,3.73,0,0,0,0,6.188,62.78,736.14729586642,15.419948,6,P-GPS,,4.7
416000,2026-01-11 17:24:56,736.80346386642,14.76378,0.223694,1.11922903844,3.08310705404,16,5,7.441,736.80346386642,16.076116,0.4921268,1.44189965244,0.0,0.223694,-4.250186,38.1,4.6,-5.1,0,0,1024,1024,1684,1024,0,0,100,0,0,0,0,72,3.731,3.73,0,0,0,0,6.188,62.78,736.80346386642,16.076116,6,P-GPS,,4.9
416100,2026-01-11 17:24:56,737.45963186642,15.419948,0.223694,1.19531827972,3.15933737144,16,5,7.45,737.45963186642,16.732284,0.4921268,1.44189965244,0.0,0.223694,-4.250186,38.4,5.1,-5.0,0,0,1024,1024,1684,1024,0,0,100,0,0,0,0,72,3.729,3.721,0,0,0,0,5.832,62.6,737.45963186642,16.732284,6,P-GPS,,5.1
416200,2026-01-11 17:24:56,738.11579986642,16.076116,0.0,1.22899610232,3.1987533832,16,5,7.45,738.11579986642,17.388452,0.4921268,1.44189965244,0.0,0.0,-4.250186,38.6,4.6,-3.5,0,0,1024,1024,1684,1024,0,0,100,0,0,0,0,72,3.729,3.721,0,0,0,0,5.832,62.6,738.11579986642,17.388452,6,P-GPS,,5.3
416300,2026-01-11 17:24:56,738.77196786642,16.732284,0.0,1.22166342492,3.2351378988,16,5,7.45,738.77196786642,18.04462,0.4921268,1.44189965244,0.0,0.0,-4.250186,38.7,4.6,-3.0,0,0,1024,1024,1684,1024,0,0,100,0,0,0,0,72,3.729,3.721,0,0,0,0,5.832,62.6,738.77196786642,18.04462,6,P-GPS,,5.5
416400,2026-01-11 17:24:56,739.42813586642,17.388452,0.0,1.09495738412,3.4007875104,16,5,7.45,739.42813586642,18.700788,0.4921268,1.44189965244,0.0,0.0,-4.250186,38.4,5.1,-2.1,0,0,1024,1024,1684,1024,0,0,100,0,0,0,0,72,3.729,3.721,0,0,0,0,5.832,62.6,739.42813586642,18.700788,6,P-GPS,,5.7
416500,2026-01-11 17:24:56,740.08430386642,18.04462,0.0,1.0786253626,3.45964578,16,5,7.45,740.08430386642,19.356956,0.4921268,1.44189965244,0.0,0.0,-4.47388,38.6,4.3,-0.8,0,0,1024,1024,1684,1024,0,0,100,0,0,0,0,72,3.729,3.721,0,0,0,0,5.832,62.6,740.08430386642,19.356956,6,P-GPS,,5.9
416600,2026-01-11 17:24:56,740.74047186642,18.700788,0.0,1.0667815302,3.5061024744,15,5,7.45,740.74047186642,20.013124,0.4921268,1.44189965244,0.0,0.0,-4.47388,38.6,3.9,-0.8,0,0,1024,1024,1684,1024,0,0,100,0,0,0,0,72,3.729,3.721,0,0,0,0,5.832,62.6,740.74047186642,20.013124,6,P-GPS,,6.1
416700,2026-01-11 17:24:56,741.39663986642,19.356956,0.0,1.060285467,3.5374344964,15,5,7.45,741.39663986642,20.669292,0.4921268,1.44189965244,0.0,0.0,-4.47388,38.6,3.6,-0.3,0,0,1024,1024,1684,1024,0,0,100,0,0,0,0,72,3.729,3.721,0,0,0,0,5.832,62.6,741.39663986642,20.669292,6,P-GPS,,6.3
416800,2026-01-11 17:24:57,741.72472386642,20.013124,0.0,1.07492785592,3.5568570692,15,5,7.45,741.72472386642,20.997376,0.4921268,1.44189965244,0.0,0.0,-4.47388,38.5,4.2,-1.0,0,0,1024,1024,1684,1024,0,0,100,0,0,0,0,72,3.729,3.721,0,0,0,0,5.832,62.6,741.72472386642,20.997376,6,P-GPS,,6.4
416900,2026-01-11 17:24:57,742.38089186642,20.669292,0.0,1.1825131612,3.7060696724,15,5,7.45,742.38089186642,21.653544,0.4921268,1.44189965244,0.0,0.0,-4.47388,38.4,4.9,-2.0,0,0,1024,1024,1684,1024,0,0,100,0,0,0,0,72,3.729,3.721,0,0,0,0,5.832,62.6,742.38089186642,21.653544,6,P-GPS,,6.6
417000,2026-01-11 17:24:57,743.03705986642,21.32546,0.0,1.19697838476,3.7272638988,15,5,7.45,743.03705986642,22.309712,0.4921268,1.44189965244,0.0,0.0,-4.47388,38.4,4.4,-0.8,0,0,1024,1024,1684,1024,0,0,100,0,0,0,0,72,3.729,3.721,0,0,0,0,5.832,62.6,743.03705986642,22.309712,6,P-GPS,,6.8
417100,2026-01-11 17:24:57,743.69322786642,22.309712,0.0,1.17291998504,3.7744095696,15,5,7.45,743.69322786642,22.96588,0.4921268,1.44189965244,0.0,0.0,-4.47388,38.5,4.5,-0.6,0,0,1024,1024,1684,1024,0,0,100,0,0,0,0,72,3.729,3.721,0,0,0,0,5.832,62.6,743.69322786642,22.96588,6,P-GPS,,7.0
417200,2026-01-11 17:24:57,744.34939586642,23.293964,0.0,1.14762470864,3.8127953976,15,5,7.451,744.34939586642,23.622048,0.4921268,1.44189965244,0.0,0.0,-4.47388,38.5,4.5,-1.2,0,0,1024,1024,1684,1024,0,0,100,0,0,0,0,72,3.729,3.722,0,0,0,0,5.693,62.78,744.34939586642,23.622048,6,P-GPS,,7.2
417300,2026-01-11 17:24:57,745.00556386642,23.950132,0.0,0.97570869264,3.9951116764,15,5,7.451,745.00556386642,24.278216,0.4921268,1.44189965244,0.0,0.0,-4.250186,38.6,4.2,-1.0,0,0,1024,1024,1684,1024,0,0,100,0,0,0,0,72,3.729,3.722,0,0,0,0,5.693,62.78,745.00556386642,24.278216,6,P-GPS,,7.4
417400,2026-01-11 17:24:57,745.66173186642,24.6063,0.0,0.9579724716,4.0129922544,16,5,7.451,745.66173186642,24.934384,0.4921268,1.44189965244,0.0,0.0,-4.250186,38.6,4.4,-1.8,0,0,1024,1024,1684,1024,0,0,100,0,0,0,0,72,3.729,3.722,0,0,0,0,5.693,62.78,745.66173186642,24.934384,6,P-GPS,,7.6
417500,2026-01-11 17:24:57,746.64598386642,25.262468,0.0,0.95567916444,4.0323492104,16,5,7.451,746.64598386642,25.918636,0.4921268,1.44189965244,0.0,0.0,-4.250186,38.5,5.4,-2.8,0,0,1024,1024,1684,1024,0,0,100,0,0,0,0,72,3.729,3.722,0,0,0,0,5.693,62.78,746.64598386642,25.918636,6,P-GPS,,7.9
417600,2026-01-11 17:24:57,746.97406786642,25.590552,0.0,0.956036776,4.0442586596,16,5,7.451,746.97406786642,26.24672,0.4921268,1.44189965244,0.0,0.0,-4.250186,38.3,5.5,-2.3,0,0,1024,1024,1684,1024,0,0,100,0,0,0,0,72,3.729,3.722,0,0,0,0,5.693,62.78,746.97406786642,26.24672,6,P-GPS,,8.0
417700,2026-01-11 17:24:57,747.63023586642,29.52756,0.0,0.91542653848,4.084973884,16,5,7.451,747.63023586642,26.902888,0.4921268,1.44189965244,0.0,0.0,-4.250186,38.2,4.7,-2.5,0,0,1024,1024,1684,1024,0,0,100,0,0,0,0,72,3.729,3.722,0,0,0,0,5.693,62.78,747.63023586642,26.902888,6,P-GPS,,8.2
417800,2026-01-11 17:24:58,748.28640386642,30.511812,0.223694,0.89523296828,4.1116143048,16,5,7.451,748.28640386642,27.559056,0.4921268,1.44189965244,0.0,-0.223694,-4.250186,38.0,3.7,-1.4,0,0,1024,1024,1684,1024,0,0,100,0,0,0,0,72,3.729,3.722,0,0,0,0,5.693,62.78,748.28640386642,27.559056,6,P-GPS,,8.4
417900,2026-01-11 17:24:58,748.94257186642,31.16798,0.223694,0.85596131348,4.166338716,16,5,7.451,748.94257186642,28.215224,0.4921268,1.44189965244,0.0,-0.223694,-4.250186,38.0,3.6,-0.9,0,0,1024,1024,1684,1024,0,0,100,0,0,0,0,72,3.729,3.722,0,0,0,0,5.693,62.78,748.94257186642,28.215224,6,P-GPS,,8.6
418000,2026-01-11 17:24:58,749.59873986642,32.152232,0.223694,0.83641078792,4.21259856,16,5,7.451,749.59873986642,28.871392,0.4921268,1.44189965244,0.0,-0.223694,-4.250186,38.1,3.1,0.3,0,0,1024,1024,1684,1024,0,0,100,0,0,0,0,72,3.729,3.722,0,0,0,0,5.693,62.78,749.59873986642,28.871392,6,P-GPS,,8.8
418100,2026-01-11 17:24:58,750.25490786642,32.8084,0.0,0.858103702,4.2922245468,16,5,7.451,750.25490786642,29.52756,0.4921268,1.44189965244,0.0,0.0,-4.250186,37.9,3.6,0.8,0,0,1024,1024,1684,1024,0,0,100,0,0,0,0,72,3.729,3.722,0,0,0,0,5.693,62.78,750.25490786642,29.52756,6,P-GPS,,9.0
418200,2026-01-11 17:24:58,750.91107586642,33.464568,0.0,0.89160435924,4.3396326848,16,5,7.451,750.91107586642,30.183728,0.4921268,1.44189965244,0.223694,0.0,-4.250186,37.6,5.0,1.0,0,0,1024,1024,1684,1024,0,0,100,0,0,0,0,72,3.729,3.722,0,0,0,0,5.693,62.78,750.91107586642,30.183728,6,P-GPS,,9.2
418300,2026-01-11 17:24:58,751.56724386642,34.120736,0.0,0.92455055452,4.3804791428,16,5,7.443,751.56724386642,30.839896,0.4921268,1.44189965244,0.0,0.0,-4.026492,37.9,6.6,1.1,0,0,1024,1024,1684,1024,0,0,100,0,0,0,0,71,3.72,3.716,0,0,0,0,5.449,62.78,751.56724386642,30.839896,6,P-GPS,,9.4
418400,2026-01-11 17:24:58,752.22341186642,34.44882,0.0,0.9399278516,4.3991471224,16,5,7.443,752.22341186642,31.496064,0.4921268,1.44189965244,0.0,0.0,-4.026492,38.2,5.3,1.2,0,0,1024,1024,1684,1024,0,0,100,0,0,0,0,71,3.72,3.716,0,0,0,0,5.449,62.78,752.22341186642,31.496064,6,P-GPS,,9.6
418500,2026-01-11 17:24:58,752.87957986642,35.104988,0.0,0.93954727416,4.404199616,16,5,7.443,752.87957986642,32.152232,0.4921268,1.44189965244,0.0,0.0,-4.250186,38.5,4.5,0.3,0,0,1024,1024,1024,1024,0,0,0,0,0,0,0,71,3.72,3.716,0,0,0,0,5.449,62.78,752.87957986642,32.152232,6,P-GPS,,9.8
418600,2026-01-11 17:24:58,753.53574786642,35.761156,0.0,0.94300199868,4.4080710072,16,5,7.443,753.53574786642,32.8084,0.4921268,1.44189965244,0.0,0.0,-4.250186,38.5,4.3,-0.5,0,0,1024,1024,1024,1024,0,0,0,0,0,0,0,71,3.72,3.716,0,0,0,0,5.449,62.78,753.53574786642,32.8084,6,P-GPS,,10.0
418700,2026-01-11 17:24:58,754.19191586642,36.417324,0.223694,0.98850396864,4.4559712712,16,5,7.443,754.19191586642,33.464568,0.4921268,1.44189965244,0.0,0.223694,-4.250186,38.4,5.2,-1.2,0,0,1024,1024,1024,1024,0,0,0,0,0,0,0,71,3.72,3.716,0,0,0,0,5.449,62.78,754.19191586642,33.464568,6,P-GPS,,10.2
418800,2026-01-11 17:24:59,754.84808386642,37.073492,0.223694,1.03041669964,4.507710118,15,5,7.443,754.84808386642,34.120736,0.4921268,1.44189965244,0.0,0.223694,-4.026492,38.1,5.2,-1.9,0,0,1024,1024,1024,1024,0,0,0,0,0,0,0,71,3.72,3.716,0,0,0,0,5.449,62.78,754.84808386642,34.120736,6,P-GPS,,10.4
418900,2026-01-11 17:24:59,755.50425186642,37.72966,0.223694,1.0711286432,4.5720801988,15,5,7.443,755.50425186642,34.776904,0.4921268,1.44189965244,0.0,0.223694,-3.579104,38.0,5.8,-2.7,0,0,1024,1024,1024,1024,0,0,0,0,0,0,0,71,3.72,3.716,0,0,0,0,5.449,62.78,755.50425186642,34.776904,6,P-GPS,,10.6
419000,2026-01-11 17:24:59,756.16041986642,38.057744,0.223694,1.15601381652,4.6786090736,16,5,7.443,756.16041986642,35.433072,0.4921268,1.44189965244,0.0,0.223694,-2.908022,38.0,6.4,-2.8,0,0,1024,1024,1024,1024,0,0,0,0,0,0,0,71,3.72,3.716,0,0,0,0,5.449,62.78,756.16041986642,35.433072,6,P-GPS,,10.8
419100,2026-01-11 17:24:59,756.48850386642,38.385828,0.223694,1.21000988124,4.7438321728,16,5,7.443,756.48850386642,35.761156,0.4921268,1.44189965244,0.0,0.223694,-2.23694,38.0,6.7,-2.6,0,0,1024,1024,1024,1024,0,0,0,0,0,0,0,71,3.72,3.716,0,0,0,0,5.449,62.78,756.48850386642,35.761156,6,P-GPS,,10.9
419200,2026-01-11 17:24:59,756.81658786642,38.385828,0.3131716,1.2966043722,4.8389765328,16,5,7.443,756.81658786642,36.08924,0.4921268,1.44189965244,0.223694,0.223694,-1.565858,37.9,7.7,-2.7,0,0,1024,1024,1024,1024,0,0,0,0,0,0,0,71,3.72,3.716,0,0,0,0,5.449,62.78,756.81658786642,36.08924,6,P-GPS,,11.0
419300,2026-01-11 17:24:59,756.81658786642,38.385828,0.3131716,1.43409453408,4.9838256188,16,5,7.443,756.81658786642,36.08924,0.4921268,1.44189965244,0.223694,0.223694,-0.894776,37.8,8.9,-2.2,0,0,1024,1024,1024,1024,0,0,0,0,0,0,0,71,3.72,3.716,0,0,0,0,5.449,62.78,756.81658786642,36.08924,6,P-GPS,,11.0
419400,2026-01-11 17:24:59,756.81658786642,38.385828,0.3131716,1.63522314944,5.1949804812,16,5,7.528,756.81658786642,36.08924,0.4921268,1.63522314944,0.223694,0.223694,-0.447388,38.0,8.9,-1.4,0,0,1024,1024,1024,1024,0,0,0,0,0,0,0,71,3.762,3.765,0,0,0,0,5.057,62.78,756.81658786642,36.08924,6,P-GPS,,11.0
419500,2026-01-11 17:24:59,756.81658786642,38.385828,0.3131716,1.71652892632,5.276903056,16,5,7.528,756.81658786642,36.08924,0.4921268,1.71652892632,0.223694,0.223694,-0.223694,38.1,8.4,-1.1,0,0,1024,1024,1024,1024,0,0,0,0,0,0,0,71,3.762,3.765,0,0,0,0,5.057,62.78,756.81658786642,36.08924,6,P-GPS,,11.0
419600,2026-01-11 17:24:59,756.81658786642,38.385828,0.223694,1.77732617236,5.337762638,16,5,7.528,756.81658786642,36.08924,0.4921268,1.77732617236,0.223694,0.0,0.0,38.1,8.7,-1.2,0,0,1024,1024,1024,1024,0,0,0,0,0,0,0,71,3.762,3.765,0,0,0,0,5.057,62.78,756.81658786642,36.08924,6,P-GPS,,11.0
419700,2026-01-11 17:24:59,756.81658786642,38.385828,0.0,1.82099415276,5.3816602772,16,5,7.528,756.81658786642,36.08924,0.4921268,1.82099415276,0.0,0.0,0.0,38.0,8.4,-1.2,0,0,1024,1024,1024,1024,0,0,0,0,0,0,0,71,3.762,3.765,0,0,0,0,5.057,62.78,756.81658786642,36.08924,6,P-GPS,,11.0
419800,2026-01-11 17:24:59,756.48850386642,38.385828,0.0,1.75893378332,5.4779201228,16,5,7.528,756.81658786642,36.08924,0.4921268,1.82099415276,0.0,0.0,0.0,37.8,8.0,-1.6,0,0,1024,1024,1024,1024,0,0,0,0,0,0,0,71,3.762,3.765,0,0,0,0,5.057,62.78,756.48850386642,35.761156,6,P-GPS,,10.9
419900,2026-01-11 17:25:00,756.48850386642,38.385828,0.0,1.76046921644,5.5221130376,16,5,7.528,756.81658786642,36.08924,0.4921268,1.82099415276,0.0,0.0,0.0,37.7,8.0,0.1,0,0,1024,1024,1024,1024,0,0,0,0,0,0,0,71,3.762,3.765,0,0,0,0,5.057,62.78,756.48850386642,35.761156,6,P-GPS,,10.9
420000,2026-01-11 17:25:00,756.48850386642,38.385828,0.0,1.75287735268,5.5676182884,16,5,7.528,756.81658786642,36.08924,0.4921268,1.82099415276,0.0,0.0,0.0,38.0,7.8,1.5,0,0,1024,1024,1024,1024,0,0,0,0,0,0,0,71,3.762,3.765,0,0,0,0,5.057,62.78,756.48850386642,35.761156,6,P-GPS,,10.9
420100,2026-01-11 17:25:00,756.48850386642,38.385828,0.0,1.73797249656,5.6040356124,16,5,7.528,756.81658786642,36.08924,0.4921268,1.82099415276,0.0,0.0,0.0,38.2,8.2,2.0,0,0,1024,1024,1024,1024,0,0,0,0,0,0,0,71,3.762,3.765,0,0,0,0,5.057,62.78,756.48850386642,35.761156,6,P-GPS,,10.9
420200,2026-01-11 17:25:00,756.48850386642,38.385828,0.0,1.71736882136,5.6291996552,16,5,7.528,756.81658786642,36.08924,0.4921268,1.82099415276,0.0,0.0,0.0,38.3,8.3,1.6,0,0,1024,1024,1024,1024,0,0,0,0,0,0,0,71,3.762,3.765,0,0,0,0,5.057,62.78,756.48850386642,35.761156,6,P-GPS,,10.9
420300,2026-01-11 17:25:00,756.48850386642,38.385828,0.0,1.61713259768,5.7301839104,16,5,7.528,756.81658786642,36.08924,0.4921268,1.82099415276,0.0,0.0,0.0,38.3,8.4,0.6,0,0,1024,1024,1024,1024,0,0,0,0,0,0,0,71,3.762,3.765,0,0,0,0,5.057,62.78,756.48850386642,35.761156,6,P-GPS,,10.9
420400,2026-01-11 17:25:00,756.48850386642,38.385828,0.0,1.58715884344,5.7696524156,16,5,7.528,756.81658786642,36.08924,0.4921268,1.82099415276,0.0,0.0,0.0,38.3,8.0,0.0,0,0,1024,1024,1024,1024,0,0,0,0,0,0,0,71,3.762,3.765,0,0,0,0,5.057,62.78,756.48850386642,35.761156,6,P-GPS,,10.9
420500,2026-01-11 17:25:00,756.48850386642,38.385828,0.223694,1.55271986596,5.8221130472,16,5,7.488,756.81658786642,36.08924,0.4921268,1.82099415276,-0.223694,0.0,0.0,38.3,8.0,-1.1,0,0,1024,1024,1024,1024,0,0,0,0,0,0,0,71,3.748,3.743,0,0,0,0,4.424,62.78,756.48850386642,35.761156,6,P-GPS,,10.9
420600,2026-01-11 17:25:00,756.48850386642,38.385828,0.223694,1.52500989132,5.886319086,16,5,7.488,756.81658786642,36.08924,0.4921268,1.82099415276,-0.223694,0.0,0.0,38.2,7.7,-1.8,0,0,1024,1024,1024,1024,0,0,0,0,0,0,0,71,3.748,3.743,0,0,0,0,4.424,62.78,756.48850386642,35.761156,6,P-GPS,,10.9
420700,2026-01-11 17:25:00,756.81658786642,38.385828,0.223694,1.51797248952,6.022473946,16,5,7.488,756.81658786642,36.08924,0.4921268,1.82099415276,-0.223694,0.0,0.0,38.1,6.9,-2.3,0,0,1024,1024,1024,1024,0,0,0,0,0,0,0,71,3.748,3.743,0,0,0,0,4.424,62.78,756.81658786642,36.08924,6,P-GPS,,11.0
420800,2026-01-11 17:25:01,756.81658786642,38.385828,0.447388,1.50946199056,6.1193571512,16,5,7.488,756.81658786642,36.08924,0.4921268,1.82099415276,-0.447388,0.0,0.0,38.0,6.2,-3.2,0,0,1024,1024,1024,1024,0,0,0,0,0,0,0,71,3.748,3.743,0,0,0,0,4.424,62.78,756.81658786642,36.08924,6,P-GPS,,11.0
420900,2026-01-11 17:25:01,756.81658786642,38.385828,0.223694,1.51279204316,6.232939832,16,5,7.488,756.81658786642,36.08924,0.4921268,1.82099415276,-0.223694,0.0,0.0,38.0,5.4,-3.6,0,0,1024,1024,1024,1024,0,0,0,0,0,0,0,71,3.748,3.743,0,0,0,0,4.424,62.78,756.81658786642,36.08924,6,P-GPS,,11.0
421000,2026-01-11 17:25:01,757.14467186642,38.385828,0.223694,1.52110241088,6.332677368,16,5,7.488,757.14467186642,36.417324,0.4921268,1.82099415276,-0.223694,0.0,0.0,37.9,5.4,-3.6,0,0,1024,1024,1024,1024,0,0,0,0,0,0,0,71,3.748,3.743,0,0,0,0,4.424,62.78,757.14467186642,36.417324,6,P-GPS,,11.1
421100,2026-01-11 17:25:01,757.14467186642,38.385828,0.223694,1.61008535336,6.5205710748,16,5,7.488,757.14467186642,36.417324,0.4921268,1.82099415276,-0.223694,0.0,0.0,38.0,5.0,-3.9,0,0,1024,1024,1024,1024,0,0,0,0,0,0,0,71,3.748,3.743,0,0,0,0,4.424,62.78,757.14467186642,36.417324,6,P-GPS,,11.1
421200,2026-01-11 17:25:01,757.14467186642,38.385828,0.223694,1.62074480252,6.6069884004,16,5,7.488,757.14467186642,36.417324,0.4921268,1.82099415276,-0.223694,0.0,0.0,38.0,5.0,-4.3,0,0,1024,1024,1024,1024,0,0,0,0,0,0,0,71,3.748,3.743,0,0,0,0,4.424,62.78,757.14467186642,36.417324,6,P-GPS,,11.1
421300,2026-01-11 17:25:01,757.14467186642,38.385828,0.223694,1.62829401536,6.6958991644,16,5,7.488,757.14467186642,36.417324,0.4921268,1.82099415276,-0.223694,0.0,0.0,37.9,5.1,-4.4,0,0,1024,1024,1024,1024,0,0,0,0,0,0,0,71,3.748,3.743,0,0,0,0,4.424,62.78,757.14467186642,36.417324,6,P-GPS,,11.1
421400,2026-01-11 17:25:01,757.14467186642,38.385828,0.223694,1.63500989484,6.76181124,16,5,7.488,757.14467186642,36.417324,0.4921268,1.82099415276,-0.223694,0.0,0.0,37.9,5.5,-4.2,0,0,1024,1024,1024,1024,0,0,0,0,0,0,0,71,3.748,3.743,0,0,0,0,4.424,62.78,757.14467186642,36.417324,6,P-GPS,,11.1
421500,2026-01-11 17:25:01,757.47275586642,38.385828,0.0,1.61672249268,6.8228020556,16,5,7.488,757.47275586642,36.745408,0.4921268,1.82099415276,0.0,0.0,0.0,37.9,5.9,-4.0,0,0,1024,1024,1024,1024,0,0,0,0,0,0,0,71,3.748,3.743,0,0,0,0,4.424,62.78,757.47275586642,36.745408,6,P-GPS,,11.2
421600,2026-01-11 17:25:01,757.47275586642,38.385828,0.0,1.61146330616,6.860400482,16,5,7.489,757.47275586642,36.745408,0.4921268,1.82099415276,0.0,0.0,0.0,38.0,6.1,-3.9,0,0,1024,1024,1024,1024,0,0,0,0,0,0,0,71,3.746,3.744,0,0,0,0,4.557,62.78,757.47275586642,36.745408,6,P-GPS,,11.2
421700,2026-01-11 17:25:01,757.47275586642,38.385828,0.0,1.59592196708,6.8980317168,16,5,7.489,757.47275586642,36.745408,0.4921268,1.82099415276,0.0,0.0,0.0,37.9,5.7,-3.8,0,0,1024,1024,1024,1024,0,0,0,0,0,0,0,71,3.746,3.744,0,0,0,0,4.557,62.78,757.47275586642,36.745408,6,P-GPS,,11.2
421800,2026-01-11 17:25:02,757.47275586642,38.385828,0.0,1.57881238648,6.9251642636,16,5,7.489,757.47275586642,36.745408,0.4921268,1.82099415276,0.0,0.0,0.0,38.0,6.0,-4.2,0,0,1024,1024,1024,1024,0,0,0,0,0,0,0,71,3.746,3.744,0,0,0,0,4.557,62.78,757.47275586642,36.745408,6,P-GPS,,11.2
421900,2026-01-11 17:25:02,757.47275586642,38.385828,0.0,1.5595308898,6.9451445792,16,5,7.489,757.47275586642,36.745408,0.4921268,1.82099415276,0.0,0.0,0.0,38.1,5.9,-3.7,0,0,1024,1024,1024,1024,0,0,0,0,0,0,0,71,3.746,3.744,0,0,0,0,4.557,62.78,757.47275586642,36.745408,6,P-GPS,,11.2
422000,2026-01-11 17:25:02,757.47275586642,38.385828,0.0,1.50689309284,7.0227364452,16,5,7.489,757.47275586642,36.745408,0.4921268,1.82099415276,0.0,0.0,0.0,38.2,5.2,-3.9,0,0,1024,1024,1024,1024,0,0,0,0,0,0,0,71,3.746,3.744,0,0,0,0,4.557,62.78,757.47275586642,36.745408,6,P-GPS,,11.2
422100,2026-01-11 17:25:02,757.47275586642,38.385828,0.0,1.48491146484,7.0489175484,16,5,7.489,757.47275586642,36.745408,0.4921268,1.82099415276,0.0,0.0,0.0,38.1,5.3,-3.6,0,0,1024,1024,1024,1024,0,0,0,0,0,0,0,71,3.746,3.744,0,0,0,0,4.557,62.78,757.47275586642,36.745408,6,P-GPS,,11.2
422200,2026-01-11 17:25:02,757.47275586642,38.385828,0.223694,1.45311028272,7.0821196492,16,5,7.489,757.47275586642,36.745408,0.4921268,1.82099415276,0.0,-0.223694,0.0,38.0,4.7,-3.7,0,0,1024,1024,1024,1024,0,0,0,0,0,0,0,71,3.746,3.744,0,0,0,0,4.557,62.78,757.47275586642,36.745408,6,P-GPS,,11.2
422300,2026-01-11 17:25:02,757.14467186642,38.385828,0.223694,1.40518705284,7.1303151888,16,5,7.489,757.47275586642,36.745408,0.4921268,1.82099415276,0.0,-0.223694,0.223694,37.9,4.1,-3.0,0,0,1024,1024,1024,1024,0,0,0,0,0,0,0,71,3.746,3.744,0,0,0,0,4.557,62.78,757.14467186642,36.417324,6,P-GPS,,11.1
422400,2026-01-11 17:25:02,757.14467186642,38.385828,0.223694,1.35240161808,7.18750023,16,5,7.489,757.47275586642,36.745408,0.4921268,1.82099415276,0.0,-0.223694,0.0,38.1,2.7,-2.4,0,0,1024,1024,1024,1024,0,0,0,0,0,0,0,71,3.746,3.744,0,0,0,0,4.557,62.78,757.14467186642,36.417324,6,P-GPS,,11.1
422500,2026-01-11 17:25:02,757.14467186642,38.385828,0.223694,1.32818573804,7.2156826456,16,5,7.489,757.47275586642,36.745408,0.4921268,1.82099415276,0.0,-0.223694,0.0,37.9,3.0,-1.9,0,0,1024,1024,1024,1024,0,0,0,0,0,0,0,71,3.746,3.744,0,0,0,0,4.557,62.78,757.14467186642,36.417324,6,P-GPS,,11.1
422600,2026-01-11 17:25:02,757.14467186642,38.385828,0.0,1.31382550136,7.2341209664,16,5,7.489,757.47275586642,36.745408,0.4921268,1.82099415276,0.0,0.0,0.0,37.9,3.6,-2.4,0,0,1024,1024,1024,1024,0,0,0,0,0,0,0,71,3.746,3.744,0,0,0,0,4.557,62.78,757.14467186642,36.417324,6,P-GPS,,11.1
422700,2026-01-11 17:25:02,757.14467186642,38.385828,0.0,1.30658468748,7.248523854,16,5,7.431,757.47275586642,36.745408,0.4921268,1.82099415276,0.0,0.0,0.0,38.0,2.5,-3.0,0,0,1024,1024,1024,1024,0,0,0,0,0,0,0,71,3.712,3.719,0,0,0,0,5.329,62.78,757.14467186642,36.417324,6,P-GPS,,11.1
422800,2026-01-11 17:25:03,757.14467186642,38.385828,0.0,1.30471460868,7.3211288432,16,5,7.431,757.47275586642,36.745408,0.4921268,1.82099415276,0.0,0.0,0.0,37.9,3.4,-3.1,0,0,1024,1024,1024,1024,0,0,0,0,0,0,0,71,3.712,3.719,0,0,0,0,5.329,62.78,757.14467186642,36.417324,6,P-GPS,,11.1
422900,2026-01-11 17:25:03,757.14467186642,38.385828,0.0,1.30308731204,7.3230317304,16,5,7.431,757.47275586642,36.745408,0.4921268,1.82099415276,0.0,0.0,0.0,37.9,4.7,-2.9,0,0,1024,1024,1024,1024,0,0,0,0,0,0,0,71,3.712,3.719,0,0,0,0,5.329,62.78,757.14467186642,36.417324,6,P-GPS,,11.1
423000,2026-01-11 17:25:03,757.14467186642,38.385828,0.0,1.30991802092,7.3373690012,16,5,7.431,757.47275586642,36.745408,0.4921268,1.82099415276,0.0,0.0,0.0,37.9,5.5,-3.6,0,0,1024,1024,1024,1024,0,0,0,0,0,0,0,71,3.712,3.719,0,0,0,0,5.329,62.78,757.14467186642,36.417324,6,P-GPS,,11.1
423100,2026-01-11 17:25:03,757.14467186642,38.385828,0.0,1.3251640844,7.3711944616,16,5,7.431,757.47275586642,36.745408,0.4921268,1.82099415276,0.0,0.0,0.0,37.9,5.4,-3.3,0,0,1024,1024,1024,1024,0,0,0,0,0,0,0,71,3.712,3.719,0,0,0,0,5.329,62.78,757.14467186642,36.417324,6,P-GPS,,11.1
423200,2026-01-11 17:25:03,757.14467186642,38.385828,0.0,1.3749672356,7.4831367224,16,5,7.431,757.47275586642,36.745408,0.4921268,1.82099415276,0.0,0.0,0.0,38.0,5.3,-3.1,0,0,1024,1024,1024,1024,0,0,0,0,0,0,0,71,3.712,3.719,0,0,0,0,5.329,62.78,757.14467186642,36.417324,6,P-GPS,,11.1
423300,2026-01-11 17:25:03,757.14467186642,38.385828,0.0,1.41189637064,7.5420278004,16,5,7.431,757.47275586642,36.745408,0.4921268,1.82099415276,0.0,0.0,0.0,37.9,6.4,-3.0,0,0,1024,1024,1024,1024,0,0,0,0,0,0,0,71,3.712,3.719,0,0,0,0,5.329,62.78,757.14467186642,36.417324,6,P-GPS,,11.1
423400,2026-01-11 17:25:03,757.14467186642,38.385828,0.0,1.44769361588,7.6033795084,16,5,7.431,757.47275586642,36.745408,0.4921268,1.82099415276,0.0,0.0,0.0,37.8,6.6,-3.2,0,0,1024,1024,1024,1024,0,0,0,0,0,0,0,71,3.712,3.719,0,0,0,0,5.329,62.78,757.14467186642,36.417324,6,P-GPS,,11.1
423500,2026-01-11 17:25:03,757.14467186642,38.385828,0.0,1.48065293452,7.6695212428,16,5,7.431,757.47275586642,36.745408,0.4921268,1.82099415276,0.0,0.0,0.0,37.7,7.3,-3.0,0,0,1024,1024,1024,1024,0,0,0,0,0,0,0,71,3.712,3.719,0,0,0,0,5.329,62.78,757.14467186642,36.417324,6,P-GPS,,11.1
423600,2026-01-11 17:25:03,757.14467186642,38.385828,0.0,1.5114337754,7.7272968352,16,5,7.431,757.47275586642,36.745408,0.4921268,1.82099415276,0.0,0.0,0.0,37.8,7.7,-2.7,0,0,1024,1024,1024,1024,0,0,0,0,0,0,0,71,3.712,3.719,0,0,0,0,5.329,62.78,757.14467186642,36.417324,6,P-GPS,,11.1
423700,2026-01-11 17:25:04,757.14467186642,38.385828,0.0,1.54912406532,7.8220803028,16,5,7.431,757.47275586642,36.745408,0.4921268,1.82099415276,0.0,0.0,0.0,37.8,7.4,-2.7,0,0,1024,1024,1024,1024,0,0,0,0,0,0,0,71,3.735,3.733,0,0,0,0,5.329,62.78,757.14467186642,36.417324,6,P-GPS,,11.1
423800,2026-01-11 17:25:04,757.47275586642,38.385828,0.0,1.57867131036,7.862697102,16,5,7.431,757.47275586642,36.745408,0.4921268,1.82099415276,0.0,0.0,0.0,37.8,7.6,-3.1,0,0,1024,1024,1024,1024,0,0,0,0,0,0,0,71,3.735,3.733,0,0,0,0,5.329,62.78,757.47275586642,36.745408,6,P-GPS,,11.2
423900,2026-01-11 17:25:04,757.47275586642,38.385828,0.0,1.60553154744,7.8945868668,16,5,7.431,757.47275586642,36.745408,0.4921268,1.82099415276,0.0,0.0,0.0,37.7,7.7,-3.6,0,0,1024,1024,1024,1024,0,0,0,0,0,0,0,71,3.735,3.733,0,0,0,0,5.329,62.78,757.47275586642,36.745408,6,P-GPS,,11.2
424000,2026-01-11 17:25:04,757.47275586642,38.385828,0.0,1.63048233564,7.9239503848,16,5,7.431,757.47275586642,36.745408,0.4921268,1.82099415276,0.0,0.0,0.0,37.6,7.9,-3.5,0,0,1024,1024,1024,1024,0,0,0,0,0,0,0,71,3.735,3.733,0,0,0,0,5.329,62.78,757.47275586642,36.745408,6,P-GPS,,11.2
424100,2026-01-11 17:25:04,757.47275586642,38.385828,0.0,1.63627629908,7.9484254512,16,5,7.431,757.47275586642,36.745408,0.4921268,1.82099415276,0.0,0.0,0.0,37.6,7.7,-3.9,0,0,1024,1024,1024,1024,0,0,0,0,0,0,0,71,3.735,3.733,0,0,0,0,5.329,62.78,757.47275586642,36.745408,6,P-GPS,,11.2
424200,2026-01-11 17:25:04,757.47275586642,38.385828,0.0,1.6592684258,7.9719818824,16,5,7.431,757.47275586642,36.745408,0.4921268,1.82099415276,0.0,0.0,0.0,37.6,7.1,-3.9,0,0,1024,1024,1024,1024,0,0,0,0,0,0,0,71,3.735,3.733,0,0,0,0,5.329,62.78,757.47275586642,36.745408,6,P-GPS,,11.2
424300,2026-01-11 17:25:04,757.47275586642,38.385828,0.0,1.68699808548,8.0006236156,16,5,7.431,757.47275586642,36.745408,0.4921268,1.82099415276,0.0,0.0,0.0,37.6,7.0,-4.1,0,0,1024,1024,1024,1024,0,0,0,0,0,0,0,71,3.735,3.733,0,0,0,0,5.329,62.78,757.47275586642,36.745408,6,P-GPS,,11.2
424400,2026-01-11 17:25:04,757.47275586642,38.385828,0.0,1.71059388676,8.0272640364,16,5,7.431,757.47275586642,36.745408,0.4921268,1.82099415276,0.0,0.0,0.0,37.7,6.8,-4.1,0,0,1024,1024,1024,1024,0,0,0,0,0,0,0,71,3.735,3.733,0,0,0,0,5.329,62.78,757.47275586642,36.745408,6,P-GPS,,11.2
424500,2026-01-11 17:25:04,757.47275586642,38.385828,0.0,1.74863194572,8.0940947472,16,5,7.431,757.47275586642,36.745408,0.4921268,1.82099415276,0.0,0.0,0.0,37.7,7.0,-4.0,0,0,1024,1024,1024,1024,0,0,0,0,0,0,0,71,3.735,3.733,0,0,0,0,5.329,62.78,757.47275586642,36.745408,6,P-GPS,,11.2
424600,2026-01-11 17:25:04,757.14467186642,38.385828,0.0,1.76406829792,8.1209320184,16,5,7.431,757.47275586642,36.745408,0.4921268,1.82099415276,0.0,0.0,0.0,37.8,7.3,-4.2,0,0,1024,1024,1024,1024,0,0,0,0,0,0,0,71,3.735,3.733,0,0,0,0,5.329,62.78,757.14467186642,36.417324,6,P-GPS,,11.1
424700,2026-01-11 17:25:04,757.14467186642,38.385828,0.0,1.77540360012,8.1511157464,16,5,7.431,757.47275586642,36.745408,0.4921268,1.82099415276,0.0,0.0,0.223694,37.8,7.1,-4.2,0,0,1024,1024,1024,1024,0,0,0,0,0,0,0,71,3.735,3.733,0,0,0,0,5.329,62.78,757.14467186642,36.417324,6,P-GPS,,11.1
424800,2026-01-11 17:25:05,757.14467186642,38.385828,0.0,1.78072840344,8.1674543296,16,5,7.431,757.47275586642,36.745408,0.4921268,1.82099415276,0.0,0.0,0.0,37.7,7.2,-4.1,0,0,1024,1024,1024,1024,0,0,0,0,0,0,0,71,3.735,3.733,0,0,0,0,5.329,62.78,757.14467186642,36.417324,6,P-GPS,,11.1
424900,2026-01-11 17:25:05,757.14467186642,38.385828,0.0,1.76758863924,8.180610498,16,5,7.477,757.47275586642,36.745408,0.4921268,1.82099415276,0.0,0.0,0.223694,37.9,6.4,-4.0,0,0,1024,1024,1024,1024,0,0,0,0,0,0,0,71,3.741,3.736,0,0,0,0,4.644,62.78,757.14467186642,36.417324,6,P-GPS,,11.1
425000,2026-01-11 17:25:05,757.14467186642,38.385828,0.0,1.76954073904,8.182907086,16,5,7.477,757.47275586642,36.745408,0.4921268,1.82099415276,0.0,0.0,0.0,37.9,6.2,-3.8,0,0,1024,1024,1024,1024,0,0,0,0,0,0,0,71,3.741,3.736,0,0,0,0,4.644,62.78,757.14467186642,36.417324,6,P-GPS,,11.1
425100,2026-01-11 17:25:05,757.14467186642,38.385828,0.0,1.7792979572,8.1929792648,16,5,7.477,757.47275586642,36.745408,0.4921268,1.82099415276,0.0,0.0,0.0,37.8,6.6,-3.9,0,0,1024,1024,1024,1024,0,0,0,0,0,0,0,71,3.741,3.736,0,0,0,0,4.644,62.78,757.14467186642,36.417324,6,P-GPS,,11.1
425200,2026-01-11 17:25:05,756.81658786642,38.385828,0.0,1.77822512252,8.200951706,16,5,7.477,757.47275586642,36.745408,0.4921268,1.82099415276,0.0,0.0,0.0,37.7,6.9,-3.8,0,0,1024,1024,1024,1024,0,0,0,0,0,0,0,71,3.741,3.736,0,0,0,0,4.644,62.78,756.81658786642,36.08924,6,P-GPS,,11.0
425300,2026-01-11 17:25:05,756.81658786642,38.385828,0.0,1.75836291716,8.227854594,16,5,7.477,757.47275586642,36.745408,0.4921268,1.82099415276,0.0,0.0,0.0,37.8,6.8,-3.9,0,0,1024,1024,1024,1024,0,0,0,0,0,0,0,71,3.741,3.736,0,0,0,0,4.644,62.78,756.81658786642,36.08924,6,P-GPS,,11.0
425400,2026-01-11 17:25:05,756.81658786642,38.385828,0.0,1.72712932036,8.264271918,16,5,7.477,757.47275586642,36.745408,0.4921268,1.82099415276,0.0,0.0,0.0,37.8,6.6,-4.1,0,0,1024,1024,1024,1024,0,0,0,0,0,0,0,71,3.741,3.736,0,0,0,0,4.644,62.78,756.81658786642,36.08924,6,P-GPS,,11.0
425500,2026-01-11 17:25:05,756.81658786642,38.385828,0.0,1.71537735148,8.279527824,16,5,7.477,757.47275586642,36.745408,0.4921268,1.82099415276,0.0,0.0,0.0,37.9,5.3,-3.5,0,0,1024,1024,1024,1024,0,0,0,0,0,0,0,71,3.741,3.736,0,0,0,0,4.644,62.78,756.81658786642,36.08924,6,P-GPS,,11.0
425600,2026-01-11 17:25:05,756.81658786642,38.385828,0.0,1.69992459508,8.2952430476,16,5,7.477,757.47275586642,36.745408,0.4921268,1.82099415276,0.0,0.0,0.0,38.0,4.8,-3.5,0,0,1024,1024,1024,1024,0,0,0,0,0,0,0,71,3.741,3.736,0,0,0,0,4.644,62.78,756.81658786642,36.08924,6,P-GPS,,11.0
425700,2026-01-11 17:25:05,756.48850386642,38.385828,0.0,1.68514113004,8.3123690324,16,5,7.477,757.47275586642,36.745408,0.4921268,1.82099415276,0.0,0.0,0.0,37.8,6.0,-3.8,0,0,1024,1024,1024,1024,0,0,0,0,0,0,0,71,3.741,3.736,0,0,0,0,4.644,62.78,756.48850386642,35.761156,6,P-GPS,,10.9
425800,2026-01-11 17:25:06,756.48850386642,38.385828,0.0,1.66934716628,8.360236488,16,5,7.477,757.47275586642,36.745408,0.4921268,1.82099415276,0.0,0.0,0.0,37.7,7.2,-3.7,0,0,1024,1024,1024,1024,0,0,0,0,0,0,0,71,3.741,3.736,0,0,0,0,4.644,62.78,756.48850386642,35.761156,6,P-GPS,,10.9
425900,2026-01-11 17:25:06,756.48850386642,38.385828,0.0,1.66773955468,8.3865488248,16,5,7.477,757.47275586642,36.745408,0.4921268,1.82099415276,0.0,0.0,0.0,37.8,7.2,-3.6,0,0,1024,1024,1024,1024,0,0,0,0,0,0,0,71,3.741,3.736,0,0,0,0,4.644,62.78,756.48850386642,35.761156,6,P-GPS,,10.9
426000,2026-01-11 17:25:06,756.48850386642,38.385828,0.0,1.66800530272,8.408628878,16,5,7.478,757.47275586642,36.745408,0.4921268,1.82099415276,0.0,0.0,0.0,37.7,7.4,-3.3,0,0,1024,1024,1024,1024,0,0,0,0,0,0,0,71,3.734,3.727,0,0,0,0,4.818,62.78,756.48850386642,35.761156,6,P-GPS,,10.9
426100,2026-01-11 17:25:06,756.48850386642,38.385828,0.0,1.67021986972,8.4241144428,16,5,7.478,757.47275586642,36.745408,0.4921268,1.82099415276,0.0,0.0,0.0,37.7,7.9,-2.8,0,0,1024,1024,1024,1024,0,0,0,0,0,0,0,71,3.734,3.727,0,0,0,0,4.818,62.78,756.48850386642,35.761156,6,P-GPS,,10.9
426200,2026-01-11 17:25:06,756.16041986642,38.385828,0.0,1.68963588084,8.4478021076,16,5,7.478,757.47275586642,36.745408,0.4921268,1.82099415276,0.0,0.0,0.0,37.6,8.4,-2.8,0,0,1024,1024,1024,1024,0,0,0,0,0,0,0,71,3.734,3.727,0,0,0,0,4.818,62.78,756.16041986642,35.433072,6,P-GPS,,10.8
426300,2026-01-11 17:25:06,756.16041986642,38.385828,0.0,1.70158470012,8.4641406908,16,5,7.478,757.47275586642,36.745408,0.4921268,1.82099415276,0.0,0.0,0.0,37.7,7.9,-2.6,0,0,1024,1024,1024,1024,0,0,0,0,0,0,0,71,3.734,3.727,0,0,0,0,4.818,62.78,756.16041986642,35.433072,6,P-GPS,,10.8
426400,2026-01-11 17:25:06,756.16041986642,38.385828,0.0,1.70700792864,8.4738191688,16,5,7.478,757.47275586642,36.745408,0.4921268,1.82099415276,0.0,0.0,0.0,37.7,7.8,-2.9,0,0,1024,1024,1024,1024,0,0,0,0,0,0,0,71,3.734,3.727,0,0,0,0,4.818,62.78,756.16041986642,35.433072,6,P-GPS,,10.8
426500,2026-01-11 17:25:06,756.16041986642,38.385828,0.0,1.70561685248,8.4848427912,16,5,7.478,757.47275586642,36.745408,0.4921268,1.82099415276,0.0,0.0,0.0,37.7,7.6,-2.5,0,0,1024,1024,1024,1024,0,0,0,0,0,0,0,71,3.734,3.727,0,0,0,0,4.818,62.78,756.16041986642,35.433072,6,P-GPS,,10.8
426600,2026-01-11 17:25:06,756.16041986642,38.385828,0.0,1.67466212708,8.525918908,16,5,7.478,757.47275586642,36.745408,0.4921268,1.82099415276,0.0,0.0,0.0,37.7,7.0,-2.9,0,0,1024,1024,1024,1024,0,0,0,0,0,0,0,71,3.734,3.727,0,0,0,0,4.818,62.78,756.16041986642,35.433072,6,P-GPS,,10.8
426700,2026-01-11 17:25:06,756.16041986642,38.385828,0.0,1.64746724432,8.5558729772,16,5,7.478,757.47275586642,36.745408,0.4921268,1.82099415276,0.0,0.0,0.0,37.7,6.7,-2.2,0,0,1024,1024,1024,1024,0,0,0,0,0,0,0,71,3.734,3.727,0,0,0,0,4.818,62.78,756.16041986642,35.433072,6,P-GPS,,10.8
426800,2026-01-11 17:25:07,756.16041986642,38.385828,0.223694,1.6165682932,8.5872049992,16,5,7.478,757.47275586642,36.745408,0.4921268,1.82099415276,0.0,-0.223694,0.0,37.7,6.3,-2.4,0,0,1024,1024,1024,1024,0,0,0,0,0,0,0,71,3.734,3.727,0,0,0,0,4.818,62.78,756.16041986642,35.433072,6,P-GPS,,10.8
426900,2026-01-11 17:25:07,756.16041986642,38.385828,0.0,1.58040359388,8.623851982,16,5,7.478,757.47275586642,36.745408,0.4921268,1.82099415276,0.0,0.0,0.0,37.9,6.1,-2.4,0,0,1024,1024,1024,1024,0,0,0,0,0,0,0,71,3.734,3.727,0,0,0,0,4.818,62.78,756.16041986642,35.433072,6,P-GPS,,10.8
427000,2026-01-11 17:25:07,756.16041986642,38.385828,0.0,1.5486549052,8.65567613,16,5,7.478,757.47275586642,36.745408,0.4921268,1.82099415276,0.0,0.0,0.0,37.8,6.2,-2.0,0,0,1024,1024,1024,1024,0,0,0,0,0,0,0,71,3.734,3.727,0,0,0,0,4.818,62.78,756.16041986642,35.433072,6,P-GPS,,10.8
427100,2026-01-11 17:25:07,756.16041986642,38.385828,0.0,1.4673392858,8.7384189148,16,5,7.455,757.47275586642,36.745408,0.4921268,1.82099415276,0.0,0.0,0.0,37.7,6.2,-1.9,0,0,1024,1024,1024,1024,0,0,0,0,0,0,0,71,3.736,3.72,0,0,0,0,5.122,62.78,756.16041986642,35.433072,6,P-GPS,,10.8
427200,2026-01-11 17:25:07,756.16041986642,38.385828,0.0,1.45553154264,8.7505580228,16,5,7.455,757.47275586642,36.745408,0.4921268,1.82099415276,0.0,0.0,0.0,37.7,6.6,-1.9,0,0,1024,1024,1024,1024,0,0,0,0,0,0,0,71,3.736,3.72,0,0,0,0,5.122,62.78,756.16041986642,35.433072,6,P-GPS,,10.8
427300,2026-01-11 17:25:07,756.16041986642,38.385828,0.0,1.46231631976,8.7576774456,16,5,7.455,757.47275586642,36.745408,0.4921268,1.82099415276,0.0,0.0,0.0,37.7,6.9,-2.3,0,0,1024,1024,1024,1024,0,0,0,0,0,0,0,71,3.736,3.72,0,0,0,0,5.122,62.78,756.16041986642,35.433072,6,P-GPS,,10.8
427400,2026-01-11 17:25:07,756.16041986642,38.385828,0.0,1.467109627,8.7636485744,16,5,7.455,757.47275586642,36.745408,0.4921268,1.82099415276,0.0,0.0,0.0,37.7,6.9,-2.8,0,0,1024,1024,1024,1024,0,0,0,0,0,0,0,71,3.736,3.72,0,0,0,0,5.122,62.78,756.16041986642,35.433072,6,P-GPS,,10.8
427500,2026-01-11 17:25:07,755.83233586642,38.385828,0.0,1.48216212092,8.7853021184,16,5,7.455,757.47275586642,36.745408,0.4921268,1.82099415276,0.0,0.0,0.0,37.7,7.2,-2.7,0,0,1024,1024,1024,1024,0,0,0,0,0,0,0,71,3.736,3.72,0,0,0,0,5.122,62.78,755.83233586642,35.104988,6,P-GPS,,10.7
427600,2026-01-11 17:25:07,755.83233586642,38.385828,0.0,1.487614877,8.7907483128,16,5,7.455,757.47275586642,36.745408,0.4921268,1.82099415276,0.0,0.0,0.0,37.7,7.4,-2.4,0,0,1024,1024,1024,1024,0,0,0,0,0,0,0,71,3.736,3.72,0,0,0,0,5.122,62.78,755.83233586642,35.104988,6,P-GPS,,10.7
427700,2026-01-11 17:25:07,755.83233586642,38.385828,0.0,1.4991634338,8.8037732476,16,5,7.455,757.47275586642,36.745408,0.4921268,1.82099415276,0.0,0.0,0.0,37.6,8.0,-2.5,0,0,1024,1024,1024,1024,0,0,0,0,0,0,0,71,3.736,3.72,0,0,0,0,5.122,62.78,755.83233586642,35.104988,6,P-GPS,,10.7
427800,2026-01-11 17:25:08,755.83233586642,38.385828,0.0,1.5069882372,8.8150265288,16,5,7.455,757.47275586642,36.745408,0.4921268,1.82099415276,0.0,0.0,0.0,37.7,7.6,-2.1,0,0,1024,1024,1024,1024,0,0,0,0,0,0,0,71,3.736,3.72,0,0,0,0,5.122,62.78,755.83233586642,35.104988,6,P-GPS,,10.7
427900,2026-01-11 17:25:08,756.16041986642,38.385828,0.0,1.49213587452,8.843176136,16,5,7.455,757.47275586642,36.745408,0.4921268,1.82099415276,0.0,0.0,0.0,37.8,7.4,-2.1,0,0,1024,1024,1024,1024,0,0,0,0,0,0,0,71,3.736,3.72,0,0,0,0,5.122,62.78,756.16041986642,35.433072,6,P-GPS,,10.8
428000,2026-01-11 17:25:08,756.16041986642,38.385828,0.0,1.49055779048,8.8464897844,16,5,7.455,757.47275586642,36.745408,0.4921268,1.82099415276,0.0,0.0,0.0,37.7,7.5,-2.2,0,0,1024,1024,1024,1024,0,0,0,0,0,0,0,71,3.736,3.72,0,0,0,0,5.122,62.78,756.16041986642,35.433072,6,P-GPS,,10.8
428100,2026-01-11 17:25:08,756.16041986642,38.385828,0.0,1.48870739672,8.8504267924,16,5,7.455,757.47275586642,36.745408,0.4921268,1.82099415276,0.0,0.0,0.0,37.8,7.7,-2.3,0,0,1024,1024,1024,1024,0,0,0,0,0,0,0,71,3.736,3.72,0,0,0,0,5.122,62.78,756.16041986642,35.433072,6,P-GPS,,10.8
428200,2026-01-11 17:25:08,756.16041986642,38.385828,0.0,1.48608600556,8.8531170812,16,5,7.452,757.47275586642,36.745408,0.4921268,1.82099415276,0.0,0.0,0.0,37.8,7.4,-2.4,0,0,1024,1024,1024,1024,0,0,0,0,0,0,0,71,3.724,3.727,0,0,0,0,5.122,62.78,756.16041986642,35.433072,6,P-GPS,,10.8
428300,2026-01-11 17:25:08,756.16041986642,38.385828,0.0,1.48060372192,8.8754267932,16,5,7.452,757.47275586642,36.745408,0.4921268,1.82099415276,0.0,0.0,0.0,37.8,7.0,-2.4,0,0,1024,1024,1024,1024,0,0,0,0,0,0,0,71,3.724,3.727,0,0,0,0,5.122,62.78,756.16041986642,35.433072,6,P-GPS,,10.8
428400,2026-01-11 17:25:08,755.83233586642,38.385828,0.0,1.47285765868,8.8832351924,16,5,7.452,757.47275586642,36.745408,0.4921268,1.82099415276,0.0,0.0,0.0,37.7,7.1,-2.5,0,0,1024,1024,1024,1024,0,0,0,0,0,0,0,71,3.724,3.727,0,0,0,0,5.122,62.78,755.83233586642,35.104988,6,P-GPS,,10.7
428500,2026-01-11 17:25:08,755.83233586642,38.385828,0.0,1.45750988916,8.9011813872,16,5,7.452,757.47275586642,36.745408,0.4921268,1.82099415276,0.0,0.0,0.0,37.7,7.2,-2.0,0,0,1024,1024,1024,1024,0,0,0,0,0,0,0,71,3.724,3.727,0,0,0,0,5.122,62.78,755.83233586642,35.104988,6,P-GPS,,10.7
428600,2026-01-11 17:25:08,755.83233586642,38.385828,0.0,1.43558403544,8.9249018604,16,5,7.452,757.47275586642,36.745408,0.4921268,1.82099415276,0.0,0.0,0.0,37.8,6.1,-2.2,0,0,1024,1024,1024,1024,0,0,0,0,0,0,0,71,3.724,3.727,0,0,0,0,5.122,62.78,755.83233586642,35.104988,6,P-GPS,,10.7
428700,2026-01-11 17:25:08,755.83233586642,38.385828,0.0,1.40652563556,8.9545934624,16,5,7.452,757.47275586642,36.745408,0.4921268,1.82099415276,0.0,0.0,0.0,37.8,6.8,-2.0,0,0,1024,1024,1024,1024,0,0,0,0,0,0,0,71,3.724,3.727,0,0,0,0,5.122,62.78,755.83233586642,35.104988,6,P-GPS,,10.7
428800,2026-01-11 17:25:09,755.83233586642,38.385828,0.0,1.349327471,9.0120409708,16,5,7.452,757.47275586642,36.745408,0.4921268,1.82099415276,0.0,0.0,0.0,37.7,6.2,-2.0,0,0,1024,1024,1024,1024,0,0,0,0,0,0,0,71,3.724,3.727,0,0,0,0,5.122,62.78,755.83233586642,35.104988,6,P-GPS,,10.7
428900,2026-01-11 17:25:09,755.83233586642,38.385828,0.0,1.32402891376,9.037565906,16,5,7.452,757.47275586642,36.745408,0.4921268,1.82099415276,0.0,0.0,0.0,37.8,6.1,-1.8,0,0,1024,1024,1024,1024,0,0,0,0,0,0,0,71,3.724,3.727,0,0,0,0,5.122,62.78,755.83233586642,35.104988,6,P-GPS,,10.7
429000,2026-01-11 17:25:09,755.83233586642,38.385828,0.0,1.3009022726,9.0638454344,16,5,7.452,757.47275586642,36.745408,0.4921268,1.82099415276,0.0,0.0,0.0,37.8,5.8,-2.0,0,0,1024,1024,1024,1024,0,0,0,0,0,0,0,71,3.724,3.727,0,0,0,0,5.122,62.78,755.83233586642,35.104988,6,P-GPS,,10.7
429100,2026-01-11 17:25:09,755.83233586642,38.385828,0.0,1.27836946348,9.099245698,16,5,7.452,757.47275586642,36.745408,0.4921268,1.82099415276,0.0,0.0,0.0,37.8,5.4,-2.3,0,0,1024,1024,1024,1024,0,0,0,0,0,0,0,71,3.724,3.727,0,0,0,0,5.122,62.78,755.83233586642,35.104988,6,P-GPS,,10.7
429200,2026-01-11 17:25:09,756.16041986642,38.385828,0.0,1.2458333732,9.1374018672,16,5,7.452,757.47275586642,36.745408,0.4921268,1.82099415276,0.0,0.0,0.0,37.9,5.3,-2.8,0,0,1024,1024,1024,1024,0,0,0,0,0,0,0,71,3.724,3.727,0,0,0,0,5.122,62.78,756.16041986642,35.433072,6,P-GPS,,10.8
429300,2026-01-11 17:25:09,756.16041986642,38.385828,0.0,1.23009518372,9.1572509492,16,5,7.454,757.47275586642,36.745408,0.4921268,1.82099415276,0.0,0.0,0.0,37.9,5.3,-3.1,0,0,1024,1024,1024,1024,0,0,0,0,0,0,0,71,3.728,3.729,0,0,0,0,4.881,62.96,756.16041986642,35.433072,6,P-GPS,,10.8
429400,2026-01-11 17:25:09,756.16041986642,38.385828,0.0,1.2202920338,9.1738519996,16,5,7.454,757.47275586642,36.745408,0.4921268,1.82099415276,0.0,0.0,0.0,37.9,5.3,-3.2,0,0,1024,1024,1024,1024,0,0,0,0,0,0,0,71,3.728,3.729,0,0,0,0,4.881,62.96,756.16041986642,35.433072,6,P-GPS,,10.8
429500,2026-01-11 17:25:09,756.16041986642,38.385828,0.0,1.21426184988,9.1930121052,16,5,7.454,757.47275586642,36.745408,0.4921268,1.82099415276,0.0,0.0,0.0,37.8,5.6,-3.3,0,0,1024,1024,1024,1024,0,0,0,0,0,0,0,71,3.728,3.729,0,0,0,0,4.881,62.96,756.16041986642,35.433072,6,P-GPS,,10.8
429600,2026-01-11 17:25:09,756.16041986642,38.385828,0.0,1.23384846468,9.2133205048,16,5,7.454,757.47275586642,36.745408,0.4921268,1.82099415276,0.0,0.0,0.0,37.8,5.7,-3.4,0,0,1024,1024,1024,1024,0,0,0,0,0,0,0,71,3.728,3.729,0,0,0,0,4.881,62.96,756.16041986642,35.433072,6,P-GPS,,10.8
429700,2026-01-11 17:25:09,756.16041986642,38.385828,0.0,1.23825791364,9.2287404528,16,5,7.454,757.47275586642,36.745408,0.4921268,1.82099415276,0.0,0.0,0.0,37.8,5.2,-3.1,0,0,1024,1024,1024,1024,0,0,0,0,0,0,0,71,3.728,3.729,0,0,0,0,4.881,62.96,756.16041986642,35.433072,6,P-GPS,,10.8
429800,2026-01-11 17:25:10,756.16041986642,38.385828,0.0,1.2455052892,9.2470147316,16,5,7.454,757.47275586642,36.745408,0.4921268,1.82099415276,0.0,0.0,0.0,37.7,6.0,-3.1,0,0,1024,1024,1024,1024,0,0,0,0,0,0,0,71,3.728,3.729,0,0,0,0,4.881,62.96,756.16041986642,35.433072,6,P-GPS,,10.8
429900,2026-01-11 17:25:10,756.16041986642,38.385828,0.0,1.2562500402,9.2729989844,16,5,7.454,757.47275586642,36.745408,0.4921268,1.82099415276,0.0,0.0,0.0,37.8,5.9,-2.9,0,0,1024,1024,1024,1024,0,0,0,0,0,0,0,71,3.728,3.729,0,0,0,0,4.881,62.96,756.16041986642,35.433072,6,P-GPS,,10.8
430000,2026-01-11 17:25:10,756.16041986642,38.385828,0.0,1.27612864976,9.3190291696,16,5,7.454,757.47275586642,36.745408,0.4921268,1.82099415276,0.0,0.0,0.0,37.9,5.4,-2.7,0,0,1024,1024,1024,1024,0,0,0,0,0,0,0,71,3.728,3.729,0,0,0,0,4.881,62.96,756.16041986642,35.433072,6,P-GPS,,10.8
430100,2026-01-11 17:25:10,756.16041986642,38.385828,0.0,1.2749508282,9.329396624,16,5,7.454,757.47275586642,36.745408,0.4921268,1.82099415276,0.0,0.0,0.0,37.9,5.3,-2.9,0,0,1024,1024,1024,1024,0,0,0,0,0,0,0,71,3.728,3.729,0,0,0,0,4.881,62.96,756.16041986642,35.433072,6,P-GPS,,10.8
430200,2026-01-11 17:25:10,756.16041986642,38.385828,0.0,1.27616801984,9.3306105348,16,5,7.454,757.47275586642,36.745408,0.4921268,1.82099415276,0.0,0.0,0.0,37.8,5.8,-2.9,0,0,1024,1024,1024,1024,0,0,0,0,0,0,0,71,3.728,3.729,0,0,0,0,4.881,62.96,756.16041986642,35.433072,6,P-GPS,,10.8
430300,2026-01-11 17:25:10,756.16041986642,38.385828,0.0,1.28012143204,9.3415685404,16,5,7.454,757.47275586642,36.745408,0.4921268,1.82099415276,0.0,0.0,0.0,37.8,6.1,-3.1,0,0,1024,1024,1024,1024,0,0,0,0,0,0,0,71,3.728,3.729,0,0,0,0,4.881,62.96,756.16041986642,35.433072,6,P-GPS,,10.8
430400,2026-01-11 17:25:10,756.16041986642,38.385828,0.0,1.28245082844,9.343996362,16,5,7.464,757.47275586642,36.745408,0.4921268,1.82099415276,0.0,0.0,0.0,37.8,5.9,-3.4,0,0,1024,1024,1024,1024,0,0,0,0,0,0,0,71,3.734,3.73,0,0,0,0,4.834,62.96,756.16041986642,35.433072,6,P-GPS,,10.8
430500,2026-01-11 17:25:10,756.16041986642,38.385828,0.0,1.27247051316,9.3613191972,16,5,7.464,757.47275586642,36.745408,0.4921268,1.82099415276,0.0,0.0,0.0,37.8,5.5,-2.8,0,0,1024,1024,1024,1024,0,0,0,0,0,0,0,71,3.734,3.73,0,0,0,0,4.834,62.96,756.16041986642,35.433072,6,P-GPS,,10.8
430600,2026-01-11 17:25:10,756.16041986642,38.385828,0.0,1.27597773112,9.3685698536,16,5,7.464,757.47275586642,36.745408,0.4921268,1.82099415276,0.0,0.0,0.0,37.7,5.9,-3.2,0,0,1024,1024,1024,1024,0,0,0,0,0,0,0,71,3.734,3.73,0,0,0,0,4.834,62.96,756.16041986642,35.433072,6,P-GPS,,10.8
430700,2026-01-11 17:25:10,756.16041986642,38.385828,0.0,1.28310043476,9.3759189352,16,5,7.464,757.47275586642,36.745408,0.4921268,1.82099415276,0.0,0.0,0.0,37.8,5.9,-3.4,0,0,1024,1024,1024,1024,0,0,0,0,0,0,0,71,3.734,3.73,0,0,0,0,4.834,62.96,756.16041986642,35.433072,6,P-GPS,,10.8
430800,2026-01-11 17:25:11,756.16041986642,38.385828,0.0,1.28979334836,9.3826446572,16,5,7.464,757.47275586642,36.745408,0.4921268,1.82099415276,0.0,0.0,0.0,37.9,5.6,-3.4,0,0,1024,1024,1024,1024,0,0,0,0,0,0,0,71,3.734,3.73,0,0,0,0,4.834,62.96,756.16041986642,35.433072,6,P-GPS,,10.8
430900,2026-01-11 17:25:11,756.16041986642,38.385828,0.0,1.29172904396,9.396981928,16,5,7.464,757.47275586642,36.745408,0.4921268,1.82099415276,0.0,0.0,0.0,37.8,5.7,-3.3,0,0,1024,1024,1024,1024,0,0,0,0,0,0,0,71,3.734,3.73,0,0,0,0,4.834,62.96,756.16041986642,35.433072,6,P-GPS,,10.8
431000,2026-01-11 17:25:11,756.16041986642,38.385828,0.0,1.30416342756,9.409941246,16,5,7.464,757.47275586642,36.745408,0.4921268,1.82099415276,0.0,0.0,0.0,37.8,6.2,-3.3,0,0,1024,1024,1024,1024,0,0,0,0,0,0,0,71,3.734,3.73,0,0,0,0,4.834,62.96,756.16041986642,35.433072,6,P-GPS,,10.8
431100,2026-01-11 17:25:11,756.16041986642,38.385828,0.0,1.32382550168,9.4299871784,16,5,7.464,757.47275586642,36.745408,0.4921268,1.82099415276,0.0,0.0,0.0,37.8,5.9,-3.5,0,0,1024,1024,1024,1024,0,0,0,0,0,0,0,71,3.734,3.73,0,0,0,0,4.834,62.96,756.16041986642,35.433072,6,P-GPS,,10.8
431200,2026-01-11 17:25:11,756.16041986642,38.385828,0.0,1.33659125012,9.4441932156,16,5,7.464,757.47275586642,36.745408,0.4921268,1.82099415276,0.0,0.0,0.0,37.8,6.0,-3.2,0,0,1024,1024,1024,1024,0,0,0,0,0,0,0,71,3.734,3.73,0,0,0,0,4.834,62.96,756.16041986642,35.433072,6,P-GPS,,10.8
431300,2026-01-11 17:25:11,756.16041986642,38.385828,0.0,1.3458989932,9.4631892792,16,5,7.464,757.47275586642,36.745408,0.4921268,1.82099415276,0.0,0.0,0.0,37.7,6.1,-2.8,0,0,1024,1024,1024,1024,0,0,0,0,0,0,0,71,3.734,3.73,0,0,0,0,4.834,62.96,756.16041986642,35.433072,6,P-GPS,,10.8
431400,2026-01-11 17:25:11,756.16041986642,38.385828,0.0,1.35383206432,9.4802168388,16,5,7.464,757.47275586642,36.745408,0.4921268,1.82099415276,0.0,0.0,0.0,37.7,6.2,-3.1,0,0,1024,1024,1024,1024,0,0,0,0,0,0,0,71,3.734,3.73,0,0,0,0,4.834,62.96,756.16041986642,35.433072,6,P-GPS,,10.8
431500,2026-01-11 17:25:11,756.16041986642,38.385828,0.0,1.36843508316,9.5094163148,16,5,7.449,757.47275586642,36.745408,0.4921268,1.82099415276,0.0,0.0,0.0,37.7,6.7,-3.1,0,0,1024,1024,1024,1024,0,0,0,0,0,0,0,71,3.725,3.724,0,0,0,0,4.939,62.96,756.16041986642,35.433072,6,P-GPS,,10.8
