time(millisecond),timestamp,altitude_above_seaLevel(feet),height_sonar(feet),speed(mph),distance(feet),mileage(feet),satellites,gpslevel,voltage(v),max_altitude(feet),max_ascent(feet),max_speed(mph),max_distance(feet), xSpeed(mph), ySpeed(mph), zSpeed(mph), compass_heading(degrees), pitch(degrees), roll(degrees),isPhoto,isVideo,rc_elevator,rc_aileron,rc_throttle,rc_rudder,rc_elevator(percent),rc_aileron(percent),rc_throttle(percent),rc_rudder(percent),gimbal_heading(degrees),gimbal_pitch(degrees),gimbal_roll(degrees),battery_percent,voltageCell1,voltageCell2,voltageCell3,voltageCell4,voltageCell5,voltageCell6,current(A),battery_temperature(f),altitude(feet),ascent(feet),flycStateRaw,flycState,message,height_above_takeoff(meters)
293400,2026-01-11 15:34:59,720.62677404431,0.328084,0.0,0.0,0.0,15,5,0.0,720.62677404431,0.0,0.0,0.0,0.0,0.0,0.0,31.4,2.9,0.5,0,0,1024,1024,1024,1024,0,0,0,0,0,0,0,79,3.909,3.907,0,0,0,0,0.0,64.04,720.62677404431,0.0,41,Motors_Started,SD card speed low SD card speed low. Normal use may be affected. Replace SD card (Code: 10028),0.0
293500,2026-01-11 15:34:59,720.62677404431,0.328084,0.0,0.0115906499772,0.0115906499772,15,5,0.0,720.62677404431,0.0,0.0,0.0115906499772,0.0,0.0,0.0,31.4,2.9,0.5,0,0,1024,1024,1024,1024,0,0,0,0,0,0,0,79,3.909,3.907,0,0,0,0,0.0,64.04,720.62677404431,0.0,41,Motors_Started,,0.0
293600,2026-01-11 15:34:59,720.62677404431,0.328084,0.0,0.008862697134,0.0164697511832,15,5,0.0,720.62677404431,0.0,0.0,0.0115906499772,0.0,0.0,0.0,31.4,2.9,0.5,0,0,1024,1024,1024,1024,0,0,0,0,0,0,0,79,3.909,3.907,0,0,0,0,0.0,64.04,720.62677404431,0.0,41,Motors_Started,Setting new Return-To-Home altitude to 90m (295 ft). Data Recorder File Index is 33. Setting new Maximum Flight Altitude to 90m (295 ft),0.0
293700,2026-01-11 15:34:59,720.62677404431,0.328084,0.0,1.82301186936,0.0261827764284,15,5,0.0,720.62677404431,0.0,0.0,1.82301186936,0.0,0.0,0.0,31.4,2.9,0.5,0,0,1024,1024,1024,1024,0,0,0,0,0,0,0,79,3.909,3.907,0,0,0,0,0.0,64.04,720.62677404431,0.0,41,Motors_Started,,0.0
293800,2026-01-11 15:34:59,720.62677404431,0.328084,0.0,1.83396659412,0.03853838706,15,5,7.816,720.62677404431,0.0,0.0,1.83396659412,0.0,0.0,0.0,31.4,2.9,0.5,0,0,1024,1024,1024,1024,0,0,0,0,0,0,0,79,3.909,3.907,0,0,0,0,1.101,64.04,720.62677404431,0.0,41,Motors_Started,,0.0
293900,2026-01-11 15:34:59,720.62677404431,0.328084,0.0,1.8577264374,0.06650098638,15,5,7.816,720.62677404431,0.0,0.0,1.8577264374,0.0,0.0,0.0,31.5,2.9,0.5,0,0,1024,1024,1024,1024,0,0,0,0,0,0,0,79,3.909,3.907,0,0,0,0,1.101,64.04,720.62677404431,0.0,41,Motors_Started,,0.0
294000,2026-01-11 15:35:00,720.62677404431,0.328084,0.0,1.8795440234,0.088697181316,15,5,7.816,720.62677404431,0.0,0.0,1.8795440234,0.0,0.0,0.0,31.3,2.8,0.6,0,0,1024,1024,1024,1024,0,0,0,0,0,0,0,79,3.909,3.907,0,0,0,0,1.101,64.04,720.62677404431,0.0,41,Motors_Started,,0.0
294100,2026-01-11 15:35:00,720.62677404431,0.328084,0.0,1.9006398246,0.113260830396,15,5,7.816,720.62677404431,0.0,0.0,1.9006398246,0.0,0.0,0.0,31.6,2.9,0.6,0,0,1024,1024,1024,1024,0,0,0,0,0,0,0,79,3.909,3.907,0,0,0,0,1.101,64.04,720.62677404431,0.0,41,Motors_Started,,0.0
294200,2026-01-11 15:35:00,720.62677404431,0.328084,0.0,1.9178806388,0.13170768138,15,5,7.816,720.62677404431,0.0,0.0,1.9178806388,0.0,0.0,0.0,31.6,2.9,0.6,0,0,1024,1024,1024,1024,0,0,0,0,0,0,0,79,3.909,3.907,0,0,0,0,1.101,64.04,720.62677404431,0.0,41,Motors_Started,,0.0
294300,2026-01-11 15:35:00,720.62677404431,0.328084,0.0,1.92942591476,0.144636487568,15,5,7.816,720.62677404431,0.0,0.0,1.92942591476,0.0,0.0,0.0,31.6,2.9,0.6,0,0,1024,1024,1024,1024,0,0,0,0,0,0,0,79,3.909,3.907,0,0,0,0,1.101,64.04,720.62677404431,0.0,41,Motors_Started,,0.0
294400,2026-01-11 15:35:00,720.62677404431,0.328084,0.0,1.92923890688,0.146349086048,15,5,7.816,720.62677404431,0.0,0.0,1.92942591476,0.0,0.0,0.0,31.6,2.9,0.5,0,0,1024,1024,1024,1024,0,0,0,0,0,0,0,79,3.909,3.907,0,0,0,0,1.101,64.04,720.62677404431,0.0,41,Motors_Started,,0.0
294500,2026-01-11 15:35:00,720.62677404431,0.328084,0.0,1.93030846072,0.148147642536,15,5,7.816,720.62677404431,0.0,0.0,1.93030846072,0.0,0.0,0.0,31.6,2.9,0.6,0,0,1024,1024,1024,1024,0,0,0,0,0,0,0,79,3.909,3.907,0,0,0,0,1.101,64.04,720.62677404431,0.0,11,AutoTakeoff,,0.0
294600,2026-01-11 15:35:00,720.62677404431,0.328084,0.0,1.93814310664,0.15615486064,15,5,7.816,720.62677404431,0.0,0.0,1.93814310664,0.0,0.0,0.0,31.6,2.9,0.6,0,0,1024,1024,1024,1024,0,0,0,0,0,0,0,79,3.909,3.907,0,0,0,0,1.101,64.04,720.62677404431,0.0,11,AutoTakeoff,,0.0
294700,2026-01-11 15:35:00,720.62677404431,0.328084,0.0,1.96039704436,0.178473430908,15,5,7.816,720.62677404431,0.0,0.0,1.96039704436,0.0,0.0,0.0,31.5,2.9,0.6,0,0,1024,1024,1024,1024,0,0,0,0,0,0,0,79,3.909,3.907,0,0,0,0,1.101,64.04,720.62677404431,0.0,11,AutoTakeoff,,0.0
294800,2026-01-11 15:35:00,720.62677404431,0.328084,0.0,1.95833667684,0.186926843252,15,5,7.816,720.62677404431,0.0,0.0,1.96039704436,0.0,0.0,0.0,31.5,2.8,0.6,0,0,1024,1024,1024,1024,0,0,0,0,0,0,0,79,3.909,3.907,0,0,0,0,1.101,64.04,720.62677404431,0.0,11,AutoTakeoff,,0.0
294900,2026-01-11 15:35:01,720.62677404431,0.328084,0.0,1.96316935416,0.192087276488,15,5,7.766,720.62677404431,0.0,0.0,1.96316935416,0.0,0.0,0.0,31.6,2.8,0.6,0,0,1024,1024,1024,1024,0,0,0,0,0,0,0,79,3.883,3.883,0,0,0,0,1.968,64.04,720.62677404431,0.0,11,AutoTakeoff,,0.0
295000,2026-01-11 15:35:01,720.62677404431,0.328084,0.0,1.96424218884,0.195134848764,15,5,7.766,720.62677404431,0.0,0.0,1.96424218884,0.0,0.0,0.0,32.2,2.8,0.6,0,0,1024,1024,1024,1024,0,0,0,0,0,0,0,79,3.883,3.883,0,0,0,0,1.968,64.04,720.62677404431,0.0,11,AutoTakeoff,,0.0
295100,2026-01-11 15:35:01,720.62677404431,0.328084,0.0,1.95936029892,0.200680452616,15,5,7.766,720.62677404431,0.0,0.0,1.96424218884,0.0,0.0,0.0,33.8,2.7,0.7,0,0,1024,1024,1482,1024,0,0,69,0,0,0,0,79,3.883,3.883,0,0,0,0,1.968,64.04,720.62677404431,0.0,11,AutoTakeoff,,0.0
295200,2026-01-11 15:35:01,720.62677404431,0.328084,0.0,1.91854008764,0.24207513898,15,5,7.766,720.62677404431,0.0,0.0,1.96424218884,0.0,0.0,0.0,34.9,1.6,0.8,0,0,1024,1024,1684,1024,0,0,100,0,0,0,0,79,3.883,3.883,0,0,0,0,1.968,64.04,720.62677404431,0.0,11,AutoTakeoff,,0.0
295300,2026-01-11 15:35:01,720.62677404431,0.328084,0.0,1.9208662032,0.244419955328,15,5,7.766,720.62677404431,0.0,0.0,1.96424218884,0.0,0.0,-0.223694,36.0,0.0,0.0,0,0,1024,1024,1684,1024,0,0,100,0,0,0,0,79,3.883,3.883,0,0,0,0,1.968,64.04,720.62677404431,0.0,11,AutoTakeoff,,0.0
295400,2026-01-11 15:35:01,720.62677404431,0.328084,0.0,1.91719822408,0.249504273076,15,5,7.766,720.62677404431,0.0,0.0,1.96424218884,0.0,0.0,-0.671082,36.6,0.4,0.3,0,0,1024,1024,1684,1024,0,0,100,0,0,0,0,79,3.883,3.883,0,0,0,0,1.968,64.04,720.62677404431,0.0,11,AutoTakeoff,,0.0
295500,2026-01-11 15:35:01,720.62677404431,0.656168,0.223694,1.9003773574,0.26978675404,15,5,7.766,720.62677404431,0.0,0.223694,1.96424218884,0.0,0.223694,-1.11847,36.8,0.8,0.2,0,0,1024,1024,1684,1024,0,0,100,0,0,0,0,79,3.883,3.883,0,0,0,0,1.968,64.04,720.62677404431,0.0,11,AutoTakeoff,,0.0
295600,2026-01-11 15:35:01,720.95485804431,0.656168,0.223694,1.88952105784,0.284833998616,15,5,7.766,720.95485804431,0.328084,0.223694,1.96424218884,0.0,0.223694,-1.565858,36.6,1.5,-0.2,0,0,1024,1024,1684,1024,0,0,100,0,0,0,0,79,3.883,3.883,0,0,0,0,1.968,64.04,720.95485804431,0.328084,11,AutoTakeoff,,0.1
295700,2026-01-11 15:35:01,720.95485804431,0.984252,0.223694,1.87095478428,0.312995744924,15,5,7.766,720.95485804431,0.328084,0.223694,1.96424218884,0.0,0.223694,-2.013246,36.5,2.2,-1.0,0,0,1024,1024,1684,1024,0,0,100,0,0,0,0,79,3.883,3.883,0,0,0,0,1.968,64.04,720.95485804431,0.328084,11,AutoTakeoff,SD card speed low. Normal use may be affected. Replace SD card (Code: 10028). Gimbal stuck. Make sure gimbal cover is removed and manually check whether gimbal can rotate freely (Code: 40002). Home Point updated. RTH altitude adjusted to 90 m (Code: ,0.1
295800,2026-01-11 15:35:01,721.28294204431,0.984252,0.223694,1.84573824804,0.3572342634,15,5,7.766,721.28294204431,0.656168,0.223694,1.96424218884,0.0,0.223694,-2.460634,36.6,2.9,-1.9,0,0,1024,1024,1684,1024,0,0,100,0,0,0,0,79,3.883,3.883,0,0,0,0,1.968,64.04,721.28294204431,0.656168,11,AutoTakeoff,,0.2
295900,2026-01-11 15:35:01,721.93911004431,1.64042,0.223694,1.81027892932,0.42503610284,15,5,7.766,721.93911004431,1.312336,0.223694,1.96424218884,0.0,0.223694,-3.131716,36.6,3.2,-2.4,0,0,1024,1024,1684,1024,0,0,100,0,0,0,0,79,3.883,3.883,0,0,0,0,1.968,64.04,721.93911004431,1.312336,11,AutoTakeoff,,0.4
296000,2026-01-11 15:35:02,722.26719404431,1.968504,0.223694,1.79478024116,0.48791996312,17,5,7.525,722.26719404431,1.64042,0.223694,1.96424218884,0.0,0.223694,-3.579104,36.5,3.4,-2.0,0,0,1024,1024,1684,1024,0,0,100,0,0,0,0,79,3.762,3.763,0,0,0,0,5.642,64.04,722.26719404431,1.64042,11,AutoTakeoff,,0.5
296100,2026-01-11 15:35:02,722.92336204431,2.624672,0.223694,1.80375005772,0.62045277576,17,5,7.525,722.92336204431,2.296588,0.223694,1.96424218884,0.0,0.223694,-4.026492,36.5,3.6,-1.3,0,0,1024,1024,1684,1024,0,0,100,0,0,0,0,79,3.762,3.763,0,0,0,0,5.642,64.04,722.92336204431,2.296588,11,AutoTakeoff,,0.7
296200,2026-01-11 15:35:02,723.57953004431,2.952756,0.223694,1.8040026824,0.70148296208,17,5,7.525,723.57953004431,2.952756,0.223694,1.96424218884,0.0,0.223694,-4.250186,36.4,3.6,-1.4,0,0,1024,1024,1684,1024,0,0,100,0,0,0,0,79,3.762,3.763,0,0,0,0,5.642,64.04,723.57953004431,2.952756,6,P-GPS,,0.9
296300,2026-01-11 15:35:02,724.23569804431,3.608924,0.223694,1.77970478136,0.80841209936,17,5,7.525,724.23569804431,3.608924,0.223694,1.96424218884,0.0,0.223694,-4.47388,36.3,4.2,-1.9,0,0,1024,1024,1684,1024,0,0,100,0,0,0,0,79,3.762,3.763,0,0,0,0,5.642,64.04,724.23569804431,3.608924,6,P-GPS,,1.1
296400,2026-01-11 15:35:02,725.21995004431,4.265092,0.223694,1.77396003052,0.89637798144,17,5,7.525,725.21995004431,4.593176,0.223694,1.96424218884,0.0,0.223694,-4.47388,36.2,3.8,-2.0,0,0,1024,1024,1684,1024,0,0,100,0,0,0,0,79,3.762,3.763,0,0,0,0,5.642,64.04,725.21995004431,4.593176,6,P-GPS,,1.4
296500,2026-01-11 15:35:02,725.87611804431,4.92126,0.223694,1.80774284,0.97964570064,17,5,7.525,725.87611804431,5.249344,0.223694,1.96424218884,0.0,0.223694,-4.47388,36.2,3.8,-1.8,0,0,1024,1024,1684,1024,0,0,100,0,0,0,0,79,3.762,3.763,0,0,0,0,5.642,64.04,725.87611804431,5.249344,6,P-GPS,,1.6
296600,2026-01-11 15:35:02,726.53228604431,5.577428,0.0,1.81760832588,1.04794622776,17,5,7.525,726.53228604431,5.905512,0.223694,1.96424218884,0.0,0.0,-4.47388,36.2,3.6,-1.4,0,0,1024,1024,1684,1024,0,0,100,0,0,0,0,79,3.762,3.763,0,0,0,0,5.642,64.04,726.53228604431,5.905512,6,P-GPS,,1.8
296700,2026-01-11 15:35:02,727.18845404431,6.233596,0.0,1.80445871916,1.1448983306,17,5,7.525,727.18845404431,6.56168,0.223694,1.96424218884,0.0,0.0,-4.47388,36.3,4.0,-1.5,0,0,1024,1024,1684,1024,0,0,100,0,0,0,0,79,3.762,3.763,0,0,0,0,5.642,64.04,727.18845404431,6.56168,6,P-GPS,,2.0
296800,2026-01-11 15:35:02,727.84462204431,6.889764,0.0,1.80389441468,1.23466867468,17,5,7.525,727.84462204431,7.217848,0.223694,1.96424218884,0.0,0.0,-4.47388,36.3,4.8,-1.5,0,0,1024,1024,1684,1024,0,0,100,0,0,0,0,79,3.762,3.763,0,0,0,0,5.642,64.04,727.84462204431,7.217848,6,P-GPS,,2.2
296900,2026-01-11 15:35:03,728.50079004431,7.545932,0.0,1.80772971664,1.32631565924,17,5,7.525,728.50079004431,7.874016,0.223694,1.96424218884,0.0,0.0,-4.250186,36.1,4.5,-1.8,0,0,1024,1024,1684,1024,0,0,100,0,0,0,0,79,3.762,3.763,0,0,0,0,5.642,64.04,728.50079004431,7.874016,6,P-GPS,,2.4
297000,2026-01-11 15:35:03,729.48504204431,8.2021,0.0,1.79661094988,1.40601382452,17,5,7.525,729.48504204431,8.858268,0.223694,1.96424218884,0.0,0.0,-4.250186,36.1,3.8,-1.7,0,0,1024,1024,1684,1024,0,0,100,0,0,0,0,79,3.762,3.763,0,0,0,0,5.642,64.04,729.48504204431,8.858268,6,P-GPS,,2.7
297100,2026-01-11 15:35:03,730.14121004431,8.530184,0.0,1.73415687964,1.51580385428,17,5,7.575,730.14121004431,9.514436,0.223694,1.96424218884,0.0,0.0,-4.250186,36.2,4.0,-0.9,0,0,1024,1024,1684,1024,0,0,100,0,0,0,0,79,3.786,3.788,0,0,0,0,5.619,64.04,730.14121004431,9.514436,6,P-GPS,,2.9
297200,2026-01-11 15:35:03,730.79737804431,9.186352,0.0,1.69685372884,1.61267721696,17,5,7.575,730.79737804431,10.170604,0.223694,1.96424218884,0.0,0.0,-4.250186,36.3,3.8,-1.0,0,0,1024,1024,1684,1024,0,0,100,0,0,0,0,79,3.786,3.788,0,0,0,0,5.619,64.04,730.79737804431,10.170604,6,P-GPS,,3.1
297300,2026-01-11 15:35:03,731.45354604431,9.84252,0.0,1.65037078772,1.73604336264,17,5,7.575,731.45354604431,10.826772,0.223694,1.96424218884,0.0,0.223694,-4.250186,36.3,4.8,-0.7,0,0,1024,1024,1684,1024,0,0,100,0,0,0,0,79,3.786,3.788,0,0,0,0,5.619,64.04,731.45354604431,10.826772,6,P-GPS,,3.3
297400,2026-01-11 15:35:03,732.10971404431,10.170604,0.223694,1.6700459852,1.84373693564,17,5,7.575,732.10971404431,11.48294,0.223694,1.96424218884,0.0,0.223694,-4.250186,36.1,4.6,-2.6,0,0,1024,1024,1684,1024,0,0,100,0,0,0,0,79,3.786,3.788,0,0,0,0,5.619,64.04,732.10971404431,11.48294,6,P-GPS,,3.5
297500,2026-01-11 15:35:03,732.76588204431,10.826772,0.223694,1.686515802,1.977280247,17,5,7.575,732.76588204431,12.139108,0.223694,1.96424218884,0.0,0.223694,-4.250186,36.0,4.8,-3.4,0,0,1024,1024,1684,1024,0,0,100,0,0,0,0,79,3.786,3.788,0,0,0,0,5.619,64.04,732.76588204431,12.139108,6,P-GPS,,3.7
297600,2026-01-11 15:35:03,733.42205004431,11.48294,0.223694,1.70926514656,2.09014770468,17,5,7.575,733.42205004431,12.795276,0.223694,1.96424218884,0.0,0.223694,-4.250186,35.9,5.1,-3.7,0,0,1024,1024,1684,1024,0,0,100,0,0,0,0,79,3.786,3.788,0,0,0,0,5.619,64.04,733.42205004431,12.795276,6,P-GPS,,3.9
297700,2026-01-11 15:35:03,734.40630204431,12.139108,0.223694,1.735482339,2.17987867868,17,5,7.575,734.40630204431,13.779528,0.223694,1.96424218884,0.0,0.223694,-4.250186,35.9,5.3,-3.7,0,0,1024,1024,1684,1024,0,0,100,0,0,0,0,79,3.786,3.788,0,0,0,0,5.619,64.04,734.40630204431,13.779528,6,P-GPS,,4.2
297800,2026-01-11 15:35:03,735.06247004431,12.795276,0.223694,1.77843181544,2.2772966608,17,5,7.575,735.06247004431,14.435696,0.223694,1.96424218884,0.0,0.223694,-4.250186,35.9,5.0,-5.1,0,0,1024,1024,1684,1024,0,0,100,0,0,0,0,79,3.786,3.788,0,0,0,0,5.619,64.04,735.06247004431,14.435696,6,P-GPS,,4.4
297900,2026-01-11 15:35:03,735.71863804431,13.451444,0.223694,1.81030845688,2.3839239608,17,5,7.575,735.71863804431,15.091864,0.223694,1.96424218884,0.0,0.223694,-4.250186,35.9,5.0,-5.0,0,0,1024,1024,1684,1024,0,0,100,0,0,0,0,79,3.786,3.788,0,0,0,0,5.619,64.04,735.71863804431,15.091864,6,P-GPS,,4.6
298000,2026-01-11 15:35:04,736.37480604431,14.107612,0.0,1.84794625336,2.45070217816,17,5,7.575,736.37480604431,15.748032,0.223694,1.96424218884,0.0,0.0,-4.47388,35.9,5.5,-4.0,0,0,1024,1024,1684,1024,0,0,100,0,0,0,0,79,3.786,3.788,0,0,0,0,5.619,64.04,736.37480604431,15.748032,6,P-GPS,,4.8
298100,2026-01-11 15:35:04,737.35905804431,14.76378,0.0,1.89055452244,2.49363196956,17,5,7.575,737.35905804431,16.732284,0.223694,1.96424218884,0.0,0.0,-4.47388,35.9,5.1,-3.4,0,0,1024,1024,1684,1024,0,0,100,0,0,0,0,79,3.786,3.788,0,0,0,0,5.619,64.04,737.35905804431,16.732284,6,P-GPS,,5.1
298200,2026-01-11 15:35:04,738.01522604431,15.419948,0.0,1.96121725436,2.68382226436,16,5,7.575,738.01522604431,17.388452,0.223694,1.96424218884,0.0,0.0,-4.47388,36.1,4.4,-1.1,0,0,1024,1024,1684,1024,0,0,100,0,0,0,0,79,3.766,3.77,0,0,0,0,5.619,64.04,738.01522604431,17.388452,6,P-GPS,,5.3
298300,2026-01-11 15:35:04,738.67139404431,16.076116,0.0,1.97444560124,2.7563813218,16,5,7.575,738.67139404431,18.04462,0.223694,1.97444560124,0.0,0.0,-4.47388,36.0,4.8,-1.9,0,0,1024,1024,1684,1024,0,0,100,0,0,0,0,79,3.766,3.77,0,0,0,0,5.619,64.04,738.67139404431,18.04462,6,P-GPS,,5.5
298400,2026-01-11 15:35:04,739.32756204431,16.732284,0.0,1.98069560144,2.77440625676,17,5,7.575,739.32756204431,18.700788,0.223694,1.98069560144,0.0,0.0,-4.47388,35.9,5.1,-2.8,0,0,1024,1024,1684,1024,0,0,100,0,0,0,0,79,3.766,3.77,0,0,0,0,5.619,64.04,739.32756204431,18.700788,6,P-GPS,,5.7
298500,2026-01-11 15:35:04,739.98373004431,17.716536,0.0,1.97378287156,2.85119431696,17,5,7.575,739.98373004431,19.356956,0.223694,1.98069560144,0.0,0.0,-4.47388,35.9,5.3,-3.1,0,0,1024,1024,1684,1024,0,0,100,0,0,0,0,79,3.766,3.77,0,0,0,0,5.619,64.04,739.98373004431,19.356956,6,P-GPS,,5.9
298600,2026-01-11 15:35:04,740.63989804431,18.372704,0.223694,1.93422578368,2.99133211672,17,5,7.575,740.63989804431,20.013124,0.223694,1.98069560144,0.0,0.223694,-4.47388,35.8,5.5,-5.2,0,0,1024,1024,1684,1024,0,0,100,0,0,0,0,79,3.766,3.77,0,0,0,0,5.619,64.04,740.63989804431,20.013124,6,P-GPS,,6.1
298700,2026-01-11 15:35:04,741.29606604431,19.028872,0.0,1.94158142696,3.04971794536,17,5,7.575,741.29606604431,20.669292,0.223694,1.98069560144,0.0,0.0,-4.250186,35.7,5.6,-5.0,0,0,1024,1024,1684,1024,0,0,100,0,0,0,0,79,3.766,3.77,0,0,0,0,5.619,64.04,741.29606604431,20.669292,6,P-GPS,,6.3
298800,2026-01-11 15:35:04,741.95223404431,19.68504,0.0,1.93388129548,3.08789708044,17,5,7.575,741.95223404431,21.32546,0.223694,1.98069560144,0.0,0.0,-4.250186,35.8,4.9,-4.6,0,0,1024,1024,1684,1024,0,0,100,0,0,0,0,79,3.766,3.77,0,0,0,0,5.619,64.04,741.95223404431,21.32546,6,P-GPS,,6.5
298900,2026-01-11 15:35:05,742.60840204431,20.341208,0.0,1.89939966708,3.12778225232,17,5,7.575,742.60840204431,21.981628,0.223694,1.98069560144,0.0,0.0,-4.250186,35.8,4.6,-3.8,0,0,1024,1024,1684,1024,0,0,100,0,0,0,0,79,3.766,3.77,0,0,0,0,5.619,64.04,742.60840204431,21.981628,6,P-GPS,,6.7
299000,2026-01-11 15:35:05,743.26457004431,23.293964,0.0,1.79702761656,3.27802503928,17,5,7.575,743.26457004431,22.637796,0.223694,1.98069560144,0.0,0.0,-4.250186,35.9,4.3,-3.2,0,0,1024,1024,1684,1024,0,0,100,0,0,0,0,79,3.766,3.77,0,0,0,0,5.619,64.04,743.26457004431,22.637796,6,P-GPS,,6.9
299100,2026-01-11 15:35:05,743.92073804431,23.950132,0.0,1.75394690652,3.321194332,17,5,7.575,743.92073804431,23.293964,0.223694,1.98069560144,0.0,0.0,-4.250186,35.9,4.2,-3.3,0,0,1024,1024,1684,1024,0,0,100,0,0,0,0,79,3.766,3.77,0,0,0,0,5.619,64.04,743.92073804431,23.293964,6,P-GPS,,7.1
299200,2026-01-11 15:35:05,744.90499004431,24.6063,0.0,1.7098753828,3.365485672,17,5,7.575,744.90499004431,24.278216,0.223694,1.98069560144,0.0,0.0,-4.250186,35.9,4.0,-3.2,0,0,1024,1024,1684,1024,0,0,100,0,0,0,0,79,3.766,3.77,0,0,0,0,5.619,64.04,744.90499004431,24.278216,6,P-GPS,,7.4
299300,2026-01-11 15:35:05,745.56115804431,25.590552,0.0,1.65999349144,3.416338692,17,5,7.535,745.56115804431,24.934384,0.223694,1.98069560144,0.0,0.0,-4.250186,35.9,4.1,-3.2,0,0,1024,1024,1684,1024,0,0,100,0,0,0,0,79,3.771,3.771,0,0,0,0,6.173,64.04,745.56115804431,24.934384,6,P-GPS,,7.6
299400,2026-01-11 15:35:05,746.21732604431,26.574804,0.0,1.61264440856,3.4637140216,17,5,7.535,746.21732604431,25.590552,0.223694,1.98069560144,0.0,0.0,-4.250186,35.9,4.1,-3.1,0,0,1024,1024,1684,1024,0,0,100,0,0,0,0,79,3.771,3.771,0,0,0,0,6.173,64.04,746.21732604431,25.590552,6,P-GPS,,7.8
299500,2026-01-11 15:35:05,746.87349404431,27.230972,0.0,1.52298889388,3.5568570692,17,5,7.535,746.87349404431,26.24672,0.223694,1.98069560144,0.0,0.0,-4.250186,35.9,4.1,-2.9,0,0,1024,1024,1684,1024,0,0,100,0,0,0,0,79,3.771,3.771,0,0,0,0,6.173,64.04,746.87349404431,26.24672,6,P-GPS,,8.0
299600,2026-01-11 15:35:05,747.52966204431,27.88714,0.0,1.47515424668,3.6068242624,17,5,7.535,747.52966204431,26.902888,0.223694,1.98069560144,0.0,0.0,-4.250186,35.9,3.6,-2.7,0,0,1024,1024,1684,1024,0,0,100,0,0,0,0,79,3.771,3.771,0,0,0,0,6.173,64.04,747.52966204431,26.902888,6,P-GPS,,8.2
299700,2026-01-11 15:35:05,748.18583004431,28.543308,0.0,1.42159125284,3.6662402748,17,5,7.535,748.18583004431,27.559056,0.223694,1.98069560144,0.0,0.0,-4.47388,35.9,3.9,-2.9,0,0,1024,1024,1684,1024,0,0,100,0,0,0,0,79,3.771,3.771,0,0,0,0,6.173,64.04,748.18583004431,27.559056,6,P-GPS,,8.4
299800,2026-01-11 15:35:05,748.84199804431,28.871392,0.0,1.38558403384,3.7079069428,17,5,7.535,748.84199804431,28.215224,0.223694,1.98069560144,0.0,0.0,-4.47388,35.8,4.3,-2.8,0,0,1024,1024,1684,1024,0,0,100,0,0,0,0,79,3.771,3.771,0,0,0,0,6.173,64.04,748.84199804431,28.215224,6,P-GPS,,8.6
299900,2026-01-11 15:35:05,749.49816604431,32.152232,0.0,1.38936684236,3.7145342396,17,5,7.535,749.49816604431,28.871392,0.223694,1.98069560144,0.0,0.0,-4.250186,35.8,4.5,-2.9,0,0,1024,1024,1684,1024,0,0,100,0,0,0,0,79,3.771,3.771,0,0,0,0,6.173,64.04,749.49816604431,28.871392,6,P-GPS,,8.8
300000,2026-01-11 15:35:06,750.15433404431,32.8084,0.223694,1.37328416468,3.741633978,17,5,7.535,750.15433404431,29.52756,0.223694,1.98069560144,0.0,-0.223694,-4.250186,35.9,4.4,-2.3,0,0,1024,1024,1684,1024,0,0,100,0,0,0,0,79,3.771,3.771,0,0,0,0,6.173,64.04,750.15433404431,29.52756,6,P-GPS,,9.0
300100,2026-01-11 15:35:06,750.81050204431,33.464568,0.223694,1.34114505604,3.7986221688,17,5,7.535,750.81050204431,30.183728,0.223694,1.98069560144,0.0,-0.223694,-4.250186,35.9,4.1,-1.8,0,0,1024,1024,1684,1024,0,0,100,0,0,0,0,79,3.771,3.771,0,0,0,0,6.173,64.04,750.81050204431,30.183728,6,P-GPS,,9.2
300200,2026-01-11 15:35:06,751.46667004431,34.120736,0.223694,1.32072838872,3.8519686272,17,5,7.535,751.46667004431,30.839896,0.223694,1.98069560144,0.0,-0.223694,-4.250186,35.7,4.4,-2.1,0,0,1024,1024,1684,1024,0,0,100,0,0,0,0,79,3.771,3.771,0,0,0,0,6.173,64.04,751.46667004431,30.839896,6,P-GPS,,9.4
300300,2026-01-11 15:35:06,752.45092204431,34.776904,0.223694,1.35865817996,3.9885828048,17,5,7.535,752.45092204431,31.824148,0.223694,1.98069560144,0.0,-0.223694,-4.250186,35.8,4.5,-1.8,0,0,1024,1024,1684,1024,0,0,100,0,0,0,0,79,3.771,3.771,0,0,0,0,6.173,64.04,752.45092204431,31.824148,6,P-GPS,,9.7
300400,2026-01-11 15:35:06,753.10709004431,34.44882,0.223694,1.3438484682,4.043963384,17,5,7.535,753.10709004431,32.480316,0.223694,1.98069560144,0.0,-0.223694,-4.250186,35.9,3.4,-1.6,0,0,1024,1024,1684,1024,0,0,100,0,0,0,0,79,3.771,3.771,0,0,0,0,6.173,64.04,753.10709004431,32.480316,6,P-GPS,,9.9
300500,2026-01-11 15:35:06,753.76325804431,34.44882,0.0,1.30053809936,4.1049213912,17,5,7.541,753.76325804431,33.136484,0.223694,1.98069560144,0.0,0.0,-4.47388,35.9,3.3,-1.7,0,0,1024,1024,1024,1024,0,0,0,0,0,0,0,79,3.769,3.771,0,0,0,0,5.93,64.22,753.76325804431,33.136484,6,P-GPS,,10.1
300600,2026-01-11 15:35:06,754.41942604431,35.104988,0.0,1.25566605068,4.1581694244,17,5,7.541,754.41942604431,33.792652,0.223694,1.98069560144,0.0,0.0,-4.47388,35.9,3.3,-2.6,0,0,1024,1024,1024,1024,0,0,0,0,0,0,0,79,3.769,3.771,0,0,0,0,5.93,64.22,754.41942604431,33.792652,6,P-GPS,,10.3
300700,2026-01-11 15:35:06,755.07559404431,35.761156,0.0,1.11366801464,4.301509324,17,5,7.541,755.07559404431,34.44882,0.223694,1.98069560144,0.0,0.0,-4.250186,35.9,2.9,-3.3,0,0,1024,1024,1024,1024,0,0,0,0,0,0,0,79,3.769,3.771,0,0,0,0,5.93,64.22,755.07559404431,34.44882,6,P-GPS,,10.5
300800,2026-01-11 15:35:06,756.05984604431,36.417324,0.0,1.04838257948,4.367454208,17,5,7.541,756.05984604431,35.433072,0.223694,1.98069560144,0.0,0.0,-4.250186,35.9,2.1,-3.7,0,0,1024,1024,1024,1024,0,0,0,0,0,0,0,79,3.769,3.771,0,0,0,0,5.93,64.22,756.05984604431,35.433072,6,P-GPS,,10.8
300900,2026-01-11 15:35:06,756.71601404431,37.073492,0.0,0.9684055428,4.4476379376,17,5,7.541,756.71601404431,36.08924,0.223694,1.98069560144,0.0,0.0,-3.579104,35.9,3.0,-3.7,0,0,1024,1024,1024,1024,0,0,0,0,0,0,0,79,3.769,3.771,0,0,0,0,5.93,64.22,756.71601404431,36.08924,6,P-GPS,,11.0
301000,2026-01-11 15:35:07,757.04409804431,37.401576,0.0,0.91403546232,4.5020014564,17,5,7.541,757.04409804431,36.417324,0.223694,1.98069560144,0.0,0.0,-2.908022,35.8,3.7,-3.9,0,0,1024,1024,1024,1024,0,0,0,0,0,0,0,79,3.769,3.771,0,0,0,0,5.93,64.22,757.04409804431,36.417324,6,P-GPS,,11.1
301100,2026-01-11 15:35:07,757.37218204431,37.72966,0.0,0.89321525168,4.5243111684,17,5,7.541,757.37218204431,36.745408,0.223694,1.98069560144,0.0,0.0,-2.013246,35.6,4.2,-4.5,0,0,1024,1024,1024,1024,0,0,0,0,0,0,0,79,3.769,3.771,0,0,0,0,5.93,64.22,757.37218204431,36.745408,6,P-GPS,,11.2
301200,2026-01-11 15:35:07,757.70026604431,38.057744,0.0,0.8351050136,4.586286236,17,5,7.541,757.70026604431,37.073492,0.223694,1.98069560144,0.0,0.0,-1.342164,35.6,5.0,-4.3,0,0,1024,1024,1024,1024,0,0,0,0,0,0,0,79,3.769,3.771,0,0,0,0,5.93,64.22,757.70026604431,37.073492,6,P-GPS,,11.3
301300,2026-01-11 15:35:07,758.02835004431,38.385828,0.0,0.82860566956,4.5995408296,17,5,7.541,758.02835004431,37.401576,0.223694,1.98069560144,0.0,0.0,-0.671082,35.7,5.1,-3.8,0,0,1024,1024,1024,1024,0,0,0,0,0,0,0,79,3.769,3.771,0,0,0,0,5.93,64.22,758.02835004431,37.401576,6,P-GPS,,11.4
301400,2026-01-11 15:35:07,758.02835004431,38.385828,0.0,0.81262141708,4.6178807252,17,5,7.541,758.02835004431,37.401576,0.223694,1.98069560144,0.0,0.0,-0.223694,35.6,4.6,-3.9,0,0,1024,1024,1024,1024,0,0,0,0,0,0,0,79,3.769,3.771,0,0,0,0,5.93,64.22,758.02835004431,37.401576,6,P-GPS,,11.4
301500,2026-01-11 15:35:07,758.02835004431,38.385828,0.0,0.7786417572,4.6521326948,17,5,7.541,758.02835004431,37.401576,0.223694,1.98069560144,0.0,0.0,0.0,35.6,4.8,-4.3,0,0,1024,1024,1024,1024,0,0,0,0,0,0,0,79,3.769,3.771,0,0,0,0,5.93,64.22,758.02835004431,37.401576,6,P-GPS,,11.4
301600,2026-01-11 15:35:07,758.35643404431,38.385828,0.0,0.74221459068,4.6900263968,17,5,7.652,758.35643404431,37.72966,0.223694,1.98069560144,0.0,0.0,0.0,35.6,4.4,-4.5,0,0,1024,1024,1024,1024,0,0,0,0,0,0,0,78,3.809,3.807,0,0,0,0,4.39,64.22,758.35643404431,37.72966,6,P-GPS,,11.5
301700,2026-01-11 15:35:07,758.35643404431,38.385828,0.0,0.69078414284,4.7467849288,17,5,7.652,758.35643404431,37.72966,0.223694,1.98069560144,0.0,0.0,0.0,35.7,4.1,-4.3,0,0,1024,1024,1024,1024,0,0,0,0,0,0,0,78,3.809,3.807,0,0,0,0,4.39,64.22,758.35643404431,37.72966,6,P-GPS,,11.5
301800,2026-01-11 15:35:07,758.35643404431,38.385828,0.0,0.63235894412,4.8067914924,17,5,7.652,758.35643404431,37.72966,0.223694,1.98069560144,0.0,0.0,0.0,35.8,3.4,-3.9,0,0,1024,1024,1024,1024,0,0,0,0,0,0,0,78,3.809,3.807,0,0,0,0,4.39,64.22,758.35643404431,37.72966,6,P-GPS,,11.5
301900,2026-01-11 15:35:08,758.35643404431,38.385828,0.0,0.5603346636,4.8788387388,17,5,7.652,758.35643404431,37.72966,0.223694,1.98069560144,0.0,0.0,0.0,35.9,3.1,-3.6,0,0,1024,1024,1024,1024,0,0,0,0,0,0,0,78,3.809,3.807,0,0,0,0,4.39,64.22,758.35643404431,37.72966,6,P-GPS,,11.5
302000,2026-01-11 15:35:08,758.35643404431,38.385828,0.0,0.45020014564,4.9930447792,17,5,7.652,758.35643404431,37.72966,0.223694,1.98069560144,0.0,0.0,0.0,35.9,2.6,-3.3,0,0,1024,1024,1024,1024,0,0,0,0,0,0,0,78,3.809,3.807,0,0,0,0,4.39,64.22,758.35643404431,37.72966,6,P-GPS,,11.5
302100,2026-01-11 15:35:08,758.68451804431,38.385828,0.0,0.39556103628,5.048064466,17,5,7.652,758.68451804431,38.057744,0.223694,1.98069560144,0.0,0.0,0.0,35.8,2.5,-3.5,0,0,1024,1024,1024,1024,0,0,0,0,0,0,0,78,3.809,3.807,0,0,0,0,4.39,64.22,758.68451804431,38.057744,6,P-GPS,,11.6
302200,2026-01-11 15:35:08,758.68451804431,38.385828,0.0,0.35123688788,5.0925526564,17,5,7.652,758.68451804431,38.057744,0.223694,1.98069560144,0.0,0.0,0.0,35.9,2.7,-3.8,0,0,1024,1024,1024,1024,0,0,0,0,0,0,0,78,3.809,3.807,0,0,0,0,4.39,64.22,758.68451804431,38.057744,6,P-GPS,,11.6
302300,2026-01-11 15:35:08,758.68451804431,38.385828,0.0,0.318137477372,5.1261156496,17,5,7.652,758.68451804431,38.057744,0.223694,1.98069560144,0.0,0.0,0.0,36.0,3.2,-3.9,0,0,1024,1024,1024,1024,0,0,0,0,0,0,0,78,3.809,3.807,0,0,0,0,4.39,64.22,758.68451804431,38.057744,6,P-GPS,,11.6
302400,2026-01-11 15:35:08,758.68451804431,38.385828,0.0,0.319856965616,5.1689306116,17,5,7.652,758.68451804431,38.057744,0.223694,1.98069560144,0.0,0.0,0.0,36.0,3.3,-3.9,0,0,1024,1024,1024,1024,0,0,0,0,0,0,0,78,3.809,3.807,0,0,0,0,4.39,64.22,758.68451804431,38.057744,6,P-GPS,,11.6
302500,2026-01-11 15:35:08,759.01260204431,38.385828,0.0,0.311128946964,5.1787403232,17,5,7.652,759.01260204431,38.385828,0.223694,1.98069560144,0.0,0.0,0.0,36.0,3.2,-4.1,0,0,1024,1024,1024,1024,0,0,0,0,0,0,0,78,3.809,3.807,0,0,0,0,4.39,64.22,759.01260204431,38.385828,6,P-GPS,,11.7
302600,2026-01-11 15:35:08,759.01260204431,38.385828,0.0,0.313866807944,5.184875494,17,5,7.652,759.01260204431,38.385828,0.223694,1.98069560144,0.0,0.0,0.0,36.0,3.5,-4.3,0,0,1024,1024,1024,1024,0,0,0,0,0,0,0,78,3.809,3.807,0,0,0,0,4.39,64.22,759.01260204431,38.385828,6,P-GPS,,11.7
302700,2026-01-11 15:35:08,759.01260204431,38.385828,0.0,0.33158465628,5.213582844,17,5,7.591,759.01260204431,38.385828,0.223694,1.98069560144,0.0,0.0,0.0,36.1,4.0,-4.0,0,0,1024,1024,1024,1024,0,0,0,0,0,0,0,78,3.793,3.798,0,0,0,0,4.767,64.22,759.01260204431,38.385828,6,P-GPS,,11.7
302800,2026-01-11 15:35:08,759.01260204431,38.385828,0.0,0.35109253092,5.2436353384,17,5,7.591,759.01260204431,38.385828,0.223694,1.98069560144,0.0,0.0,0.0,36.0,4.3,-4.4,0,0,1024,1024,1024,1024,0,0,0,0,0,0,0,78,3.793,3.798,0,0,0,0,4.767,64.22,759.01260204431,38.385828,6,P-GPS,,11.7
302900,2026-01-11 15:35:08,759.01260204431,38.385828,0.0,0.40139765064,5.3347442652,17,5,7.591,759.01260204431,38.385828,0.223694,1.98069560144,0.0,0.0,0.0,36.0,4.2,-4.6,0,0,1024,1024,1024,1024,0,0,0,0,0,0,0,78,3.793,3.798,0,0,0,0,4.767,64.22,759.01260204431,38.385828,6,P-GPS,,11.7
303000,2026-01-11 15:35:09,759.01260204431,38.385828,0.0,0.41800526272,5.3558400664,17,5,7.591,759.01260204431,38.385828,0.223694,1.98069560144,0.0,0.0,0.0,35.9,4.0,-4.6,0,0,1024,1024,1024,1024,0,0,0,0,0,0,0,78,3.793,3.798,0,0,0,0,4.767,64.22,759.01260204431,38.385828,6,P-GPS,,11.7
303100,2026-01-11 15:35:09,759.01260204431,38.385828,0.0,0.42666011864,5.3645999092,17,5,7.591,759.01260204431,38.385828,0.223694,1.98069560144,0.0,0.0,0.0,35.8,4.4,-4.6,0,0,1024,1024,1024,1024,0,0,0,0,0,0,0,78,3.793,3.798,0,0,0,0,4.767,64.22,759.01260204431,38.385828,6,P-GPS,,11.7
303200,2026-01-11 15:35:09,759.01260204431,38.385828,0.0,0.43658465964,5.3757219568,17,5,7.591,759.01260204431,38.385828,0.223694,1.98069560144,0.0,0.0,0.0,35.9,4.0,-4.8,0,0,1024,1024,1024,1024,0,0,0,0,0,0,0,78,3.793,3.798,0,0,0,0,4.767,64.22,759.01260204431,38.385828,6,P-GPS,,11.7
303300,2026-01-11 15:35:09,759.01260204431,38.385828,0.0,0.416912743,5.4281825884,17,5,7.591,759.01260204431,38.385828,0.223694,1.98069560144,0.0,0.0,0.0,35.9,4.1,-4.6,0,0,1024,1024,1024,1024,0,0,0,0,0,0,0,78,3.793,3.798,0,0,0,0,4.767,64.22,759.01260204431,38.385828,6,P-GPS,,11.7
303400,2026-01-11 15:35:09,759.01260204431,38.385828,0.0,0.43487862284,5.44783482,17,5,7.591,759.01260204431,38.385828,0.223694,1.98069560144,0.0,0.0,0.0,35.9,4.3,-4.2,0,0,1024,1024,1024,1024,0,0,0,0,0,0,0,78,3.793,3.798,0,0,0,0,4.767,64.22,759.01260204431,38.385828,6,P-GPS,,11.7
303500,2026-01-11 15:35:09,759.01260204431,38.385828,0.0,0.45719489652,5.4704398076,17,5,7.591,759.01260204431,38.385828,0.223694,1.98069560144,0.0,0.0,0.0,35.9,4.1,-4.1,0,0,1024,1024,1024,1024,0,0,0,0,0,0,0,78,3.793,3.798,0,0,0,0,4.767,64.22,759.01260204431,38.385828,6,P-GPS,,11.7
303600,2026-01-11 15:35:09,759.01260204431,38.385828,0.0,0.47708991028,5.4942258976,17,5,7.591,759.01260204431,38.385828,0.223694,1.98069560144,0.0,0.0,0.0,35.9,4.1,-3.9,0,0,1024,1024,1024,1024,0,0,0,0,0,0,0,78,3.793,3.798,0,0,0,0,4.767,64.22,759.01260204431,38.385828,6,P-GPS,,11.7
303700,2026-01-11 15:35:09,759.01260204431,38.385828,0.0,0.48994752224,5.5683400732,17,5,7.591,759.01260204431,38.385828,0.223694,1.98069560144,0.0,0.0,0.0,35.9,3.9,-3.6,0,0,1024,1024,1024,1024,0,0,0,0,0,0,0,78,3.793,3.798,0,0,0,0,4.767,64.22,759.01260204431,38.385828,6,P-GPS,,11.7
303800,2026-01-11 15:35:09,759.01260204431,38.385828,0.0,0.51719817928,5.6054135652,17,5,7.574,759.01260204431,38.385828,0.223694,1.98069560144,0.0,0.0,0.0,35.7,4.7,-3.5,0,0,1024,1024,1024,1024,0,0,0,0,0,0,0,78,3.79,3.793,0,0,0,0,4.957,64.22,759.01260204431,38.385828,6,P-GPS,,11.7
303900,2026-01-11 15:35:10,759.01260204431,38.385828,0.0,0.544783482,5.6375657972,17,5,7.574,759.01260204431,38.385828,0.223694,1.98069560144,0.0,0.0,0.0,35.8,4.6,-3.5,0,0,1024,1024,1024,1024,0,0,0,0,0,0,0,78,3.79,3.793,0,0,0,0,4.957,64.22,759.01260204431,38.385828,6,P-GPS,,11.7
304000,2026-01-11 15:35:10,759.01260204431,38.385828,0.0,0.565534795,5.6597442756,17,5,7.574,759.01260204431,38.385828,0.223694,1.98069560144,0.0,0.0,0.0,35.8,4.3,-4.0,0,0,1024,1024,1024,1024,0,0,0,0,0,0,0,78,3.79,3.793,0,0,0,0,4.957,64.22,759.01260204431,38.385828,6,P-GPS,,11.7
304100,2026-01-11 15:35:10,759.01260204431,38.385828,0.0,0.56730972944,5.6666012312,17,5,7.574,759.01260204431,38.385828,0.223694,1.98069560144,0.0,0.0,0.0,35.7,4.0,-3.9,0,0,1024,1024,1024,1024,0,0,0,0,0,0,0,78,3.79,3.793,0,0,0,0,4.957,64.22,759.01260204431,38.385828,6,P-GPS,,11.7
304200,2026-01-11 15:35:10,759.01260204431,38.385828,0.0,0.58404201344,5.6837928328,17,5,7.574,759.01260204431,38.385828,0.223694,1.98069560144,0.0,0.0,0.0,35.6,4.2,-4.1,0,0,1024,1024,1024,1024,0,0,0,0,0,0,0,78,3.79,3.793,0,0,0,0,4.957,64.22,759.01260204431,38.385828,6,P-GPS,,11.7
304300,2026-01-11 15:35:10,759.01260204431,38.385828,0.0,0.60865815596,5.708825642,17,5,7.574,759.01260204431,38.385828,0.223694,1.98069560144,0.0,0.0,0.0,35.7,4.4,-4.8,0,0,1024,1024,1024,1024,0,0,0,0,0,0,0,78,3.79,3.793,0,0,0,0,4.957,64.22,759.01260204431,38.385828,6,P-GPS,,11.7
304400,2026-01-11 15:35:10,759.01260204431,38.385828,0.0,0.6303149808,5.7305448028,17,5,7.574,759.01260204431,38.385828,0.223694,1.98069560144,0.0,0.0,0.0,35.8,4.3,-4.6,0,0,1024,1024,1024,1024,0,0,0,0,0,0,0,78,3.79,3.793,0,0,0,0,4.957,64.22,759.01260204431,38.385828,6,P-GPS,,11.7
304500,2026-01-11 15:35:10,759.01260204431,38.385828,0.0,0.65025592632,5.751148478,17,5,7.574,759.01260204431,38.385828,0.223694,1.98069560144,0.0,0.0,0.0,35.8,4.4,-4.2,0,0,1024,1024,1024,1024,0,0,0,0,0,0,0,78,3.79,3.793,0,0,0,0,4.957,64.22,759.01260204431,38.385828,6,P-GPS,,11.7
304600,2026-01-11 15:35:10,759.01260204431,38.385828,0.0,0.6623359792,5.7645014968,17,5,7.574,759.01260204431,38.385828,0.223694,1.98069560144,0.0,0.0,0.0,35.7,4.7,-4.7,0,0,1024,1024,1024,1024,0,0,0,0,0,0,0,78,3.79,3.793,0,0,0,0,4.957,64.22,759.01260204431,38.385828,6,P-GPS,,11.7
304700,2026-01-11 15:35:10,759.01260204431,38.385828,0.0,0.69357941852,5.7989175084,17,5,7.574,759.01260204431,38.385828,0.223694,1.98069560144,0.0,0.0,0.0,35.7,5.2,-4.6,0,0,1024,1024,1024,1024,0,0,0,0,0,0,0,78,3.79,3.793,0,0,0,0,4.957,64.22,759.01260204431,38.385828,6,P-GPS,,11.7
304800,2026-01-11 15:35:10,759.01260204431,38.385828,0.0,0.7210958236,5.828084176,17,5,7.574,759.01260204431,38.385828,0.223694,1.98069560144,0.0,0.0,0.0,35.8,4.9,-4.2,0,0,1024,1024,1024,1024,0,0,0,0,0,0,0,78,3.79,3.793,0,0,0,0,4.957,64.22,759.01260204431,38.385828,6,P-GPS,,11.7
304900,2026-01-11 15:35:10,759.01260204431,38.385828,0.0,0.74493440704,5.852034308,17,5,7.51,759.01260204431,38.385828,0.223694,1.98069560144,0.0,0.0,0.0,35.7,4.9,-4.3,0,0,1024,1024,1024,1024,0,0,0,0,0,0,0,78,3.756,3.755,0,0,0,0,5.62,64.22,759.01260204431,38.385828,6,P-GPS,,11.7
305000,2026-01-11 15:35:11,759.01260204431,38.385828,0.0,0.76514438144,5.872539558,17,5,7.51,759.01260204431,38.385828,0.223694,1.98069560144,0.0,0.0,0.0,35.7,5.3,-4.3,0,0,1024,1024,1024,1024,0,0,0,0,0,0,0,78,3.756,3.755,0,0,0,0,5.62,64.22,759.01260204431,38.385828,6,P-GPS,,11.7
305100,2026-01-11 15:35:11,759.01260204431,38.385828,0.0,0.78852692812,5.902887328,17,5,7.51,759.01260204431,38.385828,0.223694,1.98069560144,0.0,0.0,0.0,35.7,5.1,-4.5,0,0,1024,1024,1024,1024,0,0,0,0,0,0,0,78,3.756,3.755,0,0,0,0,5.62,64.22,759.01260204431,38.385828,6,P-GPS,,11.7
305200,2026-01-11 15:35:11,759.01260204431,38.385828,0.0,0.8068733854,5.9262469088,17,5,7.51,759.01260204431,38.385828,0.223694,1.98069560144,0.0,0.0,0.0,35.7,4.9,-4.7,0,0,1024,1024,1024,1024,0,0,0,0,0,0,0,78,3.756,3.755,0,0,0,0,5.62,64.22,759.01260204431,38.385828,6,P-GPS,,11.7
305300,2026-01-11 15:35:11,759.01260204431,38.385828,0.0,0.82150921264,5.9428479592,17,5,7.51,759.01260204431,38.385828,0.223694,1.98069560144,0.0,0.0,0.0,35.7,5.2,-4.5,0,0,1024,1024,1024,1024,0,0,0,0,0,0,0,78,3.756,3.755,0,0,0,0,5.62,64.22,759.01260204431,38.385828,6,P-GPS,,11.7
305400,2026-01-11 15:35:11,759.01260204431,38.385828,0.0,0.83442587972,5.9743112148,17,5,7.51,759.01260204431,38.385828,0.223694,1.98069560144,0.0,0.0,0.0,35.8,4.9,-4.2,0,0,1024,1024,1024,1024,0,0,0,0,0,0,0,78,3.756,3.755,0,0,0,0,5.62,64.22,759.01260204431,38.385828,6,P-GPS,,11.7
305500,2026-01-11 15:35:11,759.01260204431,38.385828,0.0,0.85023296684,5.9946852312,17,5,7.51,759.01260204431,38.385828,0.223694,1.98069560144,0.0,0.0,0.0,35.7,4.2,-4.6,0,0,1024,1024,1024,1024,0,0,0,0,0,0,0,78,3.756,3.755,0,0,0,0,5.62,64.22,759.01260204431,38.385828,6,P-GPS,,11.7
305600,2026-01-11 15:35:11,759.01260204431,38.385828,0.0,0.8618110512,6.0099083288,17,5,7.51,759.01260204431,38.385828,0.223694,1.98069560144,0.0,0.0,0.0,35.6,4.7,-4.5,0,0,1024,1024,1024,1024,0,0,0,0,0,0,0,78,3.756,3.755,0,0,0,0,5.62,64.22,759.01260204431,38.385828,6,P-GPS,,11.7
305700,2026-01-11 15:35:11,759.01260204431,38.385828,0.0,0.8648950408,6.0154857568,17,5,7.51,759.01260204431,38.385828,0.223694,1.98069560144,0.0,0.0,0.0,35.5,5.1,-4.0,0,0,1024,1024,1024,1024,0,0,0,0,0,0,0,78,3.756,3.755,0,0,0,0,5.62,64.22,759.01260204431,38.385828,6,P-GPS,,11.7
305800,2026-01-11 15:35:11,759.01260204431,38.385828,0.0,0.87415357128,6.0462928444,17,5,7.51,759.01260204431,38.385828,0.223694,1.98069560144,0.0,0.0,0.0,35.5,5.0,-4.1,0,0,1024,1024,1024,1024,0,0,0,0,0,0,0,78,3.756,3.755,0,0,0,0,5.62,64.22,759.01260204431,38.385828,6,P-GPS,,11.7
305900,2026-01-11 15:35:11,759.01260204431,38.385828,0.0,0.89205383432,6.0666996692,17,5,7.51,759.01260204431,38.385828,0.223694,1.98069560144,0.0,0.0,0.0,35.5,4.7,-4.5,0,0,1024,1024,1024,1024,0,0,0,0,0,0,0,78,3.756,3.755,0,0,0,0,5.62,64.22,759.01260204431,38.385828,6,P-GPS,,11.7
306000,2026-01-11 15:35:12,759.01260204431,38.385828,0.0,0.90433401844,6.0842849716,17,5,7.596,759.01260204431,38.385828,0.223694,1.98069560144,0.0,0.0,0.0,35.5,4.9,-4.5,0,0,1024,1024,1024,1024,0,0,0,0,0,0,0,78,3.807,3.804,0,0,0,0,4.609,64.22,759.01260204431,38.385828,6,P-GPS,,11.7
306100,2026-01-11 15:35:12,759.01260204431,38.385828,0.0,0.91235567224,6.1046917964,17,5,7.596,759.01260204431,38.385828,0.223694,1.98069560144,0.0,0.0,0.0,35.5,4.7,-4.6,0,0,1024,1024,1024,1024,0,0,0,0,0,0,0,78,3.807,3.804,0,0,0,0,4.609,64.22,759.01260204431,38.385828,6,P-GPS,,11.7
306200,2026-01-11 15:35:12,759.01260204431,38.385828,0.0,0.91744425508,6.1230973088,17,5,7.596,759.01260204431,38.385828,0.223694,1.98069560144,0.0,0.0,0.0,35.5,4.9,-4.6,0,0,1024,1024,1024,1024,0,0,0,0,0,0,0,78,3.807,3.804,0,0,0,0,4.609,64.22,759.01260204431,38.385828,6,P-GPS,,11.7
306300,2026-01-11 15:35:12,759.01260204431,38.385828,0.0,0.9254593472,6.1959975736,17,5,7.596,759.01260204431,38.385828,0.223694,1.98069560144,0.0,0.0,0.0,35.6,4.9,-4.4,0,0,1024,1024,1024,1024,0,0,0,0,0,0,0,78,3.807,3.804,0,0,0,0,4.609,64.22,759.01260204431,38.385828,6,P-GPS,,11.7
306400,2026-01-11 15:35:12,758.68451804431,38.385828,0.0,0.92301840224,6.2208335324,17,5,7.596,759.01260204431,38.385828,0.223694,1.98069560144,0.0,0.0,0.0,35.6,4.7,-4.5,0,0,1024,1024,1024,1024,0,0,0,0,0,0,0,78,3.807,3.804,0,0,0,0,4.609,64.22,758.68451804431,38.057744,6,P-GPS,,11.6
306500,2026-01-11 15:35:12,758.68451804431,38.385828,0.0,0.91346459616,6.2543965256,17,5,7.596,759.01260204431,38.385828,0.223694,1.98069560144,0.0,0.0,0.0,35.7,4.3,-4.6,0,0,1024,1024,1024,1024,0,0,0,0,0,0,0,78,3.807,3.804,0,0,0,0,4.609,64.22,758.68451804431,38.057744,6,P-GPS,,11.6
306600,2026-01-11 15:35:12,758.68451804431,38.385828,0.0,0.90308729924,6.2832023008,17,5,7.596,759.01260204431,38.385828,0.223694,1.98069560144,0.0,0.0,0.0,35.7,4.3,-4.5,0,0,1024,1024,1024,1024,0,0,0,0,0,0,0,78,3.807,3.804,0,0,0,0,4.609,64.22,758.68451804431,38.057744,6,P-GPS,,11.6
306700,2026-01-11 15:35:12,758.68451804431,38.385828,0.0,0.87089569716,6.3577101772,17,5,7.596,759.01260204431,38.385828,0.223694,1.98069560144,0.0,0.0,0.0,35.7,4.8,-4.4,0,0,1024,1024,1024,1024,0,0,0,0,0,0,0,78,3.807,3.804,0,0,0,0,4.609,64.22,758.68451804431,38.057744,6,P-GPS,,11.6
306800,2026-01-11 15:35:12,758.68451804431,38.385828,0.0,0.8660433348,6.3699805188,17,5,7.596,759.01260204431,38.385828,0.223694,1.98069560144,0.0,0.0,0.0,35.8,5.0,-4.1,0,0,1024,1024,1024,1024,0,0,0,0,0,0,0,78,3.807,3.804,0,0,0,0,4.609,64.22,758.68451804431,38.057744,6,P-GPS,,11.6
306900,2026-01-11 15:35:12,758.35643404431,38.385828,0.0,0.8687500278,6.3731629336,17,5,7.596,759.01260204431,38.385828,0.223694,1.98069560144,0.0,0.0,0.0,35.8,5.0,-4.2,0,0,1024,1024,1024,1024,0,0,0,0,0,0,0,78,3.807,3.804,0,0,0,0,4.609,64.22,758.35643404431,37.72966,6,P-GPS,,11.5
307000,2026-01-11 15:35:13,758.35643404431,38.385828,0.0,0.8650918912,6.3783138524,16,5,7.596,759.01260204431,38.385828,0.223694,1.98069560144,0.0,0.0,0.0,36.1,3.8,-4.3,0,0,1024,1024,1024,1024,0,0,0,0,0,0,0,78,3.807,3.804,0,0,0,0,4.609,64.22,758.35643404431,37.72966,6,P-GPS,,11.5
307100,2026-01-11 15:35:13,758.35643404431,38.385828,0.0,0.87131564468,6.3859254012,16,5,7.579,759.01260204431,38.385828,0.223694,1.98069560144,0.0,0.0,0.0,36.0,3.4,-4.1,0,0,1024,1024,1024,1024,0,0,0,0,0,0,0,78,3.789,3.789,0,0,0,0,4.692,64.22,758.35643404431,37.72966,6,P-GPS,,11.5
307200,2026-01-11 15:35:13,758.02835004431,38.385828,0.0,0.8630085578,6.3993440368,16,5,7.579,759.01260204431,38.385828,0.223694,1.98069560144,0.0,0.0,0.0,35.9,4.0,-4.3,0,0,1024,1024,1024,1024,0,0,0,0,0,0,0,78,3.789,3.789,0,0,0,0,4.692,64.22,758.02835004431,37.401576,6,P-GPS,,11.4
307300,2026-01-11 15:35:13,758.02835004431,38.385828,0.0,0.84800199564,6.425689182,16,5,7.579,759.01260204431,38.385828,0.223694,1.98069560144,0.0,0.0,0.0,35.7,4.4,-4.0,0,0,1024,1024,1024,1024,0,0,0,0,0,0,0,78,3.789,3.789,0,0,0,0,4.692,64.22,758.02835004431,37.401576,6,P-GPS,,11.4
307400,2026-01-11 15:35:13,758.02835004431,38.385828,0.0,0.83127955416,6.4493440384,17,5,7.579,759.01260204431,38.385828,0.223694,1.98069560144,0.0,0.0,0.0,35.7,4.6,-3.7,0,0,1024,1024,1024,1024,0,0,0,0,0,0,0,78,3.789,3.789,0,0,0,0,4.692,64.22,758.02835004431,37.401576,6,P-GPS,,11.4
307500,2026-01-11 15:35:13,758.02835004431,38.385828,0.0,0.78129267592,6.5258204188,17,5,7.579,759.01260204431,38.385828,0.223694,1.98069560144,0.0,0.0,0.0,35.8,3.7,-3.8,0,0,1024,1024,1024,1024,0,0,0,0,0,0,0,78,3.789,3.789,0,0,0,0,4.692,64.22,758.02835004431,37.401576,6,P-GPS,,11.4
307600,2026-01-11 15:35:13,757.70026604431,38.385828,0.0,0.76721459148,6.546588136,17,5,7.579,759.01260204431,38.385828,0.223694,1.98069560144,0.0,0.0,0.0,35.9,2.9,-4.1,0,0,1024,1024,1024,1024,0,0,0,0,0,0,0,78,3.789,3.789,0,0,0,0,4.692,64.22,757.70026604431,37.073492,6,P-GPS,,11.3
307700,2026-01-11 15:35:13,757.70026604431,38.385828,0.0,0.76893375164,6.5630251444,17,5,7.579,759.01260204431,38.385828,0.223694,1.98069560144,0.0,0.0,0.0,35.9,3.1,-4.4,0,0,1024,1024,1024,1024,0,0,0,0,0,0,0,78,3.789,3.789,0,0,0,0,4.692,64.22,757.70026604431,37.073492,6,P-GPS,,11.3
307800,2026-01-11 15:35:13,757.70026604431,38.385828,0.0,0.7691765338,6.5680120212,17,5,7.579,759.01260204431,38.385828,0.223694,1.98069560144,0.0,0.0,0.0,35.9,3.5,-4.3,0,0,1024,1024,1024,1024,0,0,0,0,0,0,0,78,3.789,3.789,0,0,0,0,4.692,64.22,757.70026604431,37.073492,6,P-GPS,,11.3
307900,2026-01-11 15:35:13,757.70026604431,38.385828,0.0,0.76278545748,6.5810041476,17,5,7.579,759.01260204431,38.385828,0.223694,1.98069560144,0.0,0.0,0.0,35.9,3.9,-4.2,0,0,1024,1024,1024,1024,0,0,0,0,0,0,0,78,3.789,3.789,0,0,0,0,4.692,64.22,757.70026604431,37.073492,6,P-GPS,,11.3
308000,2026-01-11 15:35:14,757.37218204431,38.385828,0.0,0.77496065472,6.60843197,17,5,7.579,759.01260204431,38.385828,0.223694,1.98069560144,0.0,0.0,0.0,35.9,4.2,-3.9,0,0,1024,1024,1024,1024,0,0,0,0,0,0,0,78,3.789,3.789,0,0,0,0,4.692,64.22,757.37218204431,36.745408,6,P-GPS,,11.2
308100,2026-01-11 15:35:14,757.37218204431,38.385828,0.0,0.76585960456,6.6180120228,17,5,7.579,759.01260204431,38.385828,0.223694,1.98069560144,0.0,0.0,0.0,35.8,4.0,-3.8,0,0,1024,1024,1024,1024,0,0,0,0,0,0,0,78,3.789,3.789,0,0,0,0,4.692,64.22,757.37218204431,36.745408,6,P-GPS,,11.2
308200,2026-01-11 15:35:14,757.04409804431,38.385828,0.0,0.75572837064,6.6291668788,17,5,7.579,759.01260204431,38.385828,0.223694,1.98069560144,0.0,0.0,0.0,35.7,3.9,-3.6,0,0,1024,1024,1024,1024,0,0,0,0,0,0,0,78,3.792,3.792,0,0,0,0,4.692,64.22,757.04409804431,36.417324,6,P-GPS,,11.1
308300,2026-01-11 15:35:14,757.04409804431,38.385828,0.0,0.74574805536,6.6421590052,17,5,7.579,759.01260204431,38.385828,0.223694,1.98069560144,0.0,0.0,0.0,35.6,3.4,-3.5,0,0,1024,1024,1024,1024,0,0,0,0,0,0,0,78,3.792,3.792,0,0,0,0,4.692,64.22,757.04409804431,36.417324,6,P-GPS,,11.1
308400,2026-01-11 15:35:14,757.04409804431,38.385828,0.0,0.74002955124,6.6527561184,17,5,7.579,759.01260204431,38.385828,0.223694,1.98069560144,0.0,0.0,0.0,35.6,3.2,-3.4,0,0,1024,1024,1024,1024,0,0,0,0,0,0,0,78,3.792,3.792,0,0,0,0,4.692,64.22,757.04409804431,36.417324,6,P-GPS,,11.1
308500,2026-01-11 15:35:14,757.04409804431,38.385828,0.0,0.71375986536,6.680282366,17,5,7.579,759.01260204431,38.385828,0.223694,1.98069560144,0.0,0.0,0.0,35.6,2.5,-3.1,0,0,1024,1024,1024,1024,0,0,0,0,0,0,0,78,3.792,3.792,0,0,0,0,4.692,64.22,757.04409804431,36.417324,6,P-GPS,,11.1
308600,2026-01-11 15:35:14,757.04409804431,38.385828,0.0,0.68258860452,6.7115159628,17,5,7.579,759.01260204431,38.385828,0.223694,1.98069560144,0.0,0.0,0.0,35.7,2.1,-3.5,0,0,1024,1024,1024,1024,0,0,0,0,0,0,0,78,3.792,3.792,0,0,0,0,4.692,64.22,757.04409804431,36.417324,6,P-GPS,,11.1
308700,2026-01-11 15:35:14,756.71601404431,38.385828,0.0,0.63946196272,6.7556432608,17,5,7.579,759.01260204431,38.385828,0.223694,1.98069560144,0.0,0.0,0.0,35.8,2.2,-3.7,0,0,1024,1024,1024,1024,0,0,0,0,0,0,0,78,3.792,3.792,0,0,0,0,4.692,64.22,756.71601404431,36.08924,6,P-GPS,,11.0
308800,2026-01-11 15:35:14,756.71601404431,38.385828,0.0,0.555446212,6.84219182,17,5,7.579,759.01260204431,38.385828,0.223694,1.98069560144,0.0,0.0,0.0,35.7,2.0,-3.9,0,0,1024,1024,1024,1024,0,0,0,0,0,0,0,78,3.792,3.792,0,0,0,0,4.692,64.22,756.71601404431,36.08924,6,P-GPS,,11.0
308900,2026-01-11 15:35:14,757.04409804431,38.385828,0.0,0.53824148704,6.8718178052,17,5,7.579,759.01260204431,38.385828,0.223694,1.98069560144,0.0,0.0,0.0,35.7,1.9,-4.4,0,0,1024,1024,1024,1024,0,0,0,0,0,0,0,78,3.792,3.792,0,0,0,0,4.692,64.22,757.04409804431,36.417324,6,P-GPS,,11.1
309000,2026-01-11 15:35:15,757.04409804431,38.385828,0.0,0.53067587,6.8943243676,17,5,7.579,759.01260204431,38.385828,0.223694,1.98069560144,0.0,0.0,0.0,35.6,2.2,-4.3,0,0,1024,1024,1024,1024,0,0,0,0,0,0,0,78,3.792,3.792,0,0,0,0,4.692,64.22,757.04409804431,36.417324,6,P-GPS,,11.1
309100,2026-01-11 15:35:15,757.04409804431,38.385828,0.0,0.53465880976,6.910597334,17,5,7.579,759.01260204431,38.385828,0.223694,1.98069560144,0.0,0.0,0.0,35.8,1.7,-4.2,0,0,1024,1024,1024,1024,0,0,0,0,0,0,0,78,3.792,3.792,0,0,0,0,4.692,64.22,757.04409804431,36.417324,6,P-GPS,,11.1
309200,2026-01-11 15:35:15,757.04409804431,38.385828,0.0,0.56995736732,6.9588584904,17,5,7.579,759.01260204431,38.385828,0.223694,1.98069560144,0.0,0.0,0.0,35.5,2.2,-4.7,0,0,1024,1024,1024,1024,0,0,0,0,0,0,0,78,3.792,3.792,0,0,0,0,4.692,64.22,757.04409804431,36.417324,6,P-GPS,,11.1
309300,2026-01-11 15:35:15,757.04409804431,38.385828,0.0,0.58135172464,6.9710632152,17,5,7.585,759.01260204431,38.385828,0.223694,1.98069560144,0.0,0.0,0.0,35.4,3.0,-5.2,0,0,1024,1024,1024,1024,0,0,0,0,0,0,0,78,3.792,3.796,0,0,0,0,4.677,64.4,757.04409804431,36.417324,6,P-GPS,,11.1
309400,2026-01-11 15:35:15,757.04409804431,38.385828,0.0,0.59227692184,6.9829070476,17,5,7.585,759.01260204431,38.385828,0.223694,1.98069560144,0.0,0.0,0.0,35.4,3.1,-5.3,0,0,1024,1024,1024,1024,0,0,0,0,0,0,0,78,3.792,3.796,0,0,0,0,4.677,64.4,757.04409804431,36.417324,6,P-GPS,,11.1
309500,2026-01-11 15:35:15,757.04409804431,38.385828,0.0,0.601788077,6.9948493052,17,5,7.585,759.01260204431,38.385828,0.223694,1.98069560144,0.0,0.0,0.0,35.4,2.9,-5.5,0,0,1024,1024,1024,1024,0,0,0,0,0,0,0,78,3.792,3.796,0,0,0,0,4.677,64.4,757.04409804431,36.417324,6,P-GPS,,11.1
309600,2026-01-11 15:35:15,757.04409804431,38.385828,0.0,0.60698492756,7.0010172844,17,5,7.585,759.01260204431,38.385828,0.223694,1.98069560144,0.0,0.0,0.0,35.3,2.8,-5.5,0,0,1024,1024,1024,1024,0,0,0,0,0,0,0,78,3.792,3.796,0,0,0,0,4.677,64.4,757.04409804431,36.417324,6,P-GPS,,11.1
309700,2026-01-11 15:35:15,757.04409804431,38.385828,0.0,0.6118274474,7.022309936,17,5,7.585,759.01260204431,38.385828,0.223694,1.98069560144,0.0,0.0,0.0,35.3,2.1,-5.4,0,0,1024,1024,1024,1024,0,0,0,0,0,0,0,78,3.792,3.796,0,0,0,0,4.677,64.4,757.04409804431,36.417324,6,P-GPS,,11.1
309800,2026-01-11 15:35:15,757.04409804431,38.385828,0.0,0.61240815608,7.0229004872,17,5,7.585,759.01260204431,38.385828,0.223694,1.98069560144,0.0,0.0,0.0,35.3,2.0,-5.7,0,0,1024,1024,1024,1024,0,0,0,0,0,0,0,78,3.792,3.796,0,0,0,0,4.677,64.4,757.04409804431,36.417324,6,P-GPS,,11.1
309900,2026-01-11 15:35:15,757.04409804431,38.385828,0.0,0.61421917976,7.0337600676,17,5,7.585,759.01260204431,38.385828,0.223694,1.98069560144,0.0,0.0,0.0,35.7,1.3,-5.6,0,0,1024,1024,1024,1024,0,0,0,0,0,0,0,78,3.792,3.796,0,0,0,0,4.677,64.4,757.04409804431,36.417324,6,P-GPS,,11.1
310000,2026-01-11 15:35:16,757.04409804431,38.385828,0.0,0.62015750016,7.0402233224,17,5,7.585,759.01260204431,38.385828,0.223694,1.98069560144,0.0,0.0,0.0,35.9,1.7,-5.1,0,0,1024,1024,1024,1024,0,0,0,0,0,0,0,78,3.792,3.796,0,0,0,0,4.677,64.4,757.04409804431,36.417324,6,P-GPS,,11.1
310100,2026-01-11 15:35:16,757.04409804431,38.385828,0.0,0.61419621388,7.0462272596,17,5,7.585,759.01260204431,38.385828,0.223694,1.98069560144,0.0,0.0,0.0,35.8,2.5,-5.2,0,0,1024,1024,1024,1024,0,0,0,0,0,0,0,78,3.792,3.796,0,0,0,0,4.677,64.4,757.04409804431,36.417324,6,P-GPS,,11.1
310200,2026-01-11 15:35:16,757.04409804431,38.385828,0.0,0.62804463952,7.0759844784,17,5,7.585,759.01260204431,38.385828,0.223694,1.98069560144,0.0,0.0,0.0,35.7,3.9,-5.1,0,0,1024,1024,1024,1024,0,0,0,0,0,0,0,78,3.792,3.796,0,0,0,0,4.677,64.4,757.04409804431,36.417324,6,P-GPS,,11.1
310300,2026-01-11 15:35:16,757.04409804431,38.385828,0.0,0.6483103882,7.1152561332,17,5,7.585,759.01260204431,38.385828,0.223694,1.98069560144,0.0,0.0,0.0,35.7,4.7,-5.0,0,0,1024,1024,1024,1024,0,0,0,0,0,0,0,78,3.792,3.796,0,0,0,0,4.677,64.4,757.04409804431,36.417324,6,P-GPS,,11.1
310400,2026-01-11 15:35:16,757.04409804431,38.385828,0.0,0.66342849892,7.1468506224,17,5,7.597,759.01260204431,38.385828,0.223694,1.98069560144,0.0,0.0,0.0,35.7,4.7,-4.2,0,0,1024,1024,1024,1024,0,0,0,0,0,0,0,78,3.799,3.798,0,0,0,0,4.565,64.4,757.04409804431,36.417324,6,P-GPS,,11.1
310500,2026-01-11 15:35:16,757.04409804431,38.385828,0.0,0.66445868268,7.17519708,17,5,7.597,759.01260204431,38.385828,0.223694,1.98069560144,0.0,0.0,0.0,35.5,4.7,-4.3,0,0,1024,1024,1024,1024,0,0,0,0,0,0,0,78,3.799,3.798,0,0,0,0,4.565,64.4,757.04409804431,36.417324,6,P-GPS,,11.1
310600,2026-01-11 15:35:16,757.04409804431,38.385828,0.0,0.66293309208,7.1811682088,17,5,7.597,759.01260204431,38.385828,0.223694,1.98069560144,0.0,0.0,0.0,35.3,3.1,-4.4,0,0,1024,1024,1024,1024,0,0,0,0,0,0,0,78,3.799,3.798,0,0,0,0,4.565,64.4,757.04409804431,36.417324,6,P-GPS,,11.1
310700,2026-01-11 15:35:16,757.04409804431,38.385828,0.0,0.66898624188,7.1928808076,17,5,7.597,759.01260204431,38.385828,0.223694,1.98069560144,0.0,0.0,0.0,35.3,3.4,-4.6,0,0,1024,1024,1024,1024,0,0,0,0,0,0,0,78,3.799,3.798,0,0,0,0,4.565,64.4,757.04409804431,36.417324,6,P-GPS,,11.1
310800,2026-01-11 15:35:16,757.04409804431,38.385828,0.0,0.66550855148,7.204888682,17,5,7.597,759.01260204431,38.385828,0.223694,1.98069560144,0.0,0.0,0.0,35.1,3.3,-4.7,0,0,1024,1024,1024,1024,0,0,0,0,0,0,0,78,3.799,3.798,0,0,0,0,4.565,64.4,757.04409804431,36.417324,6,P-GPS,,11.1
310900,2026-01-11 15:35:16,757.04409804431,38.385828,0.0,0.65247377416,7.256561912,17,5,7.597,759.01260204431,38.385828,0.223694,1.98069560144,0.0,0.0,0.0,35.1,3.1,-5.0,0,0,1024,1024,1024,1024,0,0,0,0,0,0,0,78,3.799,3.798,0,0,0,0,4.565,64.4,757.04409804431,36.417324,6,P-GPS,,11.1
311000,2026-01-11 15:35:17,757.04409804431,38.385828,0.0,0.6287237734,7.2884516768,17,5,7.597,759.01260204431,38.385828,0.223694,1.98069560144,0.0,0.0,0.0,35.2,2.5,-5.5,0,0,1024,1024,1024,1024,0,0,0,0,0,0,0,78,3.799,3.798,0,0,0,0,4.565,64.4,757.04409804431,36.417324,6,P-GPS,,11.1
311100,2026-01-11 15:35:17,757.04409804431,38.385828,0.0,0.60151576728,7.3281498408,17,5,7.597,759.01260204431,38.385828,0.223694,1.98069560144,0.0,0.0,0.0,35.4,2.0,-5.7,0,0,1024,1024,1024,1024,0,0,0,0,0,0,0,78,3.799,3.798,0,0,0,0,4.565,64.4,757.04409804431,36.417324,6,P-GPS,,11.1
311200,2026-01-11 15:35:17,757.04409804431,38.385828,0.0,0.57861222324,7.3621065348,17,5,7.597,759.01260204431,38.385828,0.223694,1.98069560144,0.0,0.0,0.0,35.8,1.5,-5.3,0,0,1024,1024,1024,1024,0,0,0,0,0,0,0,78,3.799,3.798,0,0,0,0,4.565,64.4,757.04409804431,36.417324,6,P-GPS,,11.1
311300,2026-01-11 15:35:17,757.04409804431,38.385828,0.0,0.56600067428,7.386155092,17,5,7.597,759.01260204431,38.385828,0.223694,1.98069560144,0.0,0.0,0.0,36.1,0.8,-5.1,0,0,1024,1024,1024,1024,0,0,0,0,0,0,0,78,3.799,3.798,0,0,0,0,4.565,64.4,757.04409804431,36.417324,6,P-GPS,,11.1
311400,2026-01-11 15:35:17,757.04409804431,38.385828,0.0,0.56690618612,7.4431432828,16,5,7.597,759.01260204431,38.385828,0.223694,1.98069560144,0.0,0.0,0.0,36.0,1.8,-4.7,0,0,1024,1024,1024,1024,0,0,0,0,0,0,0,78,3.799,3.798,0,0,0,0,4.565,64.4,757.04409804431,36.417324,6,P-GPS,,11.1
311500,2026-01-11 15:35:17,757.04409804431,38.385828,0.0,0.5842519872,7.4670934148,16,5,7.597,759.01260204431,38.385828,0.223694,1.98069560144,0.0,0.0,0.0,35.9,2.3,-4.6,0,0,1024,1024,1024,1024,0,0,0,0,0,0,0,78,3.799,3.798,0,0,0,0,4.565,64.4,757.04409804431,36.417324,6,P-GPS,,11.1
311600,2026-01-11 15:35:17,757.04409804431,38.385828,0.0,0.59651904796,7.4802495832,16,5,7.577,759.01260204431,38.385828,0.223694,1.98069560144,0.0,0.0,0.0,36.0,2.7,-4.6,0,0,1024,1024,1024,1024,0,0,0,0,0,0,0,78,3.791,3.796,0,0,0,0,4.571,64.4,757.04409804431,36.417324,6,P-GPS,,11.1
311700,2026-01-11 15:35:17,757.04409804431,38.385828,0.0,0.5966699666,7.4974739932,16,5,7.577,759.01260204431,38.385828,0.223694,1.98069560144,0.0,0.0,0.0,35.9,3.6,-4.4,0,0,1024,1024,1024,1024,0,0,0,0,0,0,0,78,3.791,3.796,0,0,0,0,4.571,64.4,757.04409804431,36.417324,6,P-GPS,,11.1
311800,2026-01-11 15:35:17,756.71601404431,38.385828,0.0,0.62556432448,7.5266078524,16,5,7.577,759.01260204431,38.385828,0.223694,1.98069560144,0.0,0.0,0.0,35.7,5.0,-4.0,0,0,1024,1024,1024,1024,0,0,0,0,0,0,0,78,3.791,3.796,0,0,0,0,4.571,64.4,756.71601404431,36.08924,6,P-GPS,,11.0
311900,2026-01-11 15:35:17,756.71601404431,38.385828,0.0,0.63183072888,7.533956934,16,5,7.577,759.01260204431,38.385828,0.223694,1.98069560144,0.0,0.0,0.0,35.6,4.4,-3.8,0,0,1024,1024,1024,1024,0,0,0,0,0,0,0,78,3.791,3.796,0,0,0,0,4.571,64.4,756.71601404431,36.08924,6,P-GPS,,11.0
312000,2026-01-11 15:35:18,756.71601404431,38.385828,0.0,0.628034797,7.547736462,16,5,7.577,759.01260204431,38.385828,0.223694,1.98069560144,0.0,0.0,0.0,35.6,3.5,-4.4,0,0,1024,1024,1024,1024,0,0,0,0,0,0,0,78,3.791,3.796,0,0,0,0,4.571,64.4,756.71601404431,36.08924,6,P-GPS,,11.0
312100,2026-01-11 15:35:18,756.71601404431,38.385828,0.0,0.61015093816,7.5727364628,16,5,7.577,759.01260204431,38.385828,0.223694,1.98069560144,0.0,0.0,0.0,35.6,2.7,-4.3,0,0,1024,1024,1024,1024,0,0,0,0,0,0,0,78,3.791,3.796,0,0,0,0,4.571,64.4,756.71601404431,36.08924,6,P-GPS,,11.0
312200,2026-01-11 15:35:18,756.71601404431,38.385828,0.223694,0.59641406108,7.605151162,16,5,7.577,759.01260204431,38.385828,0.223694,1.98069560144,0.0,-0.223694,0.0,35.6,1.7,-4.1,0,0,1024,1024,1024,1024,0,0,0,0,0,0,0,78,3.791,3.796,0,0,0,0,4.571,64.4,756.71601404431,36.08924,6,P-GPS,,11.0
312300,2026-01-11 15:35:18,756.71601404431,38.385828,0.223694,0.55160434836,7.6600724236,16,5,7.577,759.01260204431,38.385828,0.223694,1.98069560144,0.0,-0.223694,0.0,35.7,1.2,-4.2,0,0,1024,1024,1024,1024,0,0,0,0,0,0,0,78,3.791,3.796,0,0,0,0,4.571,64.4,756.71601404431,36.08924,6,P-GPS,,11.0
312400,2026-01-11 15:35:18,756.38793004431,38.385828,0.0,0.51695867796,7.7088585144,17,5,7.577,759.01260204431,38.385828,0.223694,1.98069560144,0.0,0.0,0.0,35.8,1.2,-4.1,0,0,1024,1024,1024,1024,0,0,0,0,0,0,0,78,3.791,3.796,0,0,0,0,4.571,64.4,756.38793004431,35.761156,6,P-GPS,,10.9
312500,2026-01-11 15:35:18,756.38793004431,38.385828,0.0,0.49499345416,7.7556761012,17,5,7.577,759.01260204431,38.385828,0.223694,1.98069560144,0.0,0.0,0.0,35.8,0.0,-3.8,0,0,1024,1024,1024,1024,0,0,0,0,0,0,0,78,3.791,3.796,0,0,0,0,4.571,64.4,756.38793004431,35.761156,6,P-GPS,,10.9
312600,2026-01-11 15:35:18,756.38793004431,38.385828,0.0,0.45331038196,7.8352036628,17,5,7.577,759.01260204431,38.385828,0.223694,1.98069560144,0.0,0.0,0.0,35.9,-0.5,-4.0,0,0,1024,1024,1024,1024,0,0,0,0,0,0,0,78,3.791,3.796,0,0,0,0,4.571,64.4,756.38793004431,35.761156,6,P-GPS,,10.9
312700,2026-01-11 15:35:18,756.38793004431,38.385828,0.0,0.43760172004,7.8565291228,17,5,7.564,759.01260204431,38.385828,0.223694,1.98069560144,0.0,0.0,0.0,35.8,1.4,-3.9,0,0,1024,1024,1024,1024,0,0,0,0,0,0,0,78,3.78,3.784,0,0,0,0,4.807,64.4,756.38793004431,35.761156,6,P-GPS,,10.9
312800,2026-01-11 15:35:18,756.38793004431,38.385828,0.0,0.4192585436,7.8762141628,17,5,7.564,759.01260204431,38.385828,0.223694,1.98069560144,0.0,0.0,0.0,35.9,1.4,-4.1,0,0,1024,1024,1024,1024,0,0,0,0,0,0,0,78,3.78,3.784,0,0,0,0,4.807,64.4,756.38793004431,35.761156,6,P-GPS,,10.9
312900,2026-01-11 15:35:19,756.38793004431,38.385828,0.0,0.39230316216,7.903215476,17,5,7.564,759.01260204431,38.385828,0.223694,1.98069560144,0.0,0.0,0.0,36.0,1.2,-3.5,0,0,1024,1024,1024,1024,0,0,0,0,0,0,0,78,3.78,3.784,0,0,0,0,4.807,64.4,756.38793004431,35.761156,6,P-GPS,,10.9
313000,2026-01-11 15:35:19,756.38793004431,38.385828,0.0,0.37076444756,7.9249674452,17,5,7.564,759.01260204431,38.385828,0.223694,1.98069560144,0.0,0.0,0.0,36.0,1.4,-3.9,0,0,1024,1024,1024,1024,0,0,0,0,0,0,0,78,3.78,3.784,0,0,0,0,4.807,64.4,756.38793004431,35.761156,6,P-GPS,,10.9
313100,2026-01-11 15:35:19,756.38793004431,38.385828,0.0,0.33233924948,7.980151174,17,5,7.564,759.01260204431,38.385828,0.223694,1.98069560144,0.0,0.0,0.0,35.9,1.9,-3.9,0,0,1024,1024,1024,1024,0,0,0,0,0,0,0,78,3.78,3.784,0,0,0,0,4.807,64.4,756.38793004431,35.761156,6,P-GPS,,10.9
313200,2026-01-11 15:35:19,756.38793004431,38.385828,0.0,0.317435377612,7.99622729,17,5,7.564,759.01260204431,38.385828,0.223694,1.98069560144,0.0,0.0,0.0,35.9,1.3,-4.0,0,0,1024,1024,1024,1024,0,0,0,0,0,0,0,78,3.78,3.784,0,0,0,0,4.807,64.4,756.38793004431,35.761156,6,P-GPS,,10.9
313300,2026-01-11 15:35:19,756.38793004431,38.385828,0.0,0.300555455812,8.0152233536,17,5,7.564,759.01260204431,38.385828,0.223694,1.98069560144,0.0,0.0,0.0,35.9,0.7,-3.4,0,0,1024,1024,1024,1024,0,0,0,0,0,0,0,78,3.78,3.784,0,0,0,0,4.807,64.4,756.38793004431,35.761156,6,P-GPS,,10.9
313400,2026-01-11 15:35:19,756.05984604431,38.385828,0.0,0.282833998552,8.0382548504,17,5,7.564,759.01260204431,38.385828,0.223694,1.98069560144,0.0,0.0,0.0,36.0,0.4,-3.3,0,0,1024,1024,1024,1024,0,0,0,0,0,0,0,78,3.78,3.784,0,0,0,0,4.807,64.4,756.05984604431,35.433072,6,P-GPS,,10.8
313500,2026-01-11 15:35:19,756.05984604431,38.385828,0.0,0.273968840788,8.1007548524,17,5,7.564,759.01260204431,38.385828,0.223694,1.98069560144,0.0,0.0,0.0,36.0,-0.1,-3.1,0,0,1024,1024,1024,1024,0,0,0,0,0,0,0,78,3.78,3.784,0,0,0,0,4.807,64.4,756.05984604431,35.433072,6,P-GPS,,10.8
313600,2026-01-11 15:35:19,756.05984604431,38.385828,0.0,0.270762147772,8.130905772,17,5,7.564,759.01260204431,38.385828,0.223694,1.98069560144,0.0,0.0,0.0,36.1,0.2,-3.4,0,0,1024,1024,1024,1024,0,0,0,0,0,0,0,78,3.78,3.784,0,0,0,0,4.807,64.4,756.05984604431,35.433072,6,P-GPS,,10.8
313700,2026-01-11 15:35:19,756.05984604431,38.385828,0.0,0.278920284516,8.1653217836,17,5,7.564,759.01260204431,38.385828,0.223694,1.98069560144,0.0,0.0,0.0,36.0,1.0,-3.8,0,0,1024,1024,1024,1024,0,0,0,0,0,0,0,78,3.78,3.784,0,0,0,0,4.807,64.4,756.05984604431,35.433072,6,P-GPS,,10.8
313800,2026-01-11 15:35:19,756.05984604431,38.385828,0.0,0.290221137896,8.1939307084,17,5,7.564,759.01260204431,38.385828,0.223694,1.98069560144,0.0,0.0,0.0,36.0,1.4,-3.9,0,0,1024,1024,1024,1024,0,0,0,0,0,0,0,78,3.784,3.785,0,0,0,0,4.839,64.4,756.05984604431,35.433072,6,P-GPS,,10.8
313900,2026-01-11 15:35:19,756.05984604431,38.385828,0.0,0.282762148156,8.2186026252,17,5,7.564,759.01260204431,38.385828,0.223694,1.98069560144,0.0,0.0,0.0,36.0,1.7,-4.1,0,0,1024,1024,1024,1024,0,0,0,0,0,0,0,78,3.784,3.785,0,0,0,0,4.839,64.4,756.05984604431,35.433072,6,P-GPS,,10.8
314000,2026-01-11 15:35:20,756.05984604431,38.385828,0.0,0.294361229892,8.24064987,17,5,7.564,759.01260204431,38.385828,0.223694,1.98069560144,0.0,0.0,0.0,36.0,2.1,-3.9,0,0,1024,1024,1024,1024,0,0,0,0,0,0,0,78,3.784,3.785,0,0,0,0,4.839,64.4,756.05984604431,35.433072,6,P-GPS,,10.8
