time(millisecond),timestamp,altitude_above_seaLevel(feet),height_sonar(feet),speed(mph),distance(feet),mileage(feet),satellites,gpslevel,voltage(v),max_altitude(feet),max_ascent(feet),max_speed(mph),max_distance(feet), xSpeed(mph), ySpeed(mph), zSpeed(mph), compass_heading(degrees), pitch(degrees), roll(degrees),isPhoto,isVideo,rc_elevator,rc_aileron,rc_throttle,rc_rudder,rc_elevator(percent),rc_aileron(percent),rc_throttle(percent),rc_rudder(percent),gimbal_heading(degrees),gimbal_pitch(degrees),gimbal_roll(degrees),battery_percent,voltageCell1,voltageCell2,voltageCell3,voltageCell4,voltageCell5,voltageCell6,current(A),battery_temperature(f),altitude(feet),ascent(feet),flycStateRaw,flycState,message,height_above_takeoff(meters)
427900,2026-01-12 12:13:26,720.7721031172,0.656168,0.0,0.0,0.0,16,5,0.0,720.7721031172,0.0,0.0,0.0,0.0,0.0,0.0,20.6,3.5,1.4,0,0,1024,1024,1024,1024,0,0,0,0,0,0,0,72,3.873,3.867,0,0,0,0,0.0,72.68,720.7721031172,0.0,41,Motors_Started,SD card speed low. Setting new Return-To-Home altitude to 90m (295 ft). Data Recorder File Index is 35. Setting new Maximum Flight Altitude to 90m (295 ft) SD card speed low. Normal use may be affected. Replace SD card (Code: 10028). Gimbal stuck. Make sure gimbal cover is removed and manually check whether gimbal can rotate freely (Code: 40002),0.0
428000,2026-01-12 12:13:26,720.7721031172,0.656168,0.0,1.34778875704,0.00263198499236,16,5,0.0,720.7721031172,0.0,0.0,1.34778875704,0.0,0.0,0.0,20.6,3.5,1.4,0,0,1024,1024,1024,1024,0,0,0,0,0,0,0,72,3.873,3.867,0,0,0,0,0.0,72.68,720.7721031172,0.0,41,Motors_Started,,0.0
428100,2026-01-12 12:13:26,720.7721031172,0.328084,0.0,1.33524282488,0.0163144034092,16,5,0.0,720.7721031172,0.0,0.0,1.34778875704,0.0,0.0,0.0,20.6,3.5,1.4,0,0,1024,1024,1024,1024,0,0,0,0,0,0,0,72,3.873,3.867,0,0,0,0,0.0,72.68,720.7721031172,0.0,41,Motors_Started,,0.0
428200,2026-01-12 12:13:26,720.7721031172,0.328084,0.0,1.32354663028,0.0288557423932,16,5,0.0,720.7721031172,0.0,0.0,1.34778875704,0.0,0.0,0.0,20.6,3.5,1.3,0,0,1024,1024,1024,1024,0,0,0,0,0,0,0,72,3.873,3.867,0,0,0,0,0.0,72.68,720.7721031172,0.0,41,Motors_Started,,0.0
428300,2026-01-12 12:13:26,721.1001871172,0.328084,0.0,1.30837274528,0.057074804976,16,5,7.739,721.1001871172,0.328084,0.0,1.34778875704,0.0,0.0,0.0,20.6,3.5,1.4,0,0,1024,1024,1024,1024,0,0,0,0,0,0,0,72,3.873,3.867,0,0,0,0,0.769,72.68,721.1001871172,0.328084,41,Motors_Started,,0.1
428400,2026-01-12 12:13:26,721.1001871172,0.328084,0.0,1.30270345376,0.063042324852,16,5,7.739,721.1001871172,0.328084,0.0,1.34778875704,0.0,0.0,0.0,20.6,3.5,1.4,0,0,1024,1024,1024,1024,0,0,0,0,0,0,0,72,3.873,3.867,0,0,0,0,0.769,72.68,721.1001871172,0.328084,41,Motors_Started,,0.1
428500,2026-01-12 12:13:27,721.1001871172,0.328084,0.0,1.29054137988,0.084395671992,16,5,7.739,721.1001871172,0.328084,0.0,1.34778875704,0.0,0.0,0.0,20.5,3.4,1.4,0,0,1024,1024,1035,1024,0,0,2,0,0,0,0,72,3.873,3.867,0,0,0,0,0.769,72.68,721.1001871172,0.328084,41,Motors_Started,,0.1
428600,2026-01-12 12:13:27,721.1001871172,0.328084,0.0,1.27980975224,0.10460302172,17,5,7.739,721.1001871172,0.328084,0.0,1.34778875704,0.0,0.0,0.0,20.5,3.5,1.4,0,0,1024,1024,1101,1024,0,0,12,0,0,0,0,72,3.873,3.867,0,0,0,0,0.769,72.68,721.1001871172,0.328084,41,Motors_Started,,0.1
428700,2026-01-12 12:13:27,721.1001871172,0.328084,0.0,1.2763451852,0.113668966892,17,5,7.739,721.1001871172,0.328084,0.0,1.34778875704,0.0,0.0,0.0,20.5,3.5,1.4,0,0,1024,1024,1227,1024,0,0,31,0,0,0,0,72,3.873,3.867,0,0,0,0,0.769,72.68,721.1001871172,0.328084,41,Motors_Started,,0.1
428800,2026-01-12 12:13:27,721.1001871172,0.328084,0.0,1.27598101196,0.138100070036,17,5,7.739,721.1001871172,0.328084,0.0,1.34778875704,0.0,0.0,0.0,20.5,3.5,1.4,0,0,1024,1024,1540,1024,0,0,78,0,0,0,0,72,3.873,3.867,0,0,0,0,0.769,72.68,721.1001871172,0.328084,41,Motors_Started,,0.1
428900,2026-01-12 12:13:27,721.1001871172,0.328084,0.0,1.27509190432,0.140799873272,17,5,7.739,721.1001871172,0.328084,0.0,1.34778875704,0.0,0.0,0.0,20.5,3.5,1.4,0,0,1024,1024,1684,1024,0,0,100,0,0,0,0,72,3.873,3.867,0,0,0,0,0.769,72.68,721.1001871172,0.328084,41,Motors_Started,,0.1
429000,2026-01-12 12:13:27,721.1001871172,0.328084,0.0,1.27479662872,0.143261487524,17,5,7.739,721.1001871172,0.328084,0.0,1.34778875704,0.0,0.0,0.0,20.5,3.5,1.4,0,0,1024,1024,1684,1024,0,0,100,0,0,0,0,72,3.873,3.867,0,0,0,0,0.769,72.68,721.1001871172,0.328084,11,AutoTakeoff,,0.1
429100,2026-01-12 12:13:27,721.1001871172,0.328084,0.0,1.27446198304,0.14427001774,17,5,7.739,721.1001871172,0.328084,0.0,1.34778875704,0.0,0.0,0.0,20.5,3.4,1.4,0,0,1024,1024,1684,1024,0,0,100,0,0,0,0,72,3.873,3.867,0,0,0,0,0.769,72.68,721.1001871172,0.328084,11,AutoTakeoff,SD card speed low. Normal use may be affected. Replace SD card (Code: 10028),0.1
429200,2026-01-12 12:13:27,721.1001871172,0.328084,0.0,1.30065292876,0.180297249864,17,5,7.739,721.1001871172,0.328084,0.0,1.34778875704,0.0,0.0,0.0,20.6,3.5,1.4,0,0,1024,1024,1684,1024,0,0,100,0,0,0,0,72,3.873,3.867,0,0,0,0,0.769,72.68,721.1001871172,0.328084,11,AutoTakeoff,,0.1
429300,2026-01-12 12:13:27,721.1001871172,0.328084,0.0,1.30097445108,0.180699152764,17,5,7.739,721.1001871172,0.328084,0.0,1.34778875704,0.0,0.0,0.0,20.4,3.5,1.4,0,0,1024,1024,1684,1024,0,0,100,0,0,0,0,72,3.873,3.867,0,0,0,0,0.769,72.68,721.1001871172,0.328084,11,AutoTakeoff,,0.1
429400,2026-01-12 12:13:28,721.1001871172,0.328084,0.0,1.29889767936,0.183076777512,16,5,7.739,721.1001871172,0.328084,0.0,1.34778875704,0.0,0.0,0.0,20.4,3.5,1.4,0,0,1024,1024,1684,1024,0,0,100,0,0,0,0,72,3.873,3.867,0,0,0,0,0.769,72.68,721.1001871172,0.328084,11,AutoTakeoff,,0.1
429500,2026-01-12 12:13:28,721.1001871172,0.328084,0.0,1.27593836104,0.20791339248,16,5,7.739,721.1001871172,0.328084,0.0,1.34778875704,0.0,0.0,0.0,20.8,3.5,1.4,0,0,1024,1024,1684,1024,0,0,100,0,0,0,0,72,3.873,3.867,0,0,0,0,0.769,72.68,721.1001871172,0.328084,11,AutoTakeoff,,0.1
429600,2026-01-12 12:13:28,721.1001871172,0.328084,0.0,1.22128940916,0.262811360116,16,5,7.739,721.1001871172,0.328084,0.0,1.34778875704,0.0,0.0,0.0,22.3,3.3,1.3,0,0,1024,1024,1684,1024,0,0,100,0,0,0,0,72,3.873,3.867,0,0,0,0,0.769,72.68,721.1001871172,0.328084,11,AutoTakeoff,,0.1
429700,2026-01-12 12:13:28,721.4282711172,0.328084,0.0,1.19583993328,0.289811689064,16,5,7.739,721.4282711172,0.656168,0.0,1.34778875704,0.0,0.0,0.0,24.2,1.0,1.7,0,0,1024,1024,1684,1024,0,0,100,0,0,0,0,72,3.873,3.867,0,0,0,0,0.769,72.68,721.4282711172,0.656168,11,AutoTakeoff,,0.2
429800,2026-01-12 12:13:28,721.4282711172,0.328084,0.0,1.15517720232,0.33786746488,16,5,7.739,721.4282711172,0.656168,0.0,1.34778875704,0.0,0.223694,-0.223694,26.8,-2.3,1.4,0,0,1024,1024,1684,1024,0,0,100,0,0,0,0,72,3.873,3.867,0,0,0,0,0.769,72.68,721.4282711172,0.656168,11,AutoTakeoff,,0.2
429900,2026-01-12 12:13:28,721.4282711172,0.328084,0.447388,1.10212930036,0.42270014476,16,5,7.739,721.4282711172,0.656168,0.447388,1.34778875704,0.0,0.447388,-0.894776,26.7,-0.8,0.2,0,0,1024,1024,1684,1024,0,0,100,0,0,0,0,72,3.873,3.867,0,0,0,0,0.769,72.68,721.4282711172,0.656168,11,AutoTakeoff,,0.2
430000,2026-01-12 12:13:28,721.4282711172,0.656168,0.7158208,1.07428153044,0.55906825936,17,5,7.739,721.4282711172,0.656168,0.7158208,1.34778875704,0.223694,0.671082,-1.11847,26.4,2.8,-3.0,0,0,1024,1024,1684,1024,0,0,100,0,0,0,0,72,3.873,3.867,0,0,0,0,0.769,72.68,721.4282711172,0.656168,11,AutoTakeoff,Home Point updated. RTH altitude adjusted to 90 m (Code: 120852),0.2
430100,2026-01-12 12:13:28,721.7563551172,0.656168,0.8052984,1.03714898332,0.71401905172,17,5,7.739,721.7563551172,0.984252,0.8052984,1.34778875704,0.447388,0.671082,-1.342164,26.4,5.5,-4.4,0,0,1024,1024,1684,1024,0,0,100,0,0,0,0,72,3.873,3.867,0,0,0,0,0.769,72.68,721.7563551172,0.984252,11,AutoTakeoff,,0.3
430200,2026-01-12 12:13:28,722.0844391172,0.984252,0.8052984,1.03868769728,0.86459320352,16,5,7.719,722.0844391172,1.312336,0.8052984,1.34778875704,0.447388,0.671082,-1.565858,26.5,6.3,-4.3,0,0,1024,1024,1684,1024,0,0,100,0,0,0,0,72,3.841,3.835,0,0,0,0,1.709,72.68,722.0844391172,1.312336,11,AutoTakeoff,,0.4
430300,2026-01-12 12:13:28,722.4125231172,0.984252,0.9395148,1.07443901076,1.01897641056,16,5,7.719,722.4125231172,1.64042,0.9395148,1.34778875704,0.671082,0.671082,-2.23694,26.5,7.6,-4.7,0,0,1024,1024,1684,1024,0,0,100,0,0,0,0,72,3.841,3.835,0,0,0,0,1.709,72.68,722.4125231172,1.64042,11,AutoTakeoff,,0.5
430400,2026-01-12 12:13:28,722.7406071172,1.312336,0.8052984,1.14198822552,1.15989833108,17,5,7.719,722.7406071172,1.968504,0.9395148,1.34778875704,0.671082,0.447388,-2.908022,26.5,7.8,-2.6,0,0,1024,1024,1684,1024,0,0,100,0,0,0,0,72,3.841,3.835,0,0,0,0,1.709,72.68,722.7406071172,1.968504,11,AutoTakeoff,,0.6
430500,2026-01-12 12:13:29,723.3967751172,1.968504,0.8052984,1.30788718096,1.42581369392,17,5,7.719,723.3967751172,2.624672,0.9395148,1.34778875704,0.671082,0.447388,-3.35541,26.4,8.4,-0.9,0,0,1024,1024,1684,1024,0,0,100,0,0,0,0,72,3.841,3.835,0,0,0,0,1.709,72.68,723.3967751172,2.624672,11,AutoTakeoff,,0.8
430600,2026-01-12 12:13:29,724.0529431172,2.296588,0.8052984,1.43296592512,1.5906168488,17,5,7.719,724.0529431172,3.28084,0.9395148,1.43296592512,0.671082,0.447388,-3.802798,26.3,8.9,-0.7,0,0,1024,1024,1684,1024,0,0,100,0,0,0,0,72,3.841,3.835,0,0,0,0,1.709,72.68,724.0529431172,3.28084,11,AutoTakeoff,,1.0
430700,2026-01-12 12:13:29,724.7091111172,2.952756,0.8052984,1.53207353984,1.72383207616,17,5,7.719,724.7091111172,3.937008,0.9395148,1.53207353984,0.671082,0.447388,-4.026492,26.3,8.8,-1.1,0,0,1024,1024,1684,1024,0,0,100,0,0,0,0,72,3.841,3.835,0,0,0,0,1.709,72.68,724.7091111172,3.937008,6,P-GPS,,1.2
430800,2026-01-12 12:13:29,725.3652791172,3.608924,0.8052984,1.62349414644,1.84287735556,17,5,7.719,725.3652791172,4.593176,0.9395148,1.62349414644,0.671082,0.447388,-4.250186,26.2,8.5,-1.4,0,0,1024,1024,1684,1024,0,0,100,0,0,0,0,72,3.841,3.835,0,0,0,0,1.709,72.68,725.3652791172,4.593176,6,P-GPS,,1.4
430900,2026-01-12 12:13:29,726.0214471172,3.937008,0.6263432,1.6707841742,1.8933071472,17,5,7.719,726.0214471172,5.249344,0.9395148,1.6707841742,0.447388,0.447388,-4.47388,26.1,8.2,-1.3,0,0,1024,1024,1684,1024,0,0,100,0,0,0,0,72,3.841,3.835,0,0,0,0,1.709,72.68,726.0214471172,5.249344,6,P-GPS,,1.6
431000,2026-01-12 12:13:29,726.6776151172,4.593176,0.6263432,1.75536751024,1.98732617908,17,5,7.719,726.6776151172,5.905512,0.9395148,1.75536751024,0.671082,0.447388,-4.47388,26.0,8.5,-1.3,0,0,1024,1024,1684,1024,0,0,100,0,0,0,0,72,3.841,3.835,0,0,0,0,1.709,72.68,726.6776151172,5.905512,6,P-GPS,,1.8
431100,2026-01-12 12:13:29,727.3337831172,5.249344,0.8052984,1.86695872116,2.10760177348,17,5,7.719,727.3337831172,6.56168,0.9395148,1.86695872116,0.671082,0.447388,-4.47388,26.1,8.5,-1.1,0,0,1024,1024,1684,1024,0,0,100,0,0,0,0,72,3.841,3.835,0,0,0,0,1.709,72.68,727.3337831172,6.56168,6,P-GPS,,2.0
431200,2026-01-12 12:13:29,727.9899511172,5.905512,0.8052984,1.96607289756,2.21485899476,17,5,7.452,727.9899511172,7.217848,0.9395148,1.96607289756,0.671082,0.447388,-4.47388,26.2,8.2,-1.0,0,0,1024,1024,1684,1024,0,0,100,0,0,0,0,72,3.727,3.724,0,0,0,0,6.15,72.68,727.9899511172,7.217848,6,P-GPS,,2.2
431300,2026-01-12 12:13:29,728.6461191172,6.56168,0.6263432,2.0649442918,2.34413065244,17,5,7.452,728.6461191172,7.874016,0.9395148,2.0649442918,0.447388,0.447388,-4.47388,26.1,8.2,-1.8,0,0,1024,1024,1684,1024,0,0,100,0,0,0,0,72,3.727,3.724,0,0,0,0,6.15,72.68,728.6461191172,7.874016,6,P-GPS,,2.4
431400,2026-01-12 12:13:29,729.3022871172,7.545932,0.4921268,2.13511817856,2.43469167896,16,5,7.452,729.3022871172,8.530184,0.9395148,2.13511817856,0.447388,0.223694,-4.47388,26.2,8.2,-1.7,0,0,1024,1024,1684,1024,0,0,100,0,0,0,0,72,3.727,3.724,0,0,0,0,6.15,72.68,729.3022871172,8.530184,6,P-GPS,,2.6
431500,2026-01-12 12:13:30,729.9584551172,8.2021,0.4921268,2.20036424364,2.5009679278,16,5,7.452,729.9584551172,9.186352,0.9395148,2.20036424364,0.447388,0.223694,-4.250186,26.2,7.5,-1.4,0,0,1024,1024,1684,1024,0,0,100,0,0,0,0,72,3.727,3.724,0,0,0,0,6.15,72.68,729.9584551172,9.186352,6,P-GPS,,2.8
431600,2026-01-12 12:13:30,730.6146231172,8.858268,0.4921268,2.25103681744,2.55374352004,17,5,7.452,730.6146231172,9.84252,0.9395148,2.25103681744,0.223694,0.447388,-4.250186,26.2,6.7,-1.7,0,0,1024,1024,1684,1024,0,0,100,0,0,0,0,72,3.727,3.724,0,0,0,0,6.15,72.68,730.6146231172,9.84252,6,P-GPS,,3.0
431700,2026-01-12 12:13:30,731.2707911172,9.514436,0.4921268,2.33917986488,2.67345480996,17,5,7.452,731.2707911172,10.498688,0.9395148,2.33917986488,0.223694,0.447388,-4.250186,26.2,5.9,-2.1,0,0,1024,1024,1684,1024,0,0,100,0,0,0,0,72,3.727,3.724,0,0,0,0,6.15,72.68,731.2707911172,10.498688,6,P-GPS,,3.2
431800,2026-01-12 12:13:30,731.9269591172,9.84252,0.223694,2.38258865892,2.75230979936,17,5,7.452,731.9269591172,11.154856,0.9395148,2.38258865892,0.0,0.223694,-4.47388,26.3,5.3,-2.3,0,0,1024,1024,1684,1024,0,0,100,0,0,0,0,72,3.727,3.724,0,0,0,0,6.15,72.68,731.9269591172,11.154856,6,P-GPS,,3.4
431900,2026-01-12 12:13:30,732.5831271172,10.498688,0.223694,2.37428157204,2.80519365932,17,5,7.452,732.5831271172,11.811024,0.9395148,2.38258865892,0.0,0.223694,-4.47388,26.2,5.7,-2.6,0,0,1024,1024,1684,1024,0,0,100,0,0,0,0,72,3.727,3.724,0,0,0,0,6.15,72.68,732.5831271172,11.811024,6,P-GPS,,3.6
432000,2026-01-12 12:13:30,733.2392951172,11.154856,0.223694,2.36548892084,2.85264444824,17,5,7.452,733.2392951172,12.467192,0.9395148,2.38258865892,0.0,0.223694,-4.250186,26.3,5.6,-2.7,0,0,1024,1024,1684,1024,0,0,100,0,0,0,0,72,3.727,3.724,0,0,0,0,6.15,72.68,733.2392951172,12.467192,6,P-GPS,,3.8
432100,2026-01-12 12:13:30,733.8954631172,11.48294,0.223694,2.37708997108,2.87357620744,17,5,7.452,733.8954631172,13.12336,0.9395148,2.38258865892,0.0,0.223694,-4.250186,26.3,5.2,-2.5,0,0,1024,1024,1684,1024,0,0,100,0,0,0,0,72,3.727,3.724,0,0,0,0,6.15,72.68,733.8954631172,13.12336,6,P-GPS,,4.0
432200,2026-01-12 12:13:30,734.5516311172,12.139108,0.223694,2.33322842112,2.9176838204,17,5,7.489,734.5516311172,13.779528,0.9395148,2.38258865892,0.0,0.223694,-4.250186,26.2,4.8,-3.2,0,0,1024,1024,1684,1024,0,0,100,0,0,0,0,72,3.741,3.736,0,0,0,0,6.58,72.68,734.5516311172,13.779528,6,P-GPS,,4.2
432300,2026-01-12 12:13:30,734.8797151172,12.795276,0.223694,2.35799220144,2.96153552784,17,5,7.489,734.8797151172,14.107612,0.9395148,2.38258865892,0.0,0.223694,-4.250186,26.2,4.9,-3.4,0,0,1024,1024,1684,1024,0,0,100,0,0,0,0,72,3.741,3.736,0,0,0,0,6.58,72.68,734.8797151172,14.107612,6,P-GPS,,4.3
432400,2026-01-12 12:13:31,735.5358831172,13.12336,0.223694,2.38748695304,2.9998524582,17,5,7.489,735.5358831172,14.76378,0.9395148,2.38748695304,0.223694,0.0,-4.250186,26.3,5.0,-2.4,0,0,1024,1024,1684,1024,0,0,100,0,0,0,0,72,3.741,3.736,0,0,0,0,6.58,72.68,735.5358831172,14.76378,6,P-GPS,,4.5
432500,2026-01-12 12:13:31,736.1920511172,13.779528,0.223694,2.43057094392,3.05492791928,17,5,7.489,736.1920511172,15.419948,0.9395148,2.43057094392,0.223694,0.0,-4.250186,26.3,5.3,-1.7,0,0,1024,1024,1684,1024,0,0,100,0,0,0,0,72,3.741,3.736,0,0,0,0,6.58,72.68,736.1920511172,15.419948,6,P-GPS,,4.7
432600,2026-01-12 12:13:31,736.8482191172,14.435696,0.223694,2.50535113004,3.1832186058,18,5,7.489,736.8482191172,16.076116,0.9395148,2.50535113004,0.223694,0.0,-4.250186,26.2,5.1,-1.6,0,0,1024,1024,1684,1024,0,0,100,0,0,0,0,72,3.741,3.736,0,0,0,0,6.58,72.68,736.8482191172,16.076116,6,P-GPS,,4.9
432700,2026-01-12 12:13:31,737.5043871172,15.091864,0.3131716,2.5499180606,3.23010509024,18,5,7.489,737.5043871172,16.732284,0.9395148,2.5499180606,0.223694,0.223694,-4.47388,26.2,6.3,-1.8,0,0,1024,1024,1684,1024,0,0,100,0,0,0,0,72,3.741,3.736,0,0,0,0,6.58,72.68,737.5043871172,16.732284,6,P-GPS,,5.1
432800,2026-01-12 12:13:31,738.1605551172,15.748032,0.3131716,2.59443249772,3.27793973744,17,5,7.489,738.1605551172,17.388452,0.9395148,2.59443249772,0.223694,0.223694,-4.47388,26.2,6.5,-2.0,0,0,1024,1024,1684,1024,0,0,100,0,0,0,0,72,3.741,3.736,0,0,0,0,6.58,72.68,738.1605551172,17.388452,6,P-GPS,,5.3
432900,2026-01-12 12:13:31,738.8167231172,16.732284,0.3131716,2.61019693392,3.3014764836,17,5,7.489,738.8167231172,18.04462,0.9395148,2.61019693392,0.223694,0.223694,-4.47388,26.1,7.4,-2.6,0,0,1024,1024,1684,1024,0,0,100,0,0,0,0,72,3.741,3.736,0,0,0,0,6.58,72.68,738.8167231172,18.04462,6,P-GPS,,5.5
433000,2026-01-12 12:13:31,739.4728911172,17.388452,0.3131716,2.5557087432,3.3590552256,18,5,7.489,739.4728911172,18.700788,0.9395148,2.61019693392,0.223694,0.223694,-4.250186,26.3,8.7,-2.3,0,0,1024,1024,1684,1024,0,0,100,0,0,0,0,72,3.741,3.736,0,0,0,0,6.58,72.68,739.4728911172,18.700788,6,P-GPS,,5.7
433100,2026-01-12 12:13:31,740.4571431172,18.04462,0.3131716,2.60422580512,3.41453423,18,5,7.489,740.4571431172,19.68504,0.9395148,2.61019693392,0.223694,0.223694,-4.250186,26.1,8.5,-2.4,0,0,1024,1024,1684,1024,0,0,100,0,0,0,0,72,3.741,3.736,0,0,0,0,6.58,72.68,740.4571431172,19.68504,6,P-GPS,,6.0
433200,2026-01-12 12:13:31,740.7852271172,18.700788,0.0,2.64193578008,3.4592848876,18,5,7.447,740.7852271172,20.013124,0.9395148,2.64193578008,0.0,0.0,-4.250186,26.2,7.9,-2.8,0,0,1024,1024,1684,1024,0,0,100,0,0,0,0,72,3.725,3.722,0,0,0,0,6.63,72.68,740.7852271172,20.013124,6,P-GPS,,6.1
433300,2026-01-12 12:13:31,741.4413951172,19.68504,0.223694,2.65532488812,3.4772966992,18,5,7.447,741.4413951172,20.669292,0.9395148,2.65532488812,0.223694,0.0,-4.250186,26.2,7.0,-2.8,0,0,1024,1024,1684,1024,0,0,100,0,0,0,0,72,3.725,3.722,0,0,0,0,6.63,72.68,741.4413951172,20.669292,6,P-GPS,,6.3
433400,2026-01-12 12:13:31,742.0975631172,20.341208,0.0,2.71827108436,3.5493111372,17,5,7.447,742.0975631172,21.32546,0.9395148,2.71827108436,0.0,0.0,-4.47388,26.1,7.5,-1.8,0,0,1024,1024,1684,1024,0,0,100,0,0,0,0,72,3.725,3.722,0,0,0,0,6.63,72.68,742.0975631172,21.32546,6,P-GPS,,6.5
433500,2026-01-12 12:13:32,742.7537311172,21.32546,0.223694,2.76427830368,3.5979659944,17,5,7.447,742.7537311172,21.981628,0.9395148,2.76427830368,0.223694,0.0,-4.47388,26.0,8.0,-1.8,0,0,1024,1024,1684,1024,0,0,100,0,0,0,0,72,3.725,3.722,0,0,0,0,6.63,72.68,742.7537311172,21.981628,6,P-GPS,,6.7
433600,2026-01-12 12:13:32,743.4098991172,22.309712,0.223694,2.80649943364,3.641240274,17,5,7.447,743.4098991172,22.637796,0.9395148,2.80649943364,0.223694,0.0,-4.250186,26.0,8.9,-1.2,0,0,1024,1024,1684,1024,0,0,100,0,0,0,0,72,3.725,3.722,0,0,0,0,6.63,72.68,743.4098991172,22.637796,6,P-GPS,,6.9
433700,2026-01-12 12:13:32,744.0660671172,22.96588,0.0,2.85623696804,3.7007219032,17,5,7.447,744.0660671172,23.293964,0.9395148,2.85623696804,0.0,0.0,-4.250186,26.2,9.1,-0.2,0,0,1024,1024,1684,1024,0,0,100,0,0,0,0,72,3.725,3.722,0,0,0,0,6.63,72.68,744.0660671172,23.293964,6,P-GPS,,7.1
433800,2026-01-12 12:13:32,744.3941511172,23.622048,0.0,2.88611885876,3.7415027444,18,5,7.447,744.3941511172,23.622048,0.9395148,2.88611885876,0.0,0.0,-4.250186,26.1,7.0,-0.9,0,0,1024,1024,1684,1024,0,0,100,0,0,0,0,72,3.725,3.722,0,0,0,0,6.63,72.68,744.3941511172,23.622048,6,P-GPS,,7.2
433900,2026-01-12 12:13:32,745.0503191172,23.950132,0.0,2.93156505444,3.8412402804,18,5,7.447,745.0503191172,24.278216,0.9395148,2.93156505444,0.0,0.0,-4.250186,26.0,6.6,-1.0,0,0,1024,1024,1684,1024,0,0,100,0,0,0,0,72,3.725,3.722,0,0,0,0,6.63,72.68,745.0503191172,24.278216,6,P-GPS,,7.4
434000,2026-01-12 12:13:32,745.7064871172,26.24672,0.0,2.91691610384,3.8613518296,18,5,7.447,745.7064871172,24.934384,0.9395148,2.93156505444,0.0,0.0,-4.47388,25.9,7.0,-0.6,0,0,1024,1024,1684,1024,0,0,100,0,0,0,0,72,3.725,3.722,0,0,0,0,6.63,72.68,745.7064871172,24.934384,6,P-GPS,,7.6
434100,2026-01-12 12:13:32,746.3626551172,27.230972,0.0,2.91818578892,3.8724410688,18,5,7.447,746.3626551172,25.590552,0.9395148,2.93156505444,0.0,0.0,-4.47388,26.0,7.2,-0.2,0,0,1024,1024,1684,1024,0,0,100,0,0,0,0,72,3.725,3.722,0,0,0,0,6.63,72.68,746.3626551172,25.590552,6,P-GPS,,7.8
434200,2026-01-12 12:13:32,747.0188231172,28.215224,0.0,2.91565626128,3.8838255836,18,5,7.46,747.0188231172,26.24672,0.9395148,2.93156505444,0.0,0.0,-4.250186,25.9,6.8,-0.5,0,0,1024,1024,1684,1024,0,0,100,0,0,0,0,72,3.734,3.727,0,0,0,0,6.531,72.68,747.0188231172,26.24672,6,P-GPS,,8.0
434300,2026-01-12 12:13:32,747.6749911172,29.199476,0.0,2.89876321612,3.946194352,18,5,7.46,747.6749911172,26.902888,0.9395148,2.93156505444,0.0,0.0,-4.250186,26.1,6.6,-0.2,0,0,1024,1024,1684,1024,0,0,100,0,0,0,0,72,3.734,3.727,0,0,0,0,6.531,72.68,747.6749911172,26.902888,6,P-GPS,,8.2
434400,2026-01-12 12:13:33,748.0030751172,30.183728,0.0,2.876640512,3.9728675812,18,5,7.46,748.0030751172,27.230972,0.9395148,2.93156505444,0.0,0.0,-4.250186,25.9,6.7,-1.5,0,0,1024,1024,1684,1024,0,0,100,0,0,0,0,72,3.734,3.727,0,0,0,0,6.531,72.68,748.0030751172,27.230972,6,P-GPS,,8.3
434500,2026-01-12 12:13:33,748.6592431172,30.839896,0.0,2.85788066888,4.0071195508,18,5,7.46,748.6592431172,27.88714,0.9395148,2.93156505444,0.0,0.0,-4.250186,25.9,7.0,-1.9,0,0,1024,1024,1684,1024,0,0,100,0,0,0,0,72,3.734,3.727,0,0,0,0,6.531,72.68,748.6592431172,27.88714,6,P-GPS,,8.5
434600,2026-01-12 12:13:33,749.3154111172,31.824148,0.0,2.85131898888,4.029855772,18,5,7.46,749.3154111172,28.543308,0.9395148,2.93156505444,0.0,0.0,-4.250186,25.8,7.4,-1.6,0,0,1024,1024,1684,1024,0,0,100,0,0,0,0,72,3.734,3.727,0,0,0,0,6.531,72.68,749.3154111172,28.543308,6,P-GPS,,8.7
434700,2026-01-12 12:13:33,749.9715791172,32.152232,0.0,2.84863198092,4.1025591864,18,5,7.46,749.9715791172,29.199476,0.9395148,2.93156505444,0.0,0.0,-4.47388,25.8,8.8,-0.5,0,0,1024,1024,1684,1024,0,0,100,0,0,0,0,72,3.734,3.727,0,0,0,0,6.531,72.68,749.9715791172,29.199476,6,P-GPS,,8.9
434800,2026-01-12 12:13:33,750.6277471172,32.480316,0.223694,2.86389772944,4.1182087932,18,5,7.46,750.6277471172,29.855644,0.9395148,2.93156505444,0.223694,0.0,-4.47388,25.9,9.7,0.7,0,0,1024,1024,1684,1024,0,0,100,0,0,0,0,72,3.734,3.727,0,0,0,0,6.531,72.68,750.6277471172,29.855644,6,P-GPS,,9.1
434900,2026-01-12 12:13:33,751.6119991172,32.8084,0.223694,2.91270022444,4.2026248064,18,5,7.46,751.6119991172,30.839896,0.9395148,2.93156505444,0.223694,0.0,-4.250186,25.8,9.6,1.4,0,0,1024,1024,1684,1024,0,0,100,0,0,0,0,72,3.734,3.727,0,0,0,0,6.531,72.68,751.6119991172,30.839896,6,P-GPS,,9.4
435000,2026-01-12 12:13:33,752.2681671172,33.464568,0.223694,2.94701781084,4.2712271708,18,5,7.46,752.2681671172,31.496064,0.9395148,2.94701781084,0.0,0.0,-4.47388,26.1,8.3,1.1,0,0,1024,1024,1684,1024,0,0,100,0,0,0,0,72,3.734,3.727,0,0,0,0,6.531,72.68,752.2681671172,31.496064,6,P-GPS,,9.6
435100,2026-01-12 12:13:33,752.9243351172,33.792652,0.0,3.032644454,4.4574148408,18,5,7.46,752.9243351172,32.152232,0.9395148,3.032644454,0.0,0.0,-4.47388,26.2,8.2,0.3,0,0,1024,1024,1684,1024,0,0,100,0,0,0,0,72,3.734,3.727,0,0,0,0,6.531,72.68,752.9243351172,32.152232,6,P-GPS,,9.8
435200,2026-01-12 12:13:33,753.5805031172,34.120736,0.0,3.03907161956,4.4871720596,18,5,7.455,753.5805031172,32.8084,0.9395148,3.03907161956,0.0,0.0,-4.47388,26.1,9.1,-0.2,0,0,1024,1024,1024,1024,0,0,0,0,0,0,0,72,3.728,3.727,0,0,0,0,6.492,72.86,753.5805031172,32.8084,6,P-GPS,,10.0
435300,2026-01-12 12:13:33,754.2366711172,34.776904,0.0,3.01749353488,4.5175854464,18,5,7.455,754.2366711172,33.464568,0.9395148,3.03907161956,0.0,0.0,-4.250186,26.0,8.3,-0.9,0,0,1024,1024,1024,1024,0,0,0,0,0,0,0,72,3.728,3.727,0,0,0,0,6.492,72.86,754.2366711172,33.464568,6,P-GPS,,10.2
435400,2026-01-12 12:13:33,754.8928391172,35.433072,0.223694,2.99030849464,4.5530185184,18,5,7.455,754.8928391172,34.120736,0.9395148,3.03907161956,-0.223694,0.0,-4.250186,26.1,7.3,-2.0,0,0,1024,1024,1024,1024,0,0,0,0,0,0,0,72,3.728,3.727,0,0,0,0,6.492,72.86,754.8928391172,34.120736,6,P-GPS,,10.4
435500,2026-01-12 12:13:34,755.2209231172,36.08924,0.0,2.9401083618,4.6078085464,18,5,7.455,755.2209231172,34.44882,0.9395148,3.03907161956,0.0,0.0,-3.579104,26.0,7.6,-2.3,0,0,1024,1024,1024,1024,0,0,0,0,0,0,0,72,3.728,3.727,0,0,0,0,6.492,72.86,755.2209231172,34.44882,6,P-GPS,,10.5
435600,2026-01-12 12:13:34,755.8770911172,36.417324,0.0,2.8297409042,4.736384666,18,5,7.455,755.8770911172,35.104988,0.9395148,3.03907161956,0.0,0.0,-2.684328,26.0,7.8,-2.6,0,0,1024,1024,1024,1024,0,0,0,0,0,0,0,72,3.728,3.727,0,0,0,0,6.492,72.86,755.8770911172,35.104988,6,P-GPS,,10.7
435700,2026-01-12 12:13:34,756.2051751172,36.745408,0.0,2.7876805354,4.79740829,18,5,7.455,756.2051751172,35.433072,0.9395148,3.03907161956,0.0,0.0,-2.013246,26.0,7.5,-1.8,0,0,1024,1024,1024,1024,0,0,0,0,0,0,0,72,3.728,3.727,0,0,0,0,6.492,72.86,756.2051751172,35.433072,6,P-GPS,,10.8
435800,2026-01-12 12:13:34,756.2051751172,37.073492,0.0,2.75278224032,4.852690444,18,5,7.455,756.2051751172,35.433072,0.9395148,3.03907161956,0.0,0.0,-1.342164,26.0,7.8,-2.1,0,0,1024,1024,1024,1024,0,0,0,0,0,0,0,72,3.728,3.727,0,0,0,0,6.492,72.86,756.2051751172,35.433072,6,P-GPS,,10.8
435900,2026-01-12 12:13:34,756.5332591172,37.073492,0.0,2.71361229156,4.9011156424,18,5,7.455,756.5332591172,35.761156,0.9395148,3.03907161956,0.0,0.0,-0.671082,26.1,8.0,-2.5,0,0,1024,1024,1024,1024,0,0,0,0,0,0,0,72,3.728,3.727,0,0,0,0,6.492,72.86,756.5332591172,35.761156,6,P-GPS,,10.9
436000,2026-01-12 12:13:34,756.5332591172,37.073492,0.0,2.61084982108,5.0373361192,19,5,7.455,756.5332591172,35.761156,0.9395148,3.03907161956,0.0,0.0,-0.223694,26.2,8.4,-2.5,0,0,1024,1024,1024,1024,0,0,0,0,0,0,0,72,3.728,3.727,0,0,0,0,6.492,72.86,756.5332591172,35.761156,6,P-GPS,,10.9
436100,2026-01-12 12:13:34,756.5332591172,37.401576,0.0,2.62577764308,5.0683400572,19,5,7.565,756.5332591172,35.761156,0.9395148,3.03907161956,0.0,0.0,-0.223694,26.1,8.3,-2.3,0,0,1024,1024,1024,1024,0,0,0,0,0,0,0,72,3.787,3.778,0,0,0,0,4.718,72.86,756.5332591172,35.761156,6,P-GPS,,10.9
436200,2026-01-12 12:13:34,756.5332591172,37.401576,0.0,2.63924877212,5.0962271972,18,5,7.565,756.5332591172,35.761156,0.9395148,3.03907161956,0.0,0.0,0.0,26.2,7.8,-2.5,0,0,1024,1024,1024,1024,0,0,0,0,0,0,0,72,3.787,3.778,0,0,0,0,4.718,72.86,756.5332591172,35.761156,6,P-GPS,,10.9
436300,2026-01-12 12:13:34,756.5332591172,37.401576,0.0,2.65382882508,5.1183728672,18,5,7.565,756.5332591172,35.761156,0.9395148,3.03907161956,0.0,0.0,0.0,26.2,8.3,-2.6,0,0,1024,1024,1024,1024,0,0,0,0,0,0,0,72,3.787,3.778,0,0,0,0,4.718,72.86,756.5332591172,35.761156,6,P-GPS,,10.9
436400,2026-01-12 12:13:35,756.5332591172,37.401576,0.0,2.7389928698,5.2043308752,18,5,7.565,756.5332591172,35.761156,0.9395148,3.03907161956,0.0,0.0,0.0,26.4,8.7,-3.3,0,0,1024,1024,1024,1024,0,0,0,0,0,0,0,72,3.787,3.778,0,0,0,0,4.718,72.86,756.5332591172,35.761156,6,P-GPS,,10.9
436500,2026-01-12 12:13:35,756.5332591172,37.401576,0.0,2.71339575612,5.2330054168,18,5,7.565,756.5332591172,35.761156,0.9395148,3.03907161956,0.0,0.0,0.0,26.1,10.0,-3.8,0,0,1024,1024,1024,1024,0,0,0,0,0,0,0,72,3.787,3.778,0,0,0,0,4.718,72.86,756.5332591172,35.761156,6,P-GPS,,10.9
436600,2026-01-12 12:13:35,756.2051751172,37.401576,0.0,2.68252305172,5.2648951816,18,5,7.565,756.5332591172,35.761156,0.9395148,3.03907161956,0.0,0.0,0.0,26.2,9.4,-4.6,0,0,1024,1024,1024,1024,0,0,0,0,0,0,0,72,3.787,3.778,0,0,0,0,4.718,72.86,756.2051751172,35.433072,6,P-GPS,,10.8
436700,2026-01-12 12:13:35,756.2051751172,37.401576,0.0,2.64436688252,5.3030513508,18,5,7.565,756.5332591172,35.761156,0.9395148,3.03907161956,0.0,0.0,0.0,25.8,8.2,-4.4,0,0,1024,1024,1024,1024,0,0,0,0,0,0,0,72,3.787,3.778,0,0,0,0,4.718,72.86,756.2051751172,35.433072,6,P-GPS,,10.8
436800,2026-01-12 12:13:35,756.2051751172,37.401576,0.0,2.54029863772,5.413878126,18,5,7.565,756.5332591172,35.761156,0.9395148,3.03907161956,0.0,0.0,0.0,25.9,7.4,-2.3,0,0,1024,1024,1024,1024,0,0,0,0,0,0,0,72,3.787,3.778,0,0,0,0,4.718,72.86,756.2051751172,35.433072,6,P-GPS,,10.8
436900,2026-01-12 12:13:35,756.2051751172,37.401576,0.0,2.49913393824,5.4666668416,18,5,7.565,756.5332591172,35.761156,0.9395148,3.03907161956,0.0,0.0,0.0,26.1,7.1,-1.5,0,0,1024,1024,1024,1024,0,0,0,0,0,0,0,72,3.787,3.778,0,0,0,0,4.718,72.86,756.2051751172,35.433072,6,P-GPS,,10.8
437000,2026-01-12 12:13:35,755.8770911172,37.401576,0.0,2.46086950132,5.5154529324,18,5,7.565,756.5332591172,35.761156,0.9395148,3.03907161956,0.0,0.0,0.0,26.3,6.9,-1.6,0,0,1024,1024,1024,1024,0,0,0,0,0,0,0,72,3.787,3.778,0,0,0,0,4.718,72.86,755.8770911172,35.104988,6,P-GPS,,10.7
437100,2026-01-12 12:13:35,755.8770911172,37.401576,0.223694,2.42760506456,5.5616471596,18,5,7.565,756.5332591172,35.761156,0.9395148,3.03907161956,0.0,-0.223694,0.0,26.2,6.9,-1.6,0,0,1024,1024,1024,1024,0,0,0,0,0,0,0,72,3.787,3.778,0,0,0,0,4.718,72.86,755.8770911172,35.104988,6,P-GPS,,10.7
437200,2026-01-12 12:13:35,755.5490071172,37.401576,0.223694,2.39603682208,5.609252148,18,5,7.565,756.5332591172,35.761156,0.9395148,3.03907161956,0.0,-0.223694,0.0,26.1,6.4,-1.7,0,0,1024,1024,1024,1024,0,0,0,0,0,0,0,72,3.768,3.769,0,0,0,0,4.718,72.86,755.5490071172,34.776904,6,P-GPS,,10.6
437300,2026-01-12 12:13:35,755.5490071172,37.401576,0.223694,2.36623039068,5.7196196056,18,5,7.565,756.5332591172,35.761156,0.9395148,3.03907161956,0.0,-0.223694,0.0,26.0,4.9,-1.3,0,0,1024,1024,1024,1024,0,0,0,0,0,0,0,72,3.768,3.769,0,0,0,0,4.718,72.86,755.5490071172,34.776904,6,P-GPS,,10.6
437400,2026-01-12 12:13:35,755.5490071172,37.401576,0.223694,2.34502304092,5.7947508416,18,5,7.565,756.5332591172,35.761156,0.9395148,3.03907161956,0.0,-0.223694,0.0,26.0,6.1,-0.5,0,0,1024,1024,1024,1024,0,0,0,0,0,0,0,72,3.768,3.769,0,0,0,0,4.718,72.86,755.5490071172,34.776904,6,P-GPS,,10.6
437500,2026-01-12 12:13:36,755.2209231172,37.401576,0.223694,2.34200466812,5.8425854888,18,5,7.565,756.5332591172,35.761156,0.9395148,3.03907161956,0.0,-0.223694,0.0,26.0,5.8,0.3,0,0,1024,1024,1024,1024,0,0,0,0,0,0,0,72,3.768,3.769,0,0,0,0,4.718,72.86,755.2209231172,34.44882,6,P-GPS,,10.5
437600,2026-01-12 12:13:36,755.2209231172,37.401576,0.223694,2.34659784412,5.8870736792,18,5,7.565,756.5332591172,35.761156,0.9395148,3.03907161956,0.0,-0.223694,0.0,25.9,6.4,0.0,0,0,1024,1024,1024,1024,0,0,0,0,0,0,0,72,3.768,3.769,0,0,0,0,4.718,72.86,755.2209231172,34.44882,6,P-GPS,,10.5
437700,2026-01-12 12:13:36,754.8928391172,37.401576,0.223694,2.3264272398,5.9184385096,18,5,7.565,756.5332591172,35.761156,0.9395148,3.03907161956,0.0,-0.223694,0.0,26.1,6.7,0.9,0,0,1024,1024,1024,1024,0,0,0,0,0,0,0,72,3.768,3.769,0,0,0,0,4.718,72.86,754.8928391172,34.120736,6,P-GPS,,10.4
437800,2026-01-12 12:13:36,754.8928391172,37.401576,0.223694,2.32332028432,5.9653545216,18,5,7.565,756.5332591172,35.761156,0.9395148,3.03907161956,0.0,-0.223694,0.0,26.2,7.3,1.2,0,0,1024,1024,1024,1024,0,0,0,0,0,0,0,72,3.768,3.769,0,0,0,0,4.718,72.86,754.8928391172,34.120736,6,P-GPS,,10.4
437900,2026-01-12 12:13:36,754.8928391172,37.401576,0.0,2.34359587552,6.0138125284,18,5,7.565,756.5332591172,35.761156,0.9395148,3.03907161956,0.0,0.0,0.0,26.2,7.4,0.9,0,0,1024,1024,1024,1024,0,0,0,0,0,0,0,72,3.768,3.769,0,0,0,0,4.718,72.86,754.8928391172,34.120736,6,P-GPS,,10.4
438000,2026-01-12 12:13:36,754.8928391172,37.401576,0.0,2.36050532488,6.0520343144,18,5,7.565,756.5332591172,35.761156,0.9395148,3.03907161956,0.0,0.0,0.0,26.1,6.4,0.7,0,0,1024,1024,1024,1024,0,0,0,0,0,0,0,72,3.768,3.769,0,0,0,0,4.718,72.86,754.8928391172,34.120736,6,P-GPS,,10.4
438100,2026-01-12 12:13:36,754.8928391172,37.401576,0.0,2.37263130952,6.0768046564,18,5,7.565,756.5332591172,35.761156,0.9395148,3.03907161956,0.0,0.0,0.0,26.4,6.0,0.5,0,0,1024,1024,1024,1024,0,0,0,0,0,0,0,72,3.768,3.769,0,0,0,0,4.718,72.86,754.8928391172,34.120736,6,P-GPS,,10.4
438200,2026-01-12 12:13:36,754.8928391172,37.401576,0.0,2.3837107062,6.090387334,18,5,7.565,756.5332591172,35.761156,0.9395148,3.03907161956,0.0,0.0,0.0,26.3,6.5,0.0,0,0,1024,1024,1024,1024,0,0,0,0,0,0,0,72,3.768,3.769,0,0,0,0,4.718,72.86,754.8928391172,34.120736,6,P-GPS,,10.4
438300,2026-01-12 12:13:36,755.2209231172,37.401576,0.0,2.390584066,6.0992127936,18,5,7.515,756.5332591172,35.761156,0.9395148,3.03907161956,0.0,0.0,0.0,26.2,6.3,0.0,0,0,1024,1024,1024,1024,0,0,0,0,0,0,0,72,3.759,3.756,0,0,0,0,4.717,72.86,755.2209231172,34.44882,6,P-GPS,,10.5
438400,2026-01-12 12:13:36,755.2209231172,37.401576,0.0,2.40286425012,6.1206038704,18,5,7.515,756.5332591172,35.761156,0.9395148,3.03907161956,0.0,0.0,-0.223694,26.1,6.1,-0.3,0,0,1024,1024,1024,1024,0,0,0,0,0,0,0,72,3.759,3.756,0,0,0,0,4.717,72.86,755.2209231172,34.44882,6,P-GPS,,10.5
438500,2026-01-12 12:13:37,754.8928391172,37.401576,0.0,2.40286753096,6.1349083328,18,5,7.515,756.5332591172,35.761156,0.9395148,3.03907161956,0.0,0.0,-0.223694,26.0,5.8,-2.5,0,0,1024,1024,1024,1024,0,0,0,0,0,0,0,72,3.759,3.756,0,0,0,0,4.717,72.86,754.8928391172,34.120736,6,P-GPS,,10.4
438600,2026-01-12 12:13:37,754.8928391172,37.401576,0.0,2.44294299156,6.1827757884,18,5,7.515,756.5332591172,35.761156,0.9395148,3.03907161956,0.0,0.0,-0.223694,26.0,7.4,-2.4,0,0,1024,1024,1024,1024,0,0,0,0,0,0,0,72,3.759,3.756,0,0,0,0,4.717,72.86,754.8928391172,34.120736,6,P-GPS,,10.4
438700,2026-01-12 12:13:37,754.8928391172,37.401576,0.0,2.4878937804,6.2369752652,18,5,7.515,756.5332591172,35.761156,0.9395148,3.03907161956,0.0,0.0,0.0,25.9,9.0,-2.7,0,0,1024,1024,1024,1024,0,0,0,0,0,0,0,72,3.759,3.756,0,0,0,0,4.717,72.86,754.8928391172,34.120736,6,P-GPS,,10.4
438800,2026-01-12 12:13:37,754.5647551172,37.401576,0.0,2.53135506788,6.2825789412,18,5,7.515,756.5332591172,35.761156,0.9395148,3.03907161956,0.0,0.0,0.0,25.9,8.7,-2.4,0,0,1024,1024,1024,1024,0,0,0,0,0,0,0,72,3.759,3.756,0,0,0,0,4.717,72.86,754.5647551172,33.792652,6,P-GPS,,10.3
438900,2026-01-12 12:13:37,754.5647551172,37.401576,0.0,2.59510835076,6.3473755312,18,5,7.515,756.5332591172,35.761156,0.9395148,3.03907161956,0.0,0.0,0.0,25.8,8.4,-0.9,0,0,1024,1024,1024,1024,0,0,0,0,0,0,0,72,3.759,3.756,0,0,0,0,4.717,72.86,754.5647551172,33.792652,6,P-GPS,,10.3
439000,2026-01-12 12:13:37,754.5647551172,37.401576,0.0,2.66892396992,6.422572384,17,5,7.515,756.5332591172,35.761156,0.9395148,3.03907161956,0.0,0.0,0.0,26.1,9.3,1.6,0,0,1024,1024,1024,1024,0,0,0,0,0,0,0,72,3.759,3.756,0,0,0,0,4.717,72.86,754.5647551172,33.792652,6,P-GPS,,10.3
439100,2026-01-12 12:13:37,754.5647551172,37.401576,0.0,2.7001149158,6.4733269788,17,5,7.515,756.5332591172,35.761156,0.9395148,3.03907161956,0.0,0.0,0.223694,26.3,9.4,1.6,0,0,1024,1024,1024,1024,0,0,0,0,0,0,0,72,3.759,3.756,0,0,0,0,4.717,72.86,754.5647551172,33.792652,6,P-GPS,SD card speed low. Normal use may be affected. Replace SD card (Code: 10028). Gimbal stuck. Make sure gimbal cover is removed and manually check whether gimbal can rotate freely (Code: 40002),10.3
439200,2026-01-12 12:13:37,754.5647551172,37.401576,0.0,2.72233604512,6.5126970588,17,5,7.515,756.5332591172,35.761156,0.9395148,3.03907161956,0.0,0.0,0.223694,26.2,8.5,1.5,0,0,1024,1024,1024,1024,0,0,0,0,0,0,0,72,3.759,3.756,0,0,0,0,4.717,72.86,754.5647551172,33.792652,6,P-GPS,,10.3
439300,2026-01-12 12:13:37,754.5647551172,37.401576,0.0,2.7225394572,6.5625658268,17,5,7.515,756.5332591172,35.761156,0.9395148,3.03907161956,0.0,0.0,0.223694,26.3,7.3,1.7,0,0,1024,1024,1024,1024,0,0,0,0,0,0,0,72,3.759,3.756,0,0,0,0,4.717,72.86,754.5647551172,33.792652,6,P-GPS,,10.3
439400,2026-01-12 12:13:37,754.5647551172,37.401576,0.0,2.68013131936,6.6715553316,18,5,7.515,756.5332591172,35.761156,0.9395148,3.03907161956,0.0,0.0,0.0,26.4,6.8,1.6,0,0,1024,1024,1024,1024,0,0,0,0,0,0,0,72,3.759,3.756,0,0,0,0,4.717,72.86,754.5647551172,33.792652,6,P-GPS,,10.3
439500,2026-01-12 12:13:38,754.5647551172,37.401576,0.0,2.68281176564,6.7035435216,18,5,7.515,756.5332591172,35.761156,0.9395148,3.03907161956,0.0,0.0,0.0,26.6,6.0,1.1,0,0,1024,1024,1024,1024,0,0,0,0,0,0,0,72,3.759,3.756,0,0,0,0,4.717,72.86,754.5647551172,33.792652,6,P-GPS,,10.3
439600,2026-01-12 12:13:38,754.5647551172,37.401576,0.223694,2.6882546792,6.7118112384,18,5,7.515,756.5332591172,35.761156,0.9395148,3.03907161956,0.0,0.223694,0.0,26.3,6.4,-1.6,0,0,1024,1024,1024,1024,0,0,0,0,0,0,0,72,3.759,3.756,0,0,0,0,4.717,72.86,754.5647551172,33.792652,6,P-GPS,,10.3
439700,2026-01-12 12:13:38,754.5647551172,37.401576,0.0,2.70117790796,6.7376314492,18,5,7.515,756.5332591172,35.761156,0.9395148,3.03907161956,0.0,0.0,0.0,25.9,8.4,-2.3,0,0,1024,1024,1024,1024,0,0,0,0,0,0,0,72,3.759,3.756,0,0,0,0,4.717,72.86,754.5647551172,33.792652,6,P-GPS,,10.3
439800,2026-01-12 12:13:38,754.5647551172,37.401576,0.0,2.71744103184,6.77821544,18,5,7.515,756.5332591172,35.761156,0.9395148,3.03907161956,0.0,0.0,0.0,26.2,8.4,-1.5,0,0,1024,1024,1024,1024,0,0,0,0,0,0,0,72,3.759,3.756,0,0,0,0,4.717,72.86,754.5647551172,33.792652,6,P-GPS,,10.3
439900,2026-01-12 12:13:38,754.5647551172,37.401576,0.0,2.71399614984,6.8027561232,18,5,7.515,756.5332591172,35.761156,0.9395148,3.03907161956,0.0,0.0,0.0,26.5,8.5,-1.0,0,0,1024,1024,1024,1024,0,0,0,0,0,0,0,72,3.759,3.756,0,0,0,0,4.717,72.86,754.5647551172,33.792652,6,P-GPS,,10.3
440000,2026-01-12 12:13:38,754.8928391172,37.401576,0.0,2.70381898416,6.8317915572,18,5,7.515,756.5332591172,35.761156,0.9395148,3.03907161956,0.0,0.0,0.0,26.5,7.6,-0.8,0,0,1024,1024,1024,1024,0,0,0,0,0,0,0,72,3.759,3.756,0,0,0,0,4.717,72.86,754.8928391172,34.120736,6,P-GPS,,10.4
440100,2026-01-12 12:13:38,754.8928391172,37.401576,0.0,2.69831373464,6.8790684616,18,5,7.515,756.5332591172,35.761156,0.9395148,3.03907161956,0.0,0.0,0.0,26.5,7.3,-1.8,0,0,1024,1024,1024,1024,0,0,0,0,0,0,0,72,3.759,3.756,0,0,0,0,4.717,72.86,754.8928391172,34.120736,6,P-GPS,,10.4
440200,2026-01-12 12:13:38,754.8928391172,37.401576,0.223694,2.6674541536,6.983924108,18,5,7.569,756.5332591172,35.761156,0.9395148,3.03907161956,0.0,0.223694,0.0,26.5,7.0,-2.5,0,0,1024,1024,1024,1024,0,0,0,0,0,0,0,72,3.773,3.768,0,0,0,0,4.097,72.86,754.8928391172,34.120736,6,P-GPS,,10.4
440300,2026-01-12 12:13:38,755.2209231172,37.401576,0.223694,2.65410441564,7.0302167604,18,5,7.569,756.5332591172,35.761156,0.9395148,3.03907161956,0.0,0.223694,0.0,26.2,7.5,-3.8,0,0,1024,1024,1024,1024,0,0,0,0,0,0,0,72,3.773,3.768,0,0,0,0,4.097,72.86,755.2209231172,34.44882,6,P-GPS,,10.5
440400,2026-01-12 12:13:38,755.2209231172,37.401576,0.0,2.64573171196,7.0683401212,18,5,7.569,756.5332591172,35.761156,0.9395148,3.03907161956,0.0,0.0,0.0,26.0,7.4,-3.9,0,0,1024,1024,1024,1024,0,0,0,0,0,0,0,72,3.773,3.768,0,0,0,0,4.097,72.86,755.2209231172,34.44882,6,P-GPS,,10.5
440500,2026-01-12 12:13:39,755.2209231172,37.401576,0.0,2.6421752814,7.0974083636,18,5,7.569,756.5332591172,35.761156,0.9395148,3.03907161956,0.0,0.0,0.0,25.9,6.7,-3.7,0,0,1024,1024,1024,1024,0,0,0,0,0,0,0,72,3.773,3.768,0,0,0,0,4.097,72.86,755.2209231172,34.44882,6,P-GPS,,10.5
440600,2026-01-12 12:13:39,755.2209231172,37.401576,0.0,2.64510507152,7.1147311988,18,5,7.569,756.5332591172,35.761156,0.9395148,3.03907161956,0.0,0.0,0.0,25.8,6.7,-2.8,0,0,1024,1024,1024,1024,0,0,0,0,0,0,0,72,3.773,3.768,0,0,0,0,4.097,72.86,755.2209231172,34.44882,6,P-GPS,,10.5
440700,2026-01-12 12:13:39,755.2209231172,37.401576,0.0,2.63368446748,7.1264109892,18,5,7.569,756.5332591172,35.761156,0.9395148,3.03907161956,0.0,0.0,0.0,25.9,8.0,-1.4,0,0,1024,1024,1024,1024,0,0,0,0,0,0,0,72,3.773,3.768,0,0,0,0,4.097,72.86,755.2209231172,34.44882,6,P-GPS,,10.5
440800,2026-01-12 12:13:39,755.5490071172,37.401576,0.0,2.6319390606,7.1298558712,18,5,7.569,756.5332591172,35.761156,0.9395148,3.03907161956,0.0,0.0,0.0,26.1,7.3,-1.7,0,0,1024,1024,1024,1024,0,0,0,0,0,0,0,72,3.773,3.768,0,0,0,0,4.097,72.86,755.5490071172,34.776904,6,P-GPS,,10.6
440900,2026-01-12 12:13:39,755.5490071172,37.401576,0.0,2.62209325976,7.1397311996,18,5,7.569,756.5332591172,35.761156,0.9395148,3.03907161956,0.0,0.0,0.0,26.3,6.7,-1.7,0,0,1024,1024,1024,1024,0,0,0,0,0,0,0,72,3.773,3.768,0,0,0,0,4.097,72.86,755.5490071172,34.776904,6,P-GPS,,10.6
441000,2026-01-12 12:13:39,755.5490071172,37.401576,0.0,2.60740821992,7.1547902552,18,5,7.569,756.5332591172,35.761156,0.9395148,3.03907161956,0.0,0.0,0.0,26.2,7.4,-2.8,0,0,1024,1024,1024,1024,0,0,0,0,0,0,0,72,3.773,3.768,0,0,0,0,4.097,72.86,755.5490071172,34.776904,6,P-GPS,,10.6
441100,2026-01-12 12:13:39,755.8770911172,37.401576,0.0,2.59845480756,7.1849739832,18,5,7.569,756.5332591172,35.761156,0.9395148,3.03907161956,0.0,0.0,0.0,26.2,6.8,-2.5,0,0,1024,1024,1024,1024,0,0,0,0,0,0,0,72,3.773,3.768,0,0,0,0,4.097,72.86,755.8770911172,35.104988,6,P-GPS,,10.7
441200,2026-01-12 12:13:39,755.8770911172,37.401576,0.223694,2.57933735288,7.2041340888,18,5,7.536,756.5332591172,35.761156,0.9395148,3.03907161956,-0.223694,0.0,0.0,26.3,5.7,-2.7,0,0,1024,1024,1024,1024,0,0,0,0,0,0,0,72,3.772,3.764,0,0,0,0,4.445,72.86,755.8770911172,35.104988,6,P-GPS,,10.7
441300,2026-01-12 12:13:39,755.8770911172,37.401576,0.0,2.54969168264,7.2338256908,18,5,7.536,756.5332591172,35.761156,0.9395148,3.03907161956,0.0,0.0,0.0,26.2,5.8,-3.0,0,0,1024,1024,1024,1024,0,0,0,0,0,0,0,72,3.772,3.764,0,0,0,0,4.445,72.86,755.8770911172,35.104988,6,P-GPS,,10.7
441400,2026-01-12 12:13:39,755.8770911172,37.401576,0.223694,2.52344496264,7.2600724108,18,5,7.536,756.5332591172,35.761156,0.9395148,3.03907161956,-0.223694,0.0,0.0,26.2,5.9,-2.9,0,0,1024,1024,1024,1024,0,0,0,0,0,0,0,72,3.772,3.764,0,0,0,0,4.445,72.86,755.8770911172,35.104988,6,P-GPS,,10.7
441500,2026-01-12 12:13:40,756.2051751172,37.401576,0.0,2.46085309712,7.3230645388,18,5,7.536,756.5332591172,35.761156,0.9395148,3.03907161956,0.0,0.0,0.0,26.2,5.6,-3.0,0,0,1024,1024,1024,1024,0,0,0,0,0,0,0,72,3.772,3.764,0,0,0,0,4.445,72.86,756.2051751172,35.433072,6,P-GPS,,10.8
441600,2026-01-12 12:13:40,756.2051751172,37.401576,0.0,2.42976713812,7.3541340936,18,5,7.536,756.5332591172,35.761156,0.9395148,3.03907161956,0.0,0.0,0.0,26.2,4.9,-3.1,0,0,1024,1024,1024,1024,0,0,0,0,0,0,0,72,3.772,3.764,0,0,0,0,4.445,72.86,756.2051751172,35.433072,6,P-GPS,,10.8
441700,2026-01-12 12:13:40,756.2051751172,37.401576,0.0,2.41146333176,7.3724739892,18,5,7.536,756.5332591172,35.761156,0.9395148,3.03907161956,0.0,0.0,0.0,26.1,5.2,-3.1,0,0,1024,1024,1024,1024,0,0,0,0,0,0,0,72,3.772,3.764,0,0,0,0,4.445,72.86,756.2051751172,35.433072,6,P-GPS,,10.8
441800,2026-01-12 12:13:40,756.2051751172,37.401576,0.0,2.39775926308,7.3866800264,18,5,7.536,756.5332591172,35.761156,0.9395148,3.03907161956,0.0,0.0,0.0,26.1,5.4,-3.2,0,0,1024,1024,1024,1024,0,0,0,0,0,0,0,72,3.772,3.764,0,0,0,0,4.445,72.86,756.2051751172,35.433072,6,P-GPS,,10.8
441900,2026-01-12 12:13:40,756.2051751172,37.401576,0.0,2.4172901036,7.4075789772,18,5,7.536,756.5332591172,35.761156,0.9395148,3.03907161956,0.0,0.0,0.0,26.1,4.8,-2.8,0,0,1024,1024,1024,1024,0,0,0,0,0,0,0,71,3.772,3.764,0,0,0,0,4.445,72.86,756.2051751172,35.433072,6,P-GPS,,10.8
442000,2026-01-12 12:13:40,756.2051751172,37.401576,0.0,2.41637474924,7.419291576,18,5,7.536,756.5332591172,35.761156,0.9395148,3.03907161956,0.0,0.0,0.0,26.1,4.4,-2.1,0,0,1024,1024,1024,1024,0,0,0,0,0,0,0,71,3.772,3.764,0,0,0,0,4.445,72.86,756.2051751172,35.433072,6,P-GPS,,10.8
442100,2026-01-12 12:13:40,756.2051751172,37.401576,0.0,2.40137146792,7.4353020752,18,5,7.536,756.5332591172,35.761156,0.9395148,3.03907161956,0.0,0.0,0.0,26.2,4.8,-1.8,0,0,1024,1024,1024,1024,0,0,0,0,0,0,0,71,3.772,3.764,0,0,0,0,4.445,72.86,756.2051751172,35.433072,6,P-GPS,,10.8
442200,2026-01-12 12:13:40,756.2051751172,37.401576,0.0,2.39369758316,7.4432088996,18,5,7.516,756.5332591172,35.761156,0.9395148,3.03907161956,0.0,0.0,0.0,26.2,5.0,-2.3,0,0,1024,1024,1024,1024,0,0,0,0,0,0,0,71,3.76,3.755,0,0,0,0,4.749,72.86,756.2051751172,35.433072,6,P-GPS,,10.8
442300,2026-01-12 12:13:40,756.2051751172,37.401576,0.0,2.42114180976,7.4729989268,18,5,7.516,756.5332591172,35.761156,0.9395148,3.03907161956,0.0,0.0,0.0,26.1,6.1,-2.5,0,0,1024,1024,1024,1024,0,0,0,0,0,0,0,71,3.76,3.755,0,0,0,0,4.749,72.86,756.2051751172,35.433072,6,P-GPS,,10.8
442400,2026-01-12 12:13:40,756.2051751172,37.401576,0.0,2.46456372716,7.5207679572,18,5,7.516,756.5332591172,35.761156,0.9395148,3.03907161956,0.0,0.0,0.0,25.9,7.1,-1.9,0,0,1024,1024,1024,1024,0,0,0,0,0,0,0,71,3.76,3.755,0,0,0,0,4.749,72.86,756.2051751172,35.433072,6,P-GPS,,10.8
442500,2026-01-12 12:13:41,756.2051751172,37.401576,0.0,2.489255329,7.5484254384,18,5,7.516,756.5332591172,35.761156,0.9395148,3.03907161956,0.0,0.0,0.0,25.8,7.6,-2.6,0,0,1024,1024,1024,1024,0,0,0,0,0,0,0,71,3.76,3.755,0,0,0,0,4.749,72.86,756.2051751172,35.433072,6,P-GPS,,10.8
442600,2026-01-12 12:13:41,756.2051751172,37.401576,0.0,2.51029535592,7.5742784576,18,5,7.516,756.5332591172,35.761156,0.9395148,3.03907161956,0.0,0.0,0.0,25.7,7.6,-2.4,0,0,1024,1024,1024,1024,0,0,0,0,0,0,0,71,3.76,3.755,0,0,0,0,4.749,72.86,756.2051751172,35.433072,6,P-GPS,,10.8
442700,2026-01-12 12:13:41,756.2051751172,37.401576,0.0,2.53942921512,7.6069228156,18,5,7.516,756.5332591172,35.761156,0.9395148,3.03907161956,0.0,0.0,0.0,25.8,7.1,-2.1,0,0,1024,1024,1024,1024,0,0,0,0,0,0,0,71,3.76,3.755,0,0,0,0,4.749,72.86,756.2051751172,35.433072,6,P-GPS,,10.8
442800,2026-01-12 12:13:41,756.2051751172,37.401576,0.0,2.56659785116,7.6563978828,18,5,7.516,756.5332591172,35.761156,0.9395148,3.03907161956,0.0,0.0,0.0,26.0,6.2,-1.6,0,0,1024,1024,1024,1024,0,0,0,0,0,0,0,71,3.76,3.755,0,0,0,0,4.749,72.86,756.2051751172,35.433072,6,P-GPS,,10.8
442900,2026-01-12 12:13:41,756.2051751172,37.401576,0.0,2.558563074,7.6646327912,18,5,7.516,756.5332591172,35.761156,0.9395148,3.03907161956,0.0,0.0,0.0,26.2,4.3,-1.8,0,0,1024,1024,1024,1024,0,0,0,0,0,0,0,71,3.76,3.755,0,0,0,0,4.749,72.86,756.2051751172,35.433072,6,P-GPS,,10.8
443000,2026-01-12 12:13:41,756.2051751172,37.401576,0.0,2.54671596076,7.6788388284,18,5,7.516,756.5332591172,35.761156,0.9395148,3.03907161956,0.0,0.0,0.0,26.3,2.9,-1.5,0,0,1024,1024,1024,1024,0,0,0,0,0,0,0,71,3.76,3.755,0,0,0,0,4.749,72.86,756.2051751172,35.433072,6,P-GPS,,10.8
443100,2026-01-12 12:13:41,756.2051751172,37.401576,0.0,2.53115493664,7.6975396164,18,5,7.516,756.5332591172,35.761156,0.9395148,3.03907161956,0.0,0.0,-0.223694,26.0,2.2,-1.8,0,0,1024,1024,1024,1024,0,0,0,0,0,0,0,71,3.76,3.755,0,0,0,0,4.749,72.86,756.2051751172,35.433072,6,P-GPS,,10.8
443200,2026-01-12 12:13:41,756.2051751172,37.401576,0.0,2.50902239,7.71981652,18,5,7.484,756.5332591172,35.761156,0.9395148,3.03907161956,0.0,0.0,-0.223694,26.0,2.6,-2.9,0,0,1024,1024,1024,1024,0,0,0,0,0,0,0,71,3.738,3.734,0,0,0,0,5.442,73.04,756.2051751172,35.433072,6,P-GPS,,10.8
443300,2026-01-12 12:13:41,756.2051751172,37.401576,0.0,2.475885906,7.7535107468,18,5,7.484,756.5332591172,35.761156,0.9395148,3.03907161956,0.0,0.0,-0.223694,26.0,1.2,-3.5,0,0,1024,1024,1024,1024,0,0,0,0,0,0,0,71,3.738,3.734,0,0,0,0,5.442,73.04,756.2051751172,35.433072,6,P-GPS,,10.8
443400,2026-01-12 12:13:41,756.2051751172,37.401576,0.0,2.45038721752,7.7797902752,18,5,7.484,756.5332591172,35.761156,0.9395148,3.03907161956,0.0,0.0,-0.223694,26.3,0.9,-4.5,0,0,1024,1024,1024,1024,0,0,0,0,0,0,0,71,3.738,3.734,0,0,0,0,5.442,73.04,756.2051751172,35.433072,6,P-GPS,,10.8
443500,2026-01-12 12:13:42,756.2051751172,37.401576,0.0,2.44068577364,7.7907482808,18,5,7.484,756.5332591172,35.761156,0.9395148,3.03907161956,0.0,0.0,-0.223694,26.4,1.4,-1.9,0,0,1024,1024,1024,1024,0,0,0,0,0,0,0,71,3.738,3.734,0,0,0,0,5.442,73.04,756.2051751172,35.433072,6,P-GPS,,10.8
443600,2026-01-12 12:13:42,755.8770911172,37.401576,0.0,2.37958669032,7.8559385716,17,5,7.484,756.5332591172,35.761156,0.9395148,3.03907161956,0.0,0.0,-0.223694,25.8,4.0,-3.9,0,0,1024,1024,1024,1024,0,0,0,0,0,0,0,71,3.738,3.734,0,0,0,0,5.442,73.04,755.8770911172,35.104988,6,P-GPS,,10.7
443700,2026-01-12 12:13:42,755.8770911172,37.401576,0.223694,2.39865165156,7.8801183624,17,5,7.484,756.5332591172,35.761156,0.9395148,3.03907161956,0.223694,0.0,0.0,25.9,6.1,-2.0,0,0,1024,1024,1024,1024,0,0,0,0,0,0,0,71,3.738,3.734,0,0,0,0,5.442,73.04,755.8770911172,35.104988,6,P-GPS,,10.7
443800,2026-01-12 12:13:42,755.5490071172,37.401576,0.223694,2.42768380472,7.9184385736,18,5,7.484,756.5332591172,35.761156,0.9395148,3.03907161956,0.223694,0.0,0.0,25.8,6.7,-1.0,0,0,1024,1024,1024,1024,0,0,0,0,0,0,0,71,3.738,3.734,0,0,0,0,5.442,73.04,755.5490071172,34.776904,6,P-GPS,,10.6
443900,2026-01-12 12:13:42,755.5490071172,37.401576,0.223694,2.47851713968,7.9849412004,18,5,7.484,756.5332591172,35.761156,0.9395148,3.03907161956,0.223694,0.0,0.0,26.1,8.8,0.9,0,0,1024,1024,1024,1024,0,0,0,0,0,0,0,71,3.738,3.734,0,0,0,0,5.442,73.04,755.5490071172,34.776904,6,P-GPS,,10.6
444000,2026-01-12 12:13:42,755.5490071172,37.401576,0.223694,2.52395677368,8.0425199424,18,5,7.484,756.5332591172,35.761156,0.9395148,3.03907161956,0.223694,0.0,0.0,26.4,7.1,2.1,0,0,1024,1024,1024,1024,0,0,0,0,0,0,0,71,3.738,3.734,0,0,0,0,5.442,73.04,755.5490071172,34.776904,6,P-GPS,,10.6
444100,2026-01-12 12:13:42,755.2209231172,37.401576,0.0,2.6228347296,8.1454727016,18,5,7.484,756.5332591172,35.761156,0.9395148,3.03907161956,0.0,0.0,0.0,26.5,7.1,0.7,0,0,1024,1024,1024,1024,0,0,0,0,0,0,0,71,3.738,3.734,0,0,0,0,5.442,73.04,755.2209231172,34.44882,6,P-GPS,,10.5
444200,2026-01-12 12:13:42,755.2209231172,37.401576,0.223694,2.67000008544,8.1941275588,18,5,7.556,756.5332591172,35.761156,0.9395148,3.03907161956,0.0,0.223694,0.0,26.4,8.7,-1.4,0,0,1024,1024,1024,1024,0,0,0,0,0,0,0,71,3.776,3.78,0,0,0,0,4.378,73.04,755.2209231172,34.44882,6,P-GPS,,10.5
444300,2026-01-12 12:13:42,755.2209231172,37.401576,0.223694,2.71592200292,8.2508860908,18,5,7.556,756.5332591172,35.761156,0.9395148,3.03907161956,0.0,0.223694,0.0,26.4,8.4,-2.0,0,0,1024,1024,1024,1024,0,0,0,0,0,0,0,71,3.776,3.78,0,0,0,0,4.378,73.04,755.2209231172,34.44882,6,P-GPS,,10.5
444400,2026-01-12 12:13:42,755.2209231172,37.401576,0.223694,2.75042331636,8.2998362236,18,5,7.556,756.5332591172,35.761156,0.9395148,3.03907161956,0.0,0.223694,0.0,26.4,7.9,-2.8,0,0,1024,1024,1024,1024,0,0,0,0,0,0,0,71,3.776,3.78,0,0,0,0,4.378,73.04,755.2209231172,34.44882,6,P-GPS,,10.5
444500,2026-01-12 12:13:43,755.2209231172,37.401576,0.0,2.79104667724,8.3676511864,18,5,7.556,756.5332591172,35.761156,0.9395148,3.03907161956,0.0,0.0,0.0,26.3,7.8,-3.6,0,0,1024,1024,1024,1024,0,0,0,0,0,0,0,71,3.776,3.78,0,0,0,0,4.378,73.04,755.2209231172,34.44882,6,P-GPS,,10.5
444600,2026-01-12 12:13:43,755.2209231172,37.401576,0.0,2.7920604568,8.4075133924,18,5,7.556,756.5332591172,35.761156,0.9395148,3.03907161956,0.0,0.0,0.0,25.9,8.0,-4.4,0,0,1024,1024,1024,1024,0,0,0,0,0,0,0,71,3.776,3.78,0,0,0,0,4.378,73.04,755.2209231172,34.44882,6,P-GPS,,10.5
444700,2026-01-12 12:13:43,755.2209231172,37.401576,0.0,2.76881898624,8.4721459404,18,5,7.556,756.5332591172,35.761156,0.9395148,3.03907161956,0.0,0.0,0.0,25.9,7.8,-4.1,0,0,1024,1024,1024,1024,0,0,0,0,0,0,0,71,3.776,3.78,0,0,0,0,4.378,73.04,755.2209231172,34.44882,6,P-GPS,,10.5
444800,2026-01-12 12:13:43,755.5490071172,37.401576,0.0,2.748359668,8.5221131336,18,5,7.556,756.5332591172,35.761156,0.9395148,3.03907161956,0.0,0.0,0.0,25.7,9.1,-3.2,0,0,1024,1024,1024,1024,0,0,0,0,0,0,0,71,3.776,3.78,0,0,0,0,4.378,73.04,755.5490071172,34.776904,6,P-GPS,,10.6
444900,2026-01-12 12:13:43,755.5490071172,37.401576,0.0,2.63390428376,8.651246996,18,5,7.556,756.5332591172,35.761156,0.9395148,3.03907161956,0.0,0.0,0.223694,25.8,7.7,-2.6,0,0,1024,1024,1024,1024,0,0,0,0,0,0,0,71,3.776,3.78,0,0,0,0,4.378,73.04,755.5490071172,34.776904,6,P-GPS,,10.6
445000,2026-01-12 12:13:43,755.5490071172,37.401576,0.0,2.59508866572,8.6911420104,18,5,7.556,756.5332591172,35.761156,0.9395148,3.03907161956,0.0,0.0,0.0,25.9,6.5,-2.1,0,0,1024,1024,1024,1024,0,0,0,0,0,0,0,71,3.776,3.78,0,0,0,0,4.378,73.04,755.5490071172,34.776904,6,P-GPS,,10.6
445100,2026-01-12 12:13:43,755.5490071172,37.401576,0.0,2.57563000368,8.7109910924,18,5,7.556,756.5332591172,35.761156,0.9395148,3.03907161956,0.0,0.0,0.0,26.0,6.6,-2.1,0,0,1024,1024,1024,1024,0,0,0,0,0,0,0,71,3.776,3.78,0,0,0,0,4.378,73.04,755.5490071172,34.776904,6,P-GPS,,10.6
445200,2026-01-12 12:13:43,755.5490071172,37.401576,0.0,2.55799548868,8.7294294132,18,5,7.543,756.5332591172,35.761156,0.9395148,3.03907161956,0.0,0.0,0.0,26.1,6.6,-1.6,0,0,1024,1024,1024,1024,0,0,0,0,0,0,0,71,3.76,3.757,0,0,0,0,4.454,73.04,755.5490071172,34.776904,6,P-GPS,,10.6
445300,2026-01-12 12:13:43,755.5490071172,37.401576,0.0,2.57873367832,8.780512092,18,5,7.543,756.5332591172,35.761156,0.9395148,3.03907161956,0.0,0.0,0.0,26.2,5.7,-2.8,0,0,1024,1024,1024,1024,0,0,0,0,0,0,0,71,3.76,3.757,0,0,0,0,4.454,73.04,755.5490071172,34.776904,6,P-GPS,,10.6
445400,2026-01-12 12:13:44,755.5490071172,37.401576,0.0,2.56205060692,8.7979333524,18,5,7.543,756.5332591172,35.761156,0.9395148,3.03907161956,0.0,0.0,0.0,26.3,5.2,-3.6,0,0,1024,1024,1024,1024,0,0,0,0,0,0,0,71,3.76,3.757,0,0,0,0,4.454,73.04,755.5490071172,34.776904,6,P-GPS,,10.6
445500,2026-01-12 12:13:44,755.5490071172,37.401576,0.0,2.5388616298,8.8237207548,18,5,7.543,756.5332591172,35.761156,0.9395148,3.03907161956,0.0,0.0,0.0,26.4,4.5,-3.6,0,0,1024,1024,1024,1024,0,0,0,0,0,0,0,71,3.76,3.757,0,0,0,0,4.454,73.04,755.5490071172,34.776904,6,P-GPS,,10.6
445600,2026-01-12 12:13:44,755.8770911172,37.401576,0.0,2.53155519912,8.8396328288,18,5,7.543,756.5332591172,35.761156,0.9395148,3.03907161956,0.0,0.0,0.0,26.2,6.7,-4.0,0,0,1024,1024,1024,1024,0,0,0,0,0,0,0,71,3.76,3.757,0,0,0,0,4.454,73.04,755.8770911172,35.104988,6,P-GPS,,10.7
445700,2026-01-12 12:13:44,755.8770911172,37.401576,0.0,2.55330060664,8.8682417536,18,5,7.543,756.5332591172,35.761156,0.9395148,3.03907161956,0.0,0.0,0.0,26.1,7.3,-4.3,0,0,1024,1024,1024,1024,0,0,0,0,0,0,0,71,3.76,3.757,0,0,0,0,4.454,73.04,755.8770911172,35.104988,6,P-GPS,,10.7
445800,2026-01-12 12:13:44,755.8770911172,37.401576,0.0,2.60193905964,8.9168638024,19,5,7.543,756.5332591172,35.761156,0.9395148,3.03907161956,0.0,0.0,0.0,26.0,7.9,-3.9,0,0,1024,1024,1024,1024,0,0,0,0,0,0,0,71,3.76,3.757,0,0,0,0,4.454,73.04,755.8770911172,35.104988,6,P-GPS,,10.7
445900,2026-01-12 12:13:44,755.8770911172,37.401576,0.0,2.60810047716,8.9341538292,19,5,7.543,756.5332591172,35.761156,0.9395148,3.03907161956,0.0,0.0,0.0,25.8,7.3,-3.8,0,0,1024,1024,1024,1024,0,0,0,0,0,0,0,71,3.76,3.757,0,0,0,0,4.454,73.04,755.8770911172,35.104988,6,P-GPS,,10.7
446000,2026-01-12 12:13:44,755.5490071172,37.401576,0.0,2.61604667164,8.9460632784,19,5,7.543,756.5332591172,35.761156,0.9395148,3.03907161956,0.0,0.0,0.0,25.9,7.5,-3.3,0,0,1024,1024,1024,1024,0,0,0,0,0,0,0,71,3.76,3.757,0,0,0,0,4.454,73.04,755.5490071172,34.776904,6,P-GPS,,10.6
446100,2026-01-12 12:13:44,755.5490071172,37.401576,0.0,2.64879601652,8.979495038,19,5,7.543,756.5332591172,35.761156,0.9395148,3.03907161956,0.0,0.0,0.0,25.9,7.0,-3.1,0,0,1024,1024,1024,1024,0,0,0,0,0,0,0,71,3.76,3.757,0,0,0,0,4.454,73.04,755.5490071172,34.776904,6,P-GPS,,10.6
446200,2026-01-12 12:13:44,755.5490071172,37.401576,0.0,2.69604339336,9.0387470084,19,5,7.505,756.5332591172,35.761156,0.9395148,3.03907161956,0.0,0.0,0.0,25.9,7.3,-3.3,0,0,1024,1024,1024,1024,0,0,0,0,0,0,0,71,3.753,3.752,0,0,0,0,5.075,73.04,755.5490071172,34.776904,6,P-GPS,,10.6
446300,2026-01-12 12:13:44,755.5490071172,37.401576,0.0,2.72263132072,9.0654202376,19,5,7.505,756.5332591172,35.761156,0.9395148,3.03907161956,0.0,0.0,0.0,26.0,7.4,-3.2,0,0,1024,1024,1024,1024,0,0,0,0,0,0,0,71,3.753,3.752,0,0,0,0,5.075,73.04,755.5490071172,34.776904,6,P-GPS,,10.6
446400,2026-01-12 12:13:45,755.5490071172,37.401576,0.0,2.7506398518,9.0934058028,18,5,7.505,756.5332591172,35.761156,0.9395148,3.03907161956,0.0,0.0,0.0,26.0,7.8,-3.3,0,0,1024,1024,1024,1024,0,0,0,0,0,0,0,71,3.753,3.752,0,0,0,0,5.075,73.04,755.5490071172,34.776904,6,P-GPS,,10.6
446500,2026-01-12 12:13:45,755.5490071172,37.401576,0.0,2.78132882916,9.1299543604,18,5,7.505,756.5332591172,35.761156,0.9395148,3.03907161956,0.0,0.0,0.0,26.0,8.2,-3.0,0,0,1024,1024,1024,1024,0,0,0,0,0,0,0,71,3.753,3.752,0,0,0,0,5.075,73.04,755.5490071172,34.776904,6,P-GPS,,10.6
446600,2026-01-12 12:13:45,755.5490071172,37.401576,0.0,2.80655848876,9.1777561992,18,5,7.505,756.5332591172,35.761156,0.9395148,3.03907161956,0.0,0.0,0.0,26.0,8.3,-2.7,0,0,1024,1024,1024,1024,0,0,0,0,0,0,0,71,3.753,3.752,0,0,0,0,5.075,73.04,755.5490071172,34.776904,6,P-GPS,,10.6
446700,2026-01-12 12:13:45,755.5490071172,37.401576,0.0,2.81288722912,9.193077722,18,5,7.505,756.5332591172,35.761156,0.9395148,3.03907161956,0.0,0.0,0.0,26.0,8.0,-2.4,0,0,1024,1024,1024,1024,0,0,0,0,0,0,0,71,3.753,3.752,0,0,0,0,5.075,73.04,755.5490071172,34.776904,6,P-GPS,,10.6
446800,2026-01-12 12:13:45,755.5490071172,37.401576,0.0,2.81813329228,9.2050199796,18,5,7.505,756.5332591172,35.761156,0.9395148,3.03907161956,0.0,0.0,0.0,25.9,8.4,-2.7,0,0,1024,1024,1024,1024,0,0,0,0,0,0,0,71,3.753,3.752,0,0,0,0,5.075,73.04,755.5490071172,34.776904,6,P-GPS,,10.6
446900,2026-01-12 12:13:45,755.5490071172,37.401576,0.0,2.84518709892,9.2339569884,18,5,7.505,756.5332591172,35.761156,0.9395148,3.03907161956,0.0,0.0,0.0,25.8,8.6,-2.6,0,0,1024,1024,1024,1024,0,0,0,0,0,0,0,71,3.753,3.752,0,0,0,0,5.075,73.04,755.5490071172,34.776904,6,P-GPS,,10.6
447000,2026-01-12 12:13:45,755.5490071172,37.401576,0.0,2.8385171512,9.2631564644,19,5,7.505,756.5332591172,35.761156,0.9395148,3.03907161956,0.0,0.0,0.0,25.9,8.3,-2.5,0,0,1024,1024,1024,1024,0,0,0,0,0,0,0,71,3.753,3.752,0,0,0,0,5.075,73.04,755.5490071172,34.776904,6,P-GPS,,10.6
447100,2026-01-12 12:13:45,755.5490071172,37.401576,0.0,2.8413386736,9.2847772,19,5,7.505,756.5332591172,35.761156,0.9395148,3.03907161956,0.0,0.0,0.0,25.9,8.2,-2.5,0,0,1024,1024,1024,1024,0,0,0,0,0,0,0,71,3.753,3.752,0,0,0,0,5.075,73.04,755.5490071172,34.776904,6,P-GPS,,10.6
447200,2026-01-12 12:13:45,755.5490071172,37.401576,0.0,2.83987541896,9.3069884868,19,5,7.505,756.5332591172,35.761156,0.9395148,3.03907161956,0.0,0.0,0.0,26.0,8.1,-2.3,0,0,1024,1024,1024,1024,0,0,0,0,0,0,0,71,3.76,3.756,0,0,0,0,5.075,73.04,755.5490071172,34.776904,6,P-GPS,,10.6
447300,2026-01-12 12:13:45,755.2209231172,37.401576,0.0,2.84671268952,9.3229661776,19,5,7.505,756.5332591172,35.761156,0.9395148,3.03907161956,0.0,0.0,0.0,26.2,7.2,-2.0,0,0,1024,1024,1024,1024,0,0,0,0,0,0,0,71,3.76,3.756,0,0,0,0,5.075,73.04,755.2209231172,34.44882,6,P-GPS,,10.5
447400,2026-01-12 12:13:45,755.2209231172,37.401576,0.0,2.84686360816,9.3333992488,19,5,7.505,756.5332591172,35.761156,0.9395148,3.03907161956,0.0,0.0,0.0,26.2,6.2,-1.9,0,0,1024,1024,1024,1024,0,0,0,0,0,0,0,71,3.76,3.756,0,0,0,0,5.075,73.04,755.2209231172,34.44882,6,P-GPS,,10.5
447500,2026-01-12 12:13:46,755.2209231172,37.401576,0.0,2.85537738796,9.3473100104,19,5,7.505,756.5332591172,35.761156,0.9395148,3.03907161956,0.0,0.0,0.0,26.1,6.1,-2.4,0,0,1024,1024,1024,1024,0,0,0,0,0,0,0,71,3.76,3.756,0,0,0,0,5.075,73.04,755.2209231172,34.44882,6,P-GPS,,10.5
447600,2026-01-12 12:13:46,755.2209231172,37.401576,0.0,2.84904208592,9.3545606668,19,5,7.505,756.5332591172,35.761156,0.9395148,3.03907161956,0.0,0.0,0.0,26.0,6.5,-2.9,0,0,1024,1024,1024,1024,0,0,0,0,0,0,0,71,3.76,3.756,0,0,0,0,5.075,73.04,755.2209231172,34.44882,6,P-GPS,,10.5
447700,2026-01-12 12:13:46,755.2209231172,37.401576,0.0,2.83156505124,9.3740488564,19,5,7.505,756.5332591172,35.761156,0.9395148,3.03907161956,0.0,0.0,0.0,26.0,6.9,-3.2,0,0,1024,1024,1024,1024,0,0,0,0,0,0,0,71,3.76,3.756,0,0,0,0,5.075,73.04,755.2209231172,34.44882,6,P-GPS,,10.5
447800,2026-01-12 12:13:46,755.2209231172,37.401576,0.0,2.81805783296,9.389107912,19,5,7.505,756.5332591172,35.761156,0.9395148,3.03907161956,0.0,0.0,0.0,26.0,7.7,-3.4,0,0,1024,1024,1024,1024,0,0,0,0,0,0,0,71,3.76,3.756,0,0,0,0,5.075,73.04,755.2209231172,34.44882,6,P-GPS,,10.5
447900,2026-01-12 12:13:46,755.2209231172,37.401576,0.0,2.79554798972,9.4134845532,19,5,7.505,756.5332591172,35.761156,0.9395148,3.03907161956,0.0,0.0,0.0,26.1,7.7,-3.1,0,0,1024,1024,1024,1024,0,0,0,0,0,0,0,71,3.76,3.756,0,0,0,0,5.075,73.04,755.2209231172,34.44882,6,P-GPS,,10.5
448000,2026-01-12 12:13:46,755.2209231172,37.401576,0.0,2.79620087688,9.4177824536,19,5,7.505,756.5332591172,35.761156,0.9395148,3.03907161956,0.0,0.0,0.0,26.0,7.9,-2.8,0,0,1024,1024,1024,1024,0,0,0,0,0,0,0,71,3.76,3.756,0,0,0,0,5.075,73.04,755.2209231172,34.44882,6,P-GPS,,10.5
448100,2026-01-12 12:13:46,755.2209231172,37.401576,0.0,2.79071859324,9.4334648688,19,5,7.505,756.5332591172,35.761156,0.9395148,3.03907161956,0.0,0.0,0.0,26.1,7.5,-2.7,0,0,1024,1024,1024,1024,0,0,0,0,0,0,0,71,3.76,3.756,0,0,0,0,5.075,73.04,755.2209231172,34.44882,6,P-GPS,,10.5
448200,2026-01-12 12:13:46,755.2209231172,37.401576,0.0,2.78893381628,9.4503611948,19,5,7.505,756.5332591172,35.761156,0.9395148,3.03907161956,0.0,0.0,0.0,26.0,8.1,-2.6,0,0,1024,1024,1024,1024,0,0,0,0,0,0,0,71,3.76,3.756,0,0,0,0,5.075,73.04,755.2209231172,34.44882,6,P-GPS,,10.5
448300,2026-01-12 12:13:46,755.2209231172,37.401576,0.0,2.8388944478,9.5250003048,19,5,7.516,756.5332591172,35.761156,0.9395148,3.03907161956,0.0,0.0,0.0,26.0,7.8,-3.2,0,0,1024,1024,1024,1024,0,0,0,0,0,0,0,71,3.76,3.756,0,0,0,0,4.784,73.04,755.2209231172,34.44882,6,P-GPS,,10.5
