time(millisecond),timestamp,altitude_above_seaLevel(feet),height_sonar(feet),speed(mph),distance(feet),mileage(feet),satellites,gpslevel,voltage(v),max_altitude(feet),max_ascent(feet),max_speed(mph),max_distance(feet), xSpeed(mph), ySpeed(mph), zSpeed(mph), compass_heading(degrees), pitch(degrees), roll(degrees),isPhoto,isVideo,rc_elevator,rc_aileron,rc_throttle,rc_rudder,rc_elevator(percent),rc_aileron(percent),rc_throttle(percent),rc_rudder(percent),gimbal_heading(degrees),gimbal_pitch(degrees),gimbal_roll(degrees),battery_percent,voltageCell1,voltageCell2,voltageCell3,voltageCell4,voltageCell5,voltageCell6,current(A),battery_temperature(f),altitude(feet),ascent(feet),flycStateRaw,flycState,message,height_above_takeoff(meters)
142500,2026-01-12 12:08:17,720.72734786642,0.328084,0.0,0.0,0.0,18,5,0.0,720.72734786642,0.0,0.0,0.0,0.0,0.0,0.0,14.0,2.2,0.1,0,0,1024,1024,1024,1024,0,0,0,0,0,0,0,90,4.009,4.006,0,0,0,0,0.0,66.2,720.72734786642,0.0,41,Motors_Started,SD card speed low SD card speed low. Normal use may be affected. Replace SD card (Code: 10028). Gimbal stuck. Make sure gimbal cover is removed and manually check whether gimbal can rotate freely (Code: 40002),0.0
142600,2026-01-12 12:08:18,720.72734786642,0.328084,0.0,0.0162757879224,0.0162757879224,18,5,0.0,720.72734786642,0.0,0.0,0.0162757879224,0.0,0.0,0.0,14.0,2.2,0.1,0,0,1024,1024,1024,1024,0,0,0,0,0,0,0,90,4.009,4.006,0,0,0,0,0.0,66.2,720.72734786642,0.0,41,Motors_Started,,0.0
142700,2026-01-12 12:08:18,720.72734786642,0.328084,0.0,0.0282232948664,0.0290084654952,18,5,8.015,720.72734786642,0.0,0.0,0.0282232948664,0.0,0.0,0.0,13.9,2.2,0.1,0,0,1024,1024,1024,1024,0,0,0,0,0,0,0,90,4.009,4.006,0,0,0,0,0.655,66.2,720.72734786642,0.0,41,Motors_Started,,0.0
142800,2026-01-12 12:08:18,720.72734786642,0.328084,0.0,0.040105316244,0.04135826904,18,5,8.015,720.72734786642,0.0,0.0,0.040105316244,0.0,0.0,0.0,13.9,2.2,0.1,0,0,1024,1024,1024,1024,0,0,0,0,0,0,0,90,4.009,4.006,0,0,0,0,0.655,66.2,720.72734786642,0.0,41,Motors_Started,,0.0
142900,2026-01-12 12:08:18,720.72734786642,0.328084,0.0,0.064421589988,0.075042325236,18,5,8.015,720.72734786642,0.0,0.0,0.064421589988,0.0,0.0,0.0,14.0,2.2,0.1,0,0,1024,1024,1024,1024,0,0,0,0,0,0,0,90,4.009,4.006,0,0,0,0,0.655,66.2,720.72734786642,0.0,41,Motors_Started,,0.0
143000,2026-01-12 12:08:18,720.72734786642,0.328084,0.0,0.076083007684,0.086726380728,18,5,8.015,720.72734786642,0.0,0.0,0.076083007684,0.0,0.0,0.0,13.9,2.2,0.1,0,0,1024,1024,1024,1024,0,0,0,0,0,0,0,90,4.009,4.006,0,0,0,0,0.655,66.2,720.72734786642,0.0,41,Motors_Started,Setting new Return-To-Home altitude to 90m (295 ft). Data Recorder File Index is 35. Setting new Maximum Flight Altitude to 90m (295 ft),0.0
143100,2026-01-12 12:08:18,720.72734786642,0.328084,0.0,2.16604009556,0.108259189816,18,5,8.015,720.72734786642,0.0,0.0,2.16604009556,0.0,0.0,0.0,14.1,2.3,0.0,0,0,1024,1024,1024,1024,0,0,0,0,0,0,0,90,4.009,4.006,0,0,0,0,0.655,66.2,720.72734786642,0.0,41,Motors_Started,SD card speed low. Normal use may be affected. Replace SD card (Code: 10028),0.0
143200,2026-01-12 12:08:18,720.72734786642,0.328084,0.0,2.187746133,0.133760831052,18,5,8.015,720.72734786642,0.0,0.0,2.187746133,0.0,0.0,0.0,14.3,2.1,0.1,0,0,1024,1024,1024,1024,0,0,0,0,0,0,0,90,4.009,4.006,0,0,0,0,0.655,66.2,720.72734786642,0.0,41,Motors_Started,,0.0
143300,2026-01-12 12:08:18,720.72734786642,0.328084,0.0,2.2340715938,0.188475727816,18,5,8.015,720.72734786642,0.0,0.0,2.2340715938,0.0,0.0,0.0,14.2,2.2,0.1,0,0,1024,1024,1024,1024,0,0,0,0,0,0,0,90,4.009,4.006,0,0,0,0,0.655,66.2,720.72734786642,0.0,41,Motors_Started,,0.0
143400,2026-01-12 12:08:18,720.72734786642,0.328084,0.0,2.24195873316,0.203022972376,18,5,8.015,720.72734786642,0.0,0.0,2.24195873316,0.0,0.0,0.0,14.3,2.2,0.0,0,0,1024,1024,1024,1024,0,0,0,0,0,0,0,90,4.009,4.006,0,0,0,0,0.655,66.2,720.72734786642,0.0,41,Motors_Started,,0.0
143500,2026-01-12 12:08:18,720.72734786642,0.328084,0.0,2.25894692268,0.223954403492,18,5,8.015,720.72734786642,0.0,0.0,2.25894692268,0.0,0.0,0.0,14.3,2.2,0.1,0,0,1024,1024,1024,1024,0,0,0,0,0,0,0,90,4.009,4.006,0,0,0,0,0.655,66.2,720.72734786642,0.0,41,Motors_Started,,0.0
143600,2026-01-12 12:08:19,720.72734786642,0.328084,0.0,2.27829403616,0.246723433092,18,5,8.015,720.72734786642,0.0,0.0,2.27829403616,0.0,0.0,0.0,14.4,2.2,0.1,0,0,1024,1024,1024,1024,0,0,0,0,0,0,0,90,4.009,4.006,0,0,0,0,0.655,66.2,720.72734786642,0.0,41,Motors_Started,,0.0
143700,2026-01-12 12:08:19,720.72734786642,0.328084,0.0,2.2885007294,0.267879273664,18,5,8.015,720.72734786642,0.0,0.0,2.2885007294,0.0,0.0,0.0,14.4,2.2,0.1,0,0,1024,1024,1024,1024,0,0,0,0,0,0,0,90,4.009,4.006,0,0,0,0,0.655,66.2,720.72734786642,0.0,11,AutoTakeoff,,0.0
143800,2026-01-12 12:08:19,720.72734786642,0.328084,0.0,2.29195545392,0.279016741212,18,5,7.951,720.72734786642,0.0,0.0,2.29195545392,0.0,0.0,0.0,14.3,2.2,0.1,0,0,1024,1024,1060,1024,0,0,5,0,0,0,0,90,3.992,3.976,0,0,0,0,1.512,66.2,720.72734786642,0.0,11,AutoTakeoff,,0.0
143900,2026-01-12 12:08:19,720.72734786642,0.328084,0.0,2.29064311792,0.280740166464,18,5,7.951,720.72734786642,0.0,0.0,2.29195545392,0.0,0.0,0.0,14.3,2.2,0.1,0,0,1024,1024,1684,1024,0,0,100,0,0,0,0,90,3.992,3.976,0,0,0,0,1.512,66.2,720.72734786642,0.0,11,AutoTakeoff,,0.0
144000,2026-01-12 12:08:19,720.72734786642,0.328084,0.0,2.28849088688,0.284200468412,18,5,7.951,720.72734786642,0.0,0.0,2.29195545392,0.0,0.0,0.0,14.4,2.2,0.0,0,0,1024,1024,1684,1024,0,0,100,0,0,0,0,90,3.992,3.976,0,0,0,0,1.512,66.2,720.72734786642,0.0,11,AutoTakeoff,,0.0
144100,2026-01-12 12:08:19,721.05543186642,0.328084,0.0,2.28376975812,0.292716216716,18,5,7.951,721.05543186642,0.328084,0.0,2.29195545392,0.0,0.0,0.0,15.6,2.2,0.0,0,0,1024,1024,1684,1024,0,0,100,0,0,0,0,90,3.992,3.976,0,0,0,0,1.512,66.2,721.05543186642,0.328084,11,AutoTakeoff,,0.1
144200,2026-01-12 12:08:19,721.05543186642,0.328084,0.0,2.24716542624,0.32932743836,18,5,7.951,721.05543186642,0.328084,0.0,2.29195545392,0.0,0.0,0.0,17.0,2.1,0.0,0,0,1024,1024,1684,1024,0,0,100,0,0,0,0,90,3.992,3.976,0,0,0,0,1.512,66.2,721.05543186642,0.328084,11,AutoTakeoff,,0.1
144300,2026-01-12 12:08:19,721.05543186642,0.328084,0.0,2.24787736852,0.33951116572,18,5,7.951,721.05543186642,0.328084,0.0,2.29195545392,0.0,0.0,0.0,18.0,0.5,-0.2,0,0,1024,1024,1684,1024,0,0,100,0,0,0,0,90,3.992,3.976,0,0,0,0,1.512,66.2,721.05543186642,0.328084,11,AutoTakeoff,,0.1
144400,2026-01-12 12:08:19,721.05543186642,0.328084,0.0,2.26399941628,0.36042980156,18,5,7.951,721.05543186642,0.328084,0.0,2.29195545392,0.0,0.0,-0.223694,18.7,-1.2,-1.5,0,0,1024,1024,1684,1024,0,0,100,0,0,0,0,90,3.992,3.976,0,0,0,0,1.512,66.2,721.05543186642,0.328084,11,AutoTakeoff,,0.1
144500,2026-01-12 12:08:19,721.05543186642,0.328084,0.0,2.30101385316,0.40437337252,18,5,7.951,721.05543186642,0.328084,0.0,2.30101385316,0.223694,0.0,-0.447388,19.2,-0.1,-0.1,0,0,1024,1024,1684,1024,0,0,100,0,0,0,0,90,3.992,3.976,0,0,0,0,1.512,66.2,721.05543186642,0.328084,11,AutoTakeoff,,0.1
144600,2026-01-12 12:08:20,721.05543186642,0.656168,0.3131716,2.33975073104,0.46290683896,18,5,7.951,721.05543186642,0.328084,0.3131716,2.33975073104,0.223694,0.223694,-0.894776,19.0,1.9,0.0,0,0,1024,1024,1684,1024,0,0,100,0,0,0,0,90,3.992,3.976,0,0,0,0,1.512,66.2,721.05543186642,0.328084,11,AutoTakeoff,,0.1
144700,2026-01-12 12:08:20,721.38351586642,0.656168,0.3131716,2.39660768824,0.5476050044,18,5,7.951,721.38351586642,0.656168,0.3131716,2.39660768824,0.223694,0.223694,-1.342164,18.6,2.9,-0.9,0,0,1024,1024,1684,1024,0,0,100,0,0,0,0,90,3.992,3.976,0,0,0,0,1.512,66.2,721.38351586642,0.656168,11,AutoTakeoff,,0.2
144800,2026-01-12 12:08:20,721.38351586642,0.656168,0.4921268,2.47120086648,0.64903873468,18,5,7.951,721.38351586642,0.656168,0.4921268,2.47120086648,0.447388,0.223694,-1.789552,18.6,4.0,-1.5,0,0,1024,1024,1684,1024,0,0,100,0,0,0,0,90,3.992,3.976,0,0,0,0,1.512,66.2,721.38351586642,0.656168,11,AutoTakeoff,,0.2
144900,2026-01-12 12:08:20,722.03968386642,0.984252,0.4921268,2.55887147296,0.7492454308,18,5,7.721,722.03968386642,1.312336,0.4921268,2.55887147296,0.447388,0.223694,-2.23694,18.7,5.6,-1.1,0,0,1024,1024,1684,1024,0,0,100,0,0,0,0,90,3.866,3.855,0,0,0,0,5.126,66.38,722.03968386642,1.312336,11,AutoTakeoff,,0.4
145000,2026-01-12 12:08:20,722.36776786642,1.312336,0.4921268,2.66759194888,0.87631564484,18,5,7.721,722.36776786642,1.64042,0.4921268,2.66759194888,0.447388,0.223694,-2.908022,18.8,5.9,-1.4,0,0,1024,1024,1684,1024,0,0,100,0,0,0,0,90,3.866,3.855,0,0,0,0,5.126,66.38,722.36776786642,1.64042,11,AutoTakeoff,Home Point updated. RTH altitude adjusted to 90 m (Code: 120852),0.5
145100,2026-01-12 12:08:20,722.69585186642,1.968504,0.4921268,2.765666099,0.98394360104,18,5,7.721,722.69585186642,1.968504,0.4921268,2.765666099,0.223694,0.223694,-3.35541,18.8,6.1,-1.7,0,0,1024,1024,1684,1024,0,0,100,0,0,0,0,90,3.866,3.855,0,0,0,0,5.126,66.38,722.69585186642,1.968504,11,AutoTakeoff,,0.6
145200,2026-01-12 12:08:20,723.35201986642,2.296588,0.223694,2.85941938284,1.08471788248,18,5,7.721,723.35201986642,2.624672,0.4921268,2.85941938284,0.223694,0.0,-3.802798,18.7,6.4,-1.5,0,0,1024,1024,1684,1024,0,0,100,0,0,0,0,90,3.866,3.855,0,0,0,0,5.126,66.38,723.35201986642,2.624672,11,AutoTakeoff,,0.8
145300,2026-01-12 12:08:20,724.00818786642,2.952756,0.223694,2.91230980448,1.16285764876,18,5,7.721,724.00818786642,3.28084,0.4921268,2.91230980448,0.223694,0.0,-4.250186,18.8,4.9,-1.2,0,0,1024,1024,1684,1024,0,0,100,0,0,0,0,90,3.866,3.855,0,0,0,0,5.126,66.38,724.00818786642,3.28084,6,P-GPS,,1.0
145400,2026-01-12 12:08:20,724.66435586642,3.608924,0.223694,3.00181440052,1.32097773256,18,5,7.721,724.66435586642,3.937008,0.4921268,3.00181440052,0.223694,0.0,-4.47388,18.9,4.2,-0.4,0,0,1024,1024,1684,1024,0,0,100,0,0,0,0,90,3.866,3.855,0,0,0,0,5.126,66.38,724.66435586642,3.937008,6,P-GPS,,1.2
145500,2026-01-12 12:08:20,725.32052386642,4.265092,0.223694,3.04443579296,1.37643049024,18,5,7.721,725.32052386642,4.593176,0.4921268,3.04443579296,0.223694,0.0,-4.697574,18.8,6.3,-0.6,0,0,1024,1024,1684,1024,0,0,100,0,0,0,0,90,3.866,3.855,0,0,0,0,5.126,66.38,725.32052386642,4.593176,6,P-GPS,,1.4
145600,2026-01-12 12:08:20,725.97669186642,4.92126,0.447388,3.09262149004,1.43619099084,18,5,7.721,725.97669186642,5.249344,0.4921268,3.09262149004,0.447388,0.0,-4.697574,18.6,8.5,-1.7,0,0,1024,1024,1684,1024,0,0,100,0,0,0,0,90,3.866,3.855,0,0,0,0,5.126,66.38,725.97669186642,5.249344,6,P-GPS,,1.6
145700,2026-01-12 12:08:21,726.96094386642,5.577428,0.223694,3.12216873508,1.470390467,18,5,7.721,726.96094386642,6.233596,0.4921268,3.12216873508,0.223694,0.0,-4.47388,18.7,8.5,-0.7,0,0,1024,1024,1684,1024,0,0,100,0,0,0,0,90,3.866,3.855,0,0,0,0,5.126,66.38,726.96094386642,6.233596,6,P-GPS,,1.9
145800,2026-01-12 12:08:21,727.61711186642,6.56168,0.223694,3.13802175396,1.49458010032,18,5,7.721,727.61711186642,6.889764,0.4921268,3.13802175396,0.223694,0.0,-4.250186,18.9,7.6,-0.9,0,0,1024,1024,1684,1024,0,0,100,0,0,0,0,90,3.866,3.855,0,0,0,0,5.126,66.38,727.61711186642,6.889764,6,P-GPS,,2.1
145900,2026-01-12 12:08:21,728.27327986642,7.217848,0.0,3.0697835628,1.56750661184,18,5,7.721,728.27327986642,7.545932,0.4921268,3.13802175396,0.0,0.0,-4.250186,18.6,8.8,-1.8,0,0,1024,1024,1684,1024,0,0,100,0,0,0,0,90,3.866,3.855,0,0,0,0,5.126,66.38,728.27327986642,7.545932,6,P-GPS,,2.3
146000,2026-01-12 12:08:21,728.92944786642,7.874016,0.223694,3.05209655436,1.585547951,18,5,7.721,728.92944786642,8.2021,0.4921268,3.13802175396,0.0,0.223694,-4.026492,18.4,8.4,-3.1,0,0,1024,1024,1684,1024,0,0,100,0,0,0,0,90,3.866,3.855,0,0,0,0,5.126,66.38,728.92944786642,8.2021,6,P-GPS,,2.5
146100,2026-01-12 12:08:21,729.58561586642,8.530184,0.0,3.02424878444,1.64388784788,18,5,7.726,729.58561586642,8.858268,0.4921268,3.13802175396,0.0,0.0,-4.250186,18.2,7.1,-2.6,0,0,1024,1024,1684,1024,0,0,100,0,0,0,0,90,3.857,3.845,0,0,0,0,6.345,66.38,729.58561586642,8.858268,6,P-GPS,,2.7
146200,2026-01-12 12:08:21,730.24178386642,9.186352,0.0,2.97528880912,1.71670281084,18,5,7.726,730.24178386642,9.514436,0.4921268,3.13802175396,0.0,0.0,-4.250186,18.4,5.4,-3.1,0,0,1024,1024,1684,1024,0,0,100,0,0,0,0,90,3.857,3.845,0,0,0,0,6.345,66.38,730.24178386642,9.514436,6,P-GPS,,2.9
146300,2026-01-12 12:08:21,730.89795186642,9.514436,0.0,2.97616807424,1.926099143,18,5,7.726,730.89795186642,10.170604,0.4921268,3.13802175396,0.0,0.0,-4.250186,18.6,4.9,-3.8,0,0,1024,1024,1684,1024,0,0,100,0,0,0,0,90,3.857,3.845,0,0,0,0,6.345,66.38,730.89795186642,10.170604,6,P-GPS,,3.1
146400,2026-01-12 12:08:21,731.22603586642,10.170604,0.223694,2.92642397816,1.9971457332,17,5,7.726,731.22603586642,10.498688,0.4921268,3.13802175396,-0.223694,0.0,-4.250186,18.6,4.5,-3.4,0,0,1024,1024,1684,1024,0,0,100,0,0,0,0,90,3.857,3.845,0,0,0,0,6.345,66.38,731.22603586642,10.498688,6,P-GPS,,3.2
146500,2026-01-12 12:08:21,731.88220386642,10.498688,0.0,2.880905604,2.04275597088,17,5,7.726,731.88220386642,11.154856,0.4921268,3.13802175396,0.0,0.0,-4.250186,18.7,3.9,-2.8,0,0,1024,1024,1684,1024,0,0,100,0,0,0,0,90,3.857,3.845,0,0,0,0,6.345,66.38,731.88220386642,11.154856,6,P-GPS,,3.4
146600,2026-01-12 12:08:22,732.53837186642,10.826772,0.3131716,2.83500337156,2.09260833468,17,5,7.726,732.53837186642,11.811024,0.4921268,3.13802175396,-0.223694,-0.223694,-4.250186,18.7,3.9,-2.2,0,0,1024,1024,1684,1024,0,0,100,0,0,0,0,90,3.857,3.845,0,0,0,0,6.345,66.38,732.53837186642,11.811024,6,P-GPS,,3.6
146700,2026-01-12 12:08:22,733.19453986642,11.48294,0.223694,2.66146005892,2.28340558488,17,5,7.726,733.19453986642,12.467192,0.4921268,3.13802175396,0.0,-0.223694,-4.47388,18.7,3.5,-2.2,0,0,1024,1024,1684,1024,0,0,100,0,0,0,0,90,3.857,3.845,0,0,0,0,6.345,66.38,733.19453986642,12.467192,6,P-GPS,,3.8
146800,2026-01-12 12:08:22,733.85070786642,11.811024,0.223694,2.55330388748,2.39769692712,17,5,7.726,733.85070786642,13.12336,0.4921268,3.13802175396,0.0,-0.223694,-4.47388,18.6,3.3,-1.9,0,0,1024,1024,1684,1024,0,0,100,0,0,0,0,90,3.857,3.845,0,0,0,0,6.345,66.38,733.85070786642,13.12336,6,P-GPS,,4.0
146900,2026-01-12 12:08:22,734.50687586642,12.467192,0.223694,2.4951116284,2.46123367456,17,5,7.726,734.50687586642,13.779528,0.4921268,3.13802175396,0.0,-0.223694,-4.47388,18.6,3.3,-0.6,0,0,1024,1024,1684,1024,0,0,100,0,0,0,0,90,3.857,3.845,0,0,0,0,6.345,66.38,734.50687586642,13.779528,6,P-GPS,,4.2
147000,2026-01-12 12:08:22,735.16304386642,13.12336,0.223694,2.44084325396,2.51995742972,17,5,7.726,735.16304386642,14.435696,0.4921268,3.13802175396,0.0,-0.223694,-4.47388,18.8,3.0,0.0,0,0,1024,1024,1684,1024,0,0,100,0,0,0,0,90,3.857,3.845,0,0,0,0,6.345,66.38,735.16304386642,14.435696,6,P-GPS,,4.4
147100,2026-01-12 12:08:22,735.81921186642,13.451444,0.223694,2.46926845172,2.64341871976,17,5,7.726,735.81921186642,15.091864,0.4921268,3.13802175396,0.0,-0.223694,-4.47388,18.8,2.8,-0.2,0,0,1024,1024,1684,1024,0,0,100,0,0,0,0,90,3.857,3.845,0,0,0,0,6.345,66.38,735.81921186642,15.091864,6,P-GPS,,4.6
147200,2026-01-12 12:08:22,736.47537986642,14.107612,0.0,2.45237540656,2.703740244,18,5,7.694,736.47537986642,15.748032,0.4921268,3.13802175396,0.0,0.0,-4.47388,18.8,3.5,-0.5,0,0,1024,1024,1684,1024,0,0,100,0,0,0,0,90,3.847,3.846,0,0,0,0,6.324,66.38,736.47537986642,15.748032,6,P-GPS,,4.8
147300,2026-01-12 12:08:22,737.13154786642,14.76378,0.0,2.4572179264,2.76973762144,18,5,7.694,737.13154786642,16.4042,0.4921268,3.13802175396,0.0,0.0,-4.250186,18.8,3.9,-0.6,0,0,1024,1024,1684,1024,0,0,100,0,0,0,0,90,3.847,3.846,0,0,0,0,6.324,66.38,737.13154786642,16.4042,6,P-GPS,,5.0
147400,2026-01-12 12:08:22,737.78771586642,15.419948,0.0,2.4697179268,2.8301674134,18,5,7.694,737.78771586642,17.060368,0.4921268,3.13802175396,0.0,0.0,-4.250186,18.7,4.4,-1.2,0,0,1024,1024,1684,1024,0,0,100,0,0,0,0,90,3.847,3.846,0,0,0,0,6.324,66.38,737.78771586642,17.060368,6,P-GPS,,5.2
147500,2026-01-12 12:08:22,738.44388386642,16.076116,0.0,2.49447842628,2.90372712704,18,5,7.694,738.44388386642,17.716536,0.4921268,3.13802175396,0.0,0.0,-4.250186,18.5,4.5,-1.5,0,0,1024,1024,1684,1024,0,0,100,0,0,0,0,90,3.847,3.846,0,0,0,0,6.324,66.38,738.44388386642,17.716536,6,P-GPS,,5.4
147600,2026-01-12 12:08:23,739.10005186642,16.732284,0.0,2.64511819488,3.17116479964,18,5,7.694,739.10005186642,18.372704,0.4921268,3.13802175396,0.0,0.0,-4.47388,18.2,4.6,-1.6,0,0,1024,1024,1684,1024,0,0,100,0,0,0,0,90,3.847,3.846,0,0,0,0,6.324,66.38,739.10005186642,18.372704,6,P-GPS,,5.6
147700,2026-01-12 12:08:23,739.75621986642,17.388452,0.0,2.73332357828,3.2869423624,18,5,7.694,739.75621986642,19.028872,0.4921268,3.13802175396,0.0,0.0,-4.47388,18.2,5.0,-1.4,0,0,1024,1024,1684,1024,0,0,100,0,0,0,0,90,3.847,3.846,0,0,0,0,6.324,66.38,739.75621986642,19.028872,6,P-GPS,,5.8
147800,2026-01-12 12:08:23,740.41238786642,18.04462,0.0,2.8345801432,3.415190398,18,5,7.694,740.41238786642,19.68504,0.4921268,3.13802175396,0.0,0.0,-4.47388,18.3,5.5,-1.5,0,0,1024,1024,1684,1024,0,0,100,0,0,0,0,90,3.847,3.846,0,0,0,0,6.324,66.38,740.41238786642,19.68504,6,P-GPS,,6.0
147900,2026-01-12 12:08:23,741.06855586642,18.700788,0.0,2.86696859568,3.4646982736,18,5,7.694,741.06855586642,20.341208,0.4921268,3.13802175396,0.0,0.0,-4.47388,18.4,5.5,-0.7,0,0,1024,1024,1684,1024,0,0,100,0,0,0,0,90,3.847,3.846,0,0,0,0,6.324,66.38,741.06855586642,20.341208,6,P-GPS,,6.2
148000,2026-01-12 12:08:23,741.39663986642,19.68504,0.0,2.9414042936,3.5486877776,18,5,7.694,741.39663986642,20.669292,0.4921268,3.13802175396,0.0,0.0,-4.250186,18.3,5.0,-0.6,0,0,1024,1024,1684,1024,0,0,100,0,0,0,0,90,3.847,3.846,0,0,0,0,6.324,66.38,741.39663986642,20.669292,6,P-GPS,,6.3
148100,2026-01-12 12:08:23,742.05280786642,20.341208,0.0,2.99236558132,3.6154528716,18,5,7.694,742.05280786642,21.32546,0.4921268,3.13802175396,0.0,0.0,-4.250186,18.3,4.7,-0.4,0,0,1024,1024,1684,1024,0,0,100,0,0,0,0,90,3.847,3.846,0,0,0,0,6.324,66.38,742.05280786642,21.32546,6,P-GPS,,6.5
148200,2026-01-12 12:08:23,742.70897586642,21.32546,0.0,3.05118448084,3.691273084,18,5,7.694,742.70897586642,21.981628,0.4921268,3.13802175396,0.0,0.0,-4.250186,18.3,5.3,0.2,0,0,1024,1024,1684,1024,0,0,100,0,0,0,0,90,3.847,3.846,0,0,0,0,6.324,66.38,742.70897586642,21.981628,6,P-GPS,,6.7
148300,2026-01-12 12:08:23,743.36514386642,21.981628,0.0,3.03802175076,3.7217520876,18,5,7.708,743.36514386642,22.637796,0.4921268,3.13802175396,0.0,0.0,-4.47388,18.5,4.6,0.4,0,0,1024,1024,1684,1024,0,0,100,0,0,0,0,90,3.858,3.856,0,0,0,0,6.055,66.38,743.36514386642,22.637796,6,P-GPS,,6.9
148400,2026-01-12 12:08:23,744.02131186642,22.96588,0.0,2.941191039,3.820702222,18,5,7.708,744.02131186642,23.293964,0.4921268,3.13802175396,0.0,0.0,-4.250186,18.5,4.3,0.3,0,0,1024,1024,1684,1024,0,0,100,0,0,0,0,90,3.858,3.856,0,0,0,0,6.055,66.38,744.02131186642,23.293964,6,P-GPS,,7.1
148500,2026-01-12 12:08:23,744.67747986642,23.622048,0.0,2.86813657472,3.9017717784,18,5,7.708,744.67747986642,23.950132,0.4921268,3.13802175396,0.0,0.0,-4.250186,18.5,3.6,0.2,0,0,1024,1024,1684,1024,0,0,100,0,0,0,0,90,3.858,3.856,0,0,0,0,6.055,66.38,744.67747986642,23.950132,6,P-GPS,,7.3
148600,2026-01-12 12:08:23,745.33364786642,24.6063,0.0,2.78542659832,3.9923557708,18,5,7.708,745.33364786642,24.6063,0.4921268,3.13802175396,0.0,0.0,-4.250186,18.5,3.3,-0.1,0,0,1024,1024,1684,1024,0,0,100,0,0,0,0,90,3.858,3.856,0,0,0,0,6.055,66.38,745.33364786642,24.6063,6,P-GPS,,7.5
148700,2026-01-12 12:08:24,745.98981586642,25.590552,0.0,2.69629601804,4.0820867448,18,5,7.708,745.98981586642,25.262468,0.4921268,3.13802175396,0.0,0.0,-4.250186,18.7,2.9,-0.3,0,0,1024,1024,1684,1024,0,0,100,0,0,0,0,90,3.858,3.856,0,0,0,0,6.055,66.38,745.98981586642,25.262468,6,P-GPS,,7.7
148800,2026-01-12 12:08:24,746.64598386642,26.24672,0.0,2.4003609692,4.3796261244,18,5,7.708,746.64598386642,25.918636,0.4921268,3.13802175396,0.0,0.0,-4.250186,18.7,3.1,-0.5,0,0,1024,1024,1684,1024,0,0,100,0,0,0,0,90,3.858,3.856,0,0,0,0,6.055,66.38,746.64598386642,25.918636,6,P-GPS,,7.9
148900,2026-01-12 12:08:24,747.30215186642,27.230972,0.0,2.35059390724,4.4294292756,18,5,7.708,747.30215186642,26.574804,0.4921268,3.13802175396,0.0,0.0,-4.250186,18.6,3.4,-0.5,0,0,1024,1024,1684,1024,0,0,100,0,0,0,0,90,3.858,3.856,0,0,0,0,6.055,66.38,747.30215186642,26.574804,6,P-GPS,,8.1
149000,2026-01-12 12:08:24,747.95831986642,27.88714,0.0,2.30808406336,4.4721786208,18,5,7.708,747.95831986642,27.230972,0.4921268,3.13802175396,0.0,0.0,-4.250186,18.6,3.4,-1.1,0,0,1024,1024,1684,1024,0,0,100,0,0,0,0,90,3.858,3.856,0,0,0,0,6.055,66.38,747.95831986642,27.230972,6,P-GPS,,8.3
149100,2026-01-12 12:08:24,748.61448786642,28.215224,0.0,2.26895676552,4.5120736352,18,5,7.708,748.61448786642,27.88714,0.4921268,3.13802175396,0.0,0.0,-4.250186,18.7,3.7,-1.2,0,0,1024,1024,1684,1024,0,0,100,0,0,0,0,90,3.858,3.856,0,0,0,0,6.055,66.38,748.61448786642,27.88714,6,P-GPS,,8.5
149200,2026-01-12 12:08:24,749.27065586642,28.543308,0.0,2.23099744672,4.5507547388,18,5,7.708,749.27065586642,28.543308,0.4921268,3.13802175396,0.0,0.0,-4.250186,18.8,4.3,-1.0,0,0,1024,1024,1684,1024,0,0,100,0,0,0,0,90,3.858,3.856,0,0,0,0,6.055,66.38,749.27065586642,28.543308,6,P-GPS,,8.7
149300,2026-01-12 12:08:24,749.92682386642,32.152232,0.0,2.23057421836,4.6093505412,18,5,7.708,749.92682386642,29.199476,0.4921268,3.13802175396,0.0,0.0,-4.250186,18.9,3.9,-1.0,0,0,1024,1024,1684,1024,0,0,100,0,0,0,0,90,3.858,3.856,0,0,0,0,6.055,66.38,749.92682386642,29.199476,6,P-GPS,,8.9
149400,2026-01-12 12:08:24,750.58299186642,32.8084,0.0,2.21407815484,4.6299870248,18,5,7.694,750.58299186642,29.855644,0.4921268,3.13802175396,0.0,0.0,-4.47388,19.0,4.0,-1.2,0,0,1024,1024,1684,1024,0,0,100,0,0,0,0,90,3.848,3.846,0,0,0,0,5.919,66.38,750.58299186642,29.855644,6,P-GPS,,9.1
149500,2026-01-12 12:08:24,751.23915986642,33.136484,0.0,2.19735243252,4.6486878128,18,5,7.694,751.23915986642,30.511812,0.4921268,3.13802175396,0.0,0.0,-4.47388,19.0,3.8,-1.2,0,0,1024,1024,1684,1024,0,0,100,0,0,0,0,90,3.848,3.846,0,0,0,0,5.919,66.38,751.23915986642,30.511812,6,P-GPS,,9.3
149600,2026-01-12 12:08:25,751.89532786642,33.792652,0.0,2.17959980728,4.6698820392,18,5,7.694,751.89532786642,31.16798,0.4921268,3.13802175396,0.0,0.0,-4.47388,19.0,4.0,-1.6,0,0,1024,1024,1684,1024,0,0,100,0,0,0,0,90,3.848,3.846,0,0,0,0,5.919,66.38,751.89532786642,31.16798,6,P-GPS,,9.5
149700,2026-01-12 12:08:25,752.55149586642,34.44882,0.0,2.24126975676,4.7437337476,18,5,7.694,752.55149586642,31.824148,0.4921268,3.13802175396,0.0,0.0,-4.47388,19.1,3.5,-1.8,0,0,1024,1024,1684,1024,0,0,100,0,0,0,0,90,3.848,3.846,0,0,0,0,5.919,66.38,752.55149586642,31.824148,6,P-GPS,,9.7
149800,2026-01-12 12:08:25,753.20766386642,34.776904,0.0,2.2464403606,4.754265244,18,5,7.694,753.20766386642,32.480316,0.4921268,3.13802175396,0.0,0.0,-4.47388,19.1,3.5,-1.9,0,0,1024,1024,1684,1024,0,0,100,0,0,0,0,90,3.848,3.846,0,0,0,0,5.919,66.38,753.20766386642,32.480316,6,P-GPS,,9.9
149900,2026-01-12 12:08:25,753.86383186642,35.433072,0.0,2.27197185748,4.7930775812,18,5,7.694,753.86383186642,33.136484,0.4921268,3.13802175396,0.0,0.0,-4.47388,19.1,3.0,-2.2,0,0,1024,1024,1684,1024,0,0,100,0,0,0,0,90,3.848,3.846,0,0,0,0,5.919,66.38,753.86383186642,33.136484,6,P-GPS,,10.1
150000,2026-01-12 12:08:25,754.51999986642,36.08924,0.0,2.30192920752,4.8395014672,18,5,7.694,754.51999986642,33.792652,0.4921268,3.13802175396,0.0,0.0,-4.47388,19.2,3.0,-2.3,0,0,1024,1024,1024,1024,0,0,0,0,0,0,0,90,3.848,3.846,0,0,0,0,5.919,66.38,754.51999986642,33.792652,6,P-GPS,,10.3
150100,2026-01-12 12:08:25,755.17616786642,36.745408,0.0,2.39764771452,4.9366471396,18,5,7.694,755.17616786642,34.44882,0.4921268,3.13802175396,0.0,0.0,-4.250186,19.1,3.4,-2.0,0,0,1024,1024,1024,1024,0,0,0,0,0,0,0,90,3.848,3.846,0,0,0,0,5.919,66.38,755.17616786642,34.44882,6,P-GPS,,10.5
150200,2026-01-12 12:08:25,756.16041986642,37.401576,0.0,2.41170939476,4.9523295548,18,5,7.694,756.16041986642,35.433072,0.4921268,3.13802175396,0.0,0.0,-4.250186,19.2,3.1,-1.9,0,0,1024,1024,1024,1024,0,0,0,0,0,0,0,90,3.848,3.846,0,0,0,0,5.919,66.38,756.16041986642,35.433072,6,P-GPS,,10.8
150300,2026-01-12 12:08:25,756.48850386642,38.057744,0.0,2.40084325268,4.9764437288,18,5,7.694,756.48850386642,35.761156,0.4921268,3.13802175396,0.0,0.0,-3.579104,19.2,3.3,-1.6,0,0,1024,1024,1024,1024,0,0,0,0,0,0,0,90,3.848,3.846,0,0,0,0,5.919,66.38,756.48850386642,35.761156,6,P-GPS,,10.9
150400,2026-01-12 12:08:25,757.14467186642,38.713912,0.0,2.38688655932,5.0043308688,18,5,7.694,757.14467186642,36.417324,0.4921268,3.13802175396,0.0,0.0,-2.908022,19.2,3.1,-1.5,0,0,1024,1024,1024,1024,0,0,0,0,0,0,0,90,3.848,3.846,0,0,0,0,5.919,66.38,757.14467186642,36.417324,6,P-GPS,,11.1
150500,2026-01-12 12:08:25,757.47275586642,39.041996,0.0,2.26209980992,5.134022474,18,5,7.762,757.47275586642,36.745408,0.4921268,3.13802175396,0.0,0.0,-2.23694,19.3,3.1,-1.5,0,0,1024,1024,1024,1024,0,0,0,0,0,0,0,90,3.863,3.9,0,0,0,0,5.227,66.38,757.47275586642,36.745408,6,P-GPS,,11.2
150600,2026-01-12 12:08:26,757.80083986642,39.37008,0.0,2.22733274844,5.169291504,18,5,7.762,757.80083986642,37.073492,0.4921268,3.13802175396,0.0,0.0,-1.342164,19.3,2.8,-1.8,0,0,1024,1024,1024,1024,0,0,0,0,0,0,0,90,3.863,3.9,0,0,0,0,5.227,66.38,757.80083986642,37.073492,6,P-GPS,,11.3
150700,2026-01-12 12:08:26,758.12892386642,39.37008,0.0,2.20296266892,5.1956366492,18,5,7.762,758.12892386642,37.401576,0.4921268,3.13802175396,0.0,0.0,-0.671082,19.3,2.7,-2.2,0,0,1024,1024,1024,1024,0,0,0,0,0,0,0,90,3.863,3.9,0,0,0,0,5.227,66.38,758.12892386642,37.401576,6,P-GPS,,11.4
150800,2026-01-12 12:08:26,758.12892386642,39.37008,0.0,2.18194232704,5.2186025292,18,5,7.762,758.12892386642,37.401576,0.4921268,3.13802175396,0.0,0.0,-0.223694,19.3,2.8,-2.3,0,0,1024,1024,1024,1024,0,0,0,0,0,0,0,90,3.863,3.9,0,0,0,0,5.227,66.38,758.12892386642,37.401576,6,P-GPS,,11.4
150900,2026-01-12 12:08:26,758.12892386642,39.37008,0.0,2.13345807352,5.268700956,18,5,7.762,758.12892386642,37.401576,0.4921268,3.13802175396,0.0,0.0,0.0,19.4,2.8,-2.5,0,0,1024,1024,1024,1024,0,0,0,0,0,0,0,90,3.863,3.9,0,0,0,0,5.227,66.38,758.12892386642,37.401576,6,P-GPS,,11.4
151000,2026-01-12 12:08:26,758.45700786642,39.37008,0.0,1.99198497188,5.4110566036,17,5,7.762,758.45700786642,37.72966,0.4921268,3.13802175396,0.0,0.0,0.0,19.4,2.9,-2.8,0,0,1024,1024,1024,1024,0,0,0,0,0,0,0,90,3.863,3.9,0,0,0,0,5.227,66.38,758.45700786642,37.72966,6,P-GPS,,11.5
151100,2026-01-12 12:08:26,758.45700786642,39.37008,0.0,1.94739835628,5.4664699912,17,5,7.762,758.45700786642,37.72966,0.4921268,3.13802175396,0.0,0.0,0.0,19.5,3.0,-2.8,0,0,1024,1024,1024,1024,0,0,0,0,0,0,0,90,3.863,3.9,0,0,0,0,5.227,66.38,758.45700786642,37.72966,6,P-GPS,,11.5
151200,2026-01-12 12:08:26,758.45700786642,39.37008,0.0,1.90452433916,5.5217193368,16,5,7.762,758.45700786642,37.72966,0.4921268,3.13802175396,0.0,0.0,0.0,19.5,2.9,-2.8,0,0,1024,1024,1024,1024,0,0,0,0,0,0,0,90,3.863,3.9,0,0,0,0,5.227,66.38,758.45700786642,37.72966,6,P-GPS,,11.5
151300,2026-01-12 12:08:26,758.45700786642,39.37008,0.0,1.90065294796,5.5375329856,16,5,7.762,758.45700786642,37.72966,0.4921268,3.13802175396,0.0,0.0,0.0,19.5,2.9,-3.3,0,0,1024,1024,1024,1024,0,0,0,0,0,0,0,90,3.863,3.9,0,0,0,0,5.227,66.38,758.45700786642,37.72966,6,P-GPS,,11.5
151400,2026-01-12 12:08:26,758.45700786642,39.37008,0.0,1.91698168864,5.5733597584,16,5,7.762,758.45700786642,37.72966,0.4921268,3.13802175396,0.0,0.0,0.0,19.5,2.9,-3.6,0,0,1024,1024,1024,1024,0,0,0,0,0,0,0,90,3.863,3.9,0,0,0,0,5.227,66.38,758.45700786642,37.72966,6,P-GPS,,11.5
151500,2026-01-12 12:08:26,758.78509186642,39.37008,0.0,1.93312670228,5.594160284,16,5,7.762,758.78509186642,38.057744,0.4921268,3.13802175396,0.0,0.0,0.0,19.4,3.1,-3.5,0,0,1024,1024,1024,1024,0,0,0,0,0,0,0,90,3.863,3.9,0,0,0,0,5.227,66.38,758.78509186642,38.057744,6,P-GPS,,11.6
151600,2026-01-12 12:08:27,758.78509186642,39.37008,0.0,1.95243116484,5.618274458,16,5,7.753,758.78509186642,38.057744,0.4921268,3.13802175396,0.0,0.0,0.0,19.3,2.9,-3.4,0,0,1024,1024,1024,1024,0,0,0,0,0,0,0,89,3.878,3.875,0,0,0,0,4.787,66.38,758.78509186642,38.057744,6,P-GPS,,11.6
151700,2026-01-12 12:08:27,758.78509186642,39.37008,0.0,1.9722113492,5.6450789208,16,5,7.753,758.78509186642,38.057744,0.4921268,3.13802175396,0.0,0.0,0.0,19.3,2.5,-3.5,0,0,1024,1024,1024,1024,0,0,0,0,0,0,0,89,3.878,3.875,0,0,0,0,4.787,66.38,758.78509186642,38.057744,6,P-GPS,,11.6
151800,2026-01-12 12:08:27,758.78509186642,39.37008,0.0,2.06687014488,5.7443243308,16,5,7.753,758.78509186642,38.057744,0.4921268,3.13802175396,0.0,0.0,0.0,19.4,2.3,-3.3,0,0,1024,1024,1024,1024,0,0,0,0,0,0,0,89,3.878,3.875,0,0,0,0,4.787,66.38,758.78509186642,38.057744,6,P-GPS,,11.6
151900,2026-01-12 12:08:27,758.78509186642,39.37008,0.0,2.08835964688,5.7740815496,16,5,7.753,758.78509186642,38.057744,0.4921268,3.13802175396,0.0,0.0,0.0,19.4,2.4,-3.3,0,0,1024,1024,1024,1024,0,0,0,0,0,0,0,89,3.878,3.875,0,0,0,0,4.787,66.38,758.78509186642,38.057744,6,P-GPS,,11.6
152000,2026-01-12 12:08:27,758.78509186642,39.37008,0.0,2.11385833536,5.8088256452,17,5,7.753,758.78509186642,38.057744,0.4921268,3.13802175396,0.0,0.0,0.0,19.3,2.5,-3.2,0,0,1024,1024,1024,1024,0,0,0,0,0,0,0,89,3.878,3.875,0,0,0,0,4.787,66.38,758.78509186642,38.057744,6,P-GPS,,11.6
152100,2026-01-12 12:08:27,758.78509186642,39.37008,0.0,2.13449153812,5.8357285332,17,5,7.753,758.78509186642,38.057744,0.4921268,3.13802175396,0.0,0.0,0.0,19.3,1.9,-3.2,0,0,1024,1024,1024,1024,0,0,0,0,0,0,0,89,3.878,3.875,0,0,0,0,4.787,66.38,758.78509186642,38.057744,6,P-GPS,,11.6
152200,2026-01-12 12:08:27,758.78509186642,39.37008,0.0,2.15873366488,5.860072366,18,5,7.753,758.78509186642,38.057744,0.4921268,3.13802175396,0.0,0.0,0.0,19.4,2.0,-2.9,0,0,1024,1024,1024,1024,0,0,0,0,0,0,0,89,3.878,3.875,0,0,0,0,4.787,66.38,758.78509186642,38.057744,6,P-GPS,,11.6
152300,2026-01-12 12:08:27,758.78509186642,39.37008,0.0,2.18105978108,5.8908466452,18,5,7.753,758.78509186642,38.057744,0.4921268,3.13802175396,0.0,0.0,0.0,19.5,1.8,-3.3,0,0,1024,1024,1024,1024,0,0,0,0,0,0,0,89,3.878,3.875,0,0,0,0,4.787,66.38,758.78509186642,38.057744,6,P-GPS,,11.6
152400,2026-01-12 12:08:27,758.78509186642,39.37008,0.0,2.21114180304,5.9286747304,18,5,7.753,758.78509186642,38.057744,0.4921268,3.13802175396,0.0,0.0,0.0,19.5,1.9,-3.1,0,0,1024,1024,1024,1024,0,0,0,0,0,0,0,89,3.878,3.875,0,0,0,0,4.787,66.38,758.78509186642,38.057744,6,P-GPS,,11.6
152500,2026-01-12 12:08:27,758.78509186642,39.37008,0.0,2.25823826124,5.9842849684,18,5,7.753,758.78509186642,38.057744,0.4921268,3.13802175396,0.0,0.0,0.0,19.5,1.8,-2.6,0,0,1024,1024,1024,1024,0,0,0,0,0,0,0,89,3.878,3.875,0,0,0,0,4.787,66.38,758.78509186642,38.057744,6,P-GPS,,11.6
152600,2026-01-12 12:08:28,758.78509186642,39.37008,0.0,2.31637474604,6.0500986188,18,5,7.753,758.78509186642,38.057744,0.4921268,3.13802175396,0.0,0.0,0.0,19.4,2.2,-2.5,0,0,1024,1024,1024,1024,0,0,0,0,0,0,0,89,3.878,3.875,0,0,0,0,4.787,66.38,758.78509186642,38.057744,6,P-GPS,,11.6
152700,2026-01-12 12:08:28,758.78509186642,39.37008,0.0,2.31880256764,6.0881235544,18,5,7.753,758.78509186642,38.057744,0.4921268,3.13802175396,0.0,0.0,0.0,19.3,2.2,-3.1,0,0,1024,1024,1024,1024,0,0,0,0,0,0,0,89,3.878,3.875,0,0,0,0,4.787,66.38,758.78509186642,38.057744,6,P-GPS,,11.6
152800,2026-01-12 12:08:28,758.78509186642,39.37008,0.0,2.36083012804,6.1406169944,18,5,7.733,758.78509186642,38.057744,0.4921268,3.13802175396,0.0,0.0,0.0,19.3,2.4,-3.0,0,0,1024,1024,1024,1024,0,0,0,0,0,0,0,89,3.869,3.864,0,0,0,0,5.121,66.38,758.78509186642,38.057744,6,P-GPS,,11.6
152900,2026-01-12 12:08:28,758.78509186642,39.37008,0.0,2.40315624488,6.1859253948,18,5,7.733,758.78509186642,38.057744,0.4921268,3.13802175396,0.0,0.0,0.0,19.4,2.4,-2.6,0,0,1024,1024,1024,1024,0,0,0,0,0,0,0,89,3.869,3.864,0,0,0,0,5.121,66.38,758.78509186642,38.057744,6,P-GPS,,11.6
153000,2026-01-12 12:08:28,758.78509186642,39.37008,0.0,2.45283144332,6.2380907508,18,5,7.733,758.78509186642,38.057744,0.4921268,3.13802175396,0.0,0.0,0.0,19.3,2.3,-2.4,0,0,1024,1024,1024,1024,0,0,0,0,0,0,0,89,3.869,3.864,0,0,0,0,5.121,66.38,758.78509186642,38.057744,6,P-GPS,,11.6
153100,2026-01-12 12:08:28,758.78509186642,39.37008,0.0,2.48447842596,6.2737534816,18,5,7.733,758.78509186642,38.057744,0.4921268,3.13802175396,0.0,0.0,0.0,19.3,2.4,-2.5,0,0,1024,1024,1024,1024,0,0,0,0,0,0,0,89,3.869,3.864,0,0,0,0,5.121,66.38,758.78509186642,38.057744,6,P-GPS,SD card speed low. Normal use may be affected. Replace SD card (Code: 10028). Gimbal stuck. Make sure gimbal cover is removed and manually check whether gimbal can rotate freely (Code: 40002),11.6
153200,2026-01-12 12:08:28,758.78509186642,39.37008,0.0,2.55143380868,6.3434713316,18,5,7.733,758.78509186642,38.057744,0.4921268,3.13802175396,0.0,0.0,0.0,19.3,2.9,-2.1,0,0,1024,1024,1024,1024,0,0,0,0,0,0,0,89,3.869,3.864,0,0,0,0,5.121,66.38,758.78509186642,38.057744,6,P-GPS,,11.6
153300,2026-01-12 12:08:28,758.78509186642,39.37008,0.0,2.620160845,6.4200789456,18,5,7.733,758.78509186642,38.057744,0.4921268,3.13802175396,0.0,0.0,0.0,19.3,2.7,-1.3,0,0,1024,1024,1024,1024,0,0,0,0,0,0,0,89,3.869,3.864,0,0,0,0,5.121,66.38,758.78509186642,38.057744,6,P-GPS,,11.6
153400,2026-01-12 12:08:28,758.78509186642,39.37008,0.0,2.69365494184,6.5006891844,17,5,7.733,758.78509186642,38.057744,0.4921268,3.13802175396,0.0,0.0,0.0,19.3,3.4,-1.1,0,0,1024,1024,1024,1024,0,0,0,0,0,0,0,89,3.869,3.864,0,0,0,0,5.121,66.38,758.78509186642,38.057744,6,P-GPS,,11.6
153500,2026-01-12 12:08:28,758.78509186642,39.37008,0.0,2.73734916896,6.5750002104,17,5,7.733,758.78509186642,38.057744,0.4921268,3.13802175396,0.0,0.0,0.0,19.4,3.5,-1.4,0,0,1024,1024,1024,1024,0,0,0,0,0,0,0,89,3.869,3.864,0,0,0,0,5.121,66.38,758.78509186642,38.057744,6,P-GPS,,11.6
153600,2026-01-12 12:08:29,758.78509186642,39.37008,0.0,2.79428158548,6.6370737032,17,5,7.733,758.78509186642,38.057744,0.4921268,3.13802175396,0.0,0.0,0.0,19.4,3.8,-1.8,0,0,1024,1024,1024,1024,0,0,0,0,0,0,0,89,3.869,3.864,0,0,0,0,5.121,66.38,758.78509186642,38.057744,6,P-GPS,,11.6
153700,2026-01-12 12:08:29,758.78509186642,39.37008,0.0,2.85052174476,6.6959319728,17,5,7.733,758.78509186642,38.057744,0.4921268,3.13802175396,0.0,0.0,0.0,19.5,3.8,-1.6,0,0,1024,1024,1024,1024,0,0,0,0,0,0,0,89,3.869,3.864,0,0,0,0,5.121,66.38,758.78509186642,38.057744,6,P-GPS,,11.6
153800,2026-01-12 12:08:29,758.78509186642,39.37008,0.0,2.90796269148,6.7558401112,16,5,7.733,758.78509186642,38.057744,0.4921268,3.13802175396,0.0,0.0,0.0,19.4,3.6,-1.5,0,0,1024,1024,1024,1024,0,0,0,0,0,0,0,89,3.869,3.864,0,0,0,0,5.121,66.38,758.78509186642,38.057744,6,P-GPS,,11.6
153900,2026-01-12 12:08:29,758.78509186642,39.37008,0.0,2.99075140804,6.8387797464,16,5,7.753,758.78509186642,38.057744,0.4921268,3.13802175396,0.0,0.0,0.0,19.3,3.6,-1.6,0,0,1024,1024,1024,1024,0,0,0,0,0,0,0,89,3.879,3.874,0,0,0,0,5.174,66.56,758.78509186642,38.057744,6,P-GPS,,11.6
154000,2026-01-12 12:08:29,758.78509186642,39.37008,0.0,3.05304471712,6.9014765988,18,5,7.753,758.78509186642,38.057744,0.4921268,3.13802175396,0.0,0.0,0.0,19.5,3.8,-1.8,0,0,1024,1024,1024,1024,0,0,0,0,0,0,0,89,3.879,3.874,0,0,0,0,5.174,66.56,758.78509186642,38.057744,6,P-GPS,,11.6
154100,2026-01-12 12:08:29,758.78509186642,39.37008,0.0,3.11229996836,6.9607285692,18,5,7.753,758.78509186642,38.057744,0.4921268,3.13802175396,0.0,0.0,0.0,19.6,3.7,-2.3,0,0,1024,1024,1024,1024,0,0,0,0,0,0,0,89,3.879,3.874,0,0,0,0,5.174,66.56,758.78509186642,38.057744,6,P-GPS,,11.6
154200,2026-01-12 12:08:29,758.78509186642,39.37008,0.0,3.17167989152,7.0201117732,18,5,7.753,758.78509186642,38.057744,0.4921268,3.17167989152,0.0,0.0,0.0,19.6,3.8,-2.1,0,0,1024,1024,1024,1024,0,0,0,0,0,0,0,89,3.879,3.874,0,0,0,0,5.174,66.56,758.78509186642,38.057744,6,P-GPS,,11.6
154300,2026-01-12 12:08:29,758.78509186642,39.37008,0.0,3.21314314744,7.0619752916,18,5,7.753,758.78509186642,38.057744,0.4921268,3.21314314744,0.0,0.0,0.0,19.7,3.8,-2.3,0,0,1024,1024,1024,1024,0,0,0,0,0,0,0,89,3.879,3.874,0,0,0,0,5.174,66.56,758.78509186642,38.057744,6,P-GPS,,11.6
154400,2026-01-12 12:08:29,758.45700786642,39.37008,0.0,3.269028976,7.1346458976,18,5,7.753,758.78509186642,38.057744,0.4921268,3.269028976,0.0,0.0,0.0,19.6,3.8,-2.0,0,0,1024,1024,1024,1024,0,0,0,0,0,0,0,89,3.879,3.874,0,0,0,0,5.174,66.56,758.45700786642,37.72966,6,P-GPS,,11.5
154500,2026-01-12 12:08:29,758.45700786642,39.37008,0.0,3.2935696592,7.1594818564,18,5,7.753,758.78509186642,38.057744,0.4921268,3.2935696592,0.0,0.0,0.0,19.5,4.2,-2.1,0,0,1024,1024,1024,1024,0,0,0,0,0,0,0,89,3.879,3.874,0,0,0,0,5.174,66.56,758.45700786642,37.72966,6,P-GPS,,11.5
154600,2026-01-12 12:08:30,758.45700786642,39.37008,0.0,3.3172245156,7.1841865816,18,5,7.753,758.78509186642,38.057744,0.4921268,3.3172245156,0.0,0.0,0.0,19.5,4.3,-2.3,0,0,1024,1024,1024,1024,0,0,0,0,0,0,0,89,3.879,3.874,0,0,0,0,5.174,66.56,758.45700786642,37.72966,6,P-GPS,,11.5
154700,2026-01-12 12:08:30,758.45700786642,39.37008,0.0,3.3404528628,7.2075789708,18,5,7.753,758.78509186642,38.057744,0.4921268,3.3404528628,0.0,0.0,0.0,19.5,4.6,-2.1,0,0,1024,1024,1024,1024,0,0,0,0,0,0,0,89,3.879,3.874,0,0,0,0,5.174,66.56,758.45700786642,37.72966,6,P-GPS,,11.5
154800,2026-01-12 12:08:30,758.45700786642,39.37008,0.0,3.3161418384,7.2398624364,18,5,7.753,758.78509186642,38.057744,0.4921268,3.3404528628,0.0,0.0,0.0,19.5,5.1,-1.7,0,0,1024,1024,1024,1024,0,0,0,0,0,0,0,89,3.879,3.874,0,0,0,0,5.174,66.56,758.45700786642,37.72966,6,P-GPS,,11.5
154900,2026-01-12 12:08:30,758.45700786642,39.37008,0.0,3.3302822588,7.2656170304,18,5,7.753,758.78509186642,38.057744,0.4921268,3.3404528628,0.0,0.0,0.0,19.5,4.7,-1.3,0,0,1024,1024,1024,1024,0,0,0,0,0,0,0,89,3.879,3.874,0,0,0,0,5.174,66.56,758.45700786642,37.72966,6,P-GPS,,11.5
155000,2026-01-12 12:08:30,758.45700786642,39.37008,0.0,3.3404200544,7.2947180812,18,5,7.765,758.78509186642,38.057744,0.4921268,3.3404528628,0.0,0.0,0.0,19.4,5.0,-1.0,0,0,1024,1024,1024,1024,0,0,0,0,0,0,0,89,3.885,3.88,0,0,0,0,4.57,66.56,758.45700786642,37.72966,6,P-GPS,,11.5
155100,2026-01-12 12:08:30,758.45700786642,39.37008,0.0,3.3620735984,7.3258532528,18,5,7.765,758.78509186642,38.057744,0.4921268,3.3620735984,0.0,0.0,0.0,19.4,5.7,-0.6,0,0,1024,1024,1024,1024,0,0,0,0,0,0,0,89,3.885,3.88,0,0,0,0,4.57,66.56,758.45700786642,37.72966,6,P-GPS,,11.5
155200,2026-01-12 12:08:30,758.45700786642,39.37008,0.0,3.3693242548,7.351706272,18,5,7.765,758.78509186642,38.057744,0.4921268,3.3693242548,0.0,0.0,0.0,19.5,6.7,-1.0,0,0,1024,1024,1024,1024,0,0,0,0,0,0,0,89,3.885,3.88,0,0,0,0,4.57,66.56,758.45700786642,37.72966,6,P-GPS,,11.5
155300,2026-01-12 12:08:30,758.45700786642,39.37008,0.0,3.3841536516,7.3736222832,18,5,7.765,758.78509186642,38.057744,0.4921268,3.3841536516,0.0,0.0,0.0,19.7,5.7,-1.4,0,0,1024,1024,1024,1024,0,0,0,0,0,0,0,89,3.885,3.88,0,0,0,0,4.57,66.56,758.45700786642,37.72966,6,P-GPS,,11.5
155400,2026-01-12 12:08:30,758.45700786642,39.37008,0.0,3.3909777988,7.3980973496,18,5,7.765,758.78509186642,38.057744,0.4921268,3.3909777988,0.0,0.0,0.0,19.5,5.4,-1.4,0,0,1024,1024,1024,1024,0,0,0,0,0,0,0,89,3.885,3.88,0,0,0,0,4.57,66.56,758.45700786642,37.72966,6,P-GPS,,11.5
155500,2026-01-12 12:08:30,758.45700786642,39.37008,0.0,3.3809384284,7.438976616,18,5,7.765,758.78509186642,38.057744,0.4921268,3.3909777988,0.0,0.0,0.0,19.4,4.5,-1.3,0,0,1024,1024,1024,1024,0,0,0,0,0,0,0,89,3.885,3.88,0,0,0,0,4.57,66.56,758.45700786642,37.72966,6,P-GPS,,11.5
155600,2026-01-12 12:08:31,758.45700786642,39.37008,0.223694,3.3758859348,7.4736879032,18,5,7.765,758.78509186642,38.057744,0.4921268,3.3909777988,-0.223694,0.0,0.0,19.5,3.4,-1.4,0,0,1024,1024,1024,1024,0,0,0,0,0,0,0,89,3.885,3.88,0,0,0,0,4.57,66.56,758.45700786642,37.72966,6,P-GPS,,11.5
155700,2026-01-12 12:08:31,758.45700786642,39.37008,0.223694,3.3546260916,7.5240487972,18,5,7.765,758.78509186642,38.057744,0.4921268,3.3909777988,-0.223694,0.0,0.0,19.5,2.3,-1.0,0,0,1024,1024,1024,1024,0,0,0,0,0,0,0,89,3.885,3.88,0,0,0,0,4.57,66.56,758.45700786642,37.72966,6,P-GPS,,11.5
155800,2026-01-12 12:08:31,758.45700786642,39.37008,0.223694,3.3351050936,7.5751642844,18,5,7.765,758.78509186642,38.057744,0.4921268,3.3909777988,-0.223694,0.0,0.0,19.5,1.7,-0.5,0,0,1024,1024,1024,1024,0,0,0,0,0,0,0,89,3.885,3.88,0,0,0,0,4.57,66.56,758.45700786642,37.72966,6,P-GPS,,11.5
155900,2026-01-12 12:08:31,758.45700786642,39.37008,0.0,3.3200132296,7.6138125796,18,5,7.765,758.78509186642,38.057744,0.4921268,3.3909777988,0.0,0.0,0.0,19.5,2.2,-0.5,0,0,1024,1024,1024,1024,0,0,0,0,0,0,0,89,3.885,3.88,0,0,0,0,4.57,66.56,758.45700786642,37.72966,6,P-GPS,,11.5
156000,2026-01-12 12:08:31,758.45700786642,39.37008,0.0,3.3073491872,7.6460632368,18,5,7.765,758.78509186642,38.057744,0.4921268,3.3909777988,0.0,0.0,0.0,19.6,2.9,-0.6,0,0,1024,1024,1024,1024,0,0,0,0,0,0,0,89,3.885,3.88,0,0,0,0,4.57,66.56,758.45700786642,37.72966,6,P-GPS,,11.5
156100,2026-01-12 12:08:31,758.45700786642,39.37008,0.0,3.26334984196,7.6919621884,18,5,7.718,758.78509186642,38.057744,0.4921268,3.3909777988,0.0,0.0,0.0,19.5,3.2,-1.1,0,0,1024,1024,1024,1024,0,0,0,0,0,0,0,89,3.877,3.87,0,0,0,0,5.2,66.56,758.45700786642,37.72966,6,P-GPS,,11.5
156200,2026-01-12 12:08:31,758.45700786642,39.37008,0.0,3.23757884376,7.729166914,18,5,7.718,758.78509186642,38.057744,0.4921268,3.3909777988,0.0,0.0,0.0,19.4,3.5,-1.5,0,0,1024,1024,1024,1024,0,0,0,0,0,0,0,89,3.877,3.87,0,0,0,0,5.2,66.56,758.45700786642,37.72966,6,P-GPS,,11.5
156300,2026-01-12 12:08:31,758.45700786642,39.37008,0.223694,3.22174222908,7.7453742636,18,5,7.718,758.78509186642,38.057744,0.4921268,3.3909777988,-0.223694,0.0,0.0,19.3,2.9,-1.6,0,0,1024,1024,1024,1024,0,0,0,0,0,0,0,89,3.877,3.87,0,0,0,0,5.2,66.56,758.45700786642,37.72966,6,P-GPS,,11.5
156400,2026-01-12 12:08:31,758.45700786642,39.37008,0.223694,3.20278553556,7.7646656028,18,5,7.718,758.78509186642,38.057744,0.4921268,3.3909777988,-0.223694,0.0,0.0,19.3,2.4,-1.8,0,0,1024,1024,1024,1024,0,0,0,0,0,0,0,89,3.877,3.87,0,0,0,0,5.2,66.56,758.45700786642,37.72966,6,P-GPS,,11.5
156500,2026-01-12 12:08:31,758.45700786642,39.37008,0.223694,3.20200797648,7.8396327968,18,5,7.718,758.78509186642,38.057744,0.4921268,3.3909777988,-0.223694,0.0,0.0,19.1,2.1,-2.3,0,0,1024,1024,1024,1024,0,0,0,0,0,0,0,89,3.877,3.87,0,0,0,0,5.2,66.56,758.45700786642,37.72966,6,P-GPS,,11.5
156600,2026-01-12 12:08:32,758.45700786642,39.37008,0.223694,3.18215889448,7.859908388,18,5,7.718,758.78509186642,38.057744,0.4921268,3.3909777988,-0.223694,0.0,0.0,19.2,2.1,-1.8,0,0,1024,1024,1024,1024,0,0,0,0,0,0,0,89,3.877,3.87,0,0,0,0,5.2,66.56,758.45700786642,37.72966,6,P-GPS,,11.5
156700,2026-01-12 12:08:32,758.45700786642,39.37008,0.223694,3.15983277828,7.8891734808,18,5,7.718,758.78509186642,38.057744,0.4921268,3.3909777988,-0.223694,0.0,0.0,19.3,2.0,-2.0,0,0,1024,1024,1024,1024,0,0,0,0,0,0,0,89,3.877,3.87,0,0,0,0,5.2,66.56,758.45700786642,37.72966,6,P-GPS,,11.5
156800,2026-01-12 12:08:32,758.45700786642,39.37008,0.223694,3.13445876172,7.9247705948,18,5,7.718,758.78509186642,38.057744,0.4921268,3.3909777988,-0.223694,0.0,0.0,19.4,1.5,-2.5,0,0,1024,1024,1024,1024,0,0,0,0,0,0,0,89,3.877,3.87,0,0,0,0,5.2,66.56,758.45700786642,37.72966,6,P-GPS,,11.5
156900,2026-01-12 12:08:32,758.45700786642,39.37008,0.223694,3.07940626652,7.9878283396,18,5,7.718,758.78509186642,38.057744,0.4921268,3.3909777988,-0.223694,0.0,0.0,19.3,1.4,-2.6,0,0,1024,1024,1024,1024,0,0,0,0,0,0,0,89,3.877,3.87,0,0,0,0,5.2,66.56,758.45700786642,37.72966,6,P-GPS,,11.5
157000,2026-01-12 12:08:32,758.45700786642,39.37008,0.223694,3.04545941504,8.0337272912,18,5,7.718,758.78509186642,38.057744,0.4921268,3.3909777988,-0.223694,0.0,0.0,19.4,1.3,-2.4,0,0,1024,1024,1024,1024,0,0,0,0,0,0,0,89,3.877,3.87,0,0,0,0,5.2,66.56,758.45700786642,37.72966,6,P-GPS,,11.5
157100,2026-01-12 12:08:32,758.45700786642,39.37008,0.0,3.0315945852,8.059711544,18,5,7.718,758.78509186642,38.057744,0.4921268,3.3909777988,0.0,0.0,0.0,19.4,1.3,-2.3,0,0,1024,1024,1024,1024,0,0,0,0,0,0,0,89,3.877,3.87,0,0,0,0,5.2,66.56,758.45700786642,37.72966,6,P-GPS,,11.5
157200,2026-01-12 12:08:32,758.45700786642,39.37008,0.0,3.0239010154,8.083497634,18,5,7.755,758.78509186642,38.057744,0.4921268,3.3909777988,0.0,0.0,0.0,19.5,1.4,-2.2,0,0,1024,1024,1024,1024,0,0,0,0,0,0,0,89,3.879,3.876,0,0,0,0,4.889,66.56,758.45700786642,37.72966,6,P-GPS,,11.5
157300,2026-01-12 12:08:32,758.45700786642,39.37008,0.0,2.97447187996,8.1343178456,18,5,7.755,758.78509186642,38.057744,0.4921268,3.3909777988,0.0,0.0,0.0,19.5,1.6,-1.8,0,0,1024,1024,1024,1024,0,0,0,0,0,0,0,89,3.879,3.876,0,0,0,0,4.889,66.56,758.45700786642,37.72966,6,P-GPS,,11.5
157400,2026-01-12 12:08:32,758.45700786642,39.37008,0.0,2.9478675484,8.174869028,18,5,7.755,758.78509186642,38.057744,0.4921268,3.3909777988,0.0,0.0,0.0,19.5,1.5,-1.6,0,0,1024,1024,1024,1024,0,0,0,0,0,0,0,89,3.879,3.876,0,0,0,0,4.889,66.56,758.45700786642,37.72966,6,P-GPS,,11.5
157500,2026-01-12 12:08:32,758.45700786642,39.37008,0.0,2.9523951076,8.2088913388,18,5,7.755,758.78509186642,38.057744,0.4921268,3.3909777988,0.0,0.0,0.0,19.5,1.4,-1.6,0,0,1024,1024,1024,1024,0,0,0,0,0,0,0,89,3.879,3.876,0,0,0,0,4.889,66.56,758.45700786642,37.72966,6,P-GPS,,11.5
157600,2026-01-12 12:08:33,758.12892386642,39.37008,0.0,2.96312017356,8.2443900276,18,5,7.755,758.78509186642,38.057744,0.4921268,3.3909777988,0.0,0.0,0.0,19.6,1.3,-1.8,0,0,1024,1024,1024,1024,0,0,0,0,0,0,0,89,3.879,3.876,0,0,0,0,4.889,66.56,758.12892386642,37.401576,6,P-GPS,,11.4
157700,2026-01-12 12:08:33,758.12892386642,39.37008,0.0,2.95970809996,8.270341472,18,5,7.755,758.78509186642,38.057744,0.4921268,3.3909777988,0.0,0.0,0.0,19.5,1.4,-1.8,0,0,1024,1024,1024,1024,0,0,0,0,0,0,0,89,3.879,3.876,0,0,0,0,4.889,66.56,758.12892386642,37.401576,6,P-GPS,,11.4
157800,2026-01-12 12:08:33,758.12892386642,39.37008,0.0,2.96918644672,8.3045934416,18,5,7.755,758.78509186642,38.057744,0.4921268,3.3909777988,0.0,0.0,0.0,19.6,1.8,-2.2,0,0,1024,1024,1024,1024,0,0,0,0,0,0,0,89,3.879,3.876,0,0,0,0,4.889,66.56,758.12892386642,37.401576,6,P-GPS,,11.4
157900,2026-01-12 12:08:33,758.12892386642,39.37008,0.0,2.97196859904,8.3309713952,18,5,7.755,758.78509186642,38.057744,0.4921268,3.3909777988,0.0,0.0,0.0,19.6,1.3,-2.3,0,0,1024,1024,1024,1024,0,0,0,0,0,0,0,89,3.879,3.876,0,0,0,0,4.889,66.56,758.12892386642,37.401576,6,P-GPS,,11.4
158000,2026-01-12 12:08:33,758.12892386642,39.37008,0.0,2.98075468856,8.3602036796,18,5,7.755,758.78509186642,38.057744,0.4921268,3.3909777988,0.0,0.0,0.0,19.6,1.7,-1.9,0,0,1024,1024,1024,1024,0,0,0,0,0,0,0,89,3.879,3.876,0,0,0,0,4.889,66.56,758.12892386642,37.401576,6,P-GPS,,11.4
158100,2026-01-12 12:08:33,758.12892386642,39.37008,0.0,2.98733933444,8.3781498744,18,5,7.755,758.78509186642,38.057744,0.4921268,3.3909777988,0.0,0.0,0.0,19.7,2.1,-1.5,0,0,1024,1024,1024,1024,0,0,0,0,0,0,0,89,3.879,3.876,0,0,0,0,4.889,66.56,758.12892386642,37.401576,6,P-GPS,,11.4
158200,2026-01-12 12:08:33,758.12892386642,39.37008,0.0,2.98895022688,8.3798559112,18,5,7.755,758.78509186642,38.057744,0.4921268,3.3909777988,0.0,0.0,0.0,19.8,2.3,-1.5,0,0,1024,1024,1024,1024,0,0,0,0,0,0,0,89,3.879,3.876,0,0,0,0,4.889,66.56,758.12892386642,37.401576,6,P-GPS,,11.4
158300,2026-01-12 12:08:33,758.12892386642,39.37008,0.0,3.00324484676,8.394193182,18,5,7.763,758.78509186642,38.057744,0.4921268,3.3909777988,0.0,0.0,0.0,19.8,2.7,-2.0,0,0,1024,1024,1024,1024,0,0,0,0,0,0,0,89,3.883,3.881,0,0,0,0,4.558,66.56,758.12892386642,37.401576,6,P-GPS,,11.4
158400,2026-01-12 12:08:33,758.45700786642,39.37008,0.0,3.0200624326,8.4111223164,18,5,7.763,758.78509186642,38.057744,0.4921268,3.3909777988,0.0,0.0,0.0,19.7,3.0,-2.2,0,0,1024,1024,1024,1024,0,0,0,0,0,0,0,89,3.883,3.881,0,0,0,0,4.558,66.56,758.45700786642,37.72966,6,P-GPS,,11.5
158500,2026-01-12 12:08:33,758.45700786642,39.37008,0.0,3.0376805434,8.4291997448,18,5,7.763,758.78509186642,38.057744,0.4921268,3.3909777988,0.0,0.0,0.0,19.7,2.9,-2.1,0,0,1024,1024,1024,1024,0,0,0,0,0,0,0,89,3.883,3.881,0,0,0,0,4.558,66.56,758.45700786642,37.72966,6,P-GPS,,11.5
158600,2026-01-12 12:08:34,758.45700786642,39.37008,0.0,3.07292660752,8.4818244184,18,5,7.763,758.78509186642,38.057744,0.4921268,3.3909777988,0.0,0.0,0.0,19.7,3.1,-1.9,0,0,1024,1024,1024,1024,0,0,0,0,0,0,0,89,3.883,3.881,0,0,0,0,4.558,66.56,758.45700786642,37.72966,6,P-GPS,,11.5
158700,2026-01-12 12:08:34,758.45700786642,39.37008,0.0,3.0835302824,8.4927496156,18,5,7.763,758.78509186642,38.057744,0.4921268,3.3909777988,0.0,0.0,0.0,19.7,3.4,-2.0,0,0,1024,1024,1024,1024,0,0,0,0,0,0,0,89,3.883,3.881,0,0,0,0,4.558,66.56,758.45700786642,37.72966,6,P-GPS,,11.5
158800,2026-01-12 12:08:34,758.45700786642,39.37008,0.0,3.09462280244,8.5043965976,18,5,7.763,758.78509186642,38.057744,0.4921268,3.3909777988,0.0,0.0,0.0,19.7,3.9,-1.7,0,0,1024,1024,1024,1024,0,0,0,0,0,0,0,89,3.883,3.881,0,0,0,0,4.558,66.56,758.45700786642,37.72966,6,P-GPS,,11.5
158900,2026-01-12 12:08:34,758.45700786642,39.37008,0.0,3.09921597844,8.5181761256,18,5,7.763,758.78509186642,38.057744,0.4921268,3.3909777988,0.0,0.0,0.0,19.8,3.9,-1.6,0,0,1024,1024,1024,1024,0,0,0,0,0,0,0,89,3.883,3.881,0,0,0,0,4.558,66.56,758.45700786642,37.72966,6,P-GPS,,11.5
159000,2026-01-12 12:08:34,758.45700786642,39.37008,0.0,3.08088592536,8.547080326,18,5,7.763,758.78509186642,38.057744,0.4921268,3.3909777988,0.0,0.0,0.0,19.8,3.8,-1.8,0,0,1024,1024,1024,1024,0,0,0,0,0,0,0,89,3.883,3.881,0,0,0,0,4.558,66.56,758.45700786642,37.72966,6,P-GPS,,11.5
159100,2026-01-12 12:08:34,758.45700786642,39.37008,0.0,3.08221138472,8.5490816384,18,5,7.763,758.78509186642,38.057744,0.4921268,3.3909777988,0.0,0.0,0.0,19.8,3.7,-2.3,0,0,1024,1024,1024,1024,0,0,0,0,0,0,0,89,3.883,3.881,0,0,0,0,4.558,66.56,758.45700786642,37.72966,6,P-GPS,,11.5
159200,2026-01-12 12:08:34,758.45700786642,39.37008,0.0,3.08414051864,8.551017334,18,5,7.763,758.78509186642,38.057744,0.4921268,3.3909777988,0.0,0.0,0.0,19.8,4.0,-2.3,0,0,1024,1024,1024,1024,0,0,0,0,0,0,0,89,3.883,3.881,0,0,0,0,4.558,66.56,758.45700786642,37.72966,6,P-GPS,,11.5
159300,2026-01-12 12:08:34,758.45700786642,39.37008,0.0,3.07919629276,8.563484526,18,5,7.763,758.78509186642,38.057744,0.4921268,3.3909777988,0.0,0.0,0.0,19.8,3.8,-2.6,0,0,1024,1024,1024,1024,0,0,0,0,0,0,0,89,3.88,3.877,0,0,0,0,4.558,66.56,758.45700786642,37.72966,6,P-GPS,,11.5
159400,2026-01-12 12:08:34,758.45700786642,39.37008,0.0,3.07410770992,8.5811682536,18,5,7.763,758.78509186642,38.057744,0.4921268,3.3909777988,0.0,0.0,0.0,19.7,3.7,-2.6,0,0,1024,1024,1024,1024,0,0,0,0,0,0,0,89,3.88,3.877,0,0,0,0,4.558,66.56,758.45700786642,37.72966,6,P-GPS,,11.5
159500,2026-01-12 12:08:34,758.45700786642,39.37008,0.0,3.09255587324,8.6186682548,18,5,7.763,758.78509186642,38.057744,0.4921268,3.3909777988,0.0,0.0,0.0,19.7,3.7,-2.3,0,0,1024,1024,1024,1024,0,0,0,0,0,0,0,89,3.88,3.877,0,0,0,0,4.558,66.56,758.45700786642,37.72966,6,P-GPS,,11.5
159600,2026-01-12 12:08:35,758.45700786642,39.37008,0.0,3.10464576864,8.6310042132,18,5,7.763,758.78509186642,38.057744,0.4921268,3.3909777988,0.0,0.0,0.0,19.5,3.9,-2.1,0,0,1024,1024,1024,1024,0,0,0,0,0,0,0,89,3.88,3.877,0,0,0,0,4.558,66.56,758.45700786642,37.72966,6,P-GPS,,11.5
159700,2026-01-12 12:08:35,758.45700786642,39.37008,0.0,3.10001322256,8.6434385968,18,5,7.763,758.78509186642,38.057744,0.4921268,3.3909777988,0.0,0.0,0.0,19.4,4.3,-2.0,0,0,1024,1024,1024,1024,0,0,0,0,0,0,0,89,3.88,3.877,0,0,0,0,4.558,66.56,758.45700786642,37.72966,6,P-GPS,,11.5
159800,2026-01-12 12:08:35,758.45700786642,39.37008,0.0,3.09348107012,8.6608598572,18,5,7.763,758.78509186642,38.057744,0.4921268,3.3909777988,0.0,0.0,0.0,19.5,4.4,-1.6,0,0,1024,1024,1024,1024,0,0,0,0,0,0,0,89,3.88,3.877,0,0,0,0,4.558,66.56,758.45700786642,37.72966,6,P-GPS,,11.5
159900,2026-01-12 12:08:35,758.45700786642,39.37008,0.0,3.0678478672,8.686680068,18,5,7.763,758.78509186642,38.057744,0.4921268,3.3909777988,0.0,0.0,0.0,19.5,4.4,-1.6,0,0,1024,1024,1024,1024,0,0,0,0,0,0,0,89,3.88,3.877,0,0,0,0,4.558,66.56,758.45700786642,37.72966,6,P-GPS,,11.5
160000,2026-01-12 12:08:35,758.45700786642,39.37008,0.0,3.06504931068,8.7050855804,18,5,7.763,758.78509186642,38.057744,0.4921268,3.3909777988,0.0,0.0,0.0,19.4,4.0,-1.4,0,0,1024,1024,1024,1024,0,0,0,0,0,0,0,89,3.88,3.877,0,0,0,0,4.558,66.56,758.45700786642,37.72966,6,P-GPS,,11.5
160100,2026-01-12 12:08:35,758.45700786642,39.37008,0.0,3.06652568868,8.7302496232,18,5,7.763,758.78509186642,38.057744,0.4921268,3.3909777988,0.0,0.0,0.0,19.5,3.3,-1.1,0,0,1024,1024,1024,1024,0,0,0,0,0,0,0,89,3.88,3.877,0,0,0,0,4.558,66.56,758.45700786642,37.72966,6,P-GPS,,11.5
160200,2026-01-12 12:08:35,758.45700786642,39.37008,0.0,3.06614839208,8.7575134036,18,5,7.763,758.78509186642,38.057744,0.4921268,3.3909777988,0.0,0.0,0.0,19.5,2.7,-1.0,0,0,1024,1024,1024,1024,0,0,0,0,0,0,0,89,3.88,3.877,0,0,0,0,4.558,66.56,758.45700786642,37.72966,6,P-GPS,,11.5
160300,2026-01-12 12:08:35,758.45700786642,39.37008,0.0,3.11741151708,8.8087929328,18,5,7.763,758.78509186642,38.057744,0.4921268,3.3909777988,0.0,0.0,0.0,19.4,2.6,-1.5,0,0,1024,1024,1024,1024,0,0,0,0,0,0,0,89,3.88,3.877,0,0,0,0,4.558,66.56,758.45700786642,37.72966,6,P-GPS,,11.5
160400,2026-01-12 12:08:35,758.45700786642,39.37008,0.0,3.13099091384,8.8255908336,18,5,7.764,758.78509186642,38.057744,0.4921268,3.3909777988,0.0,0.0,0.0,19.6,2.1,-1.8,0,0,1024,1024,1024,1024,0,0,0,0,0,0,0,89,3.886,3.884,0,0,0,0,4.554,66.56,758.45700786642,37.72966,6,P-GPS,,11.5
160500,2026-01-12 12:08:35,758.45700786642,39.37008,0.0,3.12853684552,8.8378939836,18,5,7.764,758.78509186642,38.057744,0.4921268,3.3909777988,0.0,0.0,0.0,19.5,3.0,-2.5,0,0,1024,1024,1024,1024,0,0,0,0,0,0,0,89,3.886,3.884,0,0,0,0,4.554,66.56,758.45700786642,37.72966,6,P-GPS,,11.5
160600,2026-01-12 12:08:36,758.45700786642,39.37008,0.0,3.13660115024,8.854330992,18,5,7.764,758.78509186642,38.057744,0.4921268,3.3909777988,0.0,0.0,0.0,19.5,3.7,-1.5,0,0,1024,1024,1024,1024,0,0,0,0,0,0,0,89,3.886,3.884,0,0,0,0,4.554,66.56,758.45700786642,37.72966,6,P-GPS,,11.5
160700,2026-01-12 12:08:36,758.45700786642,39.37008,0.0,3.11272319672,8.8811026464,18,5,7.764,758.78509186642,38.057744,0.4921268,3.3909777988,0.0,0.0,0.0,19.4,4.9,-1.3,0,0,1024,1024,1024,1024,0,0,0,0,0,0,0,89,3.886,3.884,0,0,0,0,4.554,66.56,758.45700786642,37.72966,6,P-GPS,,11.5
160800,2026-01-12 12:08:36,758.12892386642,39.37008,0.0,3.12829078252,8.9054136708,18,5,7.764,758.78509186642,38.057744,0.4921268,3.3909777988,0.0,0.0,0.0,19.4,5.1,-0.9,0,0,1024,1024,1024,1024,0,0,0,0,0,0,0,89,3.886,3.884,0,0,0,0,4.554,66.56,758.12892386642,37.401576,6,P-GPS,,11.4
160900,2026-01-12 12:08:36,758.12892386642,39.37008,0.0,3.1521326468,8.9319556664,18,5,7.764,758.78509186642,38.057744,0.4921268,3.3909777988,0.0,0.0,0.0,19.5,4.7,0.0,0,0,1024,1024,1024,1024,0,0,0,0,0,0,0,89,3.886,3.884,0,0,0,0,4.554,66.56,758.12892386642,37.401576,6,P-GPS,,11.4
161000,2026-01-12 12:08:36,758.12892386642,39.37008,0.0,3.17462936668,8.9584320452,18,5,7.764,758.78509186642,38.057744,0.4921268,3.3909777988,0.0,0.0,0.0,19.5,4.9,0.3,0,0,1024,1024,1024,1024,0,0,0,0,0,0,0,89,3.886,3.884,0,0,0,0,4.554,66.56,758.12892386642,37.401576,6,P-GPS,,11.4
161100,2026-01-12 12:08:36,758.12892386642,39.37008,0.0,3.20309393452,8.9922575056,18,5,7.764,758.78509186642,38.057744,0.4921268,3.3909777988,0.0,0.0,0.0,19.3,4.7,0.2,0,0,1024,1024,1024,1024,0,0,0,0,0,0,0,89,3.886,3.884,0,0,0,0,4.554,66.56,758.12892386642,37.401576,6,P-GPS,,11.4
161200,2026-01-12 12:08:36,758.12892386642,39.37008,0.0,3.25810705964,9.0500002896,18,5,7.764,758.78509186642,38.057744,0.4921268,3.3909777988,0.0,0.0,0.0,19.3,4.2,-0.1,0,0,1024,1024,1024,1024,0,0,0,0,0,0,0,89,3.886,3.884,0,0,0,0,4.554,66.56,758.12892386642,37.401576,6,P-GPS,,11.4
161300,2026-01-12 12:08:36,758.12892386642,39.37008,0.0,3.26120745344,9.0860567212,18,5,7.764,758.78509186642,38.057744,0.4921268,3.3909777988,0.0,0.0,0.0,19.5,3.6,-0.3,0,0,1024,1024,1024,1024,0,0,0,0,0,0,0,89,3.886,3.884,0,0,0,0,4.554,66.56,758.12892386642,37.401576,6,P-GPS,,11.4
161400,2026-01-12 12:08:36,758.12892386642,39.37008,0.223694,3.25712608848,9.128609216,18,5,7.764,758.78509186642,38.057744,0.4921268,3.3909777988,-0.223694,0.0,0.0,19.6,3.1,-0.4,0,0,1024,1024,1024,1024,0,0,0,0,0,0,0,89,3.886,3.884,0,0,0,0,4.554,66.56,758.12892386642,37.401576,6,P-GPS,,11.4
161500,2026-01-12 12:08:36,758.12892386642,39.37008,0.223694,3.23267070712,9.1776905824,18,5,7.764,758.78509186642,38.057744,0.4921268,3.3909777988,-0.223694,0.0,0.0,19.7,2.9,-0.5,0,0,1024,1024,1024,1024,0,0,0,0,0,0,0,89,3.886,3.884,0,0,0,0,4.554,66.56,758.12892386642,37.401576,6,P-GPS,,11.4
161600,2026-01-12 12:08:37,758.12892386642,39.37008,0.223694,3.18708015448,9.2500987212,18,5,7.761,758.78509186642,38.057744,0.4921268,3.3909777988,-0.223694,0.0,0.0,19.6,2.3,-0.8,0,0,1024,1024,1024,1024,0,0,0,0,0,0,0,89,3.882,3.877,0,0,0,0,4.418,66.74,758.12892386642,37.401576,6,P-GPS,,11.4
161700,2026-01-12 12:08:37,758.12892386642,39.37008,0.223694,3.13888789572,9.309219458,18,5,7.761,758.78509186642,38.057744,0.4921268,3.3909777988,-0.223694,0.0,0.0,19.5,1.4,-1.3,0,0,1024,1024,1024,1024,0,0,0,0,0,0,0,89,3.882,3.877,0,0,0,0,4.418,66.74,758.12892386642,37.401576,6,P-GPS,,11.4
161800,2026-01-12 12:08:37,758.12892386642,39.37008,0.223694,3.08477043992,9.3716866516,18,5,7.761,758.78509186642,38.057744,0.4921268,3.3909777988,-0.223694,0.0,0.0,19.5,1.7,-1.6,0,0,1024,1024,1024,1024,0,0,0,0,0,0,0,89,3.882,3.877,0,0,0,0,4.418,66.74,758.12892386642,37.401576,6,P-GPS,,11.4
161900,2026-01-12 12:08:37,758.12892386642,39.37008,0.223694,3.04430127852,9.415682716,18,5,7.761,758.78509186642,38.057744,0.4921268,3.3909777988,-0.223694,0.0,0.0,19.4,1.4,-1.9,0,0,1024,1024,1024,1024,0,0,0,0,0,0,0,89,3.882,3.877,0,0,0,0,4.418,66.74,758.12892386642,37.401576,6,P-GPS,,11.4
162000,2026-01-12 12:08:37,758.12892386642,39.37008,0.223694,2.97182752292,9.491142036,18,5,7.761,758.78509186642,38.057744,0.4921268,3.3909777988,-0.223694,0.0,0.0,19.4,0.8,-3.1,0,0,1024,1024,1024,1024,0,0,0,0,0,0,0,89,3.882,3.877,0,0,0,0,4.418,66.74,758.12892386642,37.401576,6,P-GPS,,11.4
162100,2026-01-12 12:08:37,758.12892386642,39.37008,0.223694,2.94361229892,9.521161722,18,5,7.761,758.78509186642,38.057744,0.4921268,3.3909777988,-0.223694,0.0,0.0,19.4,0.1,-2.9,0,0,1024,1024,1024,1024,0,0,0,0,0,0,0,89,3.882,3.877,0,0,0,0,4.418,66.74,758.12892386642,37.401576,6,P-GPS,,11.4
162200,2026-01-12 12:08:37,758.12892386642,39.37008,0.0,2.92623368944,9.5387798328,18,5,7.761,758.78509186642,38.057744,0.4921268,3.3909777988,0.0,0.0,0.0,19.6,1.0,-2.8,0,0,1024,1024,1024,1024,0,0,0,0,0,0,0,89,3.882,3.877,0,0,0,0,4.418,66.74,758.12892386642,37.401576,6,P-GPS,,11.4
162300,2026-01-12 12:08:37,758.12892386642,39.37008,0.0,2.90814313768,9.5568900696,18,5,7.761,758.78509186642,38.057744,0.4921268,3.3909777988,0.0,0.0,0.0,19.6,1.5,-2.7,0,0,1024,1024,1024,1024,0,0,0,0,0,0,0,89,3.882,3.877,0,0,0,0,4.418,66.74,758.12892386642,37.401576,6,P-GPS,,11.4
162400,2026-01-12 12:08:37,758.12892386642,39.37008,0.0,2.88778224464,9.5819556872,18,5,7.761,758.78509186642,38.057744,0.4921268,3.3909777988,0.0,0.0,0.0,19.7,2.0,-2.7,0,0,1024,1024,1024,1024,0,0,0,0,0,0,0,89,3.882,3.877,0,0,0,0,4.418,66.74,758.12892386642,37.401576,6,P-GPS,,11.4
162500,2026-01-12 12:08:37,758.45700786642,39.37008,0.0,2.8960630848,9.6165685492,18,5,7.761,758.78509186642,38.057744,0.4921268,3.3909777988,0.0,0.0,0.0,19.8,3.2,-3.4,0,0,1024,1024,1024,1024,0,0,0,0,0,0,0,89,3.882,3.877,0,0,0,0,4.418,66.74,758.45700786642,37.72966,6,P-GPS,,11.5
162600,2026-01-12 12:08:38,758.45700786642,39.37008,0.0,2.91144038188,9.658464876,18,5,7.761,758.78509186642,38.057744,0.4921268,3.3909777988,0.0,0.0,0.0,19.9,3.4,-3.8,0,0,1024,1024,1024,1024,0,0,0,0,0,0,0,89,3.882,3.877,0,0,0,0,4.418,66.74,758.45700786642,37.72966,6,P-GPS,,11.5
162700,2026-01-12 12:08:38,758.45700786642,39.37008,0.0,2.93034458196,9.6980318064,18,5,7.77,758.78509186642,38.057744,0.4921268,3.3909777988,0.0,0.0,0.0,19.9,3.6,-3.6,0,0,1024,1024,1024,1024,0,0,0,0,0,0,0,89,3.888,3.883,0,0,0,0,4.593,66.74,758.45700786642,37.72966,6,P-GPS,,11.5
162800,2026-01-12 12:08:38,758.45700786642,39.37008,0.0,2.95547253552,9.742126296,18,5,7.77,758.78509186642,38.057744,0.4921268,3.3909777988,0.0,0.0,0.0,19.8,4.6,-3.6,0,0,1024,1024,1024,1024,0,0,0,0,0,0,0,89,3.888,3.883,0,0,0,0,4.593,66.74,758.45700786642,37.72966,6,P-GPS,,11.5
162900,2026-01-12 12:08:38,758.45700786642,39.37008,0.0,3.0074968154,9.8310042516,18,5,7.77,758.78509186642,38.057744,0.4921268,3.3909777988,0.0,0.0,0.0,19.8,5.6,-3.7,0,0,1024,1024,1024,1024,0,0,0,0,0,0,0,89,3.888,3.883,0,0,0,0,4.593,66.74,758.45700786642,37.72966,6,P-GPS,,11.5
