time(millisecond),timestamp,altitude_above_seaLevel(feet),height_sonar(feet),speed(mph),distance(feet),mileage(feet),satellites,gpslevel,voltage(v),max_altitude(feet),max_ascent(feet),max_speed(mph),max_distance(feet), xSpeed(mph), ySpeed(mph), zSpeed(mph), compass_heading(degrees), pitch(degrees), roll(degrees),isPhoto,isVideo,rc_elevator,rc_aileron,rc_throttle,rc_rudder,rc_elevator(percent),rc_aileron(percent),rc_throttle(percent),rc_rudder(percent),gimbal_heading(degrees),gimbal_pitch(degrees),gimbal_roll(degrees),battery_percent,voltageCell1,voltageCell2,voltageCell3,voltageCell4,voltageCell5,voltageCell6,current(A),battery_temperature(f),altitude(feet),ascent(feet),flycStateRaw,flycState,message,height_above_takeoff(meters)
0,2026-01-12 12:05:51,720.72734786642,0.328084,0.0,0.0,0.0,18,5,0.0,720.72734786642,0.0,0.0,0.0,0.0,0.0,0.0,352.8,1.4,0.5,0,0,1024,1024,1024,1024,0,0,0,0,0,0,0,99,4.076,4.08,0,0,0,0,0.0,62.06,720.72734786642,0.0,41,Motors_Started,SD card speed low SD card speed low. Normal use may be affected. Replace SD card (Code: 10028). Gimbal stuck. Make sure gimbal cover is removed and manually check whether gimbal can rotate freely (Code: 40002),0.0
100,2026-01-12 12:05:51,720.72734786642,0.328084,0.0,0.00180923890304,0.00180923890304,18,5,0.0,720.72734786642,0.0,0.0,0.00180923890304,0.0,0.0,0.0,352.8,1.4,0.5,0,0,1024,1024,1024,1024,0,0,0,0,0,0,0,99,4.076,4.08,0,0,0,0,0.0,62.06,720.72734786642,0.0,41,Motors_Started,Setting new Return-To-Home altitude to 90m (295 ft). Data Recorder File Index is 35. Setting new Maximum Flight Altitude to 90m (295 ft),0.0
200,2026-01-12 12:05:51,720.72734786642,0.328084,0.0,0.0065467193696,0.0080133532748,18,5,0.0,720.72734786642,0.0,0.0,0.0065467193696,0.0,0.0,0.0,352.8,1.4,0.5,0,0,1024,1024,1024,1024,0,0,0,0,0,0,0,99,4.076,4.08,0,0,0,0,0.0,62.06,720.72734786642,0.0,41,Motors_Started,,0.0
300,2026-01-12 12:05:51,720.72734786642,0.328084,0.0,0.027583498258,0.029554955014,18,5,0.0,720.72734786642,0.0,0.0,0.027583498258,0.0,0.0,0.0,352.8,1.4,0.5,0,0,1024,1024,1024,1024,0,0,0,0,0,0,0,99,4.076,4.08,0,0,0,0,0.0,62.06,720.72734786642,0.0,41,Motors_Started,,0.0
400,2026-01-12 12:05:51,720.72734786642,0.328084,0.0,0.05877952944,0.060989503264,18,5,0.0,720.72734786642,0.0,0.0,0.05877952944,0.0,0.0,0.0,352.9,1.4,0.5,0,0,1024,1024,1024,1024,0,0,0,0,0,0,0,99,4.076,4.08,0,0,0,0,0.0,62.06,720.72734786642,0.0,41,Motors_Started,,0.0
500,2026-01-12 12:05:51,720.72734786642,0.328084,0.0,0.059367784052,0.082236551188,18,5,0.0,720.72734786642,0.0,0.0,0.059367784052,0.0,0.0,0.0,352.6,1.4,0.5,0,0,1024,1024,1024,1024,0,0,0,0,0,0,0,99,4.076,4.08,0,0,0,0,0.0,62.06,720.72734786642,0.0,41,Motors_Started,,0.0
600,2026-01-12 12:05:51,720.72734786642,0.328084,0.0,0.062351708032,0.097831696044,18,5,0.0,720.72734786642,0.0,0.0,0.062351708032,0.0,0.0,0.0,352.8,1.3,0.4,0,0,1024,1024,1024,1024,0,0,0,0,0,0,0,99,4.076,4.08,0,0,0,0,0.0,62.06,720.72734786642,0.0,41,Motors_Started,,0.0
700,2026-01-12 12:05:51,720.72734786642,0.328084,0.0,0.060701773596,0.105445541432,18,5,0.0,720.72734786642,0.0,0.0,0.062351708032,0.0,0.0,0.0,352.9,1.4,0.5,0,0,1024,1024,1024,1024,0,0,0,0,0,0,0,99,4.076,4.08,0,0,0,0,0.0,62.06,720.72734786642,0.0,41,Motors_Started,,0.0
800,2026-01-12 12:05:52,720.72734786642,0.328084,0.0,0.065582023096,0.147142721244,18,5,0.0,720.72734786642,0.0,0.0,0.065582023096,0.0,0.0,0.0,352.9,1.3,0.5,0,0,1024,1024,1024,1024,0,0,0,0,0,0,0,99,4.076,4.08,0,0,0,0,0.0,62.06,720.72734786642,0.0,41,Motors_Started,,0.0
900,2026-01-12 12:05:52,720.72734786642,0.328084,0.0,0.075560697956,0.157210306868,18,5,0.0,720.72734786642,0.0,0.0,0.075560697956,0.0,0.0,0.0,352.9,1.4,0.5,0,0,1024,1024,1024,1024,0,0,0,0,0,0,0,99,4.076,4.08,0,0,0,0,0.0,62.06,720.72734786642,0.0,41,Motors_Started,,0.0
1000,2026-01-12 12:05:52,720.72734786642,0.328084,0.0,0.084904530276,0.168957026404,18,5,8.156,720.72734786642,0.0,0.0,0.084904530276,0.0,0.0,0.0,352.8,1.3,0.5,0,0,1024,1024,1024,1024,0,0,0,0,0,0,0,99,4.076,4.08,0,0,0,0,1.403,62.06,720.72734786642,0.0,41,Motors_Started,,0.0
1100,2026-01-12 12:05:52,720.72734786642,0.328084,0.0,0.095694884952,0.192186029772,18,5,8.156,720.72734786642,0.0,0.0,0.095694884952,0.0,0.0,0.0,352.8,1.3,0.5,0,0,1024,1024,1024,1024,0,0,0,0,0,0,0,99,4.076,4.08,0,0,0,0,1.403,62.06,720.72734786642,0.0,11,AutoTakeoff,,0.0
1200,2026-01-12 12:05:52,720.72734786642,0.328084,0.0,0.113914373724,0.21347933754,18,5,8.156,720.72734786642,0.0,0.0,0.113914373724,0.0,0.0,0.0,352.9,1.3,0.5,0,0,1024,1024,1024,1024,0,0,0,0,0,0,0,99,4.076,4.08,0,0,0,0,1.403,62.06,720.72734786642,0.0,11,AutoTakeoff,SD card speed low. Normal use may be affected. Replace SD card (Code: 10028),0.0
1300,2026-01-12 12:05:52,720.72734786642,0.328084,0.0,0.146831697612,0.247371727076,18,5,8.156,720.72734786642,0.0,0.0,0.146831697612,0.0,0.0,0.0,352.9,1.4,0.5,0,0,1024,1024,1024,1024,0,0,0,0,0,0,0,99,4.076,4.08,0,0,0,0,1.403,62.06,720.72734786642,0.0,11,AutoTakeoff,,0.0
1400,2026-01-12 12:05:52,720.72734786642,0.328084,0.0,0.170962275812,0.272285441784,18,5,8.156,720.72734786642,0.0,0.0,0.170962275812,0.0,0.0,0.0,352.9,1.4,0.5,0,0,1024,1024,1024,1024,0,0,0,0,0,0,0,99,4.076,4.08,0,0,0,0,1.403,62.06,720.72734786642,0.0,11,AutoTakeoff,,0.0
1500,2026-01-12 12:05:52,720.72734786642,0.328084,0.0,0.173551186656,0.277910770048,18,5,8.156,720.72734786642,0.0,0.0,0.173551186656,0.0,0.0,0.0,353.2,1.3,0.5,0,0,1024,1024,1024,1024,0,0,0,0,0,0,0,99,4.076,4.08,0,0,0,0,1.403,62.06,720.72734786642,0.0,11,AutoTakeoff,,0.0
1600,2026-01-12 12:05:52,720.72734786642,0.328084,0.0,0.1578986271,0.294797581612,18,5,8.156,720.72734786642,0.0,0.0,0.173551186656,0.0,0.0,0.0,354.2,1.3,0.5,0,0,1024,1024,1024,1024,0,0,0,0,0,0,0,99,4.076,4.08,0,0,0,0,1.403,62.06,720.72734786642,0.0,11,AutoTakeoff,,0.0
1700,2026-01-12 12:05:52,720.72734786642,0.328084,0.0,0.15910105496,0.296352371688,18,5,8.156,720.72734786642,0.0,0.0,0.173551186656,0.0,0.0,0.0,355.7,1.5,-0.2,0,0,1024,1024,1024,1024,0,0,0,0,0,0,0,99,4.076,4.08,0,0,0,0,1.403,62.06,720.72734786642,0.0,11,AutoTakeoff,,0.0
1800,2026-01-12 12:05:53,720.72734786642,0.328084,0.0,0.14944554284,0.306181440244,17,5,8.156,720.72734786642,0.0,0.0,0.173551186656,0.0,0.0,0.0,357.2,0.8,-0.2,0,0,1024,1024,1024,1024,0,0,0,0,0,0,0,99,4.076,4.08,0,0,0,0,1.403,62.06,720.72734786642,0.0,11,AutoTakeoff,,0.0
1900,2026-01-12 12:05:53,720.72734786642,0.328084,0.0,0.123040686352,0.33369095556,17,5,8.156,720.72734786642,0.0,0.0,0.173551186656,0.0,0.0,-0.447388,358.0,0.9,-0.7,0,0,1024,1024,1024,1024,0,0,0,0,0,0,0,99,4.076,4.08,0,0,0,0,1.403,62.06,720.72734786642,0.0,11,AutoTakeoff,,0.0
2000,2026-01-12 12:05:53,720.72734786642,0.328084,0.223694,0.09454232586,0.36580381748,17,5,8.156,720.72734786642,0.0,0.223694,0.173551186656,0.0,0.223694,-0.671082,357.8,1.6,-1.5,0,0,1024,1024,1024,1024,0,0,0,0,0,0,0,99,4.076,4.08,0,0,0,0,1.403,62.06,720.72734786642,0.0,11,AutoTakeoff,,0.0
2100,2026-01-12 12:05:53,721.05543186642,0.656168,0.0,0.078272968384,0.39517061632,17,5,8.156,721.05543186642,0.328084,0.223694,0.173551186656,0.0,0.0,-1.11847,357.7,1.7,-1.5,0,0,1024,1024,1024,1024,0,0,0,0,0,0,0,99,4.076,4.08,0,0,0,0,1.403,62.06,721.05543186642,0.328084,11,AutoTakeoff,,0.1
2200,2026-01-12 12:05:53,721.05543186642,0.656168,0.0,0.076619753108,0.42387796632,17,5,7.923,721.05543186642,0.328084,0.223694,0.173551186656,0.0,0.0,-1.342164,357.7,1.9,-1.3,0,0,1024,1024,1024,1024,0,0,0,0,0,0,0,99,3.915,3.91,0,0,0,0,3.59,62.06,721.05543186642,0.328084,11,AutoTakeoff,Home Point updated. RTH altitude adjusted to 90 m (Code: 120852),0.1
2300,2026-01-12 12:05:53,721.38351586642,0.984252,0.0,0.088387141936,0.46070867616,17,5,7.923,721.38351586642,0.656168,0.223694,0.173551186656,0.0,0.0,-1.565858,357.7,2.0,-1.1,0,0,1024,1024,1024,1024,0,0,0,0,0,0,0,99,3.915,3.91,0,0,0,0,3.59,62.06,721.38351586642,0.656168,11,AutoTakeoff,,0.2
2400,2026-01-12 12:05:53,721.38351586642,0.984252,0.0,0.111007877568,0.49438321792,17,5,7.923,721.38351586642,0.656168,0.223694,0.173551186656,0.0,0.0,-1.789552,357.4,2.4,-1.7,0,0,1024,1024,1044,1024,0,0,3,0,0,0,0,99,3.915,3.91,0,0,0,0,3.59,62.06,721.38351586642,0.656168,11,AutoTakeoff,,0.2
2500,2026-01-12 12:05:53,721.71159986642,1.312336,0.0,0.123118770344,0.54008859996,17,5,7.923,721.71159986642,0.984252,0.223694,0.173551186656,0.0,0.0,-2.013246,357.1,3.6,-1.0,0,0,1024,1024,1262,1024,0,0,36,0,0,0,0,99,3.915,3.91,0,0,0,0,3.59,62.06,721.71159986642,0.984252,11,AutoTakeoff,,0.3
2600,2026-01-12 12:05:53,722.03968386642,1.64042,0.0,0.13019029288,0.55011812784,16,5,7.923,722.03968386642,1.312336,0.223694,0.173551186656,0.0,0.0,-2.013246,357.5,3.1,-0.2,0,0,1024,1024,1262,1024,0,0,36,0,0,0,0,99,3.915,3.91,0,0,0,0,3.59,62.06,722.03968386642,1.312336,11,AutoTakeoff,,0.4
2700,2026-01-12 12:05:53,722.36776786642,1.968504,0.0,0.125677169376,0.56239175028,16,5,7.923,722.36776786642,1.64042,0.223694,0.173551186656,0.0,0.0,-2.013246,357.9,1.0,0.0,0,0,1024,1024,1584,1024,0,0,85,0,0,0,0,99,3.915,3.91,0,0,0,0,3.59,62.06,722.36776786642,1.64042,11,AutoTakeoff,,0.5
2800,2026-01-12 12:05:54,723.02393586642,2.296588,0.0,0.128039374176,0.59525592456,16,5,7.923,723.02393586642,2.296588,0.223694,0.173551186656,0.0,0.0,-2.23694,358.0,0.3,-0.6,0,0,1024,1024,1684,1024,0,0,100,0,0,0,0,99,3.915,3.91,0,0,0,0,3.59,62.06,723.02393586642,2.296588,11,AutoTakeoff,,0.7
2900,2026-01-12 12:05:54,723.35201986642,2.624672,0.0,0.209396988328,0.71861222772,16,5,7.923,723.35201986642,2.624672,0.223694,0.209396988328,0.0,0.0,-2.684328,358.0,0.4,-1.8,0,0,1024,1024,1684,1024,0,0,100,0,0,0,0,99,3.915,3.91,0,0,0,0,3.59,62.06,723.35201986642,2.624672,11,AutoTakeoff,,0.8
3000,2026-01-12 12:05:54,723.68010386642,2.952756,0.0,0.261290034608,0.7792323084,16,5,7.923,723.68010386642,2.952756,0.223694,0.261290034608,0.0,0.0,-2.908022,358.0,1.9,-1.9,0,0,1024,1024,1684,1024,0,0,100,0,0,0,0,99,3.915,3.91,0,0,0,0,3.59,62.06,723.68010386642,2.952756,6,P-GPS,,0.9
3100,2026-01-12 12:05:54,724.33627186642,3.608924,0.0,0.304162411308,0.83839897696,16,5,7.923,724.33627186642,3.608924,0.223694,0.304162411308,0.0,0.0,-3.579104,357.9,2.0,-1.9,0,0,1024,1024,1684,1024,0,0,100,0,0,0,0,99,3.915,3.91,0,0,0,0,3.59,62.06,724.33627186642,3.608924,6,P-GPS,,1.1
3200,2026-01-12 12:05:54,724.66435586642,3.937008,0.0,0.34218176948,0.87786092048,16,5,7.923,724.66435586642,3.937008,0.223694,0.34218176948,0.0,0.0,-3.802798,357.7,2.7,-1.4,0,0,1024,1024,1684,1024,0,0,100,0,0,0,0,99,3.915,3.91,0,0,0,0,3.59,62.06,724.66435586642,3.937008,6,P-GPS,,1.2
3300,2026-01-12 12:05:54,725.32052386642,4.593176,0.0,0.43912074896,0.98421591076,16,5,7.751,725.32052386642,4.593176,0.223694,0.43912074896,0.0,0.0,-4.026492,357.7,3.2,-1.0,0,0,1024,1024,1684,1024,0,0,100,0,0,0,0,99,3.878,3.873,0,0,0,0,6.333,62.06,725.32052386642,4.593176,6,P-GPS,,1.4
3400,2026-01-12 12:05:54,725.97669186642,5.249344,0.0,0.49450788984,1.04355974468,17,5,7.751,725.97669186642,5.249344,0.223694,0.49450788984,0.0,0.0,-4.250186,357.7,3.6,-0.7,0,0,1024,1024,1684,1024,0,0,100,0,0,0,0,99,3.878,3.873,0,0,0,0,6.333,62.06,725.97669186642,5.249344,6,P-GPS,,1.6
3500,2026-01-12 12:05:54,726.63285986642,5.905512,0.0,0.59162731552,1.141978383,17,5,7.751,726.63285986642,5.905512,0.223694,0.59162731552,0.0,0.0,-4.250186,357.8,3.4,-0.3,0,0,1024,1024,1684,1024,0,0,100,0,0,0,0,99,3.878,3.873,0,0,0,0,6.333,62.06,726.63285986642,5.905512,6,P-GPS,,1.8
3600,2026-01-12 12:05:54,727.28902786642,6.56168,0.0,0.66184057236,1.21312996008,18,5,7.751,727.28902786642,6.56168,0.223694,0.66184057236,0.0,0.0,-4.47388,358.0,2.8,0.3,0,0,1024,1024,1684,1024,0,0,100,0,0,0,0,99,3.878,3.873,0,0,0,0,6.333,62.06,727.28902786642,6.56168,6,P-GPS,,2.0
3700,2026-01-12 12:05:54,728.27327986642,7.217848,0.0,0.68387797464,1.23557418652,18,5,7.751,728.27327986642,7.545932,0.223694,0.68387797464,0.0,0.0,-4.47388,358.0,2.1,0.5,0,0,1024,1024,1684,1024,0,0,100,0,0,0,0,99,3.878,3.873,0,0,0,0,6.333,62.06,728.27327986642,7.545932,6,P-GPS,,2.3
3800,2026-01-12 12:05:55,728.92944786642,7.874016,0.0,0.77351052344,1.32774938632,18,5,7.751,728.92944786642,8.2021,0.223694,0.77351052344,0.0,0.0,-4.697574,357.8,2.5,-0.2,0,0,1024,1024,1684,1024,0,0,100,0,0,0,0,99,3.878,3.873,0,0,0,0,6.333,62.06,728.92944786642,8.2021,6,P-GPS,,2.5
3900,2026-01-12 12:05:55,729.58561586642,8.530184,0.0,0.74783138876,1.37385175,18,5,7.751,729.58561586642,8.858268,0.223694,0.77351052344,0.0,0.0,-4.697574,357.8,2.4,-1.0,0,0,1024,1024,1684,1024,0,0,100,0,0,0,0,99,3.878,3.873,0,0,0,0,6.333,62.06,729.58561586642,8.858268,6,P-GPS,,2.7
4000,2026-01-12 12:05:55,730.24178386642,9.186352,0.0,0.72960304172,1.42273298516,18,5,7.751,730.24178386642,9.514436,0.223694,0.77351052344,0.0,0.0,-4.47388,357.7,1.6,-1.5,0,0,1024,1024,1684,1024,0,0,100,0,0,0,0,99,3.878,3.873,0,0,0,0,6.333,62.06,730.24178386642,9.514436,6,P-GPS,,2.9
4100,2026-01-12 12:05:55,730.89795186642,9.84252,0.0,0.73464897364,1.47555122832,18,5,7.751,730.89795186642,10.170604,0.223694,0.77351052344,0.0,0.0,-4.47388,357.6,1.2,-2.2,0,0,1024,1024,1684,1024,0,0,100,0,0,0,0,99,3.878,3.873,0,0,0,0,6.333,62.06,730.89795186642,10.170604,6,P-GPS,,3.1
4200,2026-01-12 12:05:55,731.88220386642,10.170604,0.0,0.58256891628,1.65678154908,18,5,7.751,731.88220386642,11.154856,0.223694,0.77351052344,0.0,0.0,-4.250186,357.6,1.4,-2.7,0,0,1024,1024,1684,1024,0,0,100,0,0,0,0,99,3.878,3.873,0,0,0,0,6.333,62.06,731.88220386642,11.154856,6,P-GPS,,3.4
4300,2026-01-12 12:05:55,732.53837186642,10.826772,0.0,0.60575133172,1.7083497922,18,5,7.751,732.53837186642,11.811024,0.223694,0.77351052344,0.0,0.0,-4.250186,357.6,0.8,-1.8,0,0,1024,1024,1684,1024,0,0,100,0,0,0,0,99,3.878,3.873,0,0,0,0,6.333,62.06,732.53837186642,11.811024,6,P-GPS,,3.6
4400,2026-01-12 12:05:55,733.19453986642,11.48294,0.0,0.63732285504,1.75568903256,18,5,7.86,733.19453986642,12.467192,0.223694,0.77351052344,0.0,0.0,-4.250186,357.5,0.3,-1.2,0,0,1024,1024,1684,1024,0,0,100,0,0,0,0,99,3.918,3.912,0,0,0,0,5.451,62.06,733.19453986642,12.467192,6,P-GPS,,3.8
4500,2026-01-12 12:05:55,733.85070786642,12.139108,0.0,0.70736878904,1.827099796,18,5,7.86,733.85070786642,13.12336,0.223694,0.77351052344,0.0,0.0,-4.250186,357.5,1.4,-0.6,0,0,1024,1024,1684,1024,0,0,100,0,0,0,0,99,3.918,3.912,0,0,0,0,5.451,62.06,733.85070786642,13.12336,6,P-GPS,,4.0
4600,2026-01-12 12:05:55,734.50687586642,12.795276,0.0,0.7806594738,1.90116803984,18,5,7.86,734.50687586642,13.779528,0.223694,0.7806594738,0.0,0.0,-4.250186,357.6,3.1,-0.6,0,0,1024,1024,1684,1024,0,0,100,0,0,0,0,99,3.918,3.912,0,0,0,0,5.451,62.06,734.50687586642,13.779528,6,P-GPS,,4.2
4700,2026-01-12 12:05:55,735.16304386642,13.12336,0.0,0.88437994956,2.00935701968,18,5,7.86,735.16304386642,14.435696,0.223694,0.88437994956,0.223694,0.0,-4.250186,357.7,3.8,-0.2,0,0,1024,1024,1684,1024,0,0,100,0,0,0,0,99,3.918,3.912,0,0,0,0,5.451,62.06,735.16304386642,14.435696,6,P-GPS,,4.4
4800,2026-01-12 12:05:56,735.81921186642,13.779528,0.223694,0.95605974188,2.08243444984,18,5,7.86,735.81921186642,15.091864,0.223694,0.95605974188,0.223694,0.0,-4.250186,357.8,4.3,0.1,0,0,1024,1024,1684,1024,0,0,100,0,0,0,0,99,3.918,3.912,0,0,0,0,5.451,62.06,735.81921186642,15.091864,6,P-GPS,,4.6
4900,2026-01-12 12:05:56,736.47537986642,14.435696,0.223694,0.9349737832,2.11120741664,18,5,7.86,736.47537986642,15.748032,0.223694,0.95605974188,0.223694,0.0,-4.47388,357.7,4.9,-1.1,0,0,1024,1024,1684,1024,0,0,100,0,0,0,0,99,3.918,3.912,0,0,0,0,5.451,62.06,736.47537986642,15.748032,6,P-GPS,,4.8
5000,2026-01-12 12:05:56,737.13154786642,15.419948,0.0,0.80555120688,2.2696194952,18,5,7.86,737.13154786642,16.4042,0.223694,0.95605974188,0.0,0.0,-4.47388,357.5,5.1,-1.5,0,0,1024,1024,1684,1024,0,0,100,0,0,0,0,99,3.918,3.912,0,0,0,0,5.451,62.06,737.13154786642,16.4042,6,P-GPS,,5.0
5100,2026-01-12 12:05:56,738.11579986642,16.076116,0.0,0.8158136744,2.28133537484,18,5,7.86,738.11579986642,17.388452,0.223694,0.95605974188,0.0,0.0,-4.47388,357.6,5.1,-1.5,0,0,1024,1024,1684,1024,0,0,100,0,0,0,0,99,3.918,3.912,0,0,0,0,5.451,62.06,738.11579986642,17.388452,6,P-GPS,,5.3
5200,2026-01-12 12:05:56,738.77196786642,16.732284,0.0,0.8292159058,2.2947343254,18,5,7.86,738.77196786642,18.04462,0.223694,0.95605974188,0.0,0.0,-4.47388,357.5,5.2,-1.3,0,0,1024,1024,1684,1024,0,0,100,0,0,0,0,99,3.918,3.912,0,0,0,0,5.451,62.06,738.77196786642,18.04462,6,P-GPS,,5.5
5300,2026-01-12 12:05:56,739.42813586642,17.716536,0.0,0.85780514556,2.32333012684,18,5,7.86,739.42813586642,18.700788,0.223694,0.95605974188,0.0,0.0,-4.250186,357.5,4.7,-0.4,0,0,1024,1024,1684,1024,0,0,100,0,0,0,0,99,3.918,3.912,0,0,0,0,5.451,62.06,739.42813586642,18.700788,6,P-GPS,,5.7
5400,2026-01-12 12:05:56,740.08430386642,18.372704,0.0,0.8757874296,2.34620086248,18,5,7.86,740.08430386642,19.356956,0.223694,0.95605974188,0.0,0.0,-4.250186,357.9,4.3,0.0,0,0,1024,1024,1684,1024,0,0,100,0,0,0,0,99,3.918,3.912,0,0,0,0,5.451,62.06,740.08430386642,19.356956,6,P-GPS,,5.9
5500,2026-01-12 12:05:56,740.74047186642,19.028872,0.0,0.86345475204,2.39482947296,18,5,7.86,740.74047186642,20.013124,0.223694,0.95605974188,0.0,0.0,-4.47388,358.0,3.5,-0.5,0,0,1024,1024,1684,1024,0,0,100,0,0,0,0,99,3.905,3.895,0,0,0,0,5.451,62.06,740.74047186642,20.013124,6,P-GPS,,6.1
5600,2026-01-12 12:05:56,741.39663986642,19.68504,0.0,0.8760006842,2.4251805238,18,5,7.86,741.39663986642,20.669292,0.223694,0.95605974188,0.0,0.0,-4.47388,357.9,4.8,-1.4,0,0,1024,1024,1684,1024,0,0,100,0,0,0,0,99,3.905,3.895,0,0,0,0,5.451,62.06,741.39663986642,20.669292,6,P-GPS,,6.3
5700,2026-01-12 12:05:56,742.38089186642,20.669292,0.0,0.91347115784,2.4650919424,18,5,7.86,742.38089186642,21.653544,0.223694,0.95605974188,0.0,0.0,-4.47388,357.8,5.4,-1.6,0,0,1024,1024,1684,1024,0,0,100,0,0,0,0,99,3.905,3.895,0,0,0,0,5.451,62.06,742.38089186642,21.653544,6,P-GPS,,6.6
5800,2026-01-12 12:05:57,743.03705986642,21.32546,0.0,0.94279202492,2.49542658904,18,5,7.86,743.03705986642,22.309712,0.223694,0.95605974188,0.0,0.0,-4.47388,358.0,5.7,-1.3,0,0,1024,1024,1684,1024,0,0,100,0,0,0,0,99,3.905,3.895,0,0,0,0,5.451,62.06,743.03705986642,22.309712,6,P-GPS,,6.8
5900,2026-01-12 12:05:57,743.69322786642,22.309712,0.0,0.97172575288,2.52436687868,18,5,7.86,743.69322786642,22.96588,0.223694,0.97172575288,0.0,0.0,-4.47388,358.0,6.4,-1.1,0,0,1024,1024,1684,1024,0,0,100,0,0,0,0,99,3.905,3.895,0,0,0,0,5.451,62.06,743.69322786642,22.96588,6,P-GPS,,7.0
6000,2026-01-12 12:05:57,744.34939586642,22.96588,0.0,0.98801840432,2.54200795536,18,5,7.86,744.34939586642,23.622048,0.223694,0.98801840432,0.0,0.0,-4.250186,358.1,7.0,-0.9,0,0,1024,1024,1684,1024,0,0,100,0,0,0,0,99,3.905,3.895,0,0,0,0,5.451,62.06,744.34939586642,23.622048,6,P-GPS,,7.2
6100,2026-01-12 12:05:57,745.00556386642,23.622048,0.0,1.02466866796,2.5844653058,18,5,7.86,745.00556386642,24.278216,0.223694,1.02466866796,0.0,0.0,-4.47388,358.2,5.7,-0.8,0,0,1024,1024,1684,1024,0,0,100,0,0,0,0,99,3.905,3.895,0,0,0,0,5.451,62.06,745.00556386642,24.278216,6,P-GPS,,7.4
6200,2026-01-12 12:05:57,745.98981586642,24.278216,0.0,1.06273953532,2.62878289252,18,5,7.86,745.98981586642,25.262468,0.223694,1.06273953532,0.0,0.0,-4.47388,358.3,5.2,-1.1,0,0,1024,1024,1684,1024,0,0,100,0,0,0,0,99,3.905,3.895,0,0,0,0,5.451,62.06,745.98981586642,25.262468,6,P-GPS,,7.7
6300,2026-01-12 12:05:57,746.64598386642,27.559056,0.0,1.10308730564,2.66936360248,18,5,7.86,746.64598386642,25.918636,0.223694,1.10308730564,0.0,0.0,-4.47388,358.3,5.7,-2.0,0,0,1024,1024,1684,1024,0,0,100,0,0,0,0,99,3.905,3.895,0,0,0,0,5.451,62.06,746.64598386642,25.918636,6,P-GPS,,7.9
6400,2026-01-12 12:05:57,747.30215186642,28.543308,0.0,1.13642392088,2.70917331504,18,5,7.86,747.30215186642,26.574804,0.223694,1.13642392088,0.0,0.0,-4.250186,358.2,5.3,-2.0,0,0,1024,1024,1684,1024,0,0,100,0,0,0,0,99,3.905,3.895,0,0,0,0,5.451,62.06,747.30215186642,26.574804,6,P-GPS,,8.1
6500,2026-01-12 12:05:57,747.95831986642,29.52756,0.0,1.17430778036,2.7564305344,18,5,7.86,747.95831986642,27.230972,0.223694,1.17430778036,0.0,0.0,-4.250186,358.2,4.5,-1.5,0,0,1024,1024,1684,1024,0,0,100,0,0,0,0,99,3.905,3.895,0,0,0,0,5.451,62.06,747.95831986642,27.230972,6,P-GPS,,8.3
6600,2026-01-12 12:05:57,748.61448786642,30.183728,0.0,1.20675528796,2.79963263552,18,5,7.8,748.61448786642,27.88714,0.223694,1.20675528796,0.0,0.0,-4.47388,358.2,3.6,-0.6,0,0,1024,1024,1684,1024,0,0,100,0,0,0,0,99,3.907,3.899,0,0,0,0,5.723,62.24,748.61448786642,27.88714,6,P-GPS,,8.5
6700,2026-01-12 12:05:57,749.27065586642,30.839896,0.0,1.2408464964,2.85211951384,18,5,7.8,749.27065586642,28.543308,0.223694,1.2408464964,0.0,0.0,-4.47388,358.3,3.0,-0.4,0,0,1024,1024,1684,1024,0,0,100,0,0,0,0,99,3.907,3.899,0,0,0,0,5.723,62.24,749.27065586642,28.543308,6,P-GPS,,8.7
6800,2026-01-12 12:05:58,749.92682386642,31.496064,0.0,1.27330056568,2.89000665416,18,5,7.8,749.92682386642,29.199476,0.223694,1.27330056568,0.0,0.0,-4.47388,358.4,3.3,-1.1,0,0,1024,1024,1684,1024,0,0,100,0,0,0,0,99,3.907,3.899,0,0,0,0,5.723,62.24,749.92682386642,29.199476,6,P-GPS,,8.9
6900,2026-01-12 12:05:58,750.58299186642,32.152232,0.0,1.31162405772,2.93850731188,18,5,7.8,750.58299186642,29.855644,0.223694,1.31162405772,0.0,0.0,-4.47388,358.6,3.4,-1.2,0,0,1024,1024,1684,1024,0,0,100,0,0,0,0,99,3.907,3.899,0,0,0,0,5.723,62.24,750.58299186642,29.855644,6,P-GPS,,9.1
7000,2026-01-12 12:05:58,751.23915986642,32.8084,0.0,1.34343180152,2.9838255548,18,5,7.8,751.23915986642,30.511812,0.223694,1.34343180152,0.0,0.0,-4.47388,358.7,3.4,-2.3,0,0,1024,1024,1684,1024,0,0,100,0,0,0,0,99,3.907,3.899,0,0,0,0,5.723,62.24,751.23915986642,30.511812,6,P-GPS,,9.3
7100,2026-01-12 12:05:58,751.89532786642,33.464568,0.0,1.35777235316,3.03992463796,18,5,7.8,751.89532786642,31.16798,0.223694,1.35777235316,0.0,0.0,-4.250186,358.8,3.6,-2.5,0,0,1024,1024,1684,1024,0,0,100,0,0,0,0,98,3.907,3.899,0,0,0,0,5.723,62.24,751.89532786642,31.16798,6,P-GPS,,9.5
7200,2026-01-12 12:05:58,752.55149586642,34.120736,0.0,1.34268377,3.13862542852,18,5,7.8,752.55149586642,31.824148,0.223694,1.35777235316,0.0,0.0,-4.250186,358.8,3.4,-2.1,0,0,1024,1024,1529,1024,0,0,77,0,0,0,0,98,3.907,3.899,0,0,0,0,5.723,62.24,752.55149586642,31.824148,6,P-GPS,,9.7
7300,2026-01-12 12:05:58,753.20766386642,34.44882,0.0,1.36819886268,3.1841700494,18,5,7.8,753.20766386642,32.480316,0.223694,1.36819886268,0.0,0.0,-4.250186,359.0,3.4,-1.5,0,0,1024,1024,1024,1024,0,0,0,0,0,0,0,98,3.907,3.899,0,0,0,0,5.723,62.24,753.20766386642,32.480316,6,P-GPS,,9.9
7400,2026-01-12 12:05:58,753.86383186642,35.104988,0.0,1.40140752516,3.22538724232,18,5,7.8,753.86383186642,33.136484,0.223694,1.40140752516,0.0,0.0,-4.250186,358.9,3.2,-1.7,0,0,1024,1024,1024,1024,0,0,0,0,0,0,0,98,3.907,3.899,0,0,0,0,5.723,62.24,753.86383186642,33.136484,6,P-GPS,,10.1
7500,2026-01-12 12:05:58,754.51999986642,35.761156,0.0,1.45591540092,3.2801510236,18,5,7.8,754.51999986642,33.792652,0.223694,1.45591540092,0.0,0.0,-3.802798,358.9,3.1,-2.0,0,0,1024,1024,1024,1024,0,0,0,0,0,0,0,98,3.907,3.899,0,0,0,0,5.723,62.24,754.51999986642,33.792652,6,P-GPS,,10.3
7600,2026-01-12 12:05:58,754.84808386642,36.08924,0.0,1.55602367184,3.3889108696,18,5,7.8,754.84808386642,34.120736,0.223694,1.55602367184,0.0,0.0,-3.131716,358.8,2.6,-2.1,0,0,1024,1024,1024,1024,0,0,0,0,0,0,0,98,3.907,3.899,0,0,0,0,5.723,62.24,754.84808386642,34.120736,6,P-GPS,,10.4
7700,2026-01-12 12:05:58,755.50425186642,36.745408,0.0,1.56981960404,3.4136812116,18,5,7.9,755.50425186642,34.776904,0.223694,1.56981960404,0.0,0.0,-2.23694,358.9,2.1,-1.8,0,0,1024,1024,1024,1024,0,0,0,0,0,0,0,98,3.952,3.948,0,0,0,0,4.736,62.42,755.50425186642,34.776904,6,P-GPS,,10.6
7800,2026-01-12 12:05:58,755.50425186642,37.073492,0.0,1.58502629744,3.4411418424,18,5,7.9,755.50425186642,34.776904,0.223694,1.58502629744,0.0,0.0,-1.565858,359.0,2.0,-1.8,0,0,1024,1024,1024,1024,0,0,0,0,0,0,0,98,3.952,3.948,0,0,0,0,4.736,62.42,755.50425186642,34.776904,6,P-GPS,,10.6
7900,2026-01-12 12:05:59,755.83233586642,37.073492,0.0,1.61483600968,3.4866470932,18,5,7.9,755.83233586642,35.104988,0.223694,1.61483600968,0.0,0.0,-0.894776,359.0,2.0,-1.9,0,0,1024,1024,1024,1024,0,0,0,0,0,0,0,98,3.952,3.948,0,0,0,0,4.736,62.42,755.83233586642,35.104988,6,P-GPS,,10.7
8000,2026-01-12 12:05:59,755.83233586642,37.073492,0.0,1.6431430972,3.5383531316,18,5,7.9,755.83233586642,35.104988,0.223694,1.6431430972,0.0,0.0,-0.447388,359.0,1.9,-2.4,0,0,1024,1024,1024,1024,0,0,0,0,0,0,0,98,3.952,3.948,0,0,0,0,4.736,62.42,755.83233586642,35.104988,6,P-GPS,,10.7
8100,2026-01-12 12:05:59,755.83233586642,37.401576,0.0,1.67252958108,3.6224410608,18,5,7.9,755.83233586642,35.104988,0.223694,1.67252958108,0.0,0.0,0.0,359.1,1.6,-2.5,0,0,1024,1024,1024,1024,0,0,0,0,0,0,0,98,3.952,3.948,0,0,0,0,4.736,62.42,755.83233586642,35.104988,6,P-GPS,,10.7
8200,2026-01-12 12:05:59,755.83233586642,37.401576,0.0,1.69925858456,3.691601168,18,5,7.9,755.83233586642,35.104988,0.223694,1.69925858456,0.0,0.0,0.0,359.1,1.2,-2.3,0,0,1024,1024,1024,1024,0,0,0,0,0,0,0,98,3.952,3.948,0,0,0,0,4.736,62.42,755.83233586642,35.104988,6,P-GPS,,10.7
8300,2026-01-12 12:05:59,756.16041986642,37.401576,0.0,1.72306107876,3.7236877832,18,5,7.9,756.16041986642,35.433072,0.223694,1.72306107876,0.0,0.0,0.0,359.1,1.3,-1.6,0,0,1024,1024,1024,1024,0,0,0,0,0,0,0,98,3.952,3.948,0,0,0,0,4.736,62.42,756.16041986642,35.433072,6,P-GPS,,10.8
8400,2026-01-12 12:05:59,756.16041986642,37.401576,0.0,1.77949808844,3.78280852,18,5,7.9,756.16041986642,35.433072,0.223694,1.77949808844,0.0,0.0,0.0,359.2,1.2,-0.8,0,0,1024,1024,1024,1024,0,0,0,0,0,0,0,98,3.952,3.948,0,0,0,0,4.736,62.42,756.16041986642,35.433072,6,P-GPS,,10.8
8500,2026-01-12 12:05:59,756.16041986642,37.401576,0.0,1.79209651404,3.822342642,18,5,7.9,756.16041986642,35.433072,0.223694,1.79209651404,0.0,0.0,0.0,359.3,0.6,-0.8,0,0,1024,1024,1024,1024,0,0,0,0,0,0,0,98,3.952,3.948,0,0,0,0,4.736,62.42,756.16041986642,35.433072,6,P-GPS,,10.8
8600,2026-01-12 12:05:59,756.16041986642,37.401576,0.0,1.79010504416,3.8567586536,18,5,7.9,756.16041986642,35.433072,0.223694,1.79209651404,0.0,0.0,0.0,359.5,1.2,-0.8,0,0,1024,1024,1024,1024,0,0,0,0,0,0,0,98,3.952,3.948,0,0,0,0,4.736,62.42,756.16041986642,35.433072,6,P-GPS,,10.8
8700,2026-01-12 12:05:59,756.16041986642,37.401576,0.0,1.75750989876,3.9142389704,18,5,7.9,756.16041986642,35.433072,0.223694,1.79209651404,0.0,0.0,0.0,359.7,1.3,-1.1,0,0,1024,1024,1024,1024,0,0,0,0,0,0,0,98,3.952,3.948,0,0,0,0,4.736,62.42,756.16041986642,35.433072,6,P-GPS,,10.8
8800,2026-01-12 12:06:00,756.16041986642,37.401576,0.0,1.72300530448,3.968011938,18,5,7.9,756.16041986642,35.433072,0.223694,1.79209651404,0.0,0.0,0.0,359.7,1.4,-1.5,0,0,1024,1024,1024,1024,0,0,0,0,0,0,0,98,3.952,3.948,0,0,0,0,4.736,62.42,756.16041986642,35.433072,6,P-GPS,,10.8
8900,2026-01-12 12:06:00,756.16041986642,37.401576,0.0,1.62415687612,4.1258859588,18,5,7.9,756.16041986642,35.433072,0.223694,1.79209651404,0.0,0.0,0.0,359.6,1.3,-1.5,0,0,1024,1024,1024,1024,0,0,0,0,0,0,0,98,3.952,3.948,0,0,0,0,4.736,62.42,756.16041986642,35.433072,6,P-GPS,,10.8
9000,2026-01-12 12:06:00,756.16041986642,37.401576,0.0,1.58222117924,4.1772639132,18,5,7.832,756.16041986642,35.433072,0.223694,1.79209651404,0.0,0.0,0.0,359.4,1.7,-1.7,0,0,1024,1024,1024,1024,0,0,0,0,0,0,0,98,3.918,3.915,0,0,0,0,4.964,62.42,756.16041986642,35.433072,6,P-GPS,,10.8
9100,2026-01-12 12:06:00,756.16041986642,37.401576,0.0,1.52597117744,4.2348754636,18,5,7.832,756.16041986642,35.433072,0.223694,1.79209651404,0.0,0.0,0.0,359.4,1.8,-1.9,0,0,1024,1024,1024,1024,0,0,0,0,0,0,0,98,3.918,3.915,0,0,0,0,4.964,62.42,756.16041986642,35.433072,6,P-GPS,,10.8
9200,2026-01-12 12:06:00,756.16041986642,37.401576,0.0,1.4721621206,4.2890749404,18,5,7.832,756.16041986642,35.433072,0.223694,1.79209651404,0.0,0.0,0.0,359.5,1.8,-1.8,0,0,1024,1024,1024,1024,0,0,0,0,0,0,0,98,3.918,3.915,0,0,0,0,4.964,62.42,756.16041986642,35.433072,6,P-GPS,,10.8
9300,2026-01-12 12:06:00,756.16041986642,37.401576,0.0,1.39739833868,4.3676510584,18,5,7.832,756.16041986642,35.433072,0.223694,1.79209651404,0.0,0.0,0.0,359.4,1.3,-2.6,0,0,1024,1024,1024,1024,0,0,0,0,0,0,0,98,3.918,3.915,0,0,0,0,4.964,62.42,756.16041986642,35.433072,6,P-GPS,,10.8
9400,2026-01-12 12:06:00,756.48850386642,37.401576,0.0,1.35364833728,4.4124345244,18,5,7.832,756.48850386642,35.761156,0.223694,1.79209651404,0.0,0.0,0.0,359.5,0.7,-2.4,0,0,1024,1024,1024,1024,0,0,0,0,0,0,0,98,3.918,3.915,0,0,0,0,4.964,62.42,756.48850386642,35.761156,6,P-GPS,,10.9
9500,2026-01-12 12:06:00,756.48850386642,37.401576,0.0,1.31038718104,4.4649607728,18,5,7.832,756.48850386642,35.761156,0.223694,1.79209651404,0.0,0.0,0.0,359.7,0.6,-2.9,0,0,1024,1024,1024,1024,0,0,0,0,0,0,0,98,3.918,3.915,0,0,0,0,4.964,62.42,756.48850386642,35.761156,6,P-GPS,,10.9
9600,2026-01-12 12:06:00,756.48850386642,37.401576,0.0,1.26792326892,4.5179791472,18,5,7.832,756.48850386642,35.761156,0.223694,1.79209651404,0.0,0.0,0.0,359.6,1.4,-3.2,0,0,1024,1024,1024,1024,0,0,0,0,0,0,0,98,3.918,3.915,0,0,0,0,4.964,62.42,756.48850386642,35.761156,6,P-GPS,,10.9
9700,2026-01-12 12:06:00,756.48850386642,37.401576,0.0,1.30207681332,4.5804135324,18,5,7.832,756.48850386642,35.761156,0.223694,1.79209651404,0.0,0.0,0.0,359.5,1.6,-3.6,0,0,1024,1024,1024,1024,0,0,0,0,0,0,0,98,3.918,3.915,0,0,0,0,4.964,62.42,756.48850386642,35.761156,6,P-GPS,,10.9
9800,2026-01-12 12:06:00,756.48850386642,37.401576,0.0,1.27277235044,4.6155513288,18,5,7.832,756.48850386642,35.761156,0.223694,1.79209651404,0.0,0.0,0.0,359.6,2.0,-2.9,0,0,1024,1024,1024,1024,0,0,0,0,0,0,0,98,3.918,3.915,0,0,0,0,4.964,62.42,756.48850386642,35.761156,6,P-GPS,,10.9
9900,2026-01-12 12:06:01,756.48850386642,37.401576,0.0,1.25822838672,4.6357941116,18,5,7.832,756.48850386642,35.761156,0.223694,1.79209651404,0.0,0.0,0.0,359.3,2.1,-3.8,0,0,1024,1024,1024,1024,0,0,0,0,0,0,0,98,3.918,3.915,0,0,0,0,4.964,62.42,756.48850386642,35.761156,6,P-GPS,,10.9
10000,2026-01-12 12:06:01,756.81658786642,37.401576,0.0,1.24646657532,4.6539371568,18,5,7.832,756.81658786642,36.08924,0.223694,1.79209651404,0.0,0.0,0.0,359.1,3.1,-3.2,0,0,1024,1024,1024,1024,0,0,0,0,0,0,0,98,3.918,3.915,0,0,0,0,4.964,62.42,756.81658786642,36.08924,6,P-GPS,,11.0
10100,2026-01-12 12:06:01,756.81658786642,37.401576,0.0,1.318733638,4.7349410964,18,5,7.834,756.81658786642,36.08924,0.223694,1.79209651404,0.0,0.0,0.0,359.3,1.4,-3.4,0,0,1024,1024,1024,1024,0,0,0,0,0,0,0,98,3.919,3.915,0,0,0,0,4.959,62.42,756.81658786642,36.08924,6,P-GPS,,11.0
10200,2026-01-12 12:06:01,756.81658786642,37.401576,0.0,1.30251316504,4.7655513336,18,5,7.834,756.81658786642,36.08924,0.223694,1.79209651404,0.0,0.0,0.0,359.6,0.6,-3.2,0,0,1024,1024,1024,1024,0,0,0,0,0,0,0,98,3.919,3.915,0,0,0,0,4.959,62.42,756.81658786642,36.08924,6,P-GPS,,11.0
10300,2026-01-12 12:06:01,757.14467186642,37.401576,0.0,1.269849122,4.8133859808,18,5,7.834,757.14467186642,36.417324,0.223694,1.79209651404,0.0,0.0,0.0,359.5,1.5,-4.1,0,0,1024,1024,1024,1024,0,0,0,0,0,0,0,98,3.919,3.915,0,0,0,0,4.959,62.42,757.14467186642,36.417324,6,P-GPS,,11.1
10400,2026-01-12 12:06:01,757.14467186642,37.401576,0.0,1.23719492148,4.8605316516,18,5,7.834,757.14467186642,36.417324,0.223694,1.79209651404,0.0,0.0,0.0,359.3,1.1,-4.0,0,0,1024,1024,1024,1024,0,0,0,0,0,0,0,98,3.919,3.915,0,0,0,0,4.959,62.42,757.14467186642,36.417324,6,P-GPS,,11.1
10500,2026-01-12 12:06:01,757.14467186642,37.401576,0.0,1.20271657392,4.9053807344,18,5,7.834,757.14467186642,36.417324,0.223694,1.79209651404,0.0,0.0,0.0,359.4,1.0,-3.5,0,0,1024,1024,1024,1024,0,0,0,0,0,0,0,98,3.919,3.915,0,0,0,0,4.959,62.42,757.14467186642,36.417324,6,P-GPS,,11.1
10600,2026-01-12 12:06:01,757.14467186642,37.401576,0.0,1.16650594284,4.9702757496,18,5,7.834,757.14467186642,36.417324,0.223694,1.79209651404,0.0,0.0,0.0,359.9,0.3,-3.7,0,0,1024,1024,1024,1024,0,0,0,0,0,0,0,98,3.919,3.915,0,0,0,0,4.959,62.42,757.14467186642,36.417324,6,P-GPS,,11.1
10700,2026-01-12 12:06:01,757.14467186642,37.401576,0.223694,1.10993441872,5.043799374,18,5,7.834,757.14467186642,36.417324,0.223694,1.79209651404,0.223694,0.0,0.0,0.0,0.9,-3.2,0,0,1024,1024,1024,1024,0,0,0,0,0,0,0,98,3.919,3.915,0,0,0,0,4.959,62.42,757.14467186642,36.417324,6,P-GPS,,11.1
10800,2026-01-12 12:06:02,757.14467186642,37.401576,0.223694,1.04764439048,5.1269358596,18,5,7.834,757.14467186642,36.417324,0.223694,1.79209651404,0.223694,0.0,0.0,0.1,2.2,-2.5,0,0,1024,1024,1024,1024,0,0,0,0,0,0,0,98,3.919,3.915,0,0,0,0,4.959,62.42,757.14467186642,36.417324,6,P-GPS,,11.1
10900,2026-01-12 12:06:02,757.14467186642,37.401576,0.223694,0.98130252484,5.2202757576,18,5,7.834,757.14467186642,36.417324,0.223694,1.79209651404,0.223694,0.0,0.0,359.9,3.4,-2.6,0,0,1024,1024,1024,1024,0,0,0,0,0,0,0,98,3.919,3.915,0,0,0,0,4.959,62.42,757.14467186642,36.417324,6,P-GPS,,11.1
11000,2026-01-12 12:06:02,757.14467186642,37.401576,0.223694,0.92263454396,5.3190946584,18,5,7.834,757.14467186642,36.417324,0.223694,1.79209651404,0.223694,0.0,0.0,359.8,4.2,-2.6,0,0,1024,1024,1024,1024,0,0,0,0,0,0,0,98,3.919,3.915,0,0,0,0,4.959,62.42,757.14467186642,36.417324,6,P-GPS,,11.1
11100,2026-01-12 12:06:02,757.14467186642,37.401576,0.223694,0.85199477792,5.4359581792,18,5,7.834,757.14467186642,36.417324,0.223694,1.79209651404,0.223694,0.0,0.0,359.9,4.8,-2.3,0,0,1024,1024,1024,1024,0,0,0,0,0,0,0,98,3.919,3.915,0,0,0,0,4.959,62.42,757.14467186642,36.417324,6,P-GPS,,11.1
11200,2026-01-12 12:06:02,757.14467186642,37.401576,0.223694,0.80005908072,5.5404529332,18,5,7.864,757.14467186642,36.417324,0.223694,1.79209651404,0.223694,0.0,0.0,359.9,5.3,-2.3,0,0,1024,1024,1024,1024,0,0,0,0,0,0,0,98,3.935,3.929,0,0,0,0,4.668,62.42,757.14467186642,36.417324,6,P-GPS,SD card speed low. Normal use may be affected. Replace SD card (Code: 10028). Gimbal stuck. Make sure gimbal cover is removed and manually check whether gimbal can rotate freely (Code: 40002),11.1
11300,2026-01-12 12:06:02,757.14467186642,37.401576,0.223694,0.76786091696,5.6422902068,18,5,7.864,757.14467186642,36.417324,0.223694,1.79209651404,0.223694,0.0,0.0,359.9,4.5,-2.5,0,0,1024,1024,1024,1024,0,0,0,0,0,0,0,98,3.935,3.929,0,0,0,0,4.668,62.42,757.14467186642,36.417324,6,P-GPS,,11.1
11400,2026-01-12 12:06:02,757.14467186642,37.401576,0.0,0.74838256988,5.74147,18,5,7.864,757.14467186642,36.417324,0.223694,1.79209651404,0.0,0.0,0.0,359.9,4.2,-2.6,0,0,1024,1024,1024,1024,0,0,0,0,0,0,0,98,3.935,3.929,0,0,0,0,4.668,62.42,757.14467186642,36.417324,6,P-GPS,,11.1
11500,2026-01-12 12:06:02,757.14467186642,37.401576,0.0,0.73751314696,5.865977878,18,5,7.864,757.14467186642,36.417324,0.223694,1.79209651404,0.0,0.0,0.0,359.8,3.8,-2.3,0,0,1024,1024,1024,1024,0,0,0,0,0,0,0,98,3.935,3.929,0,0,0,0,4.668,62.42,757.14467186642,36.417324,6,P-GPS,,11.1
11600,2026-01-12 12:06:02,757.14467186642,37.401576,0.0,0.74765094256,5.968012002,18,5,7.864,757.14467186642,36.417324,0.223694,1.79209651404,0.0,0.0,0.0,359.8,3.6,-2.4,0,0,1024,1024,1024,1024,0,0,0,0,0,0,0,98,3.935,3.929,0,0,0,0,4.668,62.42,757.14467186642,36.417324,6,P-GPS,,11.1
11700,2026-01-12 12:06:02,757.14467186642,37.401576,0.0,0.77114175696,6.0305776208,18,5,7.864,757.14467186642,36.417324,0.223694,1.79209651404,0.0,0.0,0.0,359.6,3.3,-2.6,0,0,1024,1024,1024,1024,0,0,0,0,0,0,0,98,3.935,3.929,0,0,0,0,4.668,62.42,757.14467186642,36.417324,6,P-GPS,,11.1
11800,2026-01-12 12:06:03,757.14467186642,37.401576,0.0,0.79015422476,6.077263974,18,5,7.864,757.14467186642,36.417324,0.223694,1.79209651404,0.0,0.0,0.0,359.4,3.8,-2.3,0,0,1024,1024,1024,1024,0,0,0,0,0,0,0,98,3.935,3.929,0,0,0,0,4.668,62.42,757.14467186642,36.417324,6,P-GPS,,11.1
11900,2026-01-12 12:06:03,757.14467186642,37.401576,0.0,0.80073493376,6.105971324,18,5,7.864,757.14467186642,36.417324,0.223694,1.79209651404,0.0,0.0,0.0,359.4,4.2,-2.7,0,0,1024,1024,1024,1024,0,0,0,0,0,0,0,98,3.935,3.929,0,0,0,0,4.668,62.42,757.14467186642,36.417324,6,P-GPS,,11.1
12000,2026-01-12 12:06:03,757.14467186642,37.401576,0.0,0.81224083964,6.1224083324,18,5,7.864,757.14467186642,36.417324,0.223694,1.79209651404,0.0,0.0,0.0,359.4,3.6,-2.8,0,0,1024,1024,1024,1024,0,0,0,0,0,0,0,98,3.935,3.929,0,0,0,0,4.668,62.42,757.14467186642,36.417324,6,P-GPS,,11.1
12100,2026-01-12 12:06:03,757.47275586642,37.401576,0.0,0.82649937028,6.1375001964,18,5,7.864,757.47275586642,36.745408,0.223694,1.79209651404,0.0,0.0,0.0,359.5,2.4,-3.7,0,0,1024,1024,1024,1024,0,0,0,0,0,0,0,98,3.935,3.929,0,0,0,0,4.668,62.42,757.47275586642,36.745408,6,P-GPS,,11.2
12200,2026-01-12 12:06:03,757.47275586642,37.401576,0.0,0.83692259896,6.14829416,18,5,7.864,757.47275586642,36.745408,0.223694,1.79209651404,0.0,0.0,0.0,359.8,1.8,-4.0,0,0,1024,1024,1024,1024,0,0,0,0,0,0,0,98,3.935,3.929,0,0,0,0,4.668,62.42,757.47275586642,36.745408,6,P-GPS,,11.2
12300,2026-01-12 12:06:03,757.47275586642,37.401576,0.0,0.80497377904,6.1835303816,18,5,7.853,757.47275586642,36.745408,0.223694,1.79209651404,0.0,0.0,0.0,0.0,0.8,-4.2,0,0,1024,1024,1024,1024,0,0,0,0,0,0,0,98,3.931,3.923,0,0,0,0,4.41,62.6,757.47275586642,36.745408,6,P-GPS,,11.2
12400,2026-01-12 12:06:03,757.47275586642,37.401576,0.0,0.81017719128,6.2077429808,18,5,7.853,757.47275586642,36.745408,0.223694,1.79209651404,0.0,0.0,0.0,359.7,2.3,-4.6,0,0,1024,1024,1024,1024,0,0,0,0,0,0,0,98,3.931,3.923,0,0,0,0,4.41,62.6,757.47275586642,36.745408,6,P-GPS,,11.2
12500,2026-01-12 12:06:03,757.47275586642,37.401576,0.0,0.81409451424,6.2241471808,18,5,7.853,757.47275586642,36.745408,0.223694,1.79209651404,0.0,0.0,0.0,359.6,4.0,-3.8,0,0,1024,1024,1024,1024,0,0,0,0,0,0,0,98,3.931,3.923,0,0,0,0,4.41,62.6,757.47275586642,36.745408,6,P-GPS,,11.2
12600,2026-01-12 12:06:03,757.47275586642,37.401576,0.0,0.8146653804,6.2428151604,18,5,7.853,757.47275586642,36.745408,0.223694,1.79209651404,0.0,0.0,0.0,359.9,3.0,-3.8,0,0,1024,1024,1024,1024,0,0,0,0,0,0,0,98,3.931,3.923,0,0,0,0,4.41,62.6,757.47275586642,36.745408,6,P-GPS,,11.2
12700,2026-01-12 12:06:03,757.47275586642,37.401576,0.0,0.81835304456,6.304790228,18,5,7.853,757.47275586642,36.745408,0.223694,1.79209651404,0.0,0.0,0.0,359.9,3.4,-3.5,0,0,1024,1024,1024,1024,0,0,0,0,0,0,0,98,3.931,3.923,0,0,0,0,4.41,62.6,757.47275586642,36.745408,6,P-GPS,,11.2
12800,2026-01-12 12:06:04,757.47275586642,37.401576,0.0,0.82813979028,6.3405185756,18,5,7.853,757.47275586642,36.745408,0.223694,1.79209651404,0.0,0.0,0.0,359.8,3.7,-4.1,0,0,1024,1024,1024,1024,0,0,0,0,0,0,0,98,3.931,3.923,0,0,0,0,4.41,62.6,757.47275586642,36.745408,6,P-GPS,,11.2
12900,2026-01-12 12:06:04,757.47275586642,37.401576,0.0,0.83803480372,6.3801839312,18,5,7.853,757.47275586642,36.745408,0.223694,1.79209651404,0.0,0.0,0.0,359.9,3.5,-3.9,0,0,1024,1024,1024,1024,0,0,0,0,0,0,0,98,3.931,3.923,0,0,0,0,4.41,62.6,757.47275586642,36.745408,6,P-GPS,,11.2
13000,2026-01-12 12:06:04,757.47275586642,37.401576,0.0,0.84707351792,6.4208663472,18,5,7.853,757.47275586642,36.745408,0.223694,1.79209651404,0.0,0.0,0.0,359.9,3.8,-3.7,0,0,1024,1024,1024,1024,0,0,0,0,0,0,0,98,3.931,3.923,0,0,0,0,4.41,62.6,757.47275586642,36.745408,6,P-GPS,,11.2
13100,2026-01-12 12:06:04,757.47275586642,37.401576,0.0,0.90314307352,6.538057952,18,5,7.853,757.47275586642,36.745408,0.223694,1.79209651404,0.0,0.0,0.0,359.8,4.1,-3.6,0,0,1024,1024,1024,1024,0,0,0,0,0,0,0,98,3.931,3.923,0,0,0,0,4.41,62.6,757.47275586642,36.745408,6,P-GPS,,11.2
13200,2026-01-12 12:06:04,757.47275586642,37.401576,0.0,0.91659123668,6.579068452,18,5,7.853,757.47275586642,36.745408,0.223694,1.79209651404,0.0,0.0,0.0,359.7,4.0,-4.0,0,0,1024,1024,1024,1024,0,0,0,0,0,0,0,98,3.931,3.923,0,0,0,0,4.41,62.6,757.47275586642,36.745408,6,P-GPS,,11.2
13300,2026-01-12 12:06:04,757.14467186642,37.401576,0.0,0.92311026576,6.6092193716,18,5,7.853,757.47275586642,36.745408,0.223694,1.79209651404,0.0,0.0,0.0,359.6,3.7,-4.0,0,0,1024,1024,1024,1024,0,0,0,0,0,0,0,98,3.931,3.923,0,0,0,0,4.41,62.6,757.14467186642,36.417324,6,P-GPS,,11.1
13400,2026-01-12 12:06:04,757.14467186642,37.401576,0.0,0.92663060708,6.6395671416,17,5,7.86,757.47275586642,36.745408,0.223694,1.79209651404,0.0,0.0,0.0,359.7,3.1,-3.7,0,0,1024,1024,1024,1024,0,0,0,0,0,0,0,98,3.926,3.919,0,0,0,0,4.378,62.6,757.14467186642,36.417324,6,P-GPS,,11.1
13500,2026-01-12 12:06:04,757.14467186642,37.401576,0.0,0.94174215612,6.706693128,17,5,7.86,757.47275586642,36.745408,0.223694,1.79209651404,0.0,0.0,0.0,359.6,3.4,-3.8,0,0,1024,1024,1024,1024,0,0,0,0,0,0,0,98,3.926,3.919,0,0,0,0,4.378,62.6,757.14467186642,36.417324,6,P-GPS,,11.1
13600,2026-01-12 12:06:04,757.14467186642,37.401576,0.0,0.94728677572,6.7337928664,17,5,7.86,757.47275586642,36.745408,0.223694,1.79209651404,0.0,0.0,0.0,359.6,3.1,-3.7,0,0,1024,1024,1024,1024,0,0,0,0,0,0,0,98,3.926,3.919,0,0,0,0,4.378,62.6,757.14467186642,36.417324,6,P-GPS,,11.1
13700,2026-01-12 12:06:04,757.14467186642,37.401576,0.0,0.953248062,6.740649822,17,5,7.86,757.47275586642,36.745408,0.223694,1.79209651404,0.0,0.0,0.0,359.7,2.6,-3.9,0,0,1024,1024,1024,1024,0,0,0,0,0,0,0,98,3.926,3.919,0,0,0,0,4.378,62.6,757.14467186642,36.417324,6,P-GPS,,11.1
13800,2026-01-12 12:06:05,757.14467186642,37.401576,0.0,0.95786092304,6.7453742316,17,5,7.86,757.47275586642,36.745408,0.223694,1.79209651404,0.0,0.0,0.0,359.5,2.8,-4.3,0,0,1024,1024,1024,1024,0,0,0,0,0,0,0,98,3.926,3.919,0,0,0,0,4.378,62.6,757.14467186642,36.417324,6,P-GPS,,11.1
13900,2026-01-12 12:06:05,757.14467186642,37.401576,0.0,0.95126643464,6.7520343368,17,5,7.86,757.47275586642,36.745408,0.223694,1.79209651404,0.0,0.0,0.0,359.4,3.4,-5.0,0,0,1024,1024,1024,1024,0,0,0,0,0,0,0,98,3.926,3.919,0,0,0,0,4.378,62.6,757.14467186642,36.417324,6,P-GPS,,11.1
14000,2026-01-12 12:06:05,756.81658786642,37.401576,0.0,0.92656170944,6.8117456248,17,5,7.86,757.47275586642,36.745408,0.223694,1.79209651404,0.0,0.0,0.0,359.2,3.4,-4.7,0,0,1024,1024,1024,1024,0,0,0,0,0,0,0,98,3.926,3.919,0,0,0,0,4.378,62.6,756.81658786642,36.08924,6,P-GPS,,11.0
14100,2026-01-12 12:06:05,756.81658786642,37.401576,0.0,0.90556433344,6.838418854,17,5,7.86,757.47275586642,36.745408,0.223694,1.79209651404,0.0,0.0,0.0,359.4,3.1,-3.6,0,0,1024,1024,1024,1024,0,0,0,0,0,0,0,98,3.926,3.919,0,0,0,0,4.378,62.6,756.81658786642,36.08924,6,P-GPS,,11.0
14200,2026-01-12 12:06:05,756.81658786642,37.401576,0.0,0.88302824348,6.8657810596,17,5,7.86,757.47275586642,36.745408,0.223694,1.79209651404,0.0,0.0,0.0,359.5,2.5,-3.2,0,0,1024,1024,1024,1024,0,0,0,0,0,0,0,98,3.926,3.919,0,0,0,0,4.378,62.6,756.81658786642,36.08924,6,P-GPS,,11.0
14300,2026-01-12 12:06:05,756.81658786642,37.401576,0.0,0.86699805924,6.8824149184,17,5,7.86,757.47275586642,36.745408,0.223694,1.79209651404,0.0,0.0,0.0,359.6,2.6,-2.9,0,0,1024,1024,1024,1024,0,0,0,0,0,0,0,98,3.926,3.919,0,0,0,0,4.378,62.6,756.81658786642,36.08924,6,P-GPS,,11.0
14400,2026-01-12 12:06:05,756.48850386642,37.401576,0.223694,0.8349901842,6.9344818492,17,5,7.86,757.47275586642,36.745408,0.223694,1.79209651404,-0.223694,0.0,0.0,359.7,1.8,-2.5,0,0,1024,1024,1024,1024,0,0,0,0,0,0,0,98,3.926,3.919,0,0,0,0,4.378,62.6,756.48850386642,35.761156,6,P-GPS,,10.9
14500,2026-01-12 12:06:05,756.48850386642,37.401576,0.223694,0.79984254528,6.974737756,17,5,7.86,757.47275586642,36.745408,0.223694,1.79209651404,-0.223694,0.0,0.0,359.5,1.4,-2.4,0,0,1024,1024,1024,1024,0,0,0,0,0,0,0,98,3.918,3.904,0,0,0,0,4.378,62.6,756.48850386642,35.761156,6,P-GPS,,10.9
14600,2026-01-12 12:06:05,756.48850386642,37.401576,0.223694,0.76635829224,7.0142390696,18,5,7.86,757.47275586642,36.745408,0.223694,1.79209651404,-0.223694,0.0,0.0,359.5,1.2,-1.9,0,0,1024,1024,1024,1024,0,0,0,0,0,0,0,98,3.918,3.904,0,0,0,0,4.378,62.6,756.48850386642,35.761156,6,P-GPS,,10.9
14700,2026-01-12 12:06:05,756.48850386642,37.401576,0.223694,0.73216209692,7.0570212232,18,5,7.86,757.47275586642,36.745408,0.223694,1.79209651404,-0.223694,0.0,0.0,359.6,0.7,-1.9,0,0,1024,1024,1024,1024,0,0,0,0,0,0,0,98,3.918,3.904,0,0,0,0,4.378,62.6,756.48850386642,35.761156,6,P-GPS,,10.9
14800,2026-01-12 12:06:05,756.48850386642,37.401576,0.223694,0.6971785,7.1011485212,18,5,7.86,757.47275586642,36.745408,0.223694,1.79209651404,-0.223694,0.0,0.0,0.1,0.1,-1.8,0,0,1024,1024,1024,1024,0,0,0,0,0,0,0,98,3.918,3.904,0,0,0,0,4.378,62.6,756.48850386642,35.761156,6,P-GPS,,10.9
14900,2026-01-12 12:06:06,756.48850386642,37.401576,0.0,0.65395999468,7.1613519352,18,5,7.86,757.47275586642,36.745408,0.223694,1.79209651404,0.0,0.0,0.0,0.3,-1.1,-2.4,0,0,1024,1024,1024,1024,0,0,0,0,0,0,0,98,3.918,3.904,0,0,0,0,4.378,62.6,756.48850386642,35.761156,6,P-GPS,,10.9
15000,2026-01-12 12:06:06,756.48850386642,37.401576,0.0,0.62975395716,7.210630152,18,5,7.86,757.47275586642,36.745408,0.223694,1.79209651404,0.0,0.0,0.0,0.1,-1.2,-2.7,0,0,1024,1024,1024,1024,0,0,0,0,0,0,0,98,3.918,3.904,0,0,0,0,4.378,62.6,756.48850386642,35.761156,6,P-GPS,,10.9
15100,2026-01-12 12:06:06,756.16041986642,37.401576,0.0,0.62994424588,7.2473099432,18,5,7.86,757.47275586642,36.745408,0.223694,1.79209651404,0.0,0.0,0.0,359.9,0.6,-2.4,0,0,1024,1024,1024,1024,0,0,0,0,0,0,0,98,3.918,3.904,0,0,0,0,4.378,62.6,756.16041986642,35.433072,6,P-GPS,,10.8
15200,2026-01-12 12:06:06,756.16041986642,37.401576,0.223694,0.60349083296,7.2819228052,18,5,7.86,757.47275586642,36.745408,0.223694,1.79209651404,0.0,-0.223694,0.0,359.8,1.7,-1.3,0,0,1024,1024,1024,1024,0,0,0,0,0,0,0,98,3.918,3.904,0,0,0,0,4.378,62.6,756.16041986642,35.433072,6,P-GPS,,10.8
15300,2026-01-12 12:06:06,756.16041986642,37.401576,0.3131716,0.63624017784,7.348097348,18,5,7.86,757.47275586642,36.745408,0.3131716,1.79209651404,0.223694,-0.223694,0.0,359.8,2.9,-0.7,0,0,1024,1024,1024,1024,0,0,0,0,0,0,0,98,3.918,3.904,0,0,0,0,4.378,62.6,756.16041986642,35.433072,6,P-GPS,,10.8
15400,2026-01-12 12:06:06,756.16041986642,37.401576,0.3131716,0.68352692476,7.4187338332,18,5,7.86,757.47275586642,36.745408,0.3131716,1.79209651404,0.223694,-0.223694,0.0,359.8,3.4,-0.1,0,0,1024,1024,1024,1024,0,0,0,0,0,0,0,98,3.918,3.904,0,0,0,0,4.378,62.6,756.16041986642,35.433072,6,P-GPS,,10.8
15500,2026-01-12 12:06:06,756.16041986642,37.401576,0.223694,0.75891406628,7.5090553584,18,5,7.86,757.47275586642,36.745408,0.3131716,1.79209651404,0.223694,0.0,0.0,359.8,3.5,0.0,0,0,1024,1024,1024,1024,0,0,0,0,0,0,0,98,3.918,3.904,0,0,0,0,4.378,62.6,756.16041986642,35.433072,6,P-GPS,,10.8
15600,2026-01-12 12:06:06,756.16041986642,37.401576,0.223694,0.83368769072,7.593176096,18,5,7.822,757.47275586642,36.745408,0.3131716,1.79209651404,0.223694,0.0,0.0,0.0,4.1,-0.2,0,0,1024,1024,1024,1024,0,0,0,0,0,0,0,98,3.938,3.936,0,0,0,0,4.836,62.6,756.16041986642,35.433072,6,P-GPS,,10.8
15700,2026-01-12 12:06:06,755.83233586642,37.401576,0.0,0.97989176364,7.7435698016,18,5,7.822,757.47275586642,36.745408,0.3131716,1.79209651404,0.0,0.0,0.0,0.1,3.8,0.3,0,0,1024,1024,1024,1024,0,0,0,0,0,0,0,98,3.938,3.936,0,0,0,0,4.836,62.6,755.83233586642,35.104988,6,P-GPS,,10.7
15800,2026-01-12 12:06:07,755.83233586642,37.401576,0.0,1.04842194956,7.8144031372,18,5,7.822,757.47275586642,36.745408,0.3131716,1.79209651404,0.0,0.0,0.0,0.0,4.7,-1.1,0,0,1024,1024,1024,1024,0,0,0,0,0,0,0,98,3.938,3.936,0,0,0,0,4.836,62.6,755.83233586642,35.104988,6,P-GPS,,10.7
15900,2026-01-12 12:06:07,755.83233586642,37.401576,0.0,1.09140095356,7.8575789916,18,5,7.822,757.47275586642,36.745408,0.3131716,1.79209651404,0.0,0.0,0.0,0.1,5.1,-0.9,0,0,1024,1024,1024,1024,0,0,0,0,0,0,0,98,3.938,3.936,0,0,0,0,4.836,62.6,755.83233586642,35.104988,6,P-GPS,,10.7
16000,2026-01-12 12:06:07,755.83233586642,37.401576,0.0,1.12650594156,7.8926839796,18,5,7.822,757.47275586642,36.745408,0.3131716,1.79209651404,0.0,0.0,0.0,0.1,5.0,-0.9,0,0,1024,1024,1024,1024,0,0,0,0,0,0,0,98,3.938,3.936,0,0,0,0,4.836,62.6,755.83233586642,35.104988,6,P-GPS,,10.7
16100,2026-01-12 12:06:07,756.16041986642,37.401576,0.0,1.10532483852,7.934055372,18,5,7.822,757.47275586642,36.745408,0.3131716,1.79209651404,0.0,0.0,0.0,0.0,4.7,-1.7,0,0,1024,1024,1024,1024,0,0,0,0,0,0,0,98,3.938,3.936,0,0,0,0,4.836,62.6,756.16041986642,35.433072,6,P-GPS,,10.8
16200,2026-01-12 12:06:07,756.16041986642,37.401576,0.0,1.1289206398,7.9592194148,18,5,7.822,757.47275586642,36.745408,0.3131716,1.79209651404,0.0,0.0,0.0,0.0,3.9,-1.7,0,0,1024,1024,1024,1024,0,0,0,0,0,0,0,98,3.938,3.936,0,0,0,0,4.836,62.6,756.16041986642,35.433072,6,P-GPS,,10.8
16300,2026-01-12 12:06:07,756.16041986642,37.401576,0.0,1.15589570628,7.9890750588,18,5,7.822,757.47275586642,36.745408,0.3131716,1.79209651404,0.0,0.0,0.0,359.9,3.8,-1.9,0,0,1024,1024,1024,1024,0,0,0,0,0,0,0,98,3.938,3.936,0,0,0,0,4.836,62.6,756.16041986642,35.433072,6,P-GPS,,10.8
16400,2026-01-12 12:06:07,756.16041986642,37.401576,0.0,1.1751640796,8.0117128548,18,5,7.822,757.47275586642,36.745408,0.3131716,1.79209651404,0.0,0.0,0.0,359.7,3.5,-1.8,0,0,1024,1024,1024,1024,0,0,0,0,0,0,0,98,3.938,3.936,0,0,0,0,4.836,62.6,756.16041986642,35.433072,6,P-GPS,,10.8
16500,2026-01-12 12:06:07,756.16041986642,37.401576,0.0,1.16734255704,8.0327758476,18,5,7.822,757.47275586642,36.745408,0.3131716,1.79209651404,0.0,0.0,0.0,359.7,3.4,-1.9,0,0,1024,1024,1024,1024,0,0,0,0,0,0,0,98,3.938,3.936,0,0,0,0,4.836,62.6,756.16041986642,35.433072,6,P-GPS,,10.8
16600,2026-01-12 12:06:07,756.16041986642,37.401576,0.0,1.1696850768,8.04379947,18,5,7.822,757.47275586642,36.745408,0.3131716,1.79209651404,0.0,0.0,0.0,359.8,3.1,-1.8,0,0,1024,1024,1024,1024,0,0,0,0,0,0,0,98,3.938,3.936,0,0,0,0,4.836,62.6,756.16041986642,35.433072,6,P-GPS,,10.8
16700,2026-01-12 12:06:07,756.16041986642,37.401576,0.0,1.16325134956,8.0596459272,18,5,7.866,757.47275586642,36.745408,0.3131716,1.79209651404,0.0,0.0,0.0,359.9,3.1,-2.0,0,0,1024,1024,1024,1024,0,0,0,0,0,0,0,98,3.936,3.925,0,0,0,0,4.295,62.6,756.16041986642,35.433072,6,P-GPS,,10.8
16800,2026-01-12 12:06:07,756.16041986642,37.401576,0.0,1.15876972212,8.074311282,18,5,7.866,757.47275586642,36.745408,0.3131716,1.79209651404,0.0,0.0,0.0,359.9,3.3,-2.2,0,0,1024,1024,1024,1024,0,0,0,0,0,0,0,98,3.936,3.925,0,0,0,0,4.295,62.6,756.16041986642,35.433072,6,P-GPS,,10.8
16900,2026-01-12 12:06:08,756.16041986642,37.401576,0.0,1.12919294952,8.1055448788,18,5,7.866,757.47275586642,36.745408,0.3131716,1.79209651404,0.0,0.0,0.0,359.7,4.0,-2.4,0,0,1024,1024,1024,1024,0,0,0,0,0,0,0,98,3.936,3.925,0,0,0,0,4.295,62.6,756.16041986642,35.433072,6,P-GPS,,10.8
17000,2026-01-12 12:06:08,755.83233586642,37.401576,0.0,1.12227365796,8.116141992,18,5,7.866,757.47275586642,36.745408,0.3131716,1.79209651404,0.0,0.0,0.0,359.8,3.5,-2.2,0,0,1024,1024,1024,1024,0,0,0,0,0,0,0,98,3.936,3.925,0,0,0,0,4.295,62.6,755.83233586642,35.104988,6,P-GPS,,10.7
17100,2026-01-12 12:06:08,755.83233586642,37.401576,0.0,1.10524609836,8.1338257196,18,5,7.866,757.47275586642,36.745408,0.3131716,1.79209651404,0.0,0.0,0.0,359.9,2.2,-2.3,0,0,1024,1024,1024,1024,0,0,0,0,0,0,0,98,3.936,3.925,0,0,0,0,4.295,62.6,755.83233586642,35.104988,6,P-GPS,,10.7
17200,2026-01-12 12:06:08,755.83233586642,37.401576,0.0,1.08713258072,8.153051442,18,5,7.866,757.47275586642,36.745408,0.3131716,1.79209651404,0.0,0.0,0.0,0.0,2.2,-2.5,0,0,1024,1024,1024,1024,0,0,0,0,0,0,0,98,3.936,3.925,0,0,0,0,4.295,62.6,755.83233586642,35.104988,6,P-GPS,,10.7
17300,2026-01-12 12:06:08,755.83233586642,37.401576,0.0,1.07028218648,8.1735238836,18,5,7.866,757.47275586642,36.745408,0.3131716,1.79209651404,0.0,0.0,0.0,0.0,1.4,-3.0,0,0,1024,1024,1024,1024,0,0,0,0,0,0,0,98,3.936,3.925,0,0,0,0,4.295,62.6,755.83233586642,35.104988,6,P-GPS,,10.7
17400,2026-01-12 12:06:08,755.83233586642,37.401576,0.0,1.02995738204,8.2138454072,18,5,7.866,757.47275586642,36.745408,0.3131716,1.79209651404,0.0,0.0,0.0,359.8,2.3,-2.7,0,0,1024,1024,1024,1024,0,0,0,0,0,0,0,98,3.936,3.925,0,0,0,0,4.295,62.6,755.83233586642,35.104988,6,P-GPS,,10.7
17500,2026-01-12 12:06:08,755.83233586642,37.401576,0.0,0.99987864092,8.2441931772,18,5,7.866,757.47275586642,36.745408,0.3131716,1.79209651404,0.0,0.0,0.0,359.7,2.1,-2.9,0,0,1024,1024,1024,1024,0,0,0,0,0,0,0,98,3.936,3.925,0,0,0,0,4.295,62.6,755.83233586642,35.104988,6,P-GPS,,10.7
17600,2026-01-12 12:06:08,755.83233586642,37.401576,0.0,0.96298559512,8.281332286,18,5,7.866,757.47275586642,36.745408,0.3131716,1.79209651404,0.0,0.0,0.0,359.5,1.7,-3.1,0,0,1024,1024,1024,1024,0,0,0,0,0,0,0,98,3.936,3.925,0,0,0,0,4.295,62.6,755.83233586642,35.104988,6,P-GPS,,10.7
17700,2026-01-12 12:06:08,755.83233586642,37.401576,0.223694,0.9140584282,8.330380844,18,5,7.866,757.47275586642,36.745408,0.3131716,1.79209651404,-0.223694,0.0,0.0,359.7,1.0,-2.7,0,0,1024,1024,1024,1024,0,0,0,0,0,0,0,98,3.936,3.925,0,0,0,0,4.295,62.6,755.83233586642,35.104988,6,P-GPS,,10.7
17800,2026-01-12 12:06:09,755.83233586642,37.401576,0.223694,0.80795934344,8.4374346532,18,5,7.821,757.47275586642,36.745408,0.3131716,1.79209651404,-0.223694,0.0,0.0,359.8,0.4,-2.9,0,0,1024,1024,1024,1024,0,0,0,0,0,0,0,98,3.913,3.909,0,0,0,0,4.726,62.78,755.83233586642,35.104988,6,P-GPS,,10.7
17900,2026-01-12 12:06:09,755.83233586642,37.401576,0.0,0.7832841458,8.4629595884,18,5,7.821,757.47275586642,36.745408,0.3131716,1.79209651404,0.0,0.0,0.0,359.9,0.2,-2.8,0,0,1024,1024,1024,1024,0,0,0,0,0,0,0,98,3.913,3.909,0,0,0,0,4.726,62.78,755.83233586642,35.104988,6,P-GPS,,10.7
18000,2026-01-12 12:06:09,755.83233586642,37.401576,0.0,0.76536419772,8.4808729748,18,5,7.821,757.47275586642,36.745408,0.3131716,1.79209651404,0.0,0.0,0.0,359.9,0.6,-2.4,0,0,1024,1024,1024,1024,0,0,0,0,0,0,0,98,3.913,3.909,0,0,0,0,4.726,62.78,755.83233586642,35.104988,6,P-GPS,,10.7
18100,2026-01-12 12:06:09,755.83233586642,37.401576,0.0,0.74759188744,8.5018375424,18,5,7.821,757.47275586642,36.745408,0.3131716,1.79209651404,0.0,0.0,0.0,0.0,0.7,-1.9,0,0,1024,1024,1024,1024,0,0,0,0,0,0,0,98,3.913,3.909,0,0,0,0,4.726,62.78,755.83233586642,35.104988,6,P-GPS,,10.7
18200,2026-01-12 12:06:09,755.83233586642,37.401576,0.0,0.73465553532,8.515748304,18,5,7.821,757.47275586642,36.745408,0.3131716,1.79209651404,0.0,0.0,0.0,0.0,1.1,-1.5,0,0,1024,1024,1024,1024,0,0,0,0,0,0,0,98,3.913,3.909,0,0,0,0,4.726,62.78,755.83233586642,35.104988,6,P-GPS,,10.7
18300,2026-01-12 12:06:09,755.83233586642,37.401576,0.0,0.71824805448,8.5393047352,18,5,7.821,757.47275586642,36.745408,0.3131716,1.79209651404,0.0,0.0,0.0,359.8,1.3,-1.4,0,0,1024,1024,1024,1024,0,0,0,0,0,0,0,98,3.913,3.909,0,0,0,0,4.726,62.78,755.83233586642,35.104988,6,P-GPS,,10.7
18400,2026-01-12 12:06:09,755.83233586642,37.401576,0.0,0.71224083644,8.552001586,18,5,7.821,757.47275586642,36.745408,0.3131716,1.79209651404,0.0,0.0,0.0,359.9,1.3,-1.2,0,0,1024,1024,1024,1024,0,0,0,0,0,0,0,98,3.913,3.909,0,0,0,0,4.726,62.78,755.83233586642,35.104988,6,P-GPS,,10.7
18500,2026-01-12 12:06:09,755.83233586642,37.401576,0.0,0.729412753,8.5722771772,18,5,7.821,757.47275586642,36.745408,0.3131716,1.79209651404,0.0,0.0,0.0,359.9,1.1,-1.1,0,0,1024,1024,1024,1024,0,0,0,0,0,0,0,98,3.913,3.909,0,0,0,0,4.726,62.78,755.83233586642,35.104988,6,P-GPS,,10.7
18600,2026-01-12 12:06:09,755.83233586642,37.401576,0.0,0.74549871152,8.5887141856,18,5,7.821,757.47275586642,36.745408,0.3131716,1.79209651404,0.0,0.0,0.0,359.8,1.3,-1.4,0,0,1024,1024,1024,1024,0,0,0,0,0,0,0,98,3.913,3.909,0,0,0,0,4.726,62.78,755.83233586642,35.104988,6,P-GPS,,10.7
18700,2026-01-12 12:06:09,755.83233586642,37.401576,0.0,0.75659779324,8.6039700916,18,5,7.821,757.47275586642,36.745408,0.3131716,1.79209651404,0.0,0.0,0.0,359.8,1.4,-1.3,0,0,1024,1024,1024,1024,0,0,0,0,0,0,0,98,3.913,3.909,0,0,0,0,4.726,62.78,755.83233586642,35.104988,6,P-GPS,,10.7
18800,2026-01-12 12:06:09,755.83233586642,37.401576,0.0,0.77177495908,8.6193244228,18,5,7.821,757.47275586642,36.745408,0.3131716,1.79209651404,0.0,0.0,0.0,359.8,0.6,-2.0,0,0,1024,1024,1024,1024,0,0,0,0,0,0,0,98,3.913,3.909,0,0,0,0,4.726,62.78,755.83233586642,35.104988,6,P-GPS,,10.7
18900,2026-01-12 12:06:10,755.83233586642,37.401576,0.0,0.80014438256,8.6498690432,18,5,7.821,757.47275586642,36.745408,0.3131716,1.79209651404,0.0,0.0,0.0,359.6,0.1,-1.9,0,0,1024,1024,1024,1024,0,0,0,0,0,0,0,98,3.913,3.909,0,0,0,0,4.726,62.78,755.83233586642,35.104988,6,P-GPS,,10.7
19000,2026-01-12 12:06:10,755.83233586642,37.401576,0.0,0.83899937068,8.6900265248,18,5,7.83,757.47275586642,36.745408,0.3131716,1.79209651404,0.0,0.0,0.0,359.6,1.0,-1.9,0,0,1024,1024,1024,1024,0,0,0,0,0,0,0,98,3.918,3.912,0,0,0,0,4.654,62.78,755.83233586642,35.104988,6,P-GPS,,10.7
19100,2026-01-12 12:06:10,755.83233586642,37.401576,0.223694,0.8660761432,8.7430777076,18,5,7.83,757.47275586642,36.745408,0.3131716,1.79209651404,0.223694,0.0,0.0,359.9,1.3,-1.4,0,0,1024,1024,1024,1024,0,0,0,0,0,0,0,98,3.918,3.912,0,0,0,0,4.654,62.78,755.83233586642,35.104988,6,P-GPS,,10.7
19200,2026-01-12 12:06:10,755.83233586642,37.401576,0.223694,0.9133202392,8.7907155044,18,5,7.83,757.47275586642,36.745408,0.3131716,1.79209651404,0.223694,0.0,0.0,0.0,2.2,-1.3,0,0,1024,1024,1024,1024,0,0,0,0,0,0,0,98,3.918,3.912,0,0,0,0,4.654,62.78,755.83233586642,35.104988,6,P-GPS,,10.7
19300,2026-01-12 12:06:10,755.83233586642,37.401576,0.223694,0.96152890216,8.8403546136,18,5,7.83,757.47275586642,36.745408,0.3131716,1.79209651404,0.223694,0.0,0.0,0.0,2.9,-1.6,0,0,1024,1024,1024,1024,0,0,0,0,0,0,0,98,3.918,3.912,0,0,0,0,4.654,62.78,755.83233586642,35.104988,6,P-GPS,,10.7
19400,2026-01-12 12:06:10,755.83233586642,37.401576,0.223694,1.02061354972,8.8996393924,18,5,7.83,757.47275586642,36.745408,0.3131716,1.79209651404,0.223694,0.0,0.0,0.0,3.9,-1.7,0,0,1024,1024,1024,1024,0,0,0,0,0,0,0,98,3.918,3.912,0,0,0,0,4.654,62.78,755.83233586642,35.104988,6,P-GPS,,10.7
19500,2026-01-12 12:06:10,755.83233586642,37.401576,0.223694,1.13360239848,9.0128283724,18,5,7.83,757.47275586642,36.745408,0.3131716,1.79209651404,0.223694,0.0,0.0,359.9,4.6,-0.8,0,0,1024,1024,1024,1024,0,0,0,0,0,0,0,98,3.918,3.912,0,0,0,0,4.654,62.78,755.83233586642,35.104988,6,P-GPS,,10.7
19600,2026-01-12 12:06:10,755.83233586642,37.401576,0.223694,1.21236552436,9.0916341492,18,5,7.83,757.47275586642,36.745408,0.3131716,1.79209651404,0.223694,0.0,0.0,359.9,4.3,-1.0,0,0,1024,1024,1024,1024,0,0,0,0,0,0,0,98,3.918,3.912,0,0,0,0,4.654,62.78,755.83233586642,35.104988,6,P-GPS,,10.7
19700,2026-01-12 12:06:10,755.83233586642,37.401576,0.0,1.277477075,9.157972734,18,5,7.83,757.47275586642,36.745408,0.3131716,1.79209651404,0.0,0.0,0.0,0.0,3.5,-0.9,0,0,1024,1024,1024,1024,0,0,0,0,0,0,0,98,3.918,3.912,0,0,0,0,4.654,62.78,755.83233586642,35.104988,6,P-GPS,,10.7
19800,2026-01-12 12:06:11,755.83233586642,37.401576,0.0,1.3341207776,9.2173887464,18,5,7.83,757.47275586642,36.745408,0.3131716,1.79209651404,0.0,0.0,0.0,0.0,3.2,-1.4,0,0,1024,1024,1024,1024,0,0,0,0,0,0,0,98,3.918,3.912,0,0,0,0,4.654,62.78,755.83233586642,35.104988,6,P-GPS,,10.7
19900,2026-01-12 12:06:11,756.16041986642,37.401576,0.0,1.41669623956,9.3084320564,18,5,7.83,757.47275586642,36.745408,0.3131716,1.79209651404,0.0,0.0,0.0,0.0,3.6,-2.1,0,0,1024,1024,1024,1024,0,0,0,0,0,0,0,98,3.918,3.912,0,0,0,0,4.654,62.78,756.16041986642,35.433072,6,P-GPS,,10.8
20000,2026-01-12 12:06:11,756.16041986642,37.401576,0.0,1.46527563744,9.3616800896,18,5,7.83,757.47275586642,36.745408,0.3131716,1.79209651404,0.0,0.0,0.0,359.9,3.8,-2.6,0,0,1024,1024,1024,1024,0,0,0,0,0,0,0,98,3.918,3.912,0,0,0,0,4.654,62.78,756.16041986642,35.433072,6,P-GPS,,10.8
20100,2026-01-12 12:06:11,756.16041986642,37.401576,0.0,1.49699151772,9.397474054,18,5,7.854,757.47275586642,36.745408,0.3131716,1.79209651404,0.0,0.0,0.0,359.9,4.6,-2.9,0,0,1024,1024,1024,1024,0,0,0,0,0,0,0,98,3.928,3.926,0,0,0,0,4.178,62.78,756.16041986642,35.433072,6,P-GPS,,10.8
20200,2026-01-12 12:06:11,756.16041986642,37.401576,0.0,1.526000705,9.4316604068,18,5,7.854,757.47275586642,36.745408,0.3131716,1.79209651404,0.0,0.0,0.0,359.9,4.6,-3.0,0,0,1024,1024,1024,1024,0,0,0,0,0,0,0,98,3.928,3.926,0,0,0,0,4.178,62.78,756.16041986642,35.433072,6,P-GPS,,10.8
20300,2026-01-12 12:06:11,756.16041986642,37.401576,0.0,1.5346457184,9.4501971528,18,5,7.854,757.47275586642,36.745408,0.3131716,1.79209651404,0.0,0.0,0.0,0.0,5.2,-2.9,0,0,1024,1024,1024,1024,0,0,0,0,0,0,0,98,3.928,3.926,0,0,0,0,4.178,62.78,756.16041986642,35.433072,6,P-GPS,,10.8
20400,2026-01-12 12:06:11,756.48850386642,37.401576,0.0,1.56967196624,9.492946498,18,5,7.854,757.47275586642,36.745408,0.3131716,1.79209651404,0.0,0.0,0.0,0.0,4.4,-3.3,0,0,1024,1024,1024,1024,0,0,0,0,0,0,0,98,3.928,3.926,0,0,0,0,4.178,62.78,756.48850386642,35.761156,6,P-GPS,,10.9
20500,2026-01-12 12:06:11,756.48850386642,37.401576,0.0,1.61272314872,9.5388126412,18,5,7.854,757.47275586642,36.745408,0.3131716,1.79209651404,0.0,0.0,0.0,0.0,4.4,-3.6,0,0,1024,1024,1024,1024,0,0,0,0,0,0,0,98,3.928,3.926,0,0,0,0,4.178,62.78,756.48850386642,35.761156,6,P-GPS,,10.9
