time(millisecond),timestamp,altitude_above_seaLevel(feet),height_sonar(feet),speed(mph),distance(feet),mileage(feet),satellites,gpslevel,voltage(v),max_altitude(feet),max_ascent(feet),max_speed(mph),max_distance(feet), xSpeed(mph), ySpeed(mph), zSpeed(mph), compass_heading(degrees), pitch(degrees), roll(degrees),isPhoto,isVideo,rc_elevator,rc_aileron,rc_throttle,rc_rudder,rc_elevator(percent),rc_aileron(percent),rc_throttle(percent),rc_rudder(percent),gimbal_heading(degrees),gimbal_pitch(degrees),gimbal_roll(degrees),battery_percent,voltageCell1,voltageCell2,voltageCell3,voltageCell4,voltageCell5,voltageCell6,current(A),battery_temperature(f),altitude(feet),ascent(feet),flycStateRaw,flycState,message,height_above_takeoff(meters)
424400,2026-01-13 12:28:23,720.66432030535,0.328084,0.0,0.0,0.0,19,5,0.0,720.66432030535,0.0,0.0,0.0,0.0,0.0,0.0,14.7,1.5,0.8,0,0,1024,1024,1024,1024,0,0,0,0,0,0,0,71,3.895,3.9,0,0,0,0,0.0,75.56,720.66432030535,0.0,41,Motors_Started,SD card speed low SD card speed low. Normal use may be affected. Replace SD card (Code: 10028). Gimbal stuck. Make sure gimbal cover is removed and manually check whether gimbal can rotate freely (Code: 40002),0.0
424500,2026-01-13 12:28:23,720.66432030535,0.328084,0.0,0.0033673229424,0.0033673229424,19,5,0.0,720.66432030535,0.0,0.0,0.0033673229424,0.0,0.0,0.0,14.7,1.5,0.8,0,0,1024,1024,1024,1024,0,0,0,0,0,0,0,71,3.895,3.9,0,0,0,0,0.0,75.56,720.66432030535,0.0,41,Motors_Started,,0.0
424600,2026-01-13 12:28:23,720.66432030535,0.328084,0.0,0.0067000002144,0.0067005579572,19,5,0.0,720.66432030535,0.0,0.0,0.0067000002144,0.0,0.0,0.0,14.7,1.5,0.8,0,0,1024,1024,1024,1024,0,0,0,0,0,0,0,71,3.895,3.9,0,0,0,0,0.0,75.56,720.66432030535,0.0,41,Motors_Started,,0.0
424700,2026-01-13 12:28:23,720.66432030535,0.328084,0.0,0.020727198826,0.021326772336,19,5,0.0,720.66432030535,0.0,0.0,0.020727198826,0.0,0.0,0.0,14.7,1.5,0.8,0,0,1024,1024,1024,1024,0,0,0,0,0,0,0,71,3.895,3.9,0,0,0,0,0.0,75.56,720.66432030535,0.0,41,Motors_Started,,0.0
424800,2026-01-13 12:28:23,720.66432030535,0.328084,0.0,0.019923557068,0.0222425532052,18,5,0.0,720.66432030535,0.0,0.0,0.020727198826,0.0,0.0,0.0,14.7,1.5,0.8,0,0,1024,1024,1024,1024,0,0,0,0,0,0,0,71,3.895,3.9,0,0,0,0,0.0,75.56,720.66432030535,0.0,41,Motors_Started,,0.0
424900,2026-01-13 12:28:23,720.66432030535,0.328084,0.0,0.0084047574868,0.045233597248,18,5,0.0,720.66432030535,0.0,0.0,0.020727198826,0.0,0.0,0.0,14.7,1.5,0.8,0,0,1024,1024,1024,1024,0,0,0,0,0,0,0,71,3.895,3.9,0,0,0,0,0.0,75.56,720.66432030535,0.0,41,Motors_Started,,0.0
425000,2026-01-13 12:28:24,720.66432030535,0.328084,0.0,0.026406004782,0.066308401072,18,5,0.0,720.66432030535,0.0,0.0,0.026406004782,0.0,0.0,0.0,14.7,1.5,0.9,0,0,1024,1024,1024,1024,0,0,0,0,0,0,0,71,3.895,3.9,0,0,0,0,0.0,75.56,720.66432030535,0.0,41,Motors_Started,,0.0
425100,2026-01-13 12:28:24,720.66432030535,0.328084,0.0,0.033398623116,0.073526249072,18,5,0.0,720.66432030535,0.0,0.0,0.033398623116,0.0,0.0,0.0,14.8,1.5,0.8,0,0,1024,1024,1024,1024,0,0,0,0,0,0,0,71,3.895,3.9,0,0,0,0,0.0,75.56,720.66432030535,0.0,41,Motors_Started,,0.0
425200,2026-01-13 12:28:24,720.66432030535,0.328084,0.0,0.072733598128,0.112899609912,19,5,0.0,720.66432030535,0.0,0.0,0.072733598128,0.0,0.0,0.0,14.8,1.5,0.8,0,0,1024,1024,1024,1024,0,0,0,0,0,0,0,71,3.895,3.9,0,0,0,0,0.0,75.56,720.66432030535,0.0,41,Motors_Started,,0.0
425300,2026-01-13 12:28:24,720.66432030535,0.328084,0.0,0.0895013152,0.131261159056,19,5,0.0,720.66432030535,0.0,0.0,0.0895013152,0.0,0.0,0.0,14.8,1.6,0.8,0,0,1024,1024,1024,1024,0,0,0,0,0,0,0,71,3.895,3.9,0,0,0,0,0.0,75.56,720.66432030535,0.0,41,Motors_Started,Setting new Return-To-Home altitude to 90m (295 ft). Data Recorder File Index is 36. Setting new Maximum Flight Altitude to 90m (295 ft),0.0
425400,2026-01-13 12:28:24,720.66432030535,0.328084,0.0,8.9879267968,0.148629926016,19,5,0.0,720.66432030535,0.0,0.0,8.9879267968,0.0,0.0,0.0,14.7,1.5,0.8,0,0,1024,1024,1024,1024,0,0,0,0,0,0,0,71,3.895,3.9,0,0,0,0,0.0,75.56,720.66432030535,0.0,41,Motors_Started,,0.0
425500,2026-01-13 12:28:24,720.66432030535,0.328084,0.0,8.9892391328,0.1621801233,19,5,0.0,720.66432030535,0.0,0.0,8.9892391328,0.0,0.0,0.0,14.7,1.5,0.8,0,0,1024,1024,1024,1024,0,0,0,0,0,0,0,71,3.895,3.9,0,0,0,0,0.0,75.56,720.66432030535,0.0,11,AutoTakeoff,,0.0
425600,2026-01-13 12:28:24,720.66432030535,0.328084,0.0,8.9974412328,0.180560045148,19,5,0.0,720.66432030535,0.0,0.0,8.9974412328,0.0,0.0,0.0,14.7,1.5,0.8,0,0,1024,1024,1024,1024,0,0,0,0,0,0,0,71,3.895,3.9,0,0,0,0,0.0,75.56,720.66432030535,0.0,11,AutoTakeoff,,0.0
425700,2026-01-13 12:28:24,720.66432030535,0.328084,0.0,8.9971459572,0.19149114786,19,5,0.0,720.66432030535,0.0,0.0,8.9974412328,0.0,0.0,0.0,14.7,1.5,0.8,0,0,1024,1024,1024,1024,0,0,0,0,0,0,0,71,3.895,3.9,0,0,0,0,0.0,75.56,720.66432030535,0.0,11,AutoTakeoff,,0.0
425800,2026-01-13 12:28:24,720.66432030535,0.328084,0.0,8.9961288968,0.201455387024,19,5,7.782,720.66432030535,0.0,0.0,8.9974412328,0.0,0.0,0.0,14.7,1.5,0.8,0,0,1024,1024,1024,1024,0,0,0,0,0,0,0,71,3.878,3.879,0,0,0,0,0.822,75.56,720.66432030535,0.0,11,AutoTakeoff,,0.0
425900,2026-01-13 12:28:24,720.66432030535,0.328084,0.0,8.9906827024,0.211137802032,19,5,7.782,720.66432030535,0.0,0.0,8.9974412328,0.0,0.0,0.0,14.7,1.5,0.8,0,0,1024,1024,1024,1024,0,0,0,0,0,0,0,71,3.878,3.879,0,0,0,0,0.822,75.56,720.66432030535,0.0,11,AutoTakeoff,,0.0
426000,2026-01-13 12:28:25,720.66432030535,0.328084,0.0,8.960958292,0.242863524832,19,5,7.782,720.66432030535,0.0,0.0,8.9974412328,0.0,0.0,0.0,14.7,1.5,0.8,0,0,1024,1024,1024,1024,0,0,0,0,0,0,0,71,3.878,3.879,0,0,0,0,0.822,75.56,720.66432030535,0.0,11,AutoTakeoff,,0.0
426100,2026-01-13 12:28:25,720.66432030535,0.328084,0.0,8.979002912,0.264469168568,19,5,7.782,720.66432030535,0.0,0.0,8.9974412328,0.0,0.0,0.0,15.6,1.5,0.7,0,0,1024,1024,1024,1024,0,0,0,0,0,0,0,71,3.878,3.879,0,0,0,0,0.822,75.56,720.66432030535,0.0,11,AutoTakeoff,,0.0
426200,2026-01-13 12:28:25,720.66432030535,0.328084,0.0,8.9954399204,0.28653708266,19,5,7.782,720.66432030535,0.0,0.0,8.9974412328,0.0,0.0,0.0,17.2,1.6,0.6,0,0,1024,1024,1024,1024,0,0,0,0,0,0,0,71,3.878,3.879,0,0,0,0,0.822,75.56,720.66432030535,0.0,11,AutoTakeoff,,0.0
426300,2026-01-13 12:28:25,720.66432030535,0.328084,0.0,8.9981302092,0.307168973084,19,5,7.782,720.66432030535,0.0,0.0,8.9981302092,0.0,0.0,0.0,19.2,0.7,0.1,0,0,1024,1024,1024,1024,0,0,0,0,0,0,0,71,3.878,3.879,0,0,0,0,0.822,75.56,720.66432030535,0.0,11,AutoTakeoff,Home Point updated. RTH altitude adjusted to 90 m (Code: 120852),0.0
426400,2026-01-13 12:28:25,720.66432030535,0.328084,0.0,9.0261157744,0.3620078856,19,5,7.782,720.66432030535,0.0,0.0,9.0261157744,0.0,0.0,-0.223694,20.3,0.4,0.1,0,0,1024,1024,1024,1024,0,0,0,0,0,0,0,71,3.878,3.879,0,0,0,0,0.822,75.56,720.66432030535,0.0,11,AutoTakeoff,,0.0
426500,2026-01-13 12:28:25,720.66432030535,0.328084,0.223694,9.0431105256,0.39879594452,19,5,7.782,720.66432030535,0.0,0.223694,9.0431105256,0.0,0.223694,-0.671082,20.4,0.8,-0.5,0,0,1024,1024,1024,1024,0,0,0,0,0,0,0,71,3.878,3.879,0,0,0,0,0.822,75.56,720.66432030535,0.0,11,AutoTakeoff,,0.0
426600,2026-01-13 12:28:25,720.66432030535,0.656168,0.223694,9.0627955656,0.44250001416,19,5,7.782,720.66432030535,0.0,0.223694,9.0627955656,0.0,0.223694,-0.894776,20.3,1.3,-1.2,0,0,1024,1024,1024,1024,0,0,0,0,0,0,0,71,3.878,3.879,0,0,0,0,0.822,75.56,720.66432030535,0.0,11,AutoTakeoff,,0.0
426700,2026-01-13 12:28:25,720.99240430535,0.656168,0.223694,9.094160396,0.50199804756,19,5,7.709,720.99240430535,0.328084,0.223694,9.094160396,0.0,0.223694,-1.342164,20.1,1.2,-1.7,0,0,1024,1024,1024,1024,0,0,0,0,0,0,0,71,3.854,3.855,0,0,0,0,1.99,75.56,720.99240430535,0.328084,11,AutoTakeoff,,0.1
426800,2026-01-13 12:28:25,721.32048830535,0.984252,0.223694,9.129593468,0.56367455872,19,5,7.709,721.32048830535,0.656168,0.223694,9.129593468,0.0,0.223694,-1.565858,20.2,1.2,-1.7,0,0,1024,1024,1024,1024,0,0,0,0,0,0,0,71,3.854,3.855,0,0,0,0,1.99,75.56,721.32048830535,0.656168,11,AutoTakeoff,,0.2
426900,2026-01-13 12:28:26,721.64857230535,0.984252,0.223694,9.201607906,0.66329726532,19,5,7.709,721.64857230535,0.984252,0.223694,9.201607906,0.0,0.223694,-1.789552,20.2,2.2,-2.0,0,0,1024,1024,1024,1024,0,0,0,0,0,0,0,71,3.854,3.855,0,0,0,0,1.99,75.56,721.64857230535,0.984252,11,AutoTakeoff,,0.3
427000,2026-01-13 12:28:26,721.97665630535,1.312336,0.223694,9.2394359912,0.73187666384,19,5,7.709,721.97665630535,1.312336,0.223694,9.2394359912,0.0,0.223694,-2.013246,20.5,2.5,-2.6,0,0,1024,1024,1024,1024,0,0,0,0,0,0,0,71,3.854,3.855,0,0,0,0,1.99,75.56,721.97665630535,1.312336,11,AutoTakeoff,,0.4
427100,2026-01-13 12:28:26,722.30474030535,1.64042,0.223694,9.273458302,0.78829070764,19,5,7.709,722.30474030535,1.64042,0.223694,9.273458302,0.0,0.223694,-2.23694,20.4,2.7,-3.0,0,0,1024,1024,1024,1024,0,0,0,0,0,0,0,71,3.854,3.855,0,0,0,0,1.99,75.56,722.30474030535,1.64042,11,AutoTakeoff,,0.5
427200,2026-01-13 12:28:26,722.63282430535,1.968504,0.223694,9.3063323188,0.84102036812,19,5,7.709,722.63282430535,1.968504,0.223694,9.3063323188,0.0,0.223694,-2.23694,20.4,2.7,-3.3,0,0,1024,1024,1024,1024,0,0,0,0,0,0,0,71,3.854,3.855,0,0,0,0,1.99,75.56,722.63282430535,1.968504,11,AutoTakeoff,,0.6
427300,2026-01-13 12:28:26,722.96090830535,2.296588,0.223694,9.3648953128,0.92791013468,19,5,7.709,722.96090830535,2.296588,0.223694,9.3648953128,0.0,0.223694,-2.460634,20.4,3.4,-3.3,0,0,1024,1024,1024,1024,0,0,0,0,0,0,0,71,3.854,3.855,0,0,0,0,1.99,75.56,722.96090830535,2.296588,11,AutoTakeoff,,0.7
427400,2026-01-13 12:28:26,723.61707630535,2.624672,0.223694,9.4190947896,1.00459648884,19,5,7.709,723.61707630535,2.952756,0.223694,9.4190947896,0.0,0.223694,-2.23694,20.3,3.7,-3.8,1,0,1024,1024,1024,1024,0,0,0,0,0,0,0,71,3.854,3.855,0,0,0,0,1.99,75.56,723.61707630535,2.952756,11,AutoTakeoff,,0.9
427500,2026-01-13 12:28:26,723.94516030535,2.952756,0.223694,9.4635173632,1.06016079508,19,5,7.709,723.94516030535,3.28084,0.223694,9.4635173632,0.0,0.223694,-2.23694,20.2,4.3,-4.3,0,0,1024,1024,1024,1024,0,0,0,0,0,0,0,71,3.854,3.855,0,0,0,0,1.99,75.56,723.94516030535,3.28084,6,P-GPS,,1.0
427600,2026-01-13 12:28:26,724.27324430535,2.952756,0.3131716,9.5059714328,1.110482319,18,5,7.709,724.27324430535,3.608924,0.3131716,9.5059714328,0.223694,0.223694,-2.013246,20.1,5.4,-3.7,0,0,1024,1024,1075,1024,0,0,8,0,0,0,0,71,3.854,3.855,0,0,0,0,1.99,75.56,724.27324430535,3.608924,6,P-GPS,,1.1
427700,2026-01-13 12:28:26,724.60132830535,3.28084,0.3131716,9.6039045068,1.20841211216,18,5,7.557,724.60132830535,3.937008,0.3131716,9.6039045068,0.223694,0.223694,-1.565858,20.3,6.7,-2.6,0,0,1024,1024,1684,1024,0,0,100,0,0,0,0,71,3.784,3.788,0,0,0,0,5.506,75.74,724.60132830535,3.937008,6,P-GPS,,1.2
427800,2026-01-13 12:28:26,724.92941230535,3.608924,0.223694,9.6635829864,1.27428481768,19,5,7.557,724.92941230535,4.265092,0.3131716,9.6635829864,0.0,0.223694,-1.11847,20.3,5.7,-3.2,0,0,1024,1024,1684,1024,0,0,100,0,0,0,0,71,3.784,3.788,0,0,0,0,5.506,75.74,724.92941230535,4.265092,6,P-GPS,,1.3
427900,2026-01-13 12:28:26,725.25749630535,3.608924,0.223694,9.6873690764,1.32078088216,19,5,7.557,725.25749630535,4.593176,0.3131716,9.6873690764,0.0,0.223694,-0.671082,20.2,5.5,-3.8,0,0,1024,1024,1684,1024,0,0,100,0,0,0,0,71,3.784,3.788,0,0,0,0,5.506,75.74,725.25749630535,4.593176,6,P-GPS,,1.4
428000,2026-01-13 12:28:27,725.58558030535,3.608924,0.223694,9.7020672396,1.36400594916,19,5,7.557,725.58558030535,4.92126,0.3131716,9.7020672396,0.0,0.223694,-0.671082,19.9,6.1,-3.6,0,0,1024,1024,1684,1024,0,0,100,0,0,0,0,71,3.784,3.788,0,0,0,0,5.506,75.74,725.58558030535,4.92126,6,P-GPS,Gimbal stuck. SD card speed low SD card speed low. Normal use may be affected. Replace SD card (Code: 10028). Gimbal stuck. Make sure gimbal cover is removed and manually check whether gimbal can rotate freely (Code: 40002). SD card speed low. Normal use may be affected. Replace SD,1.5
428100,2026-01-13 12:28:27,725.91366430535,3.937008,0.223694,9.692913696,1.38610896824,19,5,7.557,725.91366430535,5.249344,0.3131716,9.7020672396,0.0,0.223694,-1.11847,20.0,4.8,-3.8,0,0,1024,1024,1684,1024,0,0,100,0,0,0,0,71,3.784,3.788,0,0,0,0,5.506,75.74,725.91366430535,5.249344,6,P-GPS,,1.6
428200,2026-01-13 12:28:27,726.24174830535,4.265092,0.3131716,9.6759845616,1.41341211872,19,5,7.557,726.24174830535,5.577428,0.3131716,9.7020672396,-0.223694,0.223694,-1.789552,19.7,4.5,-4.7,0,0,1024,1024,1684,1024,0,0,100,0,0,0,0,71,3.784,3.788,0,0,0,0,5.506,75.74,726.24174830535,5.577428,6,P-GPS,,1.7
428300,2026-01-13 12:28:27,726.89791630535,4.593176,0.3131716,9.620571174,1.49989506112,19,5,7.557,726.89791630535,6.233596,0.3131716,9.7020672396,-0.447388,0.0,-2.460634,19.7,3.4,-5.4,0,0,1024,1024,1684,1024,0,0,100,0,0,0,0,71,3.784,3.788,0,0,0,0,5.506,75.74,726.89791630535,6.233596,6,P-GPS,,1.9
428400,2026-01-13 12:28:27,727.22600030535,4.92126,0.447388,9.5439963684,1.59407157332,19,5,7.557,727.22600030535,6.56168,0.447388,9.7020672396,-0.447388,0.0,-3.131716,19.8,1.0,-6.0,1,0,1024,1024,1684,1024,0,0,100,0,0,0,0,71,3.784,3.788,0,0,0,0,5.506,75.74,727.22600030535,6.56168,6,P-GPS,,2.0
428500,2026-01-13 12:28:27,727.88216830535,5.577428,0.447388,9.4229989892,1.72647971404,19,5,7.557,727.88216830535,7.217848,0.447388,9.7020672396,-0.447388,0.0,-3.579104,20.0,-0.5,-5.1,0,0,1024,1024,1684,1024,0,0,100,0,0,0,0,71,3.784,3.788,0,0,0,0,5.506,75.74,727.88216830535,7.217848,6,P-GPS,Gimbal stuck. SD card speed low Gimbal stuck. Make sure gimbal cover is removed and manually check whether gimbal can rotate freely (Code: 40002). Home Point updated. RTH altitude adjusted to 90 m (Code: 120852). SD card speed low. Normal use may be affected. Replace SD card (Code:,2.2
428600,2026-01-13 12:28:27,728.53833630535,5.905512,0.447388,9.23966565,1.95976712308,19,5,7.557,728.53833630535,7.874016,0.447388,9.7020672396,-0.447388,0.0,-4.026492,20.1,-2.0,-7.2,0,0,1024,1024,1684,1024,0,0,100,0,0,0,0,71,3.784,3.788,0,0,0,0,5.506,75.74,728.53833630535,7.874016,6,P-GPS,,2.4
428700,2026-01-13 12:28:27,729.19450430535,6.56168,0.447388,9.1069228636,2.12285439864,19,5,7.505,729.19450430535,8.530184,0.447388,9.7020672396,-0.447388,0.0,-4.250186,19.9,-1.5,-5.9,0,0,1024,1024,1684,1024,0,0,100,0,0,0,0,71,3.754,3.752,0,0,0,0,5.491,75.74,729.19450430535,8.530184,6,P-GPS,,2.6
428800,2026-01-13 12:28:27,729.85067230535,7.217848,0.3131716,8.993274566,2.25924875996,20,5,7.505,729.85067230535,9.186352,0.447388,9.7020672396,-0.223694,-0.223694,-4.47388,20.0,-1.9,-4.5,0,0,1024,1024,1684,1024,0,0,100,0,0,0,0,71,3.754,3.752,0,0,0,0,5.491,75.74,729.85067230535,9.186352,6,P-GPS,,2.8
428900,2026-01-13 12:28:27,730.50684030535,7.874016,0.3131716,8.9579727276,2.32850729236,20,5,7.505,730.50684030535,9.84252,0.447388,9.7020672396,-0.223694,-0.223694,-4.47388,20.0,-1.8,-3.8,0,0,1024,1024,1684,1024,0,0,100,0,0,0,0,71,3.754,3.752,0,0,0,0,5.491,75.74,730.50684030535,9.84252,6,P-GPS,,3.0
429000,2026-01-13 12:28:28,730.83492430535,8.530184,0.0,8.9438323072,2.59935047688,20,5,7.505,730.83492430535,10.170604,0.447388,9.7020672396,0.0,0.0,-4.250186,20.1,-1.4,-3.6,0,0,1024,1024,1684,1024,0,0,100,0,0,0,0,71,3.754,3.752,0,0,0,0,5.491,75.74,730.83492430535,10.170604,6,P-GPS,,3.1
429100,2026-01-13 12:28:28,731.49109230535,9.186352,0.0,8.9702430692,2.73806439208,20,5,7.505,731.49109230535,10.826772,0.447388,9.7020672396,0.0,0.0,-4.250186,20.0,-0.4,-3.6,0,0,1024,1024,1684,1024,0,0,100,0,0,0,0,71,3.754,3.752,0,0,0,0,5.491,75.74,731.49109230535,10.826772,6,P-GPS,Gimbal stuck. SD card speed low Gimbal stuck. Make sure gimbal cover is removed and manually check whether gimbal can rotate freely (Code: 40002). Home Point updated. RTH altitude adjusted to 90 m (Code: 120852). SD card speed low. Normal use may be affected. Replace SD card (Code:,3.3
429200,2026-01-13 12:28:28,732.14726030535,9.84252,0.0,9.0097443828,2.87182095804,20,5,7.505,732.14726030535,11.48294,0.447388,9.7020672396,0.0,0.0,-4.250186,20.3,-0.3,-3.7,0,0,1024,1024,1684,1024,0,0,100,0,0,0,0,71,3.754,3.752,0,0,0,0,5.491,75.74,732.14726030535,11.48294,6,P-GPS,,3.5
429300,2026-01-13 12:28:28,732.80342830535,10.498688,0.223694,9.0228677428,2.9093012742,20,5,7.505,732.80342830535,12.139108,0.447388,9.7020672396,0.223694,0.0,-4.250186,20.1,2.5,-3.0,0,0,1024,1024,1684,1024,0,0,100,0,0,0,0,71,3.754,3.752,0,0,0,0,5.491,75.74,732.80342830535,12.139108,6,P-GPS,,3.7
429400,2026-01-13 12:28:28,733.45959630535,10.826772,0.223694,9.1132876932,3.0708498358,20,5,7.505,733.45959630535,12.795276,0.447388,9.7020672396,0.223694,0.0,-4.250186,20.3,3.0,-1.7,0,0,1024,1024,1684,1015,0,0,100,-1,0,0,0,71,3.754,3.752,0,0,0,0,5.491,75.74,733.45959630535,12.795276,6,P-GPS,,3.9
429500,2026-01-13 12:28:28,734.11576430535,11.48294,0.223694,9.1138782444,3.0882054794,20,5,7.505,734.11576430535,13.451444,0.447388,9.7020672396,0.223694,0.0,-4.250186,20.2,3.6,-1.9,0,0,1024,1024,1684,1007,0,0,100,-3,0,0,0,71,3.754,3.752,0,0,0,0,5.491,75.74,734.11576430535,13.451444,6,P-GPS,,4.1
429600,2026-01-13 12:28:28,734.77193230535,12.139108,0.223694,9.1147312628,3.0958170282,20,5,7.505,734.77193230535,14.107612,0.447388,9.7020672396,0.223694,0.0,-4.47388,20.1,3.3,-2.7,0,0,1024,1024,1684,1005,0,0,100,-3,0,0,0,71,3.754,3.752,0,0,0,0,5.491,75.74,734.77193230535,14.107612,6,P-GPS,,4.3
429700,2026-01-13 12:28:28,735.42810030535,12.467192,0.0,9.1724412384,3.1579561378,20,5,7.529,735.42810030535,14.76378,0.447388,9.7020672396,0.0,0.0,-4.47388,20.0,3.8,-3.3,0,0,1024,1024,1684,985,0,0,100,-6,0,0,0,71,3.745,3.753,0,0,0,0,6.245,75.74,735.42810030535,14.76378,6,P-GPS,,4.5
429800,2026-01-13 12:28:28,736.41235230535,13.12336,0.223694,9.261975362,3.4182415792,20,5,7.529,736.41235230535,15.748032,0.447388,9.7020672396,0.223694,0.0,-4.47388,20.0,3.4,-4.5,0,0,1024,1024,1684,970,0,0,100,-8,0,0,0,71,3.745,3.753,0,0,0,0,6.245,75.74,736.41235230535,15.748032,6,P-GPS,,4.8
429900,2026-01-13 12:28:28,737.06852030535,13.779528,0.223694,9.350722084,3.5093176976,20,5,7.529,737.06852030535,16.4042,0.447388,9.7020672396,0.223694,0.0,-4.250186,20.0,5.6,-4.3,0,0,1024,1024,1684,970,0,0,100,-8,0,0,0,71,3.745,3.753,0,0,0,0,6.245,75.74,737.06852030535,16.4042,6,P-GPS,,5.0
430000,2026-01-13 12:28:29,737.72468830535,14.435696,0.0,9.4299215616,3.5914371228,20,5,7.529,737.72468830535,17.060368,0.447388,9.7020672396,0.0,0.0,-4.250186,20.2,5.6,-4.2,0,0,1024,1024,1684,967,0,0,100,-9,0,0,0,71,3.745,3.753,0,0,0,0,6.245,75.74,737.72468830535,17.060368,6,P-GPS,,5.2
430100,2026-01-13 12:28:29,738.38085630535,15.091864,0.0,9.451443872,3.6134515592,20,5,7.529,738.38085630535,17.716536,0.447388,9.7020672396,0.0,0.0,-4.250186,20.0,5.9,-3.9,0,0,1024,1024,1684,966,0,0,100,-9,0,0,0,71,3.745,3.753,0,0,0,0,6.245,75.74,738.38085630535,17.716536,6,P-GPS,,5.4
430200,2026-01-13 12:28:29,739.03702430535,15.748032,0.0,9.4549215624,3.6208662576,20,5,7.529,739.03702430535,18.372704,0.447388,9.7020672396,0.0,0.0,-4.47388,20.0,4.5,-3.5,0,0,1024,1024,1684,966,0,0,100,-9,0,0,0,71,3.745,3.753,0,0,0,0,6.245,75.74,739.03702430535,18.372704,6,P-GPS,,5.6
430300,2026-01-13 12:28:29,739.69319230535,16.4042,0.0,9.3353349444,3.7420604872,20,5,7.529,739.69319230535,19.028872,0.447388,9.7020672396,0.0,0.0,-4.47388,19.7,3.8,-4.3,0,0,1024,1024,1684,966,0,0,100,-9,0,0,0,71,3.745,3.753,0,0,0,0,6.245,75.74,739.69319230535,19.028872,6,P-GPS,,5.8
430400,2026-01-13 12:28:29,740.02127630535,17.060368,0.0,9.2747050212,3.8155184948,19,5,7.529,740.02127630535,19.356956,0.447388,9.7020672396,0.0,0.0,-4.47388,19.6,3.1,-4.2,0,0,1024,1024,1684,966,0,0,100,-9,0,0,0,71,3.745,3.753,0,0,0,0,6.245,75.74,740.02127630535,19.356956,6,P-GPS,,5.9
430500,2026-01-13 12:28:29,740.67744430535,18.04462,0.0,9.2022312656,3.8881562924,19,5,7.529,740.67744430535,20.013124,0.447388,9.7020672396,0.0,0.0,-4.47388,19.6,3.0,-4.0,0,0,1024,1024,1684,966,0,0,100,-9,0,0,0,71,3.745,3.753,0,0,0,0,6.245,75.74,740.67744430535,20.013124,6,P-GPS,,6.1
430600,2026-01-13 12:28:29,741.33361230535,18.700788,0.0,9.1340882188,3.9566274232,19,5,7.514,741.33361230535,20.669292,0.447388,9.7020672396,0.0,0.0,-4.47388,19.5,2.8,-3.7,0,0,1024,1024,1684,966,0,0,100,-9,0,0,0,71,3.753,3.761,0,0,0,0,6.085,75.74,741.33361230535,20.669292,6,P-GPS,,6.3
430700,2026-01-13 12:28:29,741.98978030535,19.68504,0.0,8.9869753532,4.122539502,19,5,7.514,741.98978030535,21.32546,0.447388,9.7020672396,0.0,0.0,-4.47388,19.6,2.3,-3.8,0,0,1024,1024,1684,966,0,0,100,-9,0,0,0,71,3.753,3.761,0,0,0,0,6.085,75.74,741.98978030535,21.32546,6,P-GPS,,6.5
430800,2026-01-13 12:28:29,742.64594830535,20.341208,0.0,8.9433073728,4.1662402908,20,5,7.514,742.64594830535,21.981628,0.447388,9.7020672396,0.0,0.0,-4.47388,19.6,3.1,-3.5,0,0,1024,1024,1684,966,0,0,100,-9,0,0,0,71,3.753,3.761,0,0,0,0,6.085,75.74,742.64594830535,21.981628,6,P-GPS,,6.7
430900,2026-01-13 12:28:29,743.30211630535,20.997376,0.0,8.933235194,4.1830053832,20,5,7.514,743.30211630535,22.637796,0.447388,9.7020672396,0.0,0.0,-4.47388,19.4,4.3,-3.9,0,0,1024,1024,1684,965,0,0,100,-9,0,0,0,71,3.753,3.761,0,0,0,0,6.085,75.74,743.30211630535,22.637796,6,P-GPS,,6.9
431000,2026-01-13 12:28:30,743.95828430535,21.981628,0.0,8.9259517292,4.2021654888,20,5,7.514,743.95828430535,23.293964,0.447388,9.7020672396,0.0,0.0,-4.47388,19.4,5.1,-3.1,0,0,1024,1024,1684,965,0,0,100,-9,0,0,0,71,3.753,3.761,0,0,0,0,6.085,75.74,743.95828430535,23.293964,6,P-GPS,,7.1
431100,2026-01-13 12:28:30,744.28636830535,22.637796,0.0,8.9513782392,4.256233732,20,5,7.514,744.28636830535,23.622048,0.447388,9.7020672396,0.0,0.0,-4.47388,19.4,4.8,-3.5,0,0,1024,1024,1684,966,0,0,100,-9,0,0,0,71,3.753,3.761,0,0,0,0,6.085,75.74,744.28636830535,23.622048,6,P-GPS,,7.2
431200,2026-01-13 12:28:30,744.94253630535,23.622048,0.0,8.9348099972,4.274278352,19,5,7.514,744.94253630535,24.278216,0.447388,9.7020672396,0.0,0.0,-4.47388,19.1,5.0,-3.7,0,0,1024,1024,1684,966,0,0,100,-9,0,0,0,71,3.753,3.761,0,0,0,0,6.085,75.74,744.94253630535,24.278216,6,P-GPS,,7.4
431300,2026-01-13 12:28:30,745.59870430535,24.278216,0.0,8.9092522536,4.3092521064,19,5,7.514,745.59870430535,24.934384,0.447388,9.7020672396,0.0,0.0,-4.250186,18.6,4.7,-4.2,0,0,1024,1024,1684,964,0,0,100,-9,0,0,0,71,3.753,3.761,0,0,0,0,6.085,75.74,745.59870430535,24.934384,6,P-GPS,,7.6
431400,2026-01-13 12:28:30,746.25487230535,25.262468,0.0,8.8756236436,4.3497704804,19,5,7.514,746.25487230535,25.590552,0.447388,9.7020672396,0.0,0.0,-4.250186,18.5,4.3,-4.1,0,0,1024,1024,1684,963,0,0,100,-9,0,0,0,71,3.753,3.761,0,0,0,0,6.085,75.74,746.25487230535,25.590552,6,P-GPS,,7.8
431500,2026-01-13 12:28:30,746.91104030535,26.24672,0.0,8.8387141936,4.395177306,19,5,7.514,746.91104030535,26.24672,0.447388,9.7020672396,0.0,0.0,-4.250186,18.3,3.9,-3.6,0,0,1024,1024,1684,880,0,0,100,-22,0,0,0,71,3.753,3.761,0,0,0,0,6.085,75.74,746.91104030535,26.24672,6,P-GPS,,8.0
431600,2026-01-13 12:28:30,747.23912430535,26.902888,0.0,8.792159074,4.4418308508,19,5,7.514,747.23912430535,26.574804,0.447388,9.7020672396,0.0,0.0,-4.47388,18.2,3.7,-3.2,0,0,1024,1024,1684,880,0,0,100,-22,0,0,0,71,3.753,3.761,0,0,0,0,6.085,75.74,747.23912430535,26.574804,6,P-GPS,,8.1
431700,2026-01-13 12:28:30,747.89529230535,27.88714,0.0,8.781332302,4.453248174,19,5,7.517,747.89529230535,27.230972,0.447388,9.7020672396,0.0,0.0,-4.47388,18.1,3.8,-3.5,0,0,1024,1024,1684,868,0,0,100,-24,0,0,0,71,3.755,3.761,0,0,0,0,5.627,75.74,747.89529230535,27.230972,6,P-GPS,,8.3
431800,2026-01-13 12:28:30,748.55146030535,28.543308,0.0,8.771489782,4.467191744,19,5,7.517,748.55146030535,27.88714,0.447388,9.7020672396,0.0,0.0,-4.47388,17.7,3.7,-4.2,0,0,1024,1024,1684,868,0,0,100,-24,0,0,0,71,3.755,3.761,0,0,0,0,5.627,75.74,748.55146030535,27.88714,6,P-GPS,,8.5
431900,2026-01-13 12:28:30,749.20762830535,29.199476,0.0,8.72949503,4.5132219292,19,5,7.517,749.20762830535,28.543308,0.447388,9.7020672396,0.0,0.0,-4.47388,16.8,3.7,-4.7,0,0,1024,1024,1684,868,0,0,100,-24,0,0,0,71,3.755,3.761,0,0,0,0,5.627,75.74,749.20762830535,28.543308,6,P-GPS,,8.7
432000,2026-01-13 12:28:31,749.86379630535,29.52756,0.0,8.7065619584,4.5364830848,19,5,7.517,749.86379630535,29.199476,0.447388,9.7020672396,0.0,0.0,-4.47388,15.8,4.2,-5.5,0,0,1024,1024,1684,867,0,0,100,-24,0,0,0,71,3.755,3.761,0,0,0,0,5.627,75.74,749.86379630535,29.199476,6,P-GPS,,8.9
432100,2026-01-13 12:28:31,750.51996430535,29.52756,0.0,8.627624948,4.6236221952,19,5,7.517,750.51996430535,29.855644,0.447388,9.7020672396,0.0,0.0,-4.250186,14.5,5.1,-5.8,0,0,1024,1024,1684,867,0,0,100,-24,0,0,0,71,3.755,3.761,0,0,0,0,5.627,75.74,750.51996430535,29.855644,6,P-GPS,,9.1
432200,2026-01-13 12:28:31,751.17613230535,32.8084,0.0,8.5437338692,4.7141405708,19,5,7.517,751.17613230535,30.511812,0.447388,9.7020672396,0.0,0.0,-4.250186,13.6,4.0,-5.6,0,0,1024,1024,1684,867,0,0,100,-24,0,0,0,71,3.755,3.761,0,0,0,0,5.627,75.74,751.17613230535,30.511812,6,P-GPS,,9.3
432300,2026-01-13 12:28:31,751.83230030535,33.464568,0.223694,8.527067202,4.7449476584,19,5,7.517,751.83230030535,31.16798,0.447388,9.7020672396,-0.223694,0.0,-4.47388,12.4,3.4,-5.8,0,0,1024,1024,1684,865,0,0,100,-24,0,0,0,71,3.755,3.761,0,0,0,0,5.627,75.74,751.83230030535,31.16798,6,P-GPS,,9.5
432400,2026-01-13 12:28:31,752.48846830535,34.120736,0.223694,8.5491800636,4.790518526,20,5,7.517,752.48846830535,31.824148,0.447388,9.7020672396,-0.223694,0.0,-4.250186,11.2,2.5,-6.0,0,0,1024,1024,1684,865,0,0,100,-24,0,0,0,71,3.755,3.761,0,0,0,0,5.627,75.74,752.48846830535,31.824148,6,P-GPS,,9.7
432500,2026-01-13 12:28:31,753.14463630535,34.776904,0.447388,8.4705055204,4.8726379512,20,5,7.517,753.14463630535,32.480316,0.447388,9.7020672396,-0.447388,0.0,-4.250186,10.3,1.3,-6.1,0,0,1024,1024,1368,1024,0,0,52,0,0,0,0,71,3.755,3.761,0,0,0,0,5.627,75.74,753.14463630535,32.480316,6,P-GPS,,9.9
432600,2026-01-13 12:28:31,753.80080430535,35.433072,0.447388,8.3801511868,4.965715382,20,5,7.517,753.80080430535,33.136484,0.447388,9.7020672396,-0.447388,0.0,-4.47388,9.2,-0.6,-5.7,0,0,1024,1024,1024,1024,0,0,0,0,0,0,0,71,3.755,3.761,0,0,0,0,5.627,75.74,753.80080430535,33.136484,6,P-GPS,,10.1
432700,2026-01-13 12:28:31,754.12888830535,36.08924,0.447388,8.2643375348,5.0834319212,20,5,7.517,754.12888830535,33.464568,0.447388,9.7020672396,-0.447388,0.0,-4.47388,8.6,-1.9,-5.9,0,0,1024,1024,1024,1024,0,0,0,0,0,0,0,71,3.755,3.761,0,0,0,0,5.627,75.74,754.12888830535,33.464568,6,P-GPS,,10.2
432800,2026-01-13 12:28:31,754.78505630535,36.745408,0.671082,8.1608598412,5.1869096148,20,5,7.517,754.78505630535,34.120736,0.671082,9.7020672396,-0.671082,0.0,-4.026492,8.6,-2.7,-6.1,0,0,1024,1024,1024,1024,0,0,0,0,0,0,0,71,3.767,3.803,0,0,0,0,5.627,75.74,754.78505630535,34.120736,6,P-GPS,,10.4
432900,2026-01-13 12:28:31,755.44122430535,37.401576,0.447388,8.0281826716,5.3349411156,20,5,7.517,755.44122430535,34.776904,0.671082,9.7020672396,-0.447388,0.0,-3.35541,8.9,-3.9,-6.7,0,0,1024,1024,1024,1024,0,0,0,0,0,0,0,71,3.767,3.803,0,0,0,0,5.627,75.74,755.44122430535,34.776904,6,P-GPS,,10.6
433000,2026-01-13 12:28:32,755.76930830535,37.72966,0.447388,7.9079398856,5.4740487316,20,5,7.517,755.76930830535,35.104988,0.671082,9.7020672396,-0.447388,0.0,-2.460634,8.8,-4.4,-8.3,0,0,1024,1024,1024,1024,0,0,0,0,0,0,0,71,3.767,3.803,0,0,0,0,5.627,75.74,755.76930830535,35.104988,6,P-GPS,,10.7
433100,2026-01-13 12:28:32,756.09739230535,38.057744,0.447388,7.7784779392,5.6249017548,20,5,7.517,756.09739230535,35.433072,0.671082,9.7020672396,-0.447388,0.0,-1.565858,8.6,-4.2,-9.3,0,0,1024,1024,1024,1024,0,0,0,0,0,0,0,71,3.767,3.803,0,0,0,0,5.627,75.74,756.09739230535,35.433072,6,P-GPS,,10.8
433200,2026-01-13 12:28:32,756.09739230535,38.385828,0.223694,7.5814306888,5.8614503188,20,5,7.517,756.09739230535,35.433072,0.671082,9.7020672396,-0.223694,0.0,-0.671082,8.4,-3.6,-9.1,0,0,1024,1024,1024,1024,0,0,0,0,0,0,0,71,3.767,3.803,0,0,0,0,5.627,75.74,756.09739230535,35.433072,6,P-GPS,,10.8
433300,2026-01-13 12:28:32,756.09739230535,38.385828,0.223694,7.4998033896,5.9810697452,20,5,7.517,756.09739230535,35.433072,0.671082,9.7020672396,-0.223694,0.0,0.0,8.7,-3.7,-9.0,0,0,1024,1024,1024,1024,0,0,0,0,0,0,0,71,3.767,3.803,0,0,0,0,5.627,75.74,756.09739230535,35.433072,6,P-GPS,,10.8
433400,2026-01-13 12:28:32,756.09739230535,38.385828,0.223694,7.4289372456,6.0853676488,19,5,7.517,756.09739230535,35.433072,0.671082,9.7020672396,-0.223694,0.0,0.0,8.7,-2.6,-7.4,0,0,1024,1024,1024,1024,0,0,0,0,0,0,0,71,3.767,3.803,0,0,0,0,5.627,75.74,756.09739230535,35.433072,6,P-GPS,,10.8
433500,2026-01-13 12:28:32,756.42547630535,38.385828,0.0,7.396981864,6.1319227684,19,5,7.517,756.42547630535,35.761156,0.671082,9.7020672396,0.0,0.0,0.0,8.9,-2.2,-6.8,0,0,1024,1024,1024,1024,0,0,0,0,0,0,0,71,3.767,3.803,0,0,0,0,5.627,75.74,756.42547630535,35.761156,6,P-GPS,,10.9
433600,2026-01-13 12:28:32,756.42547630535,38.385828,0.0,7.383858504,6.1616799872,19,5,7.517,756.42547630535,35.761156,0.671082,9.7020672396,0.0,0.0,0.0,8.7,-2.3,-6.9,0,0,1024,1024,1024,1024,0,0,0,0,0,0,0,71,3.767,3.803,0,0,0,0,5.627,75.74,756.42547630535,35.761156,6,P-GPS,,10.9
433700,2026-01-13 12:28:32,756.42547630535,38.385828,0.0,7.5143375108,6.3348755308,19,5,7.517,756.42547630535,35.761156,0.671082,9.7020672396,0.0,0.0,0.0,8.6,-1.4,-6.9,0,0,1024,1024,1024,1024,0,0,0,0,0,0,0,71,3.767,3.803,0,0,0,0,5.627,75.74,756.42547630535,35.761156,6,P-GPS,,10.9
433800,2026-01-13 12:28:32,756.75356030535,38.385828,0.0,7.5490816064,6.4014765828,19,5,7.517,756.75356030535,36.08924,0.671082,9.7020672396,0.223694,0.0,0.0,8.4,0.0,-8.3,0,0,1024,1024,1024,1024,0,0,0,0,0,0,0,71,3.767,3.803,0,0,0,0,5.627,75.74,756.75356030535,36.08924,6,P-GPS,,11.0
433900,2026-01-13 12:28:32,756.75356030535,38.385828,0.3131716,7.5904201904,6.4704398396,19,5,7.517,756.75356030535,36.08924,0.671082,9.7020672396,0.223694,0.223694,0.0,8.2,2.6,-7.3,0,0,1024,1024,1024,1024,0,0,0,0,0,0,0,71,3.767,3.803,0,0,0,0,5.627,75.74,756.75356030535,36.08924,6,P-GPS,,11.0
434000,2026-01-13 12:28:33,757.08164430535,38.385828,0.223694,7.6297246536,6.5456695008,19,5,7.501,757.08164430535,36.417324,0.671082,9.7020672396,0.0,0.223694,-0.223694,8.7,1.7,-9.1,0,0,1024,1024,1024,1024,0,0,0,0,0,0,0,71,3.748,3.753,0,0,0,0,5.277,75.74,757.08164430535,36.417324,6,P-GPS,,11.1
434100,2026-01-13 12:28:33,757.40972830535,38.385828,0.447388,7.6997049708,6.621227246,19,5,7.501,757.40972830535,36.745408,0.671082,9.7020672396,0.0,0.447388,-0.447388,9.2,-0.9,-11.2,0,0,1024,1024,1024,1024,0,0,0,0,0,0,0,71,3.748,3.753,0,0,0,0,5.277,75.74,757.40972830535,36.745408,6,P-GPS,,11.2
434200,2026-01-13 12:28:33,757.40972830535,38.385828,0.447388,7.74114198,6.6974739676,19,5,7.501,757.40972830535,36.745408,0.671082,9.7020672396,0.0,0.447388,-0.223694,8.7,0.1,-14.2,0,0,1024,1024,1024,1024,0,0,0,0,0,0,0,71,3.748,3.753,0,0,0,0,5.277,75.74,757.40972830535,36.745408,6,P-GPS,,11.2
434300,2026-01-13 12:28:33,757.40972830535,38.385828,0.447388,7.8027889636,6.778707566,19,5,7.501,757.40972830535,36.745408,0.671082,9.7020672396,0.0,0.447388,0.0,8.1,1.6,-15.0,0,0,1024,1024,1024,1024,0,0,0,0,0,0,0,71,3.748,3.753,0,0,0,0,5.277,75.74,757.40972830535,36.745408,6,P-GPS,,11.2
434400,2026-01-13 12:28:33,757.40972830535,38.385828,0.223694,7.8465881776,6.8381891952,19,5,7.501,757.40972830535,36.745408,0.671082,9.7020672396,0.0,0.223694,0.0,8.1,1.3,-14.5,0,0,1024,1024,1024,1024,0,0,0,0,0,0,0,71,3.748,3.753,0,0,0,0,5.277,75.74,757.40972830535,36.745408,6,P-GPS,,11.2
434500,2026-01-13 12:28:33,757.40972830535,38.385828,0.0,7.8337272848,6.925689198,19,5,7.501,757.40972830535,36.745408,0.671082,9.7020672396,0.0,0.0,0.0,8.4,0.5,-12.7,0,0,1024,1024,1024,1024,0,0,0,0,0,0,0,71,3.748,3.753,0,0,0,0,5.277,75.74,757.40972830535,36.745408,6,P-GPS,,11.2
434600,2026-01-13 12:28:33,757.40972830535,38.385828,0.223694,7.7936026116,7.0032154472,20,5,7.501,757.40972830535,36.745408,0.671082,9.7020672396,-0.223694,0.0,0.0,9.1,-0.8,-11.2,0,0,1024,1024,1024,1024,0,0,0,0,0,0,0,71,3.748,3.753,0,0,0,0,5.277,75.74,757.40972830535,36.745408,6,P-GPS,,11.2
434700,2026-01-13 12:28:33,757.40972830535,38.385828,0.223694,7.7451774132,7.0902889408,20,5,7.501,757.40972830535,36.745408,0.671082,9.7020672396,-0.223694,0.0,0.0,9.4,-2.1,-12.0,0,0,1024,1024,1024,1024,0,0,0,0,0,0,0,71,3.748,3.753,0,0,0,0,5.277,75.74,757.40972830535,36.745408,6,P-GPS,,11.2
434800,2026-01-13 12:28:33,757.73781230535,38.385828,0.0,7.7021327924,7.1747705708,20,5,7.501,757.73781230535,37.073492,0.671082,9.7020672396,0.0,0.0,0.0,9.6,-4.1,-11.4,0,0,1024,1024,1024,1024,0,0,0,0,0,0,0,71,3.748,3.753,0,0,0,0,5.277,75.74,757.73781230535,37.073492,6,P-GPS,,11.3
434900,2026-01-13 12:28:33,757.73781230535,38.385828,0.0,7.6343834464,7.2714569256,20,5,7.501,757.73781230535,37.073492,0.671082,9.7020672396,0.0,0.0,-0.223694,9.0,-2.6,-11.9,0,0,1024,1024,1024,1024,0,0,0,0,0,0,0,71,3.748,3.753,0,0,0,0,5.277,75.74,757.73781230535,37.073492,6,P-GPS,,11.3
435000,2026-01-13 12:28:34,757.40972830535,38.385828,0.0,7.6040356764,7.3100724124,20,5,7.501,757.73781230535,37.073492,0.671082,9.7020672396,0.0,0.0,0.0,8.8,-1.5,-12.6,0,0,1024,1024,1024,1024,0,0,0,0,0,0,0,71,3.748,3.753,0,0,0,0,5.277,75.74,757.40972830535,36.745408,6,P-GPS,,11.2
435100,2026-01-13 12:28:34,757.40972830535,38.385828,0.0,7.5352036532,7.3793309448,20,5,7.547,757.73781230535,37.073492,0.671082,9.7020672396,0.0,0.0,0.0,8.8,-0.7,-12.7,0,0,1024,1024,1024,1024,0,0,0,0,0,0,0,71,3.789,3.797,0,0,0,0,5.166,75.74,757.40972830535,36.745408,6,P-GPS,Home Point updated. RTH altitude adjusted to 90 m (Code: 120852),11.2
435200,2026-01-13 12:28:34,757.08164430535,38.385828,0.0,7.4667325224,7.447834884,20,5,7.547,757.73781230535,37.073492,0.671082,9.7020672396,0.0,0.0,0.0,8.8,-0.4,-11.8,0,0,1024,1024,1024,1024,0,0,0,0,0,0,0,71,3.789,3.797,0,0,0,0,5.166,75.74,757.08164430535,36.417324,6,P-GPS,,11.1
435300,2026-01-13 12:28:34,757.08164430535,38.385828,0.0,7.4480645428,7.46883226,20,5,7.547,757.73781230535,37.073492,0.671082,9.7020672396,0.0,0.0,0.0,8.7,-0.4,-11.4,0,0,1024,1024,1024,1024,0,0,0,0,0,0,0,71,3.789,3.797,0,0,0,0,5.166,75.74,757.08164430535,36.417324,6,P-GPS,,11.1
435400,2026-01-13 12:28:34,756.75356030535,38.385828,0.0,7.4014766148,7.5367784564,20,5,7.547,757.73781230535,37.073492,0.671082,9.7020672396,0.0,0.0,0.0,8.8,-0.6,-10.7,0,0,1024,1024,1024,1024,0,0,0,0,0,0,0,71,3.789,3.797,0,0,0,0,5.166,75.74,756.75356030535,36.08924,6,P-GPS,,11.0
435500,2026-01-13 12:28:34,756.75356030535,38.385828,0.0,7.3765750392,7.5725396124,20,5,7.547,757.73781230535,37.073492,0.671082,9.7020672396,0.0,0.0,0.0,9.1,-2.0,-10.6,0,0,1024,1024,1024,1024,0,0,0,0,0,0,0,71,3.789,3.797,0,0,0,0,5.166,75.74,756.75356030535,36.08924,6,P-GPS,,11.0
435600,2026-01-13 12:28:34,756.75356030535,38.385828,0.0,7.3593506292,7.600557986,20,5,7.547,757.73781230535,37.073492,0.671082,9.7020672396,0.0,0.0,0.0,8.8,-1.1,-11.9,0,0,1024,1024,1024,1024,0,0,0,0,0,0,0,71,3.789,3.797,0,0,0,0,5.166,75.74,756.75356030535,36.08924,6,P-GPS,,11.0
435700,2026-01-13 12:28:34,756.42547630535,38.385828,0.0,7.3389766128,7.6375658612,20,5,7.547,757.73781230535,37.073492,0.671082,9.7020672396,0.0,0.0,0.223694,8.2,0.5,-12.0,0,0,1024,1024,1024,1024,0,0,0,0,0,0,0,71,3.789,3.797,0,0,0,0,5.166,75.74,756.42547630535,35.761156,6,P-GPS,,10.9
435800,2026-01-13 12:28:34,756.42547630535,38.385828,0.223694,7.3522640148,7.706036992,19,5,7.547,757.73781230535,37.073492,0.671082,9.7020672396,0.0,-0.223694,0.0,8.6,-0.2,-10.4,0,0,1024,1024,1024,1024,0,0,0,0,0,0,0,71,3.789,3.797,0,0,0,0,5.166,75.74,756.42547630535,35.761156,6,P-GPS,,10.9
435900,2026-01-13 12:28:34,756.09739230535,38.385828,0.223694,7.3166340924,7.7715225584,19,5,7.547,757.73781230535,37.073492,0.671082,9.7020672396,0.0,-0.223694,0.0,8.7,-0.7,-9.8,0,0,1024,1024,1024,1024,0,0,0,0,0,0,0,71,3.789,3.797,0,0,0,0,5.166,75.74,756.09739230535,35.433072,6,P-GPS,,10.8
436000,2026-01-13 12:28:35,756.09739230535,38.385828,0.223694,7.2752298916,7.8406170488,18,5,7.547,757.73781230535,37.073492,0.671082,9.7020672396,0.0,-0.223694,0.0,9.3,-2.9,-8.4,0,0,1024,1024,1024,1024,0,0,0,0,0,0,0,71,3.789,3.797,0,0,0,0,5.166,75.74,756.09739230535,35.433072,6,P-GPS,,10.8
436100,2026-01-13 12:28:35,755.76930830535,38.385828,0.223694,7.2332023312,7.9019359484,18,5,7.547,757.73781230535,37.073492,0.671082,9.7020672396,0.0,-0.223694,0.0,8.9,-2.6,-9.0,0,0,1024,1024,1024,1024,0,0,0,0,0,0,0,71,3.789,3.797,0,0,0,0,5.166,75.74,755.76930830535,35.104988,6,P-GPS,,10.7
436200,2026-01-13 12:28:35,755.76930830535,38.385828,0.3131716,7.2195212284,7.9882876572,19,5,7.514,757.73781230535,37.073492,0.671082,9.7020672396,0.223694,-0.223694,0.0,8.2,-0.5,-9.6,0,0,1024,1024,1024,1024,0,0,0,0,0,0,0,70,3.753,3.761,0,0,0,0,5.093,75.74,755.76930830535,35.104988,6,P-GPS,,10.7
436300,2026-01-13 12:28:35,755.76930830535,38.385828,0.3131716,7.2285763468,8.0534123312,19,5,7.514,757.73781230535,37.073492,0.671082,9.7020672396,0.223694,-0.223694,0.0,7.9,1.0,-8.8,0,0,1024,1024,1024,1024,0,0,0,0,0,0,0,70,3.753,3.761,0,0,0,0,5.093,75.74,755.76930830535,35.104988,6,P-GPS,,10.7
436400,2026-01-13 12:28:35,755.44122430535,38.385828,0.3131716,7.233267948,8.1179792624,19,5,7.514,757.73781230535,37.073492,0.671082,9.7020672396,0.223694,-0.223694,0.0,8.1,0.3,-7.9,0,0,1024,1024,1024,1024,0,0,0,0,0,0,0,70,3.753,3.761,0,0,0,0,5.093,75.74,755.44122430535,34.776904,6,P-GPS,,10.6
436500,2026-01-13 12:28:35,755.44122430535,38.385828,0.223694,7.2302823836,8.1944556428,19,5,7.514,757.73781230535,37.073492,0.671082,9.7020672396,0.0,-0.223694,0.0,8.1,0.4,-7.6,0,0,1024,1024,1024,1024,0,0,0,0,0,0,0,70,3.753,3.761,0,0,0,0,5.093,75.74,755.44122430535,34.776904,6,P-GPS,,10.6
436600,2026-01-13 12:28:35,755.11314030535,38.385828,0.3131716,7.2724083692,8.3207679828,19,5,7.514,757.73781230535,37.073492,0.671082,9.7020672396,0.223694,-0.223694,0.0,8.4,0.2,-7.1,0,0,1024,1024,1024,1024,0,0,0,0,0,0,0,70,3.753,3.761,0,0,0,0,5.093,75.74,755.11314030535,34.44882,6,P-GPS,,10.5
436700,2026-01-13 12:28:35,755.11314030535,38.385828,0.3131716,7.30479026,8.4130908204,19,5,7.514,757.73781230535,37.073492,0.671082,9.7020672396,0.223694,-0.223694,0.0,8.2,0.7,-6.7,0,0,1024,1024,1024,1024,0,0,0,0,0,0,0,70,3.753,3.761,0,0,0,0,5.093,75.74,755.11314030535,34.44882,6,P-GPS,,10.5
436800,2026-01-13 12:28:35,754.78505630535,38.385828,0.3131716,7.3479661144,8.503281112,19,5,7.514,757.73781230535,37.073492,0.671082,9.7020672396,0.223694,-0.223694,-0.223694,8.0,1.9,-7.0,0,0,1024,1024,1024,1024,0,0,0,0,0,0,0,70,3.753,3.761,0,0,0,0,5.093,75.74,754.78505630535,34.120736,6,P-GPS,,10.4
436900,2026-01-13 12:28:35,754.78505630535,38.385828,0.223694,7.3830711024,8.5845147104,19,5,7.514,757.73781230535,37.073492,0.671082,9.7020672396,0.223694,0.0,0.0,8.0,2.8,-7.2,0,0,1024,1024,1024,1024,0,0,0,0,0,0,0,70,3.753,3.761,0,0,0,0,5.093,75.74,754.78505630535,34.120736,6,P-GPS,,10.4
437000,2026-01-13 12:28:36,754.78505630535,38.385828,0.223694,7.4120409196,8.64911445,19,5,7.514,757.73781230535,37.073492,0.671082,9.7020672396,0.223694,0.0,0.0,8.1,3.2,-7.2,0,0,1024,1024,1024,1024,0,0,0,0,0,0,0,70,3.753,3.761,0,0,0,0,5.093,75.74,754.78505630535,34.120736,6,P-GPS,,10.4
437100,2026-01-13 12:28:36,754.45697230535,38.385828,0.0,7.503937248,8.8065619616,19,5,7.514,757.73781230535,37.073492,0.671082,9.7020672396,0.0,0.0,0.0,8.1,1.9,-8.2,0,0,1024,1024,1024,1024,0,0,0,0,0,0,0,70,3.753,3.761,0,0,0,0,5.093,75.74,754.45697230535,33.792652,6,P-GPS,,10.3
437200,2026-01-13 12:28:36,754.45697230535,38.385828,0.0,7.5237535216,8.8513454276,19,5,7.514,757.73781230535,37.073492,0.671082,9.7020672396,0.0,0.0,0.0,7.8,3.5,-8.8,0,0,1024,1024,1024,1024,0,0,0,0,0,0,0,70,3.753,3.761,0,0,0,0,5.093,75.74,754.45697230535,33.792652,6,P-GPS,,10.3
437300,2026-01-13 12:28:36,754.12888830535,38.385828,0.0,7.5462928924,8.8970475288,19,5,7.534,757.73781230535,37.073492,0.671082,9.7020672396,0.0,-0.223694,0.0,8.1,1.6,-7.0,0,0,1024,1024,1024,1024,0,0,0,0,0,0,0,70,3.766,3.768,0,0,0,0,5.189,75.74,754.12888830535,33.464568,6,P-GPS,,10.2
437400,2026-01-13 12:28:36,754.12888830535,38.385828,0.223694,7.562500242,8.945374302,19,5,7.534,757.73781230535,37.073492,0.671082,9.7020672396,0.0,-0.223694,0.0,8.1,1.1,-5.5,0,0,1024,1024,1024,1024,0,0,0,0,0,0,0,70,3.766,3.768,0,0,0,0,5.189,75.74,754.12888830535,33.464568,6,P-GPS,,10.2
437500,2026-01-13 12:28:36,753.80080430535,38.385828,0.223694,7.5767062792,9.0143703672,19,5,7.534,757.73781230535,37.073492,0.671082,9.7020672396,0.0,-0.223694,0.0,7.9,2.7,-4.8,0,0,1024,1024,1024,1024,0,0,0,0,0,0,0,70,3.766,3.768,0,0,0,0,5.189,75.74,753.80080430535,33.136484,6,P-GPS,,10.1
437600,2026-01-13 12:28:36,753.80080430535,38.385828,0.0,7.5604005044,9.0632220748,19,5,7.534,757.73781230535,37.073492,0.671082,9.7020672396,0.0,0.0,-0.223694,8.4,2.0,-4.6,0,0,1024,1024,1024,1024,0,0,0,0,0,0,0,70,3.766,3.768,0,0,0,0,5.189,75.74,753.80080430535,33.136484,6,P-GPS,,10.1
437700,2026-01-13 12:28:36,753.47272030535,38.385828,0.0,7.5350068028,9.1108270632,19,5,7.534,757.73781230535,37.073492,0.671082,9.7020672396,0.0,0.0,0.0,8.3,2.0,-5.8,0,0,1024,1024,1024,1024,0,0,0,0,0,0,0,70,3.766,3.768,0,0,0,0,5.189,75.74,753.47272030535,32.8084,6,P-GPS,,10.0
437800,2026-01-13 12:28:36,753.47272030535,38.385828,0.0,7.5097115264,9.1518703716,20,5,7.534,757.73781230535,37.073492,0.671082,9.7020672396,0.0,0.0,0.0,8.3,1.4,-5.1,0,0,1024,1024,1024,1024,0,0,0,0,0,0,0,70,3.766,3.768,0,0,0,0,5.189,75.74,753.47272030535,32.8084,6,P-GPS,,10.0
437900,2026-01-13 12:28:36,753.47272030535,38.385828,0.0,7.4643375092,9.234088222,20,5,7.534,757.73781230535,37.073492,0.671082,9.7020672396,0.0,0.0,-0.223694,8.3,2.0,-5.8,0,0,1024,1024,1024,1024,0,0,0,0,0,0,0,70,3.766,3.768,0,0,0,0,5.189,75.74,753.47272030535,32.8084,6,P-GPS,,10.0
438000,2026-01-13 12:28:37,753.47272030535,38.385828,0.0,7.4380907892,9.2632548896,20,5,7.534,757.73781230535,37.073492,0.671082,9.7020672396,0.0,0.0,-0.223694,8.3,1.2,-6.4,0,0,1024,1024,1024,1024,0,0,0,0,0,0,0,70,3.766,3.768,0,0,0,0,5.189,75.74,753.47272030535,32.8084,6,P-GPS,,10.0
438100,2026-01-13 12:28:37,753.47272030535,38.385828,0.0,7.412565854,9.2888454416,20,5,7.534,757.73781230535,37.073492,0.671082,9.7020672396,0.0,0.0,0.0,8.3,1.1,-6.8,0,0,1024,1024,1024,1024,0,0,0,0,0,0,0,70,3.766,3.768,0,0,0,0,5.189,75.74,753.47272030535,32.8084,6,P-GPS,,10.0
438200,2026-01-13 12:28:37,753.47272030535,38.385828,0.0,7.3883532548,9.3131236576,20,5,7.534,757.73781230535,37.073492,0.671082,9.7020672396,0.0,0.0,0.0,8.2,1.2,-6.9,0,0,1024,1024,1024,1024,0,0,0,0,0,0,0,70,3.766,3.768,0,0,0,0,5.189,75.74,753.47272030535,32.8084,6,P-GPS,,10.0
438300,2026-01-13 12:28:37,753.47272030535,38.385828,0.0,7.4417981384,9.378445182,20,5,7.534,757.73781230535,37.073492,0.671082,9.7020672396,0.0,0.0,0.0,8.2,0.9,-6.9,0,0,1024,1024,1024,1024,0,0,0,0,0,0,0,70,3.766,3.768,0,0,0,0,5.189,75.74,753.47272030535,32.8084,6,P-GPS,,10.0
438400,2026-01-13 12:28:37,753.47272030535,38.385828,0.0,7.4408466948,9.3982286472,20,5,7.532,757.73781230535,37.073492,0.671082,9.7020672396,0.0,0.0,-0.223694,8.5,0.5,-6.7,0,0,1024,1024,1024,1024,0,0,0,0,0,0,0,70,3.766,3.769,0,0,0,0,5.384,75.74,753.47272030535,32.8084,6,P-GPS,,10.0
438500,2026-01-13 12:28:37,753.47272030535,38.385828,0.0,7.4208007624,9.4300856036,20,5,7.532,757.73781230535,37.073492,0.671082,9.7020672396,0.0,0.0,-0.223694,8.4,0.6,-7.3,0,0,1024,1024,1024,1024,0,0,0,0,0,0,0,70,3.766,3.769,0,0,0,0,5.384,75.74,753.47272030535,32.8084,6,P-GPS,,10.0
438600,2026-01-13 12:28:37,753.47272030535,38.385828,0.0,7.4088913132,9.4576446596,20,5,7.532,757.73781230535,37.073492,0.671082,9.7020672396,0.0,0.0,0.0,8.2,2.5,-7.9,0,0,1024,1024,1024,1024,0,0,0,0,0,0,0,70,3.766,3.769,0,0,0,0,5.384,75.74,753.47272030535,32.8084,6,P-GPS,,10.0
438700,2026-01-13 12:28:37,753.47272030535,38.385828,0.0,7.4062666412,9.5048559472,20,5,7.532,757.73781230535,37.073492,0.671082,9.7020672396,0.0,0.0,0.0,8.2,2.6,-8.1,0,0,1024,1024,1024,1024,0,0,0,0,0,0,0,70,3.766,3.769,0,0,0,0,5.384,75.74,753.47272030535,32.8084,6,P-GPS,,10.0
438800,2026-01-13 12:28:37,753.47272030535,38.385828,0.0,7.4190947256,9.602362512,20,5,7.532,757.73781230535,37.073492,0.671082,9.7020672396,0.0,0.0,0.0,8.1,2.6,-8.4,0,0,1024,1024,1024,1024,0,0,0,0,0,0,0,70,3.766,3.769,0,0,0,0,5.384,75.74,753.47272030535,32.8084,6,P-GPS,,10.0
438900,2026-01-13 12:28:37,753.47272030535,38.385828,0.0,7.4249346208,9.651082986,20,5,7.532,757.73781230535,37.073492,0.671082,9.7020672396,0.0,0.0,0.0,8.4,1.7,-8.4,0,0,1024,1024,1024,1024,0,0,0,0,0,0,0,70,3.766,3.769,0,0,0,0,5.384,75.74,753.47272030535,32.8084,6,P-GPS,,10.0
439000,2026-01-13 12:28:38,753.47272030535,38.385828,0.223694,7.4203414448,9.6987207828,20,5,7.532,757.73781230535,37.073492,0.671082,9.7020672396,-0.223694,0.0,0.0,8.4,1.1,-8.6,0,0,1024,1024,1024,1024,0,0,0,0,0,0,0,70,3.766,3.769,0,0,0,0,5.384,75.74,753.47272030535,32.8084,6,P-GPS,,10.0
439100,2026-01-13 12:28:38,753.47272030535,38.385828,0.223694,7.386975302,9.7531827268,20,5,7.532,757.73781230535,37.073492,0.671082,9.7020672396,-0.223694,0.0,0.0,8.4,0.7,-8.2,0,0,1024,1024,1024,1024,0,0,0,0,0,0,0,70,3.766,3.769,0,0,0,0,5.384,75.74,753.47272030535,32.8084,6,P-GPS,,10.0
439200,2026-01-13 12:28:38,753.47272030535,38.385828,0.223694,7.3932745148,9.8133533324,20,5,7.532,757.73781230535,37.073492,0.671082,9.7020672396,-0.223694,0.0,0.0,8.5,0.5,-7.7,0,0,1024,1024,1024,1024,0,0,0,0,0,0,0,70,3.766,3.769,0,0,0,0,5.384,75.74,753.47272030535,32.8084,6,P-GPS,,10.0
439300,2026-01-13 12:28:38,753.47272030535,38.385828,0.223694,7.3347771376,9.8771656704,20,5,7.532,757.73781230535,37.073492,0.671082,9.7020672396,-0.223694,0.0,0.0,8.6,-0.7,-7.3,0,0,1024,1024,1024,1024,0,0,0,0,0,0,0,70,3.766,3.769,0,0,0,0,5.384,75.74,753.47272030535,32.8084,6,P-GPS,,10.0
439400,2026-01-13 12:28:38,753.47272030535,38.385828,0.223694,7.279035666,9.9358270896,20,5,7.532,757.73781230535,37.073492,0.671082,9.7020672396,-0.223694,0.0,0.0,8.6,-0.5,-6.7,0,0,1024,1024,1024,1024,0,0,0,0,0,0,0,70,3.766,3.769,0,0,0,0,5.384,75.74,753.47272030535,32.8084,6,P-GPS,,10.0
439500,2026-01-13 12:28:38,753.47272030535,38.385828,0.223694,7.2209319896,9.9958008448,20,5,7.536,757.73781230535,37.073492,0.671082,9.7020672396,-0.223694,0.0,0.0,8.6,-0.6,-6.2,0,0,1024,1024,1024,1024,0,0,0,0,0,0,0,70,3.767,3.769,0,0,0,0,4.756,75.74,753.47272030535,32.8084,6,P-GPS,,10.0
439600,2026-01-13 12:28:38,753.47272030535,38.385828,0.223694,7.1491800188,10.0684386424,19,5,7.536,757.73781230535,37.073492,0.671082,9.7020672396,-0.223694,0.0,0.0,8.6,-1.6,-6.6,0,0,1024,1024,1024,1024,0,0,0,0,0,0,0,70,3.767,3.769,0,0,0,0,4.756,75.74,753.47272030535,32.8084,6,P-GPS,,10.0
439700,2026-01-13 12:28:38,753.47272030535,38.385828,0.0,7.1064962904,10.1138782764,19,5,7.536,757.73781230535,37.073492,0.671082,9.7020672396,0.0,0.0,0.0,8.5,-1.4,-6.6,0,0,1024,1024,1024,1024,0,0,0,0,0,0,0,70,3.767,3.769,0,0,0,0,4.756,75.74,753.47272030535,32.8084,6,P-GPS,,10.0
439800,2026-01-13 12:28:38,753.47272030535,38.385828,0.0,7.0800199116,10.14271686,19,5,7.536,757.73781230535,37.073492,0.671082,9.7020672396,0.0,0.0,0.0,8.4,-0.6,-6.5,0,0,1024,1024,1024,1024,0,0,0,0,0,0,0,70,3.767,3.769,0,0,0,0,4.756,75.74,753.47272030535,32.8084,6,P-GPS,,10.0
439900,2026-01-13 12:28:38,753.47272030535,38.385828,0.0,7.05216558,10.1706696168,19,5,7.536,757.73781230535,37.073492,0.671082,9.7020672396,0.0,0.0,0.0,8.2,0.2,-6.5,0,0,1024,1024,1024,1024,0,0,0,0,0,0,0,70,3.767,3.769,0,0,0,0,4.756,75.74,753.47272030535,32.8084,6,P-GPS,,10.0
440000,2026-01-13 12:28:39,753.47272030535,38.385828,0.0,6.99803172,10.2258533456,19,5,7.536,757.73781230535,37.073492,0.671082,9.7020672396,0.0,0.0,0.0,8.1,1.1,-6.5,0,0,1024,1024,1024,1024,0,0,0,0,0,0,0,70,3.767,3.769,0,0,0,0,4.756,75.74,753.47272030535,32.8084,6,P-GPS,,10.0
440100,2026-01-13 12:28:39,753.14463630535,38.385828,0.0,7.0143046864,10.2515751312,19,5,7.536,757.73781230535,37.073492,0.671082,9.7020672396,0.0,0.0,0.0,8.0,2.0,-6.4,0,0,1024,1024,1024,1024,0,0,0,0,0,0,0,70,3.767,3.769,0,0,0,0,4.756,75.74,753.14463630535,32.480316,6,P-GPS,,9.9
440200,2026-01-13 12:28:39,753.14463630535,38.385828,0.0,7.0291340832,10.2780843184,19,5,7.536,757.73781230535,37.073492,0.671082,9.7020672396,0.0,0.0,0.0,8.1,2.2,-5.9,0,0,1024,1024,1024,1024,0,0,0,0,0,0,0,70,3.767,3.769,0,0,0,0,4.756,75.74,753.14463630535,32.480316,6,P-GPS,,9.9
440300,2026-01-13 12:28:39,753.14463630535,38.385828,0.0,7.0345474692,10.3012798572,19,5,7.536,757.73781230535,37.073492,0.671082,9.7020672396,0.0,0.0,0.0,8.2,1.8,-6.2,0,0,1024,1024,1024,1024,0,0,0,0,0,0,0,70,3.767,3.769,0,0,0,0,4.756,75.74,753.14463630535,32.480316,6,P-GPS,,9.9
440400,2026-01-13 12:28:39,753.14463630535,38.385828,0.0,7.0398952384,10.3245738212,19,5,7.536,757.73781230535,37.073492,0.671082,9.7020672396,0.0,0.0,0.0,8.2,1.9,-5.4,0,0,1024,1024,1024,1024,0,0,0,0,0,0,0,70,3.767,3.769,0,0,0,0,4.756,75.74,753.14463630535,32.480316,6,P-GPS,,9.9
440500,2026-01-13 12:28:39,753.14463630535,38.385828,0.0,7.1142062644,10.4577431168,19,5,7.536,757.73781230535,37.073492,0.671082,9.7020672396,0.0,0.0,0.0,8.4,1.6,-5.3,0,0,1024,1024,1024,1024,0,0,0,0,0,0,0,70,3.767,3.769,0,0,0,0,4.756,75.74,753.14463630535,32.480316,6,P-GPS,,9.9
440600,2026-01-13 12:28:39,752.81655230535,38.385828,0.0,7.1390422232,10.4998034856,19,5,7.525,757.73781230535,37.073492,0.671082,9.7020672396,0.0,0.0,0.0,8.5,2.1,-4.9,0,0,1024,1024,1024,1024,0,0,0,0,0,0,0,70,3.757,3.764,0,0,0,0,4.847,75.74,752.81655230535,32.152232,6,P-GPS,,9.8
440700,2026-01-13 12:28:39,752.81655230535,38.385828,0.0,7.1476708324,10.5220147724,19,5,7.525,757.73781230535,37.073492,0.671082,9.7020672396,0.0,0.0,0.0,8.6,2.7,-5.1,0,0,1024,1024,1024,1024,0,0,0,0,0,0,0,70,3.757,3.764,0,0,0,0,4.847,75.74,752.81655230535,32.152232,6,P-GPS,,9.8
440800,2026-01-13 12:28:39,752.81655230535,38.385828,0.0,7.159449048,10.5450134608,20,5,7.525,757.73781230535,37.073492,0.671082,9.7020672396,0.0,0.0,0.0,8.7,3.2,-4.7,0,0,1024,1024,1024,1024,0,0,0,0,0,0,0,70,3.757,3.764,0,0,0,0,4.847,75.74,752.81655230535,32.152232,6,P-GPS,,9.8
440900,2026-01-13 12:28:39,752.81655230535,38.385828,0.223694,7.1115815924,10.594816612,20,5,7.525,757.73781230535,37.073492,0.671082,9.7020672396,0.223694,0.0,0.0,8.6,3.7,-4.7,0,0,1024,1024,1024,1024,0,0,0,0,0,0,0,70,3.757,3.764,0,0,0,0,4.847,75.74,752.81655230535,32.152232,6,P-GPS,,9.8
441000,2026-01-13 12:28:39,752.81655230535,38.385828,0.223694,7.1173886792,10.6173887912,20,5,7.525,757.73781230535,37.073492,0.671082,9.7020672396,0.223694,0.0,0.0,8.6,3.8,-4.8,0,0,1024,1024,1024,1024,0,0,0,0,0,0,0,70,3.757,3.764,0,0,0,0,4.847,75.74,752.81655230535,32.152232,6,P-GPS,,9.8
441100,2026-01-13 12:28:40,752.81655230535,38.385828,0.223694,7.1220802804,10.642880918,20,5,7.525,757.73781230535,37.073492,0.671082,9.7020672396,0.223694,0.0,0.0,8.5,4.2,-4.7,0,0,1024,1024,1024,1024,0,0,0,0,0,0,0,70,3.757,3.764,0,0,0,0,4.847,75.74,752.81655230535,32.152232,6,P-GPS,,9.8
441200,2026-01-13 12:28:40,752.81655230535,38.385828,0.223694,7.1251970784,10.6675200264,20,5,7.525,757.73781230535,37.073492,0.671082,9.7020672396,0.223694,0.0,0.0,8.5,4.7,-4.5,0,0,1024,1024,1024,1024,0,0,0,0,0,0,0,70,3.757,3.764,0,0,0,0,4.847,75.74,752.81655230535,32.152232,6,P-GPS,,9.8
441300,2026-01-13 12:28:40,752.48846830535,38.385828,0.223694,7.1272311992,10.6981302636,20,5,7.525,757.73781230535,37.073492,0.671082,9.7020672396,0.223694,0.0,0.0,8.5,4.8,-4.4,0,0,1024,1024,1024,1024,0,0,0,0,0,0,0,70,3.757,3.764,0,0,0,0,4.847,75.74,752.48846830535,31.824148,6,P-GPS,,9.7
441400,2026-01-13 12:28:40,752.48846830535,38.385828,0.223694,7.1384844804,10.7241473248,20,5,7.525,757.73781230535,37.073492,0.671082,9.7020672396,0.223694,0.0,0.0,8.3,5.8,-4.1,0,0,1024,1024,1024,1024,0,0,0,0,0,0,0,70,3.757,3.764,0,0,0,0,4.847,75.74,752.48846830535,31.824148,6,P-GPS,,9.7
441500,2026-01-13 12:28:40,752.48846830535,38.385828,0.0,7.1447836932,10.764107956,20,5,7.525,757.73781230535,37.073492,0.671082,9.7020672396,0.0,0.0,0.0,8.2,5.6,-3.9,0,0,1024,1024,1024,1024,0,0,0,0,0,0,0,70,3.757,3.764,0,0,0,0,4.847,75.74,752.48846830535,31.824148,6,P-GPS,,9.7
441600,2026-01-13 12:28:40,752.16038430535,38.385828,0.0,7.1322508844,10.8000987708,20,5,7.525,757.73781230535,37.073492,0.671082,9.7020672396,0.0,0.0,0.0,8.2,4.6,-3.4,0,0,1024,1024,1024,1024,0,0,0,0,0,0,0,70,3.757,3.764,0,0,0,0,4.847,75.74,752.16038430535,31.496064,6,P-GPS,,9.6
441700,2026-01-13 12:28:40,752.16038430535,38.385828,0.0,7.090551408,10.8542982476,20,5,7.507,757.73781230535,37.073492,0.671082,9.7020672396,0.0,0.0,0.0,8.4,2.8,-2.6,0,0,1024,1024,1024,1024,0,0,0,0,0,0,0,70,3.753,3.754,0,0,0,0,5.177,75.74,752.16038430535,31.496064,6,P-GPS,,9.6
441800,2026-01-13 12:28:40,752.16038430535,38.385828,0.223694,7.0411419576,10.905020034,20,5,7.507,757.73781230535,37.073492,0.671082,9.7020672396,-0.223694,0.0,0.0,8.2,2.4,-3.2,0,0,1024,1024,1024,1024,0,0,0,0,0,0,0,70,3.753,3.754,0,0,0,0,5.177,75.74,752.16038430535,31.496064,6,P-GPS,,9.6
441900,2026-01-13 12:28:40,752.16038430535,38.385828,0.223694,6.983924108,10.9624019256,20,5,7.507,757.73781230535,37.073492,0.671082,9.7020672396,-0.223694,0.0,0.0,8.1,2.0,-2.9,0,0,1024,1024,1024,1024,0,0,0,0,0,0,0,70,3.753,3.754,0,0,0,0,5.177,75.74,752.16038430535,31.496064,6,P-GPS,,9.6
442000,2026-01-13 12:28:41,752.16038430535,38.385828,0.223694,6.9240815864,11.0222772556,20,5,7.507,757.73781230535,37.073492,0.671082,9.7020672396,-0.223694,0.0,0.0,8.3,1.5,-2.6,0,0,1024,1024,1024,1024,0,0,0,0,0,0,0,70,3.753,3.754,0,0,0,0,5.177,75.74,752.16038430535,31.496064,6,P-GPS,,9.6
442100,2026-01-13 12:28:41,751.83230030535,38.385828,0.223694,6.84383224,11.102526602,20,5,7.507,757.73781230535,37.073492,0.671082,9.7020672396,-0.223694,0.0,0.0,8.4,1.2,-2.4,0,0,1024,1024,1024,1024,0,0,0,0,0,0,0,70,3.753,3.754,0,0,0,0,5.177,75.74,751.83230030535,31.16798,6,P-GPS,,9.5
442200,2026-01-13 12:28:41,751.83230030535,38.385828,0.223694,6.7359582208,11.2141079704,20,5,7.507,757.73781230535,37.073492,0.671082,9.7020672396,-0.223694,0.0,0.0,8.5,0.4,-2.3,0,0,1024,1024,1024,1024,0,0,0,0,0,0,0,70,3.753,3.754,0,0,0,0,5.177,75.74,751.83230030535,31.16798,6,P-GPS,,9.5
442300,2026-01-13 12:28:41,751.83230030535,38.385828,0.223694,6.656988402,11.2935699152,20,5,7.507,757.73781230535,37.073492,0.671082,9.7020672396,-0.223694,0.0,0.0,8.4,0.6,-2.4,0,0,1024,1024,1024,1024,0,0,0,0,0,0,0,70,3.753,3.754,0,0,0,0,5.177,75.74,751.83230030535,31.16798,6,P-GPS,,9.5
442400,2026-01-13 12:28:41,751.83230030535,38.385828,0.0,6.5879595284,11.3632877652,20,5,7.507,757.73781230535,37.073492,0.671082,9.7020672396,0.0,0.0,0.0,8.3,0.6,-2.6,0,0,1024,1024,1024,1024,0,0,0,0,0,0,0,70,3.753,3.754,0,0,0,0,5.177,75.74,751.83230030535,31.16798,6,P-GPS,,9.5
442500,2026-01-13 12:28:41,751.83230030535,38.385828,0.0,6.5320540148,11.4193901292,20,5,7.507,757.73781230535,37.073492,0.671082,9.7020672396,0.0,0.0,0.0,8.4,0.7,-2.1,0,0,1024,1024,1024,1024,0,0,0,0,0,0,0,70,3.753,3.754,0,0,0,0,5.177,75.74,751.83230030535,31.16798,6,P-GPS,,9.5
442600,2026-01-13 12:28:41,751.83230030535,38.385828,0.0,6.4561025688,11.4986552236,20,5,7.507,757.73781230535,37.073492,0.671082,9.7020672396,0.0,0.0,0.0,8.4,0.4,-1.4,0,0,1024,1024,1024,1024,0,0,0,0,0,0,0,70,3.753,3.754,0,0,0,0,5.177,75.74,751.83230030535,31.16798,6,P-GPS,,9.5
442700,2026-01-13 12:28:41,751.83230030535,38.385828,0.0,6.4248033552,11.5335633612,20,5,7.507,757.73781230535,37.073492,0.671082,9.7020672396,0.0,0.0,0.0,8.5,0.6,-1.8,0,0,1024,1024,1024,1024,0,0,0,0,0,0,0,70,3.753,3.754,0,0,0,0,5.177,75.74,751.83230030535,31.16798,6,P-GPS,,9.5
442800,2026-01-13 12:28:41,751.83230030535,38.385828,0.0,6.4032810448,11.5643704488,20,5,7.488,757.73781230535,37.073492,0.671082,9.7020672396,0.0,0.0,0.0,8.4,1.1,-2.5,0,0,1024,1024,1024,1024,0,0,0,0,0,0,0,70,3.745,3.75,0,0,0,0,5.53,75.74,751.83230030535,31.16798,6,P-GPS,,9.5
442900,2026-01-13 12:28:41,752.16038430535,38.385828,0.0,6.3990159528,11.5836945964,20,5,7.488,757.73781230535,37.073492,0.671082,9.7020672396,0.0,0.0,0.0,8.5,0.7,-2.7,0,0,1024,1024,1024,1024,0,0,0,0,0,0,0,70,3.745,3.75,0,0,0,0,5.53,75.74,752.16038430535,31.496064,6,P-GPS,,9.6
443000,2026-01-13 12:28:42,752.16038430535,38.385828,0.0,6.4588912828,11.6464570656,20,5,7.488,757.73781230535,37.073492,0.671082,9.7020672396,0.0,0.0,0.0,8.5,0.7,-2.5,0,0,1024,1024,1024,1024,0,0,0,0,0,0,0,70,3.745,3.75,0,0,0,0,5.53,75.74,752.16038430535,31.496064,6,P-GPS,,9.6
443100,2026-01-13 12:28:42,752.16038430535,38.385828,0.0,6.4518046684,11.6720148092,20,5,7.488,757.73781230535,37.073492,0.671082,9.7020672396,0.0,0.0,0.0,8.6,0.0,-3.3,0,0,1024,1024,1024,1024,0,0,0,0,0,0,0,70,3.745,3.75,0,0,0,0,5.53,75.74,752.16038430535,31.496064,6,P-GPS,,9.6
443200,2026-01-13 12:28:42,752.16038430535,38.385828,0.0,6.455216742,11.6985239964,20,5,7.488,757.73781230535,37.073492,0.671082,9.7020672396,0.0,0.0,0.0,8.8,0.5,-3.5,0,0,1024,1024,1024,1024,0,0,0,0,0,0,0,70,3.745,3.75,0,0,0,0,5.53,75.74,752.16038430535,31.496064,6,P-GPS,,9.6
443300,2026-01-13 12:28:42,752.48846830535,38.385828,0.223694,6.4816603124,11.7291014252,20,5,7.488,757.73781230535,37.073492,0.671082,9.7020672396,0.0,0.223694,0.0,8.9,1.9,-3.9,0,0,1024,1024,1024,1024,0,0,0,0,0,0,0,70,3.745,3.75,0,0,0,0,5.53,75.74,752.48846830535,31.824148,6,P-GPS,,9.7
443400,2026-01-13 12:28:42,752.48846830535,38.385828,0.223694,6.5438650388,11.7946198,20,5,7.488,757.73781230535,37.073492,0.671082,9.7020672396,0.0,0.223694,0.0,8.7,3.3,-4.7,0,0,1024,1024,1024,1024,0,0,0,0,0,0,0,70,3.745,3.75,0,0,0,0,5.53,75.74,752.48846830535,31.824148,6,P-GPS,,9.7
443500,2026-01-13 12:28:42,752.81655230535,38.385828,0.223694,6.5881563788,11.8444557596,20,5,7.488,757.73781230535,37.073492,0.671082,9.7020672396,0.0,0.223694,0.0,8.3,4.5,-4.8,0,0,1024,1024,1024,1024,0,0,0,0,0,0,0,70,3.745,3.75,0,0,0,0,5.53,75.74,752.81655230535,32.152232,6,P-GPS,,9.8
443600,2026-01-13 12:28:42,752.81655230535,38.385828,0.0,6.6250986372,11.8867785956,20,5,7.488,757.73781230535,37.073492,0.671082,9.7020672396,0.0,0.0,0.0,8.4,4.1,-4.5,0,0,1024,1024,1024,1024,0,0,0,0,0,0,0,70,3.745,3.75,0,0,0,0,5.53,75.74,752.81655230535,32.152232,6,P-GPS,,9.8
443700,2026-01-13 12:28:42,752.81655230535,38.385828,0.0,6.6477364332,11.9141079928,20,5,7.488,757.73781230535,37.073492,0.671082,9.7020672396,0.0,0.0,0.0,8.5,3.6,-4.5,0,0,1024,1024,1024,1024,0,0,0,0,0,0,0,70,3.745,3.75,0,0,0,0,5.53,75.74,752.81655230535,32.152232,6,P-GPS,,9.8
443800,2026-01-13 12:28:42,753.14463630535,38.385828,0.0,6.665518586,11.9346460512,20,5,7.488,757.73781230535,37.073492,0.671082,9.7020672396,0.0,0.0,0.0,8.6,3.9,-4.1,0,0,1024,1024,1024,1024,0,0,0,0,0,0,0,70,3.745,3.75,0,0,0,0,5.53,75.74,753.14463630535,32.480316,6,P-GPS,,9.9
443900,2026-01-13 12:28:42,753.14463630535,38.385828,0.0,6.7121721308,11.9834649504,20,5,7.488,757.73781230535,37.073492,0.671082,9.7020672396,0.0,0.0,0.0,8.3,4.8,-4.0,0,0,1024,1024,1024,1024,0,0,0,0,0,0,0,70,3.72,3.725,0,0,0,0,5.53,75.74,753.14463630535,32.480316,6,P-GPS,,9.9
444000,2026-01-13 12:28:43,753.14463630535,38.385828,0.0,6.7373361736,12.0104334552,20,5,7.488,757.73781230535,37.073492,0.671082,9.7020672396,0.0,0.0,0.0,8.6,3.5,-3.8,0,0,1024,1024,1024,1024,0,0,0,0,0,0,0,70,3.72,3.725,0,0,0,0,5.53,75.74,753.14463630535,32.480316,6,P-GPS,,9.9
444100,2026-01-13 12:28:43,753.14463630535,38.385828,0.0,6.7428807932,12.0197510408,20,5,7.488,757.73781230535,37.073492,0.671082,9.7020672396,0.0,0.0,0.0,8.4,4.7,-3.4,0,0,1024,1024,1024,1024,0,0,0,0,0,0,0,70,3.72,3.725,0,0,0,0,5.53,75.74,753.14463630535,32.480316,6,P-GPS,,9.9
444200,2026-01-13 12:28:43,753.47272030535,38.385828,0.0,6.7418637328,12.021653928,20,5,7.488,757.73781230535,37.073492,0.671082,9.7020672396,0.0,0.0,0.0,8.2,4.4,-4.6,0,0,1024,1024,1024,1024,0,0,0,0,0,0,0,70,3.72,3.725,0,0,0,0,5.53,75.74,753.47272030535,32.8084,6,P-GPS,,10.0
444300,2026-01-13 12:28:43,753.47272030535,38.385828,0.0,6.6606629428,12.1074807024,20,5,7.488,757.73781230535,37.073492,0.671082,9.7020672396,0.0,0.0,0.0,8.6,4.2,-3.0,0,0,1024,1024,1024,1024,0,0,0,0,0,0,0,70,3.72,3.725,0,0,0,0,5.53,75.74,753.47272030535,32.8084,6,P-GPS,,10.0
444400,2026-01-13 12:28:43,753.47272030535,38.385828,0.0,6.6364175352,12.13172611,20,5,7.488,757.73781230535,37.073492,0.671082,9.7020672396,0.0,0.0,0.0,8.6,3.8,-3.2,0,0,1024,1024,1024,1024,0,0,0,0,0,0,0,70,3.72,3.725,0,0,0,0,5.53,75.74,753.47272030535,32.8084,6,P-GPS,,10.0
444500,2026-01-13 12:28:43,753.47272030535,38.385828,0.0,6.6249017868,12.1451447456,20,5,7.488,757.73781230535,37.073492,0.671082,9.7020672396,0.0,0.0,0.0,8.5,2.7,-3.5,0,0,1024,1024,1024,1024,0,0,0,0,0,0,0,70,3.72,3.725,0,0,0,0,5.53,75.74,753.47272030535,32.8084,6,P-GPS,,10.0
