time(millisecond),timestamp,altitude_above_seaLevel(feet),height_sonar(feet),speed(mph),distance(feet),mileage(feet),satellites,gpslevel,voltage(v),max_altitude(feet),max_ascent(feet),max_speed(mph),max_distance(feet), xSpeed(mph), ySpeed(mph), zSpeed(mph), compass_heading(degrees), pitch(degrees), roll(degrees),isPhoto,isVideo,rc_elevator,rc_aileron,rc_throttle,rc_rudder,rc_elevator(percent),rc_aileron(percent),rc_throttle(percent),rc_rudder(percent),gimbal_heading(degrees),gimbal_pitch(degrees),gimbal_roll(degrees),battery_percent,voltageCell1,voltageCell2,voltageCell3,voltageCell4,voltageCell5,voltageCell6,current(A),battery_temperature(f),altitude(feet),ascent(feet),flycStateRaw,flycState,message,height_above_takeoff(meters)
0,2026-01-11 15:29:55,720.62677404431,0.328084,0.0,0.0,0.0,14,4,0.0,720.62677404431,0.0,0.0,0.0,0.0,0.0,0.0,23.4,1.4,0.8,0,0,1024,1024,1024,1024,0,0,0,0,0,0,0,97,4.049,4.054,0,0,0,0,0.0,59.54,720.62677404431,0.0,41,Motors_Started,SD card speed low SD card speed low. Normal use may be affected. Replace SD card (Code: 10028). Gimbal stuck. Make sure gimbal cover is removed and manually check whether gimbal can rotate freely (Code: 40002),0.0
100,2026-01-11 15:29:56,720.62677404431,0.328084,0.0,0.07037893926,0.07037893926,14,5,0.0,720.62677404431,0.0,0.0,0.07037893926,0.0,0.0,0.0,23.4,1.4,0.8,0,0,1024,1024,1024,1024,0,0,0,0,0,0,0,97,4.049,4.054,0,0,0,0,0.0,59.54,720.62677404431,0.0,41,Motors_Started,,0.0
200,2026-01-11 15:29:56,720.62677404431,0.328084,0.0,0.081888454064,0.087117128772,14,5,0.0,720.62677404431,0.0,0.0,0.081888454064,0.0,0.0,0.0,23.4,1.4,0.8,0,0,1024,1024,1024,1024,0,0,0,0,0,0,0,97,4.049,4.054,0,0,0,0,0.0,59.54,720.62677404431,0.0,41,Motors_Started,,0.0
300,2026-01-11 15:29:56,720.62677404431,0.328084,0.0,0.094731302244,0.102402562332,14,5,0.0,720.62677404431,0.0,0.0,0.094731302244,0.0,0.0,0.0,23.4,1.4,0.8,0,0,1024,1024,1024,1024,0,0,0,0,0,0,0,97,4.049,4.054,0,0,0,0,0.0,59.54,720.62677404431,0.0,41,Motors_Started,,0.0
400,2026-01-11 15:29:56,720.62677404431,0.328084,0.0,0.111226381512,0.119632221676,14,5,0.0,720.62677404431,0.0,0.0,0.111226381512,0.0,0.0,0.0,23.4,1.4,0.8,0,0,1024,1024,1024,1024,0,0,0,0,0,0,0,97,4.049,4.054,0,0,0,0,0.0,59.54,720.62677404431,0.0,41,Motors_Started,,0.0
500,2026-01-11 15:29:56,720.62677404431,0.328084,0.0,0.134747051556,0.147954072976,14,5,0.0,720.62677404431,0.0,0.0,0.134747051556,0.0,0.0,0.0,23.5,1.3,0.8,0,0,1024,1024,1024,1024,0,0,0,0,0,0,0,97,4.049,4.054,0,0,0,0,0.0,59.54,720.62677404431,0.0,41,Motors_Started,,0.0
600,2026-01-11 15:29:56,720.62677404431,0.328084,0.0,0.127119098556,0.163768706028,14,5,0.0,720.62677404431,0.0,0.0,0.134747051556,0.0,0.0,0.0,23.6,1.4,0.9,0,0,1024,1024,1024,1024,0,0,0,0,0,0,0,97,4.049,4.054,0,0,0,0,0.0,59.54,720.62677404431,0.0,41,Motors_Started,Setting new Return-To-Home altitude to 90m (295 ft). Data Recorder File Index is 33. Setting new Maximum Flight Altitude to 90m (295 ft),0.0
700,2026-01-11 15:29:56,720.62677404431,0.328084,0.0,0.12306102756,0.17695046498,14,5,0.0,720.62677404431,0.0,0.0,0.134747051556,0.0,0.0,0.0,23.7,1.4,0.8,0,0,1024,1024,1024,1024,0,0,0,0,0,0,0,97,4.049,4.054,0,0,0,0,0.0,59.54,720.62677404431,0.0,41,Motors_Started,SD card speed low. Normal use may be affected. Replace SD card (Code: 10028),0.0
800,2026-01-11 15:29:56,720.62677404431,0.328084,0.0,0.13977362652,0.19368274898,14,5,0.0,720.62677404431,0.0,0.0,0.13977362652,0.0,0.0,0.0,23.6,1.3,0.9,0,0,1024,1024,1024,1024,0,0,0,0,0,0,0,97,4.049,4.054,0,0,0,0,0.0,59.54,720.62677404431,0.0,41,Motors_Started,,0.0
900,2026-01-11 15:29:56,720.62677404431,0.328084,0.0,0.14439304924,0.200108602204,14,5,0.0,720.62677404431,0.0,0.0,0.14439304924,0.0,0.0,0.0,23.6,1.3,0.8,0,0,1024,1024,1024,1024,0,0,0,0,0,0,0,97,4.049,4.054,0,0,0,0,0.0,59.54,720.62677404431,0.0,41,Motors_Started,,0.0
1000,2026-01-11 15:29:56,720.62677404431,0.328084,0.0,0.146563652984,0.203135177104,14,5,0.0,720.62677404431,0.0,0.0,0.146563652984,0.0,0.0,0.0,23.6,1.3,0.8,0,0,1024,1024,1024,1024,0,0,0,0,0,0,0,97,4.049,4.054,0,0,0,0,0.0,59.54,720.62677404431,0.0,41,Motors_Started,,0.0
1100,2026-01-11 15:29:57,720.62677404431,0.328084,0.0,0.147784125464,0.205671594508,14,5,0.0,720.62677404431,0.0,0.0,0.147784125464,0.0,0.0,0.0,23.6,1.3,0.8,0,0,1024,1024,1024,1024,0,0,0,0,0,0,0,97,4.049,4.054,0,0,0,0,0.0,59.54,720.62677404431,0.0,11,AutoTakeoff,,0.0
1200,2026-01-11 15:29:57,720.62677404431,0.328084,0.0,0.14517224874,0.209452434524,14,5,0.0,720.62677404431,0.0,0.0,0.147784125464,0.0,0.0,0.0,23.6,1.4,0.8,0,0,1024,1024,1024,1024,0,0,0,0,0,0,0,97,4.049,4.054,0,0,0,0,0.0,59.54,720.62677404431,0.0,11,AutoTakeoff,,0.0
1300,2026-01-11 15:29:57,720.62677404431,0.328084,0.0,0.121733599696,0.241166674384,14,5,8.146,720.62677404431,0.0,0.0,0.147784125464,0.0,0.0,0.0,23.7,1.4,0.8,0,0,1024,1024,1024,1024,0,0,0,0,0,0,0,97,4.049,4.054,0,0,0,0,0.86,59.54,720.62677404431,0.0,11,AutoTakeoff,,0.0
1400,2026-01-11 15:29:57,720.62677404431,0.328084,0.0,0.118138783308,0.24541995536,14,5,8.146,720.62677404431,0.0,0.0,0.147784125464,0.0,0.0,0.0,23.7,1.4,0.8,0,0,1024,1024,1024,1024,0,0,0,0,0,0,0,97,4.049,4.054,0,0,0,0,0.86,59.54,720.62677404431,0.0,11,AutoTakeoff,,0.0
1500,2026-01-11 15:29:57,720.62677404431,0.328084,0.0,0.114673232016,0.249679469932,14,5,8.146,720.62677404431,0.0,0.0,0.147784125464,0.0,0.0,0.0,23.7,1.4,0.8,0,0,1024,1024,1024,1024,0,0,0,0,0,0,0,97,4.049,4.054,0,0,0,0,0.86,59.54,720.62677404431,0.0,11,AutoTakeoff,,0.0
1600,2026-01-11 15:29:57,720.62677404431,0.328084,0.0,0.11091207704,0.2536007299,14,5,8.146,720.62677404431,0.0,0.0,0.147784125464,0.0,0.0,0.0,23.4,1.4,0.8,0,0,1024,1024,1024,1024,0,0,0,0,0,0,0,97,4.049,4.054,0,0,0,0,0.86,59.54,720.62677404431,0.0,11,AutoTakeoff,,0.0
1700,2026-01-11 15:29:57,720.62677404431,0.328084,0.0,0.105898625436,0.260169627748,14,5,8.146,720.62677404431,0.0,0.0,0.147784125464,0.0,0.0,0.0,24.0,1.4,0.8,0,0,1024,1024,1024,1024,0,0,0,0,0,0,0,97,4.049,4.054,0,0,0,0,0.86,59.54,720.62677404431,0.0,11,AutoTakeoff,,0.0
1800,2026-01-11 15:29:57,720.62677404431,0.328084,0.0,0.10599901914,0.324839905408,14,5,8.146,720.62677404431,0.0,0.0,0.147784125464,0.0,0.0,0.0,25.3,0.9,0.3,0,0,1024,1024,1468,1024,0,0,67,0,0,0,0,97,4.049,4.054,0,0,0,0,0.86,59.54,720.62677404431,0.0,11,AutoTakeoff,,0.0
1900,2026-01-11 15:29:57,720.62677404431,0.328084,0.223694,0.116669623156,0.36572507732,14,5,8.146,720.62677404431,0.0,0.223694,0.147784125464,0.0,0.223694,-0.223694,26.7,1.0,-0.1,0,0,1024,1024,1468,1024,0,0,67,0,0,0,0,97,4.049,4.054,0,0,0,0,0.86,59.54,720.62677404431,0.0,11,AutoTakeoff,,0.0
2000,2026-01-11 15:29:57,720.62677404431,0.328084,0.223694,0.136408797016,0.40247048532,14,5,8.146,720.62677404431,0.0,0.223694,0.147784125464,0.0,0.223694,-0.447388,26.7,1.3,-0.6,0,0,1024,1024,1684,1024,0,0,100,0,0,0,0,97,4.049,4.054,0,0,0,0,0.86,59.54,720.62677404431,0.0,11,AutoTakeoff,,0.0
2100,2026-01-11 15:29:58,720.62677404431,0.328084,0.223694,0.166338259916,0.44957022436,14,5,8.146,720.62677404431,0.0,0.223694,0.166338259916,0.0,0.223694,-0.894776,26.8,1.3,-1.6,0,0,1024,1024,1684,1024,0,0,100,0,0,0,0,97,4.049,4.054,0,0,0,0,0.86,59.54,720.62677404431,0.0,11,AutoTakeoff,,0.0
2200,2026-01-11 15:29:58,720.62677404431,0.656168,0.447388,0.218863852148,0.50880579056,14,5,8.146,720.62677404431,0.0,0.447388,0.218863852148,0.0,0.447388,-1.11847,26.9,1.3,-1.4,0,0,1024,1024,1684,1024,0,0,100,0,0,0,0,97,4.049,4.054,0,0,0,0,0.86,59.54,720.62677404431,0.0,11,AutoTakeoff,,0.0
2300,2026-01-11 15:29:58,720.95485804431,0.656168,0.447388,0.278819234644,0.58539700036,14,5,7.971,720.95485804431,0.328084,0.447388,0.278819234644,0.0,0.447388,-1.565858,26.9,1.5,-1.9,0,0,1024,1024,1684,1024,0,0,100,0,0,0,0,97,3.987,3.984,0,0,0,0,2.559,59.54,720.95485804431,0.328084,11,AutoTakeoff,,0.1
2400,2026-01-11 15:29:58,721.28294204431,0.984252,0.447388,0.36187337116,0.67919293512,14,5,7.971,721.28294204431,0.656168,0.447388,0.36187337116,0.0,0.447388,-2.013246,27.0,1.8,-3.2,0,0,1024,1024,1684,1024,0,0,100,0,0,0,0,97,3.987,3.984,0,0,0,0,2.559,59.54,721.28294204431,0.656168,11,AutoTakeoff,,0.2
2500,2026-01-11 15:29:58,721.61102604431,1.312336,0.447388,0.44976379392,0.7741634106,14,5,7.971,721.61102604431,0.984252,0.447388,0.44976379392,0.0,0.447388,-2.460634,27.0,2.6,-3.6,0,0,1024,1024,1684,1024,0,0,100,0,0,0,0,97,3.987,3.984,0,0,0,0,2.559,59.54,721.61102604431,0.984252,11,AutoTakeoff,,0.3
2600,2026-01-11 15:29:58,721.93911004431,1.64042,0.447388,0.56165356128,0.91931105304,14,5,7.971,721.93911004431,1.312336,0.447388,0.56165356128,0.0,0.447388,-2.908022,27.1,3.2,-4.5,0,0,1024,1024,1684,1024,0,0,100,0,0,0,0,97,3.987,3.984,0,0,0,0,2.559,59.54,721.93911004431,1.312336,11,AutoTakeoff,,0.4
2700,2026-01-11 15:29:58,722.59527804431,1.968504,0.447388,0.64799542756,1.0070210296,14,5,7.971,722.59527804431,1.968504,0.447388,0.64799542756,0.0,0.447388,-3.579104,27.2,3.3,-4.1,0,0,1024,1024,1684,1024,0,0,100,0,0,0,0,97,3.987,3.984,0,0,0,0,2.559,59.54,722.59527804431,1.968504,11,AutoTakeoff,Home Point updated. RTH altitude adjusted to 90 m (Code: 120852),0.6
2800,2026-01-11 15:29:58,723.25144604431,2.624672,0.223694,0.74878283236,1.10950462868,14,5,7.971,723.25144604431,2.624672,0.447388,0.74878283236,0.0,0.223694,-4.026492,27.2,3.3,-4.7,0,0,1024,1024,1684,1024,0,0,100,0,0,0,0,97,3.987,3.984,0,0,0,0,2.559,59.54,723.25144604431,2.624672,11,AutoTakeoff,,0.8
2900,2026-01-11 15:29:58,723.90761404431,3.28084,0.223694,0.83236879304,1.19623035324,14,5,7.971,723.90761404431,3.28084,0.447388,0.83236879304,0.0,0.223694,-4.250186,27.2,3.9,-4.1,0,0,1024,1024,1684,1024,0,0,100,0,0,0,0,97,3.987,3.984,0,0,0,0,2.559,59.54,723.90761404431,3.28084,6,P-GPS,,1.0
3000,2026-01-11 15:29:58,724.56378204431,3.937008,0.223694,0.88893375548,1.26402235016,14,5,7.971,724.56378204431,3.937008,0.447388,0.88893375548,0.0,0.223694,-4.47388,27.0,4.7,-3.7,0,0,1024,1024,1684,1024,0,0,100,0,0,0,0,97,3.987,3.984,0,0,0,0,2.559,59.54,724.56378204431,3.937008,6,P-GPS,,1.2
3100,2026-01-11 15:29:59,725.54803404431,4.593176,0.0,0.92181433396,1.30042983164,15,5,7.971,725.54803404431,4.92126,0.447388,0.92181433396,0.0,0.0,-4.47388,27.2,4.4,-2.2,0,0,1024,1024,1684,1024,0,0,100,0,0,0,0,97,3.987,3.984,0,0,0,0,2.559,59.54,725.54803404431,4.92126,6,P-GPS,,1.5
3200,2026-01-11 15:29:59,726.20420204431,5.249344,0.0,0.9268373,1.31926841492,15,5,7.971,726.20420204431,5.577428,0.447388,0.9268373,0.0,0.0,-4.47388,26.7,4.6,-3.3,0,0,1024,1024,1684,1024,0,0,100,0,0,0,0,97,3.987,3.984,0,0,0,0,2.559,59.54,726.20420204431,5.577428,6,P-GPS,,1.7
3300,2026-01-11 15:29:59,726.86037004431,5.905512,0.0,0.93144359936,1.32794951756,15,5,7.646,726.86037004431,6.233596,0.447388,0.93144359936,0.0,0.0,-4.47388,26.6,4.5,-3.2,0,0,1024,1024,1684,1024,0,0,100,0,0,0,0,97,3.821,3.824,0,0,0,0,6.715,59.54,726.86037004431,6.233596,6,P-GPS,,1.9
3400,2026-01-11 15:29:59,727.84462204431,6.56168,0.0,0.93512470184,1.33298560696,15,5,7.646,727.84462204431,7.217848,0.447388,0.93512470184,0.0,0.0,-4.250186,26.4,4.0,-3.9,0,0,1024,1024,1684,1024,0,0,100,0,0,0,0,97,3.821,3.824,0,0,0,0,6.715,59.54,727.84462204431,7.217848,6,P-GPS,,2.2
3500,2026-01-11 15:29:59,728.50079004431,7.217848,0.0,0.80575461896,1.46423233032,15,5,7.646,728.50079004431,7.874016,0.447388,0.93512470184,0.0,0.0,-4.250186,26.4,3.6,-4.1,0,0,1024,1024,1684,1024,0,0,100,0,0,0,0,97,3.821,3.824,0,0,0,0,6.715,59.54,728.50079004431,7.874016,6,P-GPS,,2.4
3600,2026-01-11 15:29:59,729.15695804431,7.545932,0.0,0.82054464568,1.50482944448,15,5,7.646,729.15695804431,8.530184,0.447388,0.93512470184,0.0,0.0,-4.250186,26.5,3.2,-3.8,0,0,1024,1024,1684,1024,0,0,100,0,0,0,0,97,3.821,3.824,0,0,0,0,6.715,59.54,729.15695804431,8.530184,6,P-GPS,,2.6
3700,2026-01-11 15:29:59,729.81312604431,8.2021,0.0,0.8272309976,1.55307091584,15,5,7.646,729.81312604431,9.186352,0.447388,0.93512470184,0.0,0.0,-4.250186,26.7,1.7,-3.3,0,0,1024,1024,1684,1024,0,0,100,0,0,0,0,97,3.821,3.824,0,0,0,0,6.715,59.54,729.81312604431,9.186352,6,P-GPS,,2.8
3800,2026-01-11 15:29:59,730.46929404431,8.858268,0.0,0.84591210056,1.64734585324,15,5,7.646,730.46929404431,9.84252,0.447388,0.93512470184,0.0,0.0,-4.250186,26.6,1.4,-3.3,0,0,1024,1024,1684,1024,0,0,100,0,0,0,0,97,3.821,3.824,0,0,0,0,6.715,59.54,730.46929404431,9.84252,6,P-GPS,,3.0
3900,2026-01-11 15:29:59,731.12546204431,9.514436,0.0,0.95858598868,1.84055452084,15,5,7.646,731.12546204431,10.498688,0.447388,0.95858598868,0.0,0.0,-4.250186,26.7,1.7,-3.8,0,0,1024,1024,1684,1024,0,0,100,0,0,0,0,97,3.821,3.824,0,0,0,0,6.715,59.54,731.12546204431,10.498688,6,P-GPS,,3.2
4000,2026-01-11 15:29:59,731.78163004431,10.170604,0.0,1.00890423176,1.90978024484,15,5,7.646,731.78163004431,11.154856,0.447388,1.00890423176,0.0,0.0,-4.250186,26.7,1.9,-3.8,0,0,1024,1024,1684,1024,0,0,100,0,0,0,0,97,3.821,3.824,0,0,0,0,6.715,59.54,731.78163004431,11.154856,6,P-GPS,,3.4
4100,2026-01-11 15:30:00,732.43779804431,10.826772,0.0,1.049458695,1.9658957322,15,5,7.646,732.43779804431,11.811024,0.447388,1.049458695,0.0,0.0,-4.250186,26.6,1.9,-4.1,0,0,1024,1024,1684,1024,0,0,100,0,0,0,0,97,3.821,3.824,0,0,0,0,6.715,59.54,732.43779804431,11.811024,6,P-GPS,,3.6
4200,2026-01-11 15:30:00,733.42205004431,11.154856,0.0,1.03170606976,1.99572184864,15,5,7.646,733.42205004431,12.795276,0.447388,1.049458695,0.0,0.0,-4.250186,26.5,2.3,-3.9,0,0,1024,1024,1684,1024,0,0,100,0,0,0,0,97,3.821,3.824,0,0,0,0,6.715,59.54,733.42205004431,12.795276,6,P-GPS,,3.9
4300,2026-01-11 15:30:00,734.07821804431,11.811024,0.0,1.00742785376,2.02740492052,15,5,7.696,734.07821804431,13.451444,0.447388,1.049458695,0.0,0.0,-4.250186,26.5,2.4,-3.7,0,0,1024,1024,1684,1024,0,0,100,0,0,0,0,97,3.846,3.851,0,0,0,0,6.333,59.54,734.07821804431,13.451444,6,P-GPS,,4.1
4400,2026-01-11 15:30:00,734.73438604431,12.467192,0.0,0.99353021552,2.05526253296,15,5,7.696,734.73438604431,14.107612,0.447388,1.049458695,0.0,0.0,-4.250186,26.5,2.4,-4.3,0,0,1024,1024,1684,1024,0,0,100,0,0,0,0,97,3.846,3.851,0,0,0,0,6.333,59.54,734.73438604431,14.107612,6,P-GPS,,4.3
4500,2026-01-11 15:30:00,735.71863804431,13.12336,0.0,0.98875003164,2.08412736328,15,5,7.696,735.71863804431,15.091864,0.447388,1.049458695,0.0,0.0,-4.250186,26.5,2.2,-4.7,0,0,1024,1024,1684,1024,0,0,100,0,0,0,0,97,3.846,3.851,0,0,0,0,6.333,59.54,735.71863804431,15.091864,6,P-GPS,,4.6
4600,2026-01-11 15:30:00,736.37480604431,14.107612,0.0,1.04059714616,2.1571523,15,5,7.696,736.37480604431,15.748032,0.447388,1.049458695,0.0,0.0,-4.47388,26.5,2.4,-5.0,0,0,1024,1024,1684,1024,0,0,100,0,0,0,0,97,3.846,3.851,0,0,0,0,6.333,59.54,736.37480604431,15.748032,6,P-GPS,,4.8
4700,2026-01-11 15:30:00,737.03097404431,14.76378,0.0,1.12939308076,2.25379928472,15,5,7.696,737.03097404431,16.4042,0.447388,1.12939308076,0.0,0.0,-4.250186,26.6,2.2,-4.3,0,0,1024,1024,1684,1024,0,0,100,0,0,0,0,97,3.846,3.851,0,0,0,0,6.333,59.54,737.03097404431,16.4042,6,P-GPS,,5.0
4800,2026-01-11 15:30:00,738.01522604431,15.419948,0.0,1.11857943212,2.27341214624,15,5,7.696,738.01522604431,17.388452,0.447388,1.12939308076,0.0,0.0,-4.250186,26.5,2.6,-4.1,0,0,1024,1024,1684,1024,0,0,100,0,0,0,0,97,3.846,3.851,0,0,0,0,6.333,59.54,738.01522604431,17.388452,6,P-GPS,,5.3
4900,2026-01-11 15:30:00,738.67139404431,16.076116,0.0,1.10898625596,2.296588,15,5,7.696,738.67139404431,18.04462,0.447388,1.12939308076,0.0,0.0,-4.47388,26.4,2.2,-4.3,0,0,1024,1024,1684,1024,0,0,100,0,0,0,0,97,3.846,3.851,0,0,0,0,6.333,59.54,738.67139404431,18.04462,6,P-GPS,,5.5
5000,2026-01-11 15:30:01,739.32756204431,17.060368,0.0,1.1234744454,2.3451608362,15,5,7.696,739.32756204431,18.700788,0.447388,1.12939308076,0.0,0.0,-4.47388,26.4,1.8,-4.2,0,0,1024,1024,1684,1024,0,0,100,0,0,0,0,97,3.846,3.851,0,0,0,0,6.333,59.54,739.32756204431,18.700788,6,P-GPS,,5.7
5100,2026-01-11 15:30:01,739.98373004431,17.716536,0.0,1.13972444592,2.3971949586,15,5,7.696,739.98373004431,19.356956,0.447388,1.13972444592,0.0,0.0,-4.250186,26.4,1.8,-4.0,0,0,1024,1024,1684,1024,0,0,100,0,0,0,0,97,3.846,3.851,0,0,0,0,6.333,59.54,739.98373004431,19.356956,6,P-GPS,,5.9
5200,2026-01-11 15:30:01,740.63989804431,18.700788,0.0,1.17251972256,2.46731963276,15,5,7.696,740.63989804431,20.013124,0.447388,1.17251972256,0.0,0.0,-4.250186,26.4,1.7,-3.9,0,0,1024,1024,1684,1024,0,0,100,0,0,0,0,97,3.846,3.851,0,0,0,0,6.333,59.54,740.63989804431,20.013124,6,P-GPS,,6.1
5300,2026-01-11 15:30:01,741.62415004431,19.356956,0.0,1.18898953936,2.5281496872,14,5,7.652,741.62415004431,20.997376,0.447388,1.18898953936,0.0,0.0,-4.47388,26.5,1.1,-3.8,0,0,1024,1024,1684,1024,0,0,100,0,0,0,0,97,3.823,3.83,0,0,0,0,6.758,59.36,741.62415004431,20.997376,6,P-GPS,,6.4
5400,2026-01-11 15:30:01,742.28031804431,20.341208,0.0,1.17792326604,2.5758038882,14,5,7.652,742.28031804431,21.653544,0.447388,1.18898953936,0.0,0.0,-4.250186,26.3,1.6,-3.7,0,0,1024,1024,1684,1024,0,0,100,0,0,0,0,97,3.823,3.83,0,0,0,0,6.758,59.36,742.28031804431,21.653544,6,P-GPS,,6.6
5500,2026-01-11 15:30:01,742.93648604431,21.32546,0.0,1.17705712428,2.61855651424,14,5,7.652,742.93648604431,22.309712,0.447388,1.18898953936,0.0,0.0,-4.250186,26.3,1.6,-3.9,0,0,1024,1024,1684,1024,0,0,100,0,0,0,0,97,3.823,3.83,0,0,0,0,6.758,59.36,742.93648604431,22.309712,6,P-GPS,,6.8
5600,2026-01-11 15:30:01,743.59265404431,21.981628,0.0,1.23074479004,2.70436688444,14,5,7.652,743.59265404431,22.96588,0.447388,1.23074479004,0.0,0.0,-4.250186,26.5,0.8,-3.6,0,0,1024,1024,1684,1024,0,0,100,0,0,0,0,97,3.823,3.83,0,0,0,0,6.758,59.36,743.59265404431,22.96588,6,P-GPS,,7.0
5700,2026-01-11 15:30:01,744.24882204431,22.637796,0.0,1.26347444988,2.75281832956,14,5,7.652,744.24882204431,23.622048,0.447388,1.26347444988,0.0,0.0,-4.47388,26.5,1.6,-3.7,0,0,1024,1024,1684,1024,0,0,100,0,0,0,0,97,3.823,3.83,0,0,0,0,6.758,59.36,744.24882204431,23.622048,6,P-GPS,,7.2
5800,2026-01-11 15:30:01,745.23307404431,23.293964,0.0,1.24446198208,2.7783465456,14,5,7.652,745.23307404431,24.6063,0.447388,1.26347444988,0.0,0.0,-4.47388,26.6,1.5,-3.8,0,0,1024,1024,1684,1024,0,0,100,0,0,0,0,97,3.823,3.83,0,0,0,0,6.758,59.36,745.23307404431,24.6063,6,P-GPS,,7.5
5900,2026-01-11 15:30:01,745.88924204431,23.950132,0.223694,1.22927825456,2.7939305356,14,5,7.652,745.88924204431,25.262468,0.447388,1.26347444988,0.223694,0.0,-4.47388,26.4,3.6,-4.7,0,0,1024,1024,1684,1024,0,0,100,0,0,0,0,97,3.823,3.83,0,0,0,0,6.758,59.36,745.88924204431,25.262468,6,P-GPS,,7.7
6000,2026-01-11 15:30:01,746.54541004431,27.559056,0.223694,1.27587602508,2.85094497312,14,5,7.652,746.54541004431,25.918636,0.447388,1.27587602508,0.223694,0.0,-4.47388,26.2,5.4,-4.7,0,0,1024,1024,1684,1104,0,0,100,12,0,0,0,97,3.823,3.83,0,0,0,0,6.758,59.36,746.54541004431,25.918636,6,P-GPS,,7.9
6100,2026-01-11 15:30:02,747.20157804431,28.871392,0.0,1.31470804732,2.89218513192,15,5,7.652,747.20157804431,26.574804,0.447388,1.31470804732,0.0,0.0,-4.250186,26.5,5.6,-4.3,0,0,1024,1024,1684,1357,0,0,100,50,0,0,0,97,3.823,3.83,0,0,0,0,6.758,59.36,747.20157804431,26.574804,6,P-GPS,,8.1
6200,2026-01-11 15:30:02,748.18583004431,29.52756,0.0,1.36433075232,2.94313657712,15,5,7.684,748.18583004431,27.559056,0.447388,1.36433075232,0.0,0.0,-4.250186,26.8,5.5,-4.3,0,0,1024,1024,1684,1219,0,0,100,30,0,0,0,97,3.84,3.838,0,0,0,0,6.535,59.36,748.18583004431,27.559056,6,P-GPS,,8.4
6300,2026-01-11 15:30:02,748.84199804431,30.511812,0.0,1.41260503208,2.99187345532,15,5,7.684,748.84199804431,28.215224,0.447388,1.41260503208,0.0,0.0,-4.250186,30.4,5.1,-3.5,0,0,1024,1024,1684,989,0,0,100,-5,0,0,0,97,3.84,3.838,0,0,0,0,6.535,59.36,748.84199804431,28.215224,6,P-GPS,,8.6
6400,2026-01-11 15:30:02,749.49816604431,31.16798,0.0,1.55261159824,3.14994104568,15,5,7.684,749.49816604431,28.871392,0.447388,1.55261159824,0.0,0.0,-4.250186,33.6,4.8,-2.8,0,0,1024,1024,1684,1024,0,0,100,0,0,0,0,97,3.84,3.838,0,0,0,0,6.535,59.36,749.49816604431,28.871392,6,P-GPS,,8.8
6500,2026-01-11 15:30:02,750.15433404431,32.152232,0.0,1.59530516916,3.19337936728,15,5,7.684,750.15433404431,29.52756,0.447388,1.59530516916,0.0,0.0,-4.47388,33.6,5.2,-3.2,0,0,1024,1024,1684,1024,0,0,100,0,0,0,0,97,3.84,3.838,0,0,0,0,6.535,59.36,750.15433404431,29.52756,6,P-GPS,,9.0
6600,2026-01-11 15:30:02,751.13858604431,32.8084,0.0,1.58792656,3.2145014152,15,5,7.684,751.13858604431,30.511812,0.447388,1.59530516916,0.0,0.0,-4.250186,33.5,5.7,-3.2,0,0,1024,1024,1684,1024,0,0,100,0,0,0,0,97,3.84,3.838,0,0,0,0,6.535,59.36,751.13858604431,30.511812,6,P-GPS,,9.3
6700,2026-01-11 15:30:02,751.79475404431,33.464568,0.0,1.58249020812,3.2446523348,15,5,7.684,751.79475404431,31.16798,0.447388,1.59530516916,0.0,0.0,-4.250186,33.5,4.8,-3.4,0,0,1024,1024,1684,1024,0,0,100,0,0,0,0,97,3.84,3.838,0,0,0,0,6.535,59.36,751.79475404431,31.16798,6,P-GPS,,9.5
6800,2026-01-11 15:30:02,752.45092204431,34.120736,0.0,1.58629598252,3.2902232024,15,5,7.684,752.45092204431,31.824148,0.447388,1.59530516916,0.0,0.0,-4.250186,33.5,3.9,-4.0,0,0,1024,1024,1684,1024,0,0,100,0,0,0,0,97,3.84,3.838,0,0,0,0,6.535,59.36,752.45092204431,31.824148,6,P-GPS,,9.7
6900,2026-01-11 15:30:02,753.43517404431,34.776904,0.0,1.47355319676,3.4368767504,15,5,7.684,753.43517404431,32.8084,0.447388,1.59530516916,0.0,0.0,-4.47388,33.6,2.9,-4.4,0,0,1024,1024,1684,1024,0,0,100,0,0,0,0,97,3.84,3.838,0,0,0,0,6.535,59.36,753.43517404431,32.8084,6,P-GPS,,10.0
7000,2026-01-11 15:30:02,754.09134204431,34.776904,0.0,1.46252957436,3.5028216344,15,5,7.684,754.09134204431,33.464568,0.447388,1.59530516916,0.0,0.0,-4.47388,33.6,2.4,-4.7,0,0,1024,1024,1684,1024,0,0,100,0,0,0,0,97,3.84,3.838,0,0,0,0,6.535,59.36,754.09134204431,33.464568,6,P-GPS,,10.2
7100,2026-01-11 15:30:03,754.74751004431,35.433072,0.0,1.45462931164,3.5614174368,15,5,7.684,754.74751004431,34.120736,0.447388,1.59530516916,0.0,0.0,-4.47388,33.9,2.1,-4.4,0,0,1024,1024,1684,1024,0,0,100,0,0,0,0,97,3.84,3.838,0,0,0,0,6.535,59.36,754.74751004431,34.120736,6,P-GPS,,10.4
7200,2026-01-11 15:30:03,755.73176204431,36.08924,0.0,1.46011815696,3.6084974908,15,5,7.684,755.73176204431,35.104988,0.447388,1.59530516916,0.0,0.0,-4.47388,33.9,2.9,-4.7,0,0,1024,1024,1684,1024,0,0,100,0,0,0,0,97,3.84,3.838,0,0,0,0,6.535,59.36,755.73176204431,35.104988,6,P-GPS,,10.7
7300,2026-01-11 15:30:03,756.38793004431,36.745408,0.223694,1.38749348272,3.7408465764,15,5,7.709,756.38793004431,35.761156,0.447388,1.59530516916,0.0,0.223694,-4.47388,33.7,4.0,-6.1,0,0,1024,1024,1024,1024,0,0,0,0,0,0,0,97,3.851,3.858,0,0,0,0,6.362,59.36,756.38793004431,35.761156,6,P-GPS,,10.9
7400,2026-01-11 15:30:03,757.04409804431,37.401576,0.0,1.42951448144,3.7833662628,15,5,7.709,757.04409804431,36.417324,0.447388,1.59530516916,0.0,0.0,-4.47388,33.7,4.7,-6.7,0,0,1024,1024,1024,1024,0,0,0,0,0,0,0,97,3.851,3.858,0,0,0,0,6.362,59.36,757.04409804431,36.417324,6,P-GPS,,11.1
7500,2026-01-11 15:30:03,757.70026604431,38.057744,0.0,1.47062340664,3.8260827996,15,5,7.709,757.70026604431,37.073492,0.447388,1.59530516916,0.0,0.0,-4.47388,33.7,4.7,-6.5,0,0,1024,1024,886,1024,0,0,-21,0,0,0,0,97,3.851,3.858,0,0,0,0,6.362,59.36,757.70026604431,37.073492,6,P-GPS,,11.3
7600,2026-01-11 15:30:03,758.35643404431,38.713912,0.0,1.53149283116,3.8881562924,15,5,7.709,758.35643404431,37.72966,0.447388,1.59530516916,0.0,0.0,-4.250186,33.7,3.8,-7.2,0,0,1024,1024,364,1024,0,0,-100,0,0,0,0,97,3.851,3.858,0,0,0,0,6.362,59.36,758.35643404431,37.72966,6,P-GPS,,11.5
7700,2026-01-11 15:30:03,759.01260204431,39.37008,0.0,1.68515753424,4.0480972424,15,5,7.709,759.01260204431,38.385828,0.447388,1.68515753424,0.0,0.0,-3.579104,33.4,4.5,-7.2,0,0,1024,1024,364,1024,0,0,-100,0,0,0,0,97,3.851,3.858,0,0,0,0,6.362,59.36,759.01260204431,38.385828,6,P-GPS,,11.7
7800,2026-01-11 15:30:03,759.34068604431,39.698164,0.0,1.64399939644,4.0904856952,15,5,7.709,759.34068604431,38.713912,0.447388,1.68515753424,0.0,0.0,-2.684328,33.3,4.5,-6.6,0,0,1024,1024,364,1024,0,0,-100,0,0,0,0,97,3.851,3.858,0,0,0,0,6.362,59.36,759.34068604431,38.713912,6,P-GPS,,11.8
7900,2026-01-11 15:30:03,759.66877004431,40.026248,0.0,1.60004270212,4.1357284788,15,5,7.709,759.66877004431,39.041996,0.447388,1.68515753424,0.0,0.0,-2.013246,33.1,4.5,-6.5,0,0,1024,1024,364,1024,0,0,-100,0,0,0,0,97,3.851,3.858,0,0,0,0,6.362,59.36,759.66877004431,39.041996,6,P-GPS,,11.9
8000,2026-01-11 15:30:04,759.99685404431,40.354332,0.0,1.56323167732,4.178805908,15,5,7.709,759.99685404431,39.37008,0.447388,1.68515753424,0.0,0.0,-1.11847,32.9,5.1,-6.3,0,0,1024,1024,364,1024,0,0,-100,0,0,0,0,97,3.851,3.858,0,0,0,0,6.362,59.36,759.99685404431,39.37008,6,P-GPS,,12.0
8100,2026-01-11 15:30:04,759.99685404431,40.354332,0.0,1.40868442828,4.3335631308,14,5,7.709,759.99685404431,39.37008,0.447388,1.68515753424,0.0,0.0,-0.223694,32.8,5.3,-6.2,0,0,1024,1024,364,1024,0,0,-100,0,0,0,0,97,3.851,3.858,0,0,0,0,6.362,59.36,759.99685404431,39.37008,6,P-GPS,,12.0
8200,2026-01-11 15:30:04,759.99685404431,40.354332,0.0,1.34088915052,4.4193242884,14,5,7.709,759.99685404431,39.37008,0.447388,1.68515753424,0.0,0.0,0.223694,32.6,5.7,-5.7,0,0,1024,1024,364,1024,0,0,-100,0,0,0,0,97,3.851,3.858,0,0,0,0,6.362,59.36,759.99685404431,39.37008,6,P-GPS,,12.0
8300,2026-01-11 15:30:04,759.99685404431,40.354332,0.0,1.27916342676,4.501148438,15,5,7.709,759.99685404431,39.37008,0.447388,1.68515753424,0.0,0.0,1.11847,32.5,6.1,-5.1,0,0,1024,1024,364,1024,0,0,-100,0,0,0,0,97,3.851,3.858,0,0,0,0,6.362,59.36,759.99685404431,39.37008,6,P-GPS,,12.0
8400,2026-01-11 15:30:04,759.66877004431,40.354332,0.0,1.24804465936,4.5668636632,15,5,7.891,759.99685404431,39.37008,0.447388,1.68515753424,0.0,0.0,2.013246,32.4,6.3,-4.8,0,0,1024,1024,364,1024,0,0,-100,0,0,0,0,97,3.958,3.964,0,0,0,0,4.031,59.36,759.66877004431,39.041996,6,P-GPS,,11.9
8500,2026-01-11 15:30:04,759.34068604431,40.354332,0.0,1.23093507876,4.6181431924,15,5,7.891,759.99685404431,39.37008,0.447388,1.68515753424,0.0,0.0,2.908022,32.3,6.4,-4.6,0,0,1024,1024,364,1024,0,0,-100,0,0,0,0,97,3.958,3.964,0,0,0,0,4.031,59.36,759.34068604431,38.713912,6,P-GPS,,11.8
8600,2026-01-11 15:30:04,758.68451804431,40.354332,0.0,1.27202759976,4.6595802016,15,5,7.891,759.99685404431,39.37008,0.447388,1.68515753424,0.0,0.0,3.35541,32.3,5.9,-4.4,0,0,1024,1024,364,1024,0,0,-100,0,0,0,0,97,3.958,3.964,0,0,0,0,4.031,59.36,758.68451804431,38.057744,6,P-GPS,,11.6
8700,2026-01-11 15:30:04,758.35643404431,40.354332,0.0,1.30424216772,4.693077578,15,5,7.891,759.99685404431,39.37008,0.447388,1.68515753424,0.0,0.0,3.802798,32.3,5.1,-4.0,0,0,1024,1024,364,1024,0,0,-100,0,0,0,0,97,3.958,3.964,0,0,0,0,4.031,59.36,758.35643404431,37.72966,6,P-GPS,,11.5
8800,2026-01-11 15:30:04,758.02835004431,40.354332,0.0,1.42054138404,4.8191602592,15,5,7.891,759.99685404431,39.37008,0.447388,1.68515753424,0.0,0.0,3.802798,32.4,3.7,-4.2,0,0,1024,1024,364,1024,0,0,-100,0,0,0,0,97,3.958,3.964,0,0,0,0,4.031,59.36,758.02835004431,37.401576,6,P-GPS,,11.4
8900,2026-01-11 15:30:04,757.37218204431,40.354332,0.0,1.52169624292,4.9246392652,15,5,7.891,759.99685404431,39.37008,0.447388,1.68515753424,0.0,0.0,3.802798,32.2,4.1,-4.6,0,0,1024,1024,1024,1024,0,0,0,0,0,0,0,97,3.958,3.964,0,0,0,0,4.031,59.36,757.37218204431,36.745408,6,P-GPS,,11.2
9000,2026-01-11 15:30:04,756.71601404431,40.354332,0.3131716,1.60600070756,5.0229988484,15,5,7.891,759.99685404431,39.37008,0.447388,1.68515753424,-0.223694,-0.223694,3.802798,32.1,2.7,-4.3,0,0,1024,1024,1024,1024,0,0,0,0,0,0,0,97,3.958,3.964,0,0,0,0,4.031,59.36,756.71601404431,36.08924,6,P-GPS,,11.0
9100,2026-01-11 15:30:05,756.38793004431,40.354332,0.3131716,1.60911422472,5.0724082988,15,5,7.891,759.99685404431,39.37008,0.447388,1.68515753424,-0.223694,-0.223694,3.802798,32.2,2.0,-4.0,0,0,1024,1024,1024,1024,0,0,0,0,0,0,0,97,3.958,3.964,0,0,0,0,4.031,59.36,756.38793004431,35.761156,6,P-GPS,,10.9
9200,2026-01-11 15:30:05,755.73176204431,40.354332,0.3131716,1.65814965936,5.1465224744,15,5,7.891,759.99685404431,39.37008,0.447388,1.68515753424,-0.223694,-0.223694,3.35541,32.3,1.8,-4.0,0,0,1024,1024,1024,1024,0,0,0,0,0,0,0,97,3.958,3.964,0,0,0,0,4.031,59.36,755.73176204431,35.104988,6,P-GPS,,10.7
9300,2026-01-11 15:30:05,755.73176204431,40.354332,0.3131716,1.7038386372,5.2197180148,15,5,7.891,759.99685404431,39.37008,0.447388,1.7038386372,-0.223694,-0.223694,2.684328,32.4,0.7,-4.3,0,0,1024,1024,1024,1024,0,0,0,0,0,0,0,97,3.958,3.964,0,0,0,0,4.031,59.36,755.73176204431,35.104988,6,P-GPS,,10.7
9400,2026-01-11 15:30:05,755.40367804431,40.354332,0.3131716,1.74944887488,5.4049542412,15,5,7.891,759.99685404431,39.37008,0.447388,1.74944887488,-0.223694,-0.223694,1.789552,32.5,-0.4,-4.5,0,0,1024,1024,1024,1024,0,0,0,0,0,0,0,97,3.812,3.814,0,0,0,0,4.031,59.36,755.40367804431,34.776904,6,P-GPS,,10.6
9500,2026-01-11 15:30:05,755.07559404431,40.354332,0.223694,1.77491475496,5.479166842,15,5,7.891,759.99685404431,39.37008,0.447388,1.77491475496,0.0,-0.223694,1.11847,32.7,-0.7,-5.0,0,0,1024,1024,1024,1024,0,0,0,0,0,0,0,97,3.812,3.814,0,0,0,0,4.031,59.36,755.07559404431,34.44882,6,P-GPS,,10.5
9600,2026-01-11 15:30:05,755.07559404431,40.354332,0.223694,1.79838260348,5.5112206488,15,5,7.891,759.99685404431,39.37008,0.447388,1.79838260348,0.0,-0.223694,0.447388,32.4,-0.3,-4.7,0,0,1024,1024,1024,1024,0,0,0,0,0,0,0,97,3.812,3.814,0,0,0,0,4.031,59.36,755.07559404431,34.44882,6,P-GPS,,10.5
9700,2026-01-11 15:30:05,754.74751004431,40.354332,0.223694,1.79872709168,5.5288059512,15,5,7.891,759.99685404431,39.37008,0.447388,1.79872709168,0.0,-0.223694,0.0,32.2,0.7,-3.7,0,0,1024,1024,1024,1024,0,0,0,0,0,0,0,97,3.812,3.814,0,0,0,0,4.031,59.36,754.74751004431,34.120736,6,P-GPS,,10.4
9800,2026-01-11 15:30:05,754.74751004431,40.354332,0.0,1.88048234364,5.61761829,15,5,7.891,759.99685404431,39.37008,0.447388,1.88048234364,0.0,0.0,-0.447388,32.4,0.7,-3.5,0,0,1024,1024,1024,1024,0,0,0,0,0,0,0,97,3.812,3.814,0,0,0,0,4.031,59.36,754.74751004431,34.120736,6,P-GPS,,10.4
9900,2026-01-11 15:30:05,754.74751004431,40.354332,0.0,1.90799218704,5.6688322024,15,5,7.891,759.99685404431,39.37008,0.447388,1.90799218704,0.0,0.0,-0.223694,32.3,1.3,-3.8,0,0,1024,1024,1024,1024,0,0,0,0,0,0,0,97,3.812,3.814,0,0,0,0,4.031,59.36,754.74751004431,34.120736,6,P-GPS,,10.4
10000,2026-01-11 15:30:05,754.74751004431,40.354332,0.0,2.13194560628,5.9207350976,15,5,7.891,759.99685404431,39.37008,0.447388,2.13194560628,0.0,0.0,0.0,32.4,1.4,-3.7,0,0,1024,1024,1024,1024,0,0,0,0,0,0,0,97,3.812,3.814,0,0,0,0,4.031,59.36,754.74751004431,34.120736,6,P-GPS,,10.4
10100,2026-01-11 15:30:06,754.41942604431,40.354332,0.0,2.33129600636,6.1402232936,15,5,7.891,759.99685404431,39.37008,0.447388,2.33129600636,0.0,0.0,0.0,32.4,1.9,-3.7,0,0,1024,1024,1024,1024,0,0,0,0,0,0,0,97,3.812,3.814,0,0,0,0,4.031,59.36,754.41942604431,33.792652,6,P-GPS,,10.3
10200,2026-01-11 15:30:06,754.41942604431,40.354332,0.0,2.3977691056,6.2266078108,15,5,7.891,759.99685404431,39.37008,0.447388,2.3977691056,0.0,0.0,0.0,32.4,1.6,-3.4,0,0,1024,1024,1024,1024,0,0,0,0,0,0,0,97,3.812,3.814,0,0,0,0,4.031,59.36,754.41942604431,33.792652,6,P-GPS,,10.3
10300,2026-01-11 15:30:06,754.41942604431,40.354332,0.0,2.84057751872,6.69537423,15,5,7.891,759.99685404431,39.37008,0.447388,2.84057751872,0.0,0.0,0.0,32.1,2.9,-4.1,0,0,1024,1024,1024,1024,0,0,0,0,0,0,0,97,3.812,3.814,0,0,0,0,4.031,59.36,754.41942604431,33.792652,6,P-GPS,,10.3
10400,2026-01-11 15:30:06,754.41942604431,40.354332,0.0,2.74765100656,6.7894359128,15,5,7.891,759.99685404431,39.37008,0.447388,2.84057751872,0.0,0.0,0.0,32.1,2.6,-4.0,0,0,1024,1024,1024,1024,0,0,0,0,0,0,0,97,3.812,3.814,0,0,0,0,4.031,59.36,754.41942604431,33.792652,6,P-GPS,,10.3
10500,2026-01-11 15:30:06,754.41942604431,40.354332,0.0,2.65606307712,6.8828086192,15,5,7.891,759.99685404431,39.37008,0.447388,2.84057751872,0.0,0.0,0.0,31.8,4.2,-4.1,0,0,1024,1024,1024,1024,0,0,0,0,0,0,0,97,3.812,3.814,0,0,0,0,4.031,59.36,754.41942604431,33.792652,6,P-GPS,,10.3
10600,2026-01-11 15:30:06,754.41942604431,40.354332,0.0,2.57125664396,6.9710632152,15,5,7.779,759.99685404431,39.37008,0.447388,2.84057751872,0.0,0.0,0.0,31.7,3.2,-4.2,0,0,1024,1024,1024,1024,0,0,0,0,0,0,0,97,3.888,3.891,0,0,0,0,5.226,59.54,754.41942604431,33.792652,6,P-GPS,,10.3
10700,2026-01-11 15:30:06,754.41942604431,40.354332,0.0,2.12051515972,7.4538388212,15,5,7.779,759.99685404431,39.37008,0.447388,2.84057751872,0.0,0.0,0.0,31.9,2.2,-4.6,0,0,1024,1024,1024,1024,0,0,0,0,0,0,0,97,3.888,3.891,0,0,0,0,5.226,59.54,754.41942604431,33.792652,6,P-GPS,SD card speed low. Normal use may be affected. Replace SD card (Code: 10028). Gimbal stuck. Make sure gimbal cover is removed and manually check whether gimbal can rotate freely (Code: 40002),10.3
10800,2026-01-11 15:30:06,754.41942604431,40.354332,0.0,2.04046594456,7.5346459104,15,5,7.779,759.99685404431,39.37008,0.447388,2.84057751872,0.0,0.0,0.0,32.1,1.5,-4.8,0,0,1024,1024,1024,1024,0,0,0,0,0,0,0,97,3.888,3.891,0,0,0,0,5.226,59.54,754.41942604431,33.792652,6,P-GPS,,10.3
10900,2026-01-11 15:30:06,754.41942604431,40.354332,0.0,1.96273300244,7.6127955192,15,5,7.779,759.99685404431,39.37008,0.447388,2.84057751872,0.0,0.0,0.0,32.1,2.0,-4.3,0,0,1024,1024,1024,1024,0,0,0,0,0,0,0,97,3.888,3.891,0,0,0,0,5.226,59.54,754.41942604431,33.792652,6,P-GPS,,10.3
11000,2026-01-11 15:30:06,754.41942604431,40.354332,0.0,1.89159454872,7.6839897472,15,5,7.779,759.99685404431,39.37008,0.447388,2.84057751872,0.0,0.0,0.0,32.2,1.9,-3.9,0,0,1024,1024,1024,1024,0,0,0,0,0,0,0,97,3.888,3.891,0,0,0,0,5.226,59.54,754.41942604431,33.792652,6,P-GPS,,10.3
11100,2026-01-11 15:30:07,754.41942604431,40.354332,0.0,1.65782157536,7.9230973664,15,5,7.779,759.99685404431,39.37008,0.447388,2.84057751872,0.0,0.0,0.0,32.3,0.8,-3.4,0,0,1024,1024,1024,1024,0,0,0,0,0,0,0,97,3.888,3.891,0,0,0,0,5.226,59.54,754.41942604431,33.792652,6,P-GPS,,10.3
11200,2026-01-11 15:30:07,754.41942604431,40.354332,0.0,1.63038391044,7.963746974,15,5,7.779,759.99685404431,39.37008,0.447388,2.84057751872,0.0,0.0,0.0,32.3,0.4,-3.4,0,0,1024,1024,1024,1024,0,0,0,0,0,0,0,97,3.888,3.891,0,0,0,0,5.226,59.54,754.41942604431,33.792652,6,P-GPS,,10.3
11300,2026-01-11 15:30:07,754.41942604431,40.354332,0.0,1.61085635076,7.9964569488,15,5,7.779,759.99685404431,39.37008,0.447388,2.84057751872,0.0,0.0,0.0,32.3,0.3,-3.5,0,0,1024,1024,1024,1024,0,0,0,0,0,0,0,97,3.888,3.891,0,0,0,0,5.226,59.54,754.41942604431,33.792652,6,P-GPS,,10.3
11400,2026-01-11 15:30:07,754.41942604431,40.354332,0.0,1.6081693428,8.0094162668,15,5,7.779,759.99685404431,39.37008,0.447388,2.84057751872,0.0,0.0,0.0,32.5,-1.1,-3.2,0,0,1024,1024,1024,1024,0,0,0,0,0,0,0,97,3.888,3.891,0,0,0,0,5.226,59.54,754.41942604431,33.792652,6,P-GPS,,10.3
11500,2026-01-11 15:30:07,754.41942604431,40.354332,0.0,1.65015425228,8.0588585256,15,5,7.779,759.99685404431,39.37008,0.447388,2.84057751872,0.0,0.0,0.0,32.4,-0.3,-3.5,0,0,1024,1024,1024,1024,0,0,0,0,0,0,0,97,3.888,3.891,0,0,0,0,5.226,59.54,754.41942604431,33.792652,6,P-GPS,,10.3
11600,2026-01-11 15:30:07,754.41942604431,40.354332,0.0,1.6156824664,8.0934385792,15,5,7.779,759.99685404431,39.37008,0.447388,2.84057751872,0.0,0.0,0.0,32.2,1.0,-3.6,0,0,1024,1024,1024,1024,0,0,0,0,0,0,0,97,3.888,3.891,0,0,0,0,5.226,59.54,754.41942604431,33.792652,6,P-GPS,,10.3
11700,2026-01-11 15:30:07,754.41942604431,40.354332,0.0,1.57859585104,8.130577688,15,5,7.775,759.99685404431,39.37008,0.447388,2.84057751872,0.0,0.0,0.0,32.2,2.1,-3.8,0,0,1024,1024,1024,1024,0,0,0,0,0,0,0,97,3.887,3.888,0,0,0,0,4.926,59.54,754.41942604431,33.792652,6,P-GPS,,10.3
11800,2026-01-11 15:30:07,754.41942604431,40.354332,0.0,1.52984584948,8.1817916004,15,5,7.775,759.99685404431,39.37008,0.447388,2.84057751872,0.0,0.0,0.0,32.3,1.9,-3.6,0,0,1024,1024,1024,1024,0,0,0,0,0,0,0,97,3.887,3.888,0,0,0,0,4.926,59.54,754.41942604431,33.792652,6,P-GPS,,10.3
11900,2026-01-11 15:30:07,754.09134204431,40.354332,0.0,1.48381238344,8.2303480324,15,5,7.775,759.99685404431,39.37008,0.447388,2.84057751872,0.0,0.0,0.0,32.4,1.6,-3.7,0,0,1024,1024,1024,1024,0,0,0,0,0,0,0,97,3.887,3.888,0,0,0,0,4.926,59.54,754.09134204431,33.464568,6,P-GPS,,10.2
12000,2026-01-11 15:30:08,754.09134204431,40.354332,0.0,1.34705712972,8.3777233652,15,5,7.775,759.99685404431,39.37008,0.447388,2.84057751872,0.0,0.0,0.0,32.5,1.6,-3.7,0,0,1024,1024,1024,1024,0,0,0,0,0,0,0,97,3.887,3.888,0,0,0,0,4.926,59.54,754.09134204431,33.464568,6,P-GPS,,10.2
12100,2026-01-11 15:30:08,754.09134204431,40.354332,0.0,1.28678153724,8.4380908212,15,5,7.775,759.99685404431,39.37008,0.447388,2.84057751872,0.0,0.0,0.0,32.5,1.5,-3.7,0,0,1024,1024,1024,1024,0,0,0,0,0,0,0,97,3.887,3.888,0,0,0,0,4.926,59.54,754.09134204431,33.464568,6,P-GPS,,10.2
12200,2026-01-11 15:30:08,753.76325804431,40.354332,0.0,1.24356303192,8.4828414788,15,5,7.775,759.99685404431,39.37008,0.447388,2.84057751872,0.0,0.0,0.0,32.5,2.2,-3.7,0,0,1024,1024,1024,1024,0,0,0,0,0,0,0,97,3.887,3.888,0,0,0,0,4.926,59.54,753.76325804431,33.136484,6,P-GPS,,10.1
12300,2026-01-11 15:30:08,753.76325804431,40.354332,0.0,1.2017388836,8.52608295,15,5,7.775,759.99685404431,39.37008,0.447388,2.84057751872,0.0,0.0,0.0,32.5,2.1,-3.4,0,0,1024,1024,1024,1024,0,0,0,0,0,0,0,97,3.887,3.888,0,0,0,0,4.926,59.54,753.76325804431,33.136484,6,P-GPS,,10.1
12400,2026-01-11 15:30:08,753.76325804431,40.354332,0.0,1.15119426256,8.6047246848,15,5,7.775,759.99685404431,39.37008,0.447388,2.84057751872,0.0,0.0,0.0,32.4,2.5,-3.2,0,0,1024,1024,1024,1024,0,0,0,0,0,0,0,97,3.887,3.888,0,0,0,0,4.926,59.54,753.76325804431,33.136484,6,P-GPS,,10.1
12500,2026-01-11 15:30:08,753.43517404431,40.354332,0.0,1.10905843444,8.6476052636,15,5,7.775,759.99685404431,39.37008,0.447388,2.84057751872,0.0,0.0,0.0,32.5,2.2,-2.9,0,0,1024,1024,1024,1024,0,0,0,0,0,0,0,97,3.887,3.888,0,0,0,0,4.926,59.54,753.43517404431,32.8084,6,P-GPS,,10.0
12600,2026-01-11 15:30:08,753.43517404431,40.354332,0.0,1.07507877456,8.6844490968,15,5,7.775,759.99685404431,39.37008,0.447388,2.84057751872,0.0,0.0,0.0,32.5,2.1,-2.8,0,0,1024,1024,1024,1024,0,0,0,0,0,0,0,97,3.887,3.888,0,0,0,0,4.926,59.54,753.43517404431,32.8084,6,P-GPS,,10.0
12700,2026-01-11 15:30:08,753.43517404431,40.354332,0.0,1.04637142456,8.7146328248,15,5,7.775,759.99685404431,39.37008,0.447388,2.84057751872,0.0,0.0,0.0,32.5,2.0,-2.9,0,0,1024,1024,1024,1024,0,0,0,0,0,0,0,97,3.887,3.888,0,0,0,0,4.926,59.54,753.43517404431,32.8084,6,P-GPS,,10.0
12800,2026-01-11 15:30:08,753.43517404431,40.354332,0.0,1.04385173944,8.7471459492,15,5,7.775,759.99685404431,39.37008,0.447388,2.84057751872,0.0,0.0,0.0,32.4,3.2,-3.4,0,0,1024,1024,1024,1024,0,0,0,0,0,0,0,97,3.887,3.888,0,0,0,0,4.926,59.54,753.43517404431,32.8084,6,P-GPS,,10.0
12900,2026-01-11 15:30:08,753.10709004431,40.354332,0.0,1.02693900924,8.7641407004,15,5,7.775,759.99685404431,39.37008,0.447388,2.84057751872,0.0,0.0,0.0,32.3,3.5,-3.9,0,0,1024,1024,1024,1024,0,0,0,0,0,0,0,97,3.887,3.888,0,0,0,0,4.926,59.54,753.10709004431,32.480316,6,P-GPS,,9.9
13000,2026-01-11 15:30:08,753.10709004431,40.354332,0.0,1.02728677828,8.7763126168,15,5,7.775,759.99685404431,39.37008,0.447388,2.84057751872,0.0,0.0,0.0,32.2,1.4,-4.9,0,0,1024,1024,1024,1024,0,0,0,0,0,0,0,97,3.887,3.888,0,0,0,0,4.926,59.54,753.10709004431,32.480316,6,P-GPS,,9.9
13100,2026-01-11 15:30:09,753.10709004431,40.354332,0.0,1.0215059382,8.7917325648,15,5,7.781,759.99685404431,39.37008,0.447388,2.84057751872,0.0,0.0,0.0,32.0,3.3,-4.3,0,0,1024,1024,1024,1024,0,0,0,0,0,0,0,96,3.888,3.893,0,0,0,0,4.844,59.54,753.10709004431,32.480316,6,P-GPS,,9.9
13200,2026-01-11 15:30:09,753.10709004431,40.354332,0.0,1.06228021772,8.8331367656,15,5,7.781,759.99685404431,39.37008,0.447388,2.84057751872,0.0,0.0,0.0,32.0,3.2,-2.7,0,0,1024,1024,1024,1024,0,0,0,0,0,0,0,96,3.888,3.893,0,0,0,0,4.844,59.54,753.10709004431,32.480316,6,P-GPS,,9.9
13300,2026-01-11 15:30:09,753.10709004431,40.354332,0.223694,1.05220803892,8.854823118,15,5,7.781,759.99685404431,39.37008,0.447388,2.84057751872,0.0,-0.223694,0.0,31.9,2.5,-1.3,0,0,1024,1024,1024,1024,0,0,0,0,0,0,0,96,3.888,3.893,0,0,0,0,4.844,59.54,753.10709004431,32.480316,6,P-GPS,,9.9
13400,2026-01-11 15:30:09,753.10709004431,40.354332,0.223694,1.0595144696,8.879429418,15,5,7.781,759.99685404431,39.37008,0.447388,2.84057751872,0.0,-0.223694,0.0,32.0,3.0,-0.2,0,0,1024,1024,1024,1024,0,0,0,0,0,0,0,96,3.888,3.893,0,0,0,0,4.844,59.54,753.10709004431,32.480316,6,P-GPS,,9.9
13500,2026-01-11 15:30:09,752.77900604431,40.354332,0.223694,1.080298591,8.9070868992,15,5,7.781,759.99685404431,39.37008,0.447388,2.84057751872,0.0,-0.223694,0.0,32.5,2.0,0.0,0,0,1024,1024,1024,1024,0,0,0,0,0,0,0,96,3.888,3.893,0,0,0,0,4.844,59.54,752.77900604431,32.152232,6,P-GPS,,9.8
13600,2026-01-11 15:30:09,752.77900604431,40.354332,0.0,1.10833008796,8.938812622,15,5,7.781,759.99685404431,39.37008,0.447388,2.84057751872,0.0,0.0,0.0,32.8,1.2,-0.9,0,0,1024,1024,1024,1024,0,0,0,0,0,0,0,96,3.888,3.893,0,0,0,0,4.844,59.54,752.77900604431,32.152232,6,P-GPS,,9.8
13700,2026-01-11 15:30:09,752.77900604431,40.354332,0.0,1.18026250496,9.0139766664,15,5,7.781,759.99685404431,39.37008,0.447388,2.84057751872,0.0,0.0,0.0,33.0,1.7,-1.3,0,0,1024,1024,1024,1024,0,0,0,0,0,0,0,96,3.888,3.893,0,0,0,0,4.844,59.54,752.77900604431,32.152232,6,P-GPS,,9.8
13800,2026-01-11 15:30:09,752.77900604431,40.354332,0.0,1.20932418568,9.0432089508,15,5,7.781,759.99685404431,39.37008,0.447388,2.84057751872,0.0,0.0,0.0,33.0,2.7,-1.9,0,0,1024,1024,1024,1024,0,0,0,0,0,0,0,96,3.888,3.893,0,0,0,0,4.844,59.54,752.77900604431,32.152232,6,P-GPS,,9.8
13900,2026-01-11 15:30:09,752.77900604431,40.354332,0.0,1.23468507888,9.0720475344,15,5,7.781,759.99685404431,39.37008,0.447388,2.84057751872,0.0,0.223694,0.0,32.8,3.7,-2.9,0,0,1024,1024,1024,1024,0,0,0,0,0,0,0,96,3.888,3.893,0,0,0,0,4.844,59.54,752.77900604431,32.152232,6,P-GPS,,9.8
14000,2026-01-11 15:30:09,753.10709004431,40.354332,0.223694,1.25655515832,9.1173559348,15,5,7.781,759.99685404431,39.37008,0.447388,2.84057751872,0.0,0.223694,0.0,32.6,3.8,-4.5,0,0,1024,1024,1024,1024,0,0,0,0,0,0,0,96,3.888,3.893,0,0,0,0,4.844,59.54,753.10709004431,32.480316,6,P-GPS,,9.9
14100,2026-01-11 15:30:10,753.10709004431,40.354332,0.223694,1.30635502868,9.1692588236,15,5,7.781,759.99685404431,39.37008,0.447388,2.84057751872,0.0,0.223694,0.0,32.4,4.1,-5.3,0,0,1024,1024,1024,1024,0,0,0,0,0,0,0,96,3.888,3.893,0,0,0,0,4.844,59.54,753.10709004431,32.480316,6,P-GPS,,9.9
14200,2026-01-11 15:30:10,753.10709004431,40.354332,0.223694,1.3314304888,9.2312338912,15,5,7.759,759.99685404431,39.37008,0.447388,2.84057751872,0.0,0.223694,0.0,32.2,3.9,-5.7,0,0,1024,1024,1024,1024,0,0,0,0,0,0,0,96,3.872,3.875,0,0,0,0,5.193,59.54,753.10709004431,32.480316,6,P-GPS,,9.9
14300,2026-01-11 15:30:10,753.10709004431,40.354332,0.0,1.36104335064,9.2829399296,15,5,7.759,759.99685404431,39.37008,0.447388,2.84057751872,0.0,0.0,0.0,32.3,2.3,-5.6,0,0,1024,1024,1024,1024,0,0,0,0,0,0,0,96,3.872,3.875,0,0,0,0,5.193,59.54,753.10709004431,32.480316,6,P-GPS,,9.9
14400,2026-01-11 15:30:10,753.10709004431,40.354332,0.0,1.37688324616,9.318733894,15,5,7.759,759.99685404431,39.37008,0.447388,2.84057751872,0.0,0.0,0.0,32.5,1.7,-5.2,0,0,1024,1024,1024,1024,0,0,0,0,0,0,0,96,3.872,3.875,0,0,0,0,5.193,59.54,753.10709004431,32.480316,6,P-GPS,,9.9
14500,2026-01-11 15:30:10,753.10709004431,40.354332,0.0,1.35357287796,9.4040685424,15,5,7.759,759.99685404431,39.37008,0.447388,2.84057751872,0.0,0.0,0.0,32.6,2.1,-4.5,0,0,1024,1024,1024,1024,0,0,0,0,0,0,0,96,3.872,3.875,0,0,0,0,5.193,59.54,753.10709004431,32.480316,6,P-GPS,,9.9
14600,2026-01-11 15:30:10,753.43517404431,40.354332,0.0,1.36583665788,9.418799514,15,5,7.759,759.99685404431,39.37008,0.447388,2.84057751872,0.0,0.0,0.0,32.5,2.3,-4.6,0,0,1024,1024,1024,1024,0,0,0,0,0,0,0,96,3.872,3.875,0,0,0,0,5.193,59.54,753.43517404431,32.8084,6,P-GPS,,10.0
14700,2026-01-11 15:30:10,753.43517404431,40.354332,0.0,1.37954072656,9.4359254988,15,5,7.759,759.99685404431,39.37008,0.447388,2.84057751872,0.0,0.0,0.0,32.5,2.3,-5.0,0,0,1024,1024,1024,1024,0,0,0,0,0,0,0,96,3.872,3.875,0,0,0,0,5.193,59.54,753.43517404431,32.8084,6,P-GPS,,10.0
14800,2026-01-11 15:30:10,753.43517404431,40.354332,0.0,1.40487865388,9.4624674944,15,5,7.759,759.99685404431,39.37008,0.447388,2.84057751872,0.0,0.0,0.0,32.4,3.0,-5.2,0,0,1024,1024,1024,1024,0,0,0,0,0,0,0,96,3.872,3.875,0,0,0,0,5.193,59.54,753.43517404431,32.8084,6,P-GPS,,10.0
14900,2026-01-11 15:30:10,753.43517404431,40.354332,0.0,1.44395017744,9.5178152652,15,5,7.759,759.99685404431,39.37008,0.447388,2.84057751872,0.0,0.0,0.0,32.2,3.2,-5.7,0,0,1024,1024,1024,1024,0,0,0,0,0,0,0,96,3.872,3.875,0,0,0,0,5.193,59.54,753.43517404431,32.8084,6,P-GPS,,10.0
15000,2026-01-11 15:30:10,753.76325804431,40.354332,0.0,1.47846789508,9.5583336392,15,5,7.759,759.99685404431,39.37008,0.447388,2.84057751872,0.0,0.0,0.0,32.3,3.1,-5.9,0,0,1024,1024,1024,1024,0,0,0,0,0,0,0,96,3.872,3.875,0,0,0,0,5.193,59.54,753.76325804431,33.136484,6,P-GPS,,10.1
15100,2026-01-11 15:30:11,753.76325804431,40.354332,0.0,1.51147970716,9.5952758976,15,5,7.759,759.99685404431,39.37008,0.447388,2.84057751872,0.0,0.0,0.0,32.3,3.0,-6.1,0,0,1024,1024,1024,1024,0,0,0,0,0,0,0,96,3.872,3.875,0,0,0,0,5.193,59.54,753.76325804431,33.136484,6,P-GPS,,10.1
15200,2026-01-11 15:30:11,753.76325804431,40.354332,0.0,1.53734584972,9.627460938,15,5,7.759,759.99685404431,39.37008,0.447388,2.84057751872,0.0,0.0,0.0,32.6,2.6,-5.9,0,0,1024,1024,1024,1024,0,0,0,0,0,0,0,96,3.872,3.875,0,0,0,0,5.193,59.54,753.76325804431,33.136484,6,P-GPS,,10.1
15300,2026-01-11 15:30:11,753.76325804431,40.354332,0.0,1.55687669024,9.6530186816,15,5,7.78,759.99685404431,39.37008,0.447388,2.84057751872,0.0,0.0,0.0,32.7,2.9,-6.0,0,0,1024,1024,1024,1024,0,0,0,0,0,0,0,96,3.891,3.89,0,0,0,0,4.818,59.54,753.76325804431,33.136484,6,P-GPS,,10.1
15400,2026-01-11 15:30:11,753.76325804431,40.354332,0.0,1.59361225572,9.7115816756,15,5,7.78,759.99685404431,39.37008,0.447388,2.84057751872,0.0,0.0,0.0,32.8,3.2,-5.5,0,0,1024,1024,1024,1024,0,0,0,0,0,0,0,96,3.891,3.89,0,0,0,0,4.818,59.54,753.76325804431,33.136484,6,P-GPS,,10.1
15500,2026-01-11 15:30:11,753.76325804431,40.354332,0.0,1.60184060244,9.721457004,15,5,7.78,759.99685404431,39.37008,0.447388,2.84057751872,0.0,0.0,0.0,32.8,3.8,-5.1,0,0,1024,1024,1024,1024,0,0,0,0,0,0,0,96,3.891,3.89,0,0,0,0,4.818,59.54,753.76325804431,33.136484,6,P-GPS,,10.1
15600,2026-01-11 15:30:11,753.76325804431,40.354332,0.0,1.6159285294,9.741306086,15,5,7.78,759.99685404431,39.37008,0.447388,2.84057751872,0.0,0.0,0.0,32.7,3.5,-4.9,0,0,1024,1024,1024,1024,0,0,0,0,0,0,0,96,3.891,3.89,0,0,0,0,4.818,59.54,753.76325804431,33.136484,6,P-GPS,,10.1
15700,2026-01-11 15:30:11,753.43517404431,40.354332,0.0,1.62874677128,9.7650265592,15,5,7.78,759.99685404431,39.37008,0.447388,2.84057751872,0.0,0.0,0.0,32.7,2.8,-4.5,0,0,1024,1024,1024,1024,0,0,0,0,0,0,0,96,3.891,3.89,0,0,0,0,4.818,59.54,753.43517404431,32.8084,6,P-GPS,,10.0
15800,2026-01-11 15:30:11,753.43517404431,40.354332,0.0,1.64425202112,9.8023953268,15,5,7.78,759.99685404431,39.37008,0.447388,2.84057751872,0.0,0.0,0.0,32.7,2.1,-4.1,0,0,1024,1024,1024,1024,0,0,0,0,0,0,0,96,3.891,3.89,0,0,0,0,4.818,59.54,753.43517404431,32.8084,6,P-GPS,,10.0
15900,2026-01-11 15:30:11,753.43517404431,40.354332,0.0,1.64807091888,9.819718162,15,5,7.78,759.99685404431,39.37008,0.447388,2.84057751872,0.0,0.0,0.0,32.7,1.9,-4.1,0,0,1024,1024,1024,1024,0,0,0,0,0,0,0,96,3.891,3.89,0,0,0,0,4.818,59.54,753.43517404431,32.8084,6,P-GPS,,10.0
16000,2026-01-11 15:30:11,753.43517404431,40.354332,0.0,1.640666063,9.8382877164,15,5,7.78,759.99685404431,39.37008,0.447388,2.84057751872,0.0,0.0,0.0,32.6,2.3,-4.6,0,0,1024,1024,1024,1024,0,0,0,0,0,0,0,96,3.891,3.89,0,0,0,0,4.818,59.54,753.43517404431,32.8084,6,P-GPS,,10.0
16100,2026-01-11 15:30:12,753.43517404431,40.354332,0.0,1.6331037268,9.8523953284,15,5,7.78,759.99685404431,39.37008,0.447388,2.84057751872,0.0,0.0,0.0,32.8,2.5,-4.8,0,0,1024,1024,1024,1024,0,0,0,0,0,0,0,96,3.891,3.89,0,0,0,0,4.818,59.54,753.43517404431,32.8084,6,P-GPS,,10.0
16200,2026-01-11 15:30:12,753.43517404431,40.354332,0.0,1.63117131204,9.8862864056,15,5,7.78,759.99685404431,39.37008,0.447388,2.84057751872,0.0,0.0,0.0,33.0,2.7,-4.6,0,0,1024,1024,1024,1024,0,0,0,0,0,0,0,96,3.891,3.89,0,0,0,0,4.818,59.54,753.43517404431,32.8084,6,P-GPS,,10.0
16300,2026-01-11 15:30:12,753.43517404431,40.354332,0.0,1.62558076068,9.896981944,15,5,7.78,759.99685404431,39.37008,0.447388,2.84057751872,0.0,0.0,0.0,33.2,3.6,-4.6,0,0,1024,1024,1024,1024,0,0,0,0,0,0,0,96,3.888,3.89,0,0,0,0,4.818,59.54,753.43517404431,32.8084,6,P-GPS,,10.0
16400,2026-01-11 15:30:12,753.43517404431,40.354332,0.223694,1.61126645576,9.9146656716,15,5,7.78,759.99685404431,39.37008,0.447388,2.84057751872,0.223694,0.0,0.0,33.0,3.9,-4.0,0,0,1024,1024,1024,1024,0,0,0,0,0,0,0,96,3.888,3.89,0,0,0,0,4.818,59.54,753.43517404431,32.8084,6,P-GPS,,10.0
16500,2026-01-11 15:30:12,753.43517404431,40.354332,0.223694,1.59395018224,9.9321853572,15,5,7.78,759.99685404431,39.37008,0.447388,2.84057751872,0.223694,0.0,0.0,32.7,4.8,-4.0,0,0,1024,1024,1024,1024,0,0,0,0,0,0,0,96,3.888,3.89,0,0,0,0,4.818,59.54,753.43517404431,32.8084,6,P-GPS,,10.0
16600,2026-01-11 15:30:12,753.43517404431,40.354332,0.0,1.61316934296,9.9643375892,15,5,7.78,759.99685404431,39.37008,0.447388,2.84057751872,0.0,0.0,0.0,32.6,5.4,-4.2,0,0,1024,1024,1024,1024,0,0,0,0,0,0,0,96,3.888,3.89,0,0,0,0,4.818,59.54,753.43517404431,32.8084,6,P-GPS,,10.0
16700,2026-01-11 15:30:12,753.43517404431,40.354332,0.0,1.60328745288,9.9859583248,15,5,7.78,759.99685404431,39.37008,0.447388,2.84057751872,0.0,0.0,0.0,32.6,5.7,-4.3,0,0,1024,1024,1024,1024,0,0,0,0,0,0,0,96,3.888,3.89,0,0,0,0,4.818,59.54,753.43517404431,32.8084,6,P-GPS,,10.0
16800,2026-01-11 15:30:12,753.43517404431,40.354332,0.0,1.59339572028,10.0064963832,15,5,7.78,759.99685404431,39.37008,0.447388,2.84057751872,0.0,0.0,0.0,32.7,5.8,-4.3,0,0,1024,1024,1024,1024,0,0,0,0,0,0,0,96,3.888,3.89,0,0,0,0,4.818,59.54,753.43517404431,32.8084,6,P-GPS,,10.0
16900,2026-01-11 15:30:12,753.43517404431,40.354332,0.0,1.5904035942,10.0237536016,15,5,7.78,759.99685404431,39.37008,0.447388,2.84057751872,0.0,0.0,0.0,32.7,5.5,-4.6,0,0,1024,1024,1024,1024,0,0,0,0,0,0,0,96,3.888,3.89,0,0,0,0,4.818,59.54,753.43517404431,32.8084,6,P-GPS,,10.0
17000,2026-01-11 15:30:12,753.43517404431,40.354332,0.0,1.59192262312,10.0469491404,15,5,7.78,759.99685404431,39.37008,0.447388,2.84057751872,0.0,0.0,0.0,32.5,6.1,-4.9,0,0,1024,1024,1024,1024,0,0,0,0,0,0,0,96,3.888,3.89,0,0,0,0,4.818,59.54,753.43517404431,32.8084,6,P-GPS,,10.0
17100,2026-01-11 15:30:13,753.43517404431,40.354332,0.0,1.60502957892,10.099409772,15,5,7.78,759.99685404431,39.37008,0.447388,2.84057751872,0.0,0.0,0.0,32.6,5.9,-5.0,0,0,1024,1024,1024,1024,0,0,0,0,0,0,0,96,3.888,3.89,0,0,0,0,4.818,59.54,753.43517404431,32.8084,6,P-GPS,,10.0
17200,2026-01-11 15:30:13,753.43517404431,40.354332,0.0,1.60543312224,10.112861216,15,5,7.78,759.99685404431,39.37008,0.447388,2.84057751872,0.0,0.0,0.0,32.6,5.3,-5.1,0,0,1024,1024,1024,1024,0,0,0,0,0,0,0,96,3.888,3.89,0,0,0,0,4.818,59.54,753.43517404431,32.8084,6,P-GPS,,10.0
17300,2026-01-11 15:30:13,753.43517404431,40.354332,0.0,1.61456369996,10.1253612164,15,5,7.78,759.99685404431,39.37008,0.447388,2.84057751872,0.0,0.0,0.0,32.6,4.6,-5.2,0,0,1024,1024,1024,1024,0,0,0,0,0,0,0,96,3.888,3.89,0,0,0,0,4.818,59.54,753.43517404431,32.8084,6,P-GPS,,10.0
17400,2026-01-11 15:30:13,753.43517404431,40.354332,0.0,1.64475727048,10.1555777528,15,5,7.778,759.99685404431,39.37008,0.447388,2.84057751872,0.0,0.0,0.0,32.6,4.2,-5.2,0,0,1024,1024,1024,1024,0,0,0,0,0,0,0,96,3.877,3.877,0,0,0,0,4.809,59.54,753.43517404431,32.8084,6,P-GPS,,10.0
17500,2026-01-11 15:30:13,753.43517404431,40.354332,0.0,1.66606632628,10.1772969136,15,5,7.778,759.99685404431,39.37008,0.447388,2.84057751872,0.0,0.0,0.0,32.7,4.1,-5.2,0,0,1024,1024,1024,1024,0,0,0,0,0,0,0,96,3.877,3.877,0,0,0,0,4.809,59.54,753.43517404431,32.8084,6,P-GPS,,10.0
17600,2026-01-11 15:30:13,753.10709004431,40.354332,0.0,1.71242131464,10.223753608,15,5,7.778,759.99685404431,39.37008,0.447388,2.84057751872,0.0,0.0,0.0,32.7,3.9,-5.3,0,0,1024,1024,1024,1024,0,0,0,0,0,0,0,96,3.877,3.877,0,0,0,0,4.809,59.54,753.10709004431,32.480316,6,P-GPS,,9.9
17700,2026-01-11 15:30:13,753.10709004431,40.354332,0.0,1.7559383764,10.2672575464,15,5,7.778,759.99685404431,39.37008,0.447388,2.84057751872,0.0,0.0,0.0,32.8,3.7,-5.4,0,0,1024,1024,1024,1024,0,0,0,0,0,0,0,96,3.877,3.877,0,0,0,0,4.809,59.54,753.10709004431,32.480316,6,P-GPS,,9.9
17800,2026-01-11 15:30:13,753.10709004431,40.354332,0.0,1.79086619904,10.302985894,15,5,7.778,759.99685404431,39.37008,0.447388,2.84057751872,0.0,0.0,0.0,32.8,4.0,-5.6,0,0,1024,1024,1024,1024,0,0,0,0,0,0,0,96,3.877,3.877,0,0,0,0,4.809,59.54,753.10709004431,32.480316,6,P-GPS,,9.9
17900,2026-01-11 15:30:13,753.10709004431,40.354332,0.0,1.85691278908,10.369258862,15,5,7.778,759.99685404431,39.37008,0.447388,2.84057751872,0.0,0.0,0.0,32.8,4.2,-5.3,0,0,1024,1024,1024,1024,0,0,0,0,0,0,0,96,3.877,3.877,0,0,0,0,4.809,59.54,753.10709004431,32.480316,6,P-GPS,,9.9
18000,2026-01-11 15:30:13,753.10709004431,40.354332,0.0,1.87012473176,10.3831368152,15,5,7.778,759.99685404431,39.37008,0.447388,2.84057751872,0.0,0.0,0.0,32.9,3.8,-5.2,0,0,1024,1024,1024,1024,0,0,0,0,0,0,0,96,3.877,3.877,0,0,0,0,4.809,59.54,753.10709004431,32.480316,6,P-GPS,,9.9
18100,2026-01-11 15:30:14,753.10709004431,40.354332,0.0,1.8755906112,10.3917654244,15,5,7.778,759.99685404431,39.37008,0.447388,2.84057751872,0.0,0.0,0.0,32.7,4.6,-5.3,0,0,1024,1024,1024,1024,0,0,0,0,0,0,0,96,3.877,3.877,0,0,0,0,4.809,59.54,753.10709004431,32.480316,6,P-GPS,,9.9
18200,2026-01-11 15:30:14,753.10709004431,40.354332,0.0,1.85923234296,10.4099084696,15,5,7.778,759.99685404431,39.37008,0.447388,2.84057751872,0.0,0.0,0.0,32.7,4.5,-5.7,0,0,1024,1024,1024,1024,0,0,0,0,0,0,0,96,3.877,3.877,0,0,0,0,4.809,59.54,753.10709004431,32.480316,6,P-GPS,,9.9
18300,2026-01-11 15:30:14,753.10709004431,40.354332,0.0,1.7771818154,10.4923559788,15,5,7.778,759.99685404431,39.37008,0.447388,2.84057751872,0.0,0.0,0.0,32.7,4.6,-5.3,0,0,1024,1024,1024,1024,0,0,0,0,0,0,0,96,3.877,3.877,0,0,0,0,4.809,59.54,753.10709004431,32.480316,6,P-GPS,,9.9
18400,2026-01-11 15:30:14,753.10709004431,40.354332,0.0,1.771161474,10.5018704148,15,5,7.778,759.99685404431,39.37008,0.447388,2.84057751872,0.0,0.0,0.0,32.9,4.0,-4.9,0,0,1024,1024,1024,1024,0,0,0,0,0,0,0,96,3.877,3.877,0,0,0,0,4.809,59.54,753.10709004431,32.480316,6,P-GPS,,9.9
18500,2026-01-11 15:30:14,752.77900604431,40.354332,0.0,1.75996724792,10.5149609664,15,5,7.778,759.99685404431,39.37008,0.447388,2.84057751872,0.0,0.0,0.0,32.9,4.4,-4.8,0,0,1024,1024,1024,1024,0,0,0,0,0,0,0,96,3.877,3.877,0,0,0,0,4.809,59.54,752.77900604431,32.152232,6,P-GPS,,9.8
18600,2026-01-11 15:30:14,752.77900604431,40.354332,0.0,1.74042984572,10.5353349828,15,5,7.761,759.99685404431,39.37008,0.447388,2.84057751872,0.0,0.0,0.0,32.8,5.2,-4.3,0,0,1024,1024,1024,1024,0,0,0,0,0,0,0,96,3.88,3.881,0,0,0,0,4.907,59.72,752.77900604431,32.152232,6,P-GPS,,9.8
18700,2026-01-11 15:30:14,752.77900604431,40.354332,0.0,1.72172905772,10.554954406,15,5,7.761,759.99685404431,39.37008,0.447388,2.84057751872,0.0,0.0,0.0,32.8,5.4,-4.2,0,0,1024,1024,1024,1024,0,0,0,0,0,0,0,96,3.88,3.881,0,0,0,0,4.907,59.72,752.77900604431,32.152232,6,P-GPS,,9.8
18800,2026-01-11 15:30:14,752.77900604431,40.354332,0.0,1.68349414836,10.6091866912,15,5,7.761,759.99685404431,39.37008,0.447388,2.84057751872,0.0,0.0,0.0,32.9,5.4,-4.0,0,0,1024,1024,1024,1024,0,0,0,0,0,0,0,96,3.88,3.881,0,0,0,0,4.907,59.72,752.77900604431,32.152232,6,P-GPS,,9.8
18900,2026-01-11 15:30:14,752.77900604431,40.354332,0.0,1.67170609024,10.6271000776,15,5,7.761,759.99685404431,39.37008,0.447388,2.84057751872,0.0,0.0,0.0,32.9,5.2,-4.1,0,0,1024,1024,1024,1024,0,0,0,0,0,0,0,96,3.88,3.881,0,0,0,0,4.907,59.72,752.77900604431,32.152232,6,P-GPS,,9.8
19000,2026-01-11 15:30:14,752.77900604431,40.354332,0.0,1.650344541,10.6666998164,15,5,7.761,759.99685404431,39.37008,0.447388,2.84057751872,0.0,0.0,0.0,32.9,4.6,-3.9,0,0,1024,1024,1024,1024,0,0,0,0,0,0,0,96,3.88,3.881,0,0,0,0,4.907,59.72,752.77900604431,32.152232,6,P-GPS,,9.8
19100,2026-01-11 15:30:14,752.77900604431,40.354332,0.0,1.6362205248,10.7037405,15,5,7.761,759.99685404431,39.37008,0.447388,2.84057751872,0.0,0.0,0.0,32.9,4.1,-3.9,0,0,1024,1024,1024,1024,0,0,0,0,0,0,0,96,3.88,3.881,0,0,0,0,4.907,59.72,752.77900604431,32.152232,6,P-GPS,,9.8
19200,2026-01-11 15:30:15,752.77900604431,40.354332,0.0,1.64142721788,10.7783468016,15,5,7.761,759.99685404431,39.37008,0.447388,2.84057751872,0.0,0.0,0.0,32.9,4.1,-3.9,0,0,1024,1024,1024,1024,0,0,0,0,0,0,0,96,3.88,3.881,0,0,0,0,4.907,59.72,752.77900604431,32.152232,6,P-GPS,,9.8
19300,2026-01-11 15:30:15,752.77900604431,40.354332,0.0,1.64782813672,10.80380612,15,5,7.761,759.99685404431,39.37008,0.447388,2.84057751872,0.0,0.0,0.0,32.8,4.2,-4.0,0,0,1024,1024,1024,1024,0,0,0,0,0,0,0,96,3.88,3.881,0,0,0,0,4.907,59.72,752.77900604431,32.152232,6,P-GPS,,9.8
19400,2026-01-11 15:30:15,752.77900604431,40.354332,0.0,1.644357008,10.8221460156,15,5,7.761,759.99685404431,39.37008,0.447388,2.84057751872,0.0,0.0,0.0,32.7,4.5,-4.0,0,0,1024,1024,1024,1024,0,0,0,0,0,0,0,96,3.88,3.881,0,0,0,0,4.907,59.72,752.77900604431,32.152232,6,P-GPS,,9.8
19500,2026-01-11 15:30:15,752.77900604431,40.354332,0.0,1.64387800536,10.841207696,15,5,7.761,759.99685404431,39.37008,0.447388,2.84057751872,0.0,0.0,0.0,32.8,4.3,-3.8,0,0,1024,1024,1024,1024,0,0,0,0,0,0,0,96,3.88,3.881,0,0,0,0,4.907,59.72,752.77900604431,32.152232,6,P-GPS,,9.8
19600,2026-01-11 15:30:15,752.77900604431,40.354332,0.0,1.6436680316,10.8999675404,15,5,7.761,759.99685404431,39.37008,0.447388,2.84057751872,0.0,0.0,0.0,32.9,3.8,-4.0,0,0,1024,1024,1024,1024,0,0,0,0,0,0,0,96,3.88,3.881,0,0,0,0,4.907,59.72,752.77900604431,32.152232,6,P-GPS,,9.8
19700,2026-01-11 15:30:15,752.77900604431,40.354332,0.0,1.64768377976,10.9312339456,15,5,7.78,759.99685404431,39.37008,0.447388,2.84057751872,0.0,0.0,0.0,32.8,4.2,-3.8,0,0,1024,1024,1024,1024,0,0,0,0,0,0,0,96,3.884,3.888,0,0,0,0,4.685,59.72,752.77900604431,32.152232,6,P-GPS,,9.8
19800,2026-01-11 15:30:15,752.77900604431,40.354332,0.0,1.64951120764,10.9462601928,15,5,7.78,759.99685404431,39.37008,0.447388,2.84057751872,0.0,0.0,0.0,32.8,4.5,-3.4,0,0,1024,1024,1024,1024,0,0,0,0,0,0,0,96,3.884,3.888,0,0,0,0,4.685,59.72,752.77900604431,32.152232,6,P-GPS,,9.8
19900,2026-01-11 15:30:15,752.77900604431,40.354332,0.0,1.6546260372,10.9618441828,15,5,7.78,759.99685404431,39.37008,0.447388,2.84057751872,0.0,0.0,0.0,32.8,4.2,-3.4,0,0,1024,1024,1024,1024,0,0,0,0,0,0,0,96,3.884,3.888,0,0,0,0,4.685,59.72,752.77900604431,32.152232,6,P-GPS,,9.8
20000,2026-01-11 15:30:15,752.45092204431,40.354332,0.0,1.66146002692,10.977034472,15,5,7.78,759.99685404431,39.37008,0.447388,2.84057751872,0.0,0.0,0.0,32.8,3.5,-3.9,0,0,1024,1024,1024,1024,0,0,0,0,0,0,0,96,3.884,3.888,0,0,0,0,4.685,59.72,752.45092204431,31.824148,6,P-GPS,,9.7
20100,2026-01-11 15:30:16,752.45092204431,40.354332,0.0,1.66818574892,11.003609276,15,5,7.78,759.99685404431,39.37008,0.447388,2.84057751872,0.0,0.0,0.0,32.8,3.3,-3.8,0,0,1024,1024,1024,1024,0,0,0,0,0,0,0,96,3.884,3.888,0,0,0,0,4.685,59.72,752.45092204431,31.824148,6,P-GPS,,9.7
20200,2026-01-11 15:30:16,752.45092204431,40.354332,0.0,1.6699639642,11.05068933,15,5,7.78,759.99685404431,39.37008,0.447388,2.84057751872,0.0,0.0,0.0,32.9,3.3,-3.1,0,0,1024,1024,1024,1024,0,0,0,0,0,0,0,96,3.884,3.888,0,0,0,0,4.685,59.72,752.45092204431,31.824148,6,P-GPS,,9.7
20300,2026-01-11 15:30:16,752.45092204431,40.354332,0.0,1.67102695636,11.095144712,15,5,7.78,759.99685404431,39.37008,0.447388,2.84057751872,0.0,0.0,0.0,32.9,3.5,-2.5,0,0,1024,1024,1024,1024,0,0,0,0,0,0,0,96,3.884,3.888,0,0,0,0,4.685,59.72,752.45092204431,31.824148,6,P-GPS,,9.7
20400,2026-01-11 15:30:16,752.45092204431,40.354332,0.0,1.68474086756,11.1316276528,15,5,7.78,759.99685404431,39.37008,0.447388,2.84057751872,0.0,0.0,0.0,32.9,3.5,-2.3,0,0,1024,1024,1024,1024,0,0,0,0,0,0,0,96,3.884,3.888,0,0,0,0,4.685,59.72,752.45092204431,31.824148,6,P-GPS,,9.7
20500,2026-01-11 15:30:16,752.45092204431,40.354332,0.0,1.71974743036,11.2036748992,15,5,7.78,759.99685404431,39.37008,0.447388,2.84057751872,0.0,0.0,0.0,32.9,3.4,-2.6,0,0,1024,1024,1024,1024,0,0,0,0,0,0,0,96,3.884,3.888,0,0,0,0,4.685,59.72,752.45092204431,31.824148,6,P-GPS,,9.7
20600,2026-01-11 15:30:16,752.45092204431,40.354332,0.0,1.71345477924,11.2229662384,15,5,7.78,759.99685404431,39.37008,0.447388,2.84057751872,0.0,0.0,0.0,32.8,4.0,-2.8,0,0,1024,1024,1024,1024,0,0,0,0,0,0,0,96,3.884,3.888,0,0,0,0,4.685,59.72,752.45092204431,31.824148,6,P-GPS,,9.7
