time(millisecond),timestamp,altitude_above_seaLevel(feet),height_sonar(feet),speed(mph),distance(feet),mileage(feet),satellites,gpslevel,voltage(v),max_altitude(feet),max_ascent(feet),max_speed(mph),max_distance(feet), xSpeed(mph), ySpeed(mph), zSpeed(mph), compass_heading(degrees), pitch(degrees), roll(degrees),isPhoto,isVideo,rc_elevator,rc_aileron,rc_throttle,rc_rudder,rc_elevator(percent),rc_aileron(percent),rc_throttle(percent),rc_rudder(percent),gimbal_heading(degrees),gimbal_pitch(degrees),gimbal_roll(degrees),battery_percent,voltageCell1,voltageCell2,voltageCell3,voltageCell4,voltageCell5,voltageCell6,current(A),battery_temperature(f),altitude(feet),ascent(feet),flycStateRaw,flycState,message,height_above_takeoff(meters)
325500,2026-01-13 17:38:31,720.7103268685,0.328084,0.0,0.0,0.0,17,5,0.0,720.7103268685,0.0,0.0,0.0,0.0,0.0,0.0,42.6,2.2,0.1,0,0,1024,1024,1024,1024,0,0,0,0,0,0,0,75,3.921,3.92,0,0,0,0,0.0,72.5,720.7103268685,0.0,41,Motors_Started,SD card speed low SD card speed low. Normal use may be affected. Replace SD card (Code: 10028),0.0
325600,2026-01-13 17:38:31,720.7103268685,0.328084,0.0,0.0165579401624,0.0165579401624,17,5,0.0,720.7103268685,0.0,0.0,0.0165579401624,0.0,0.0,0.0,42.6,2.2,0.1,0,0,1024,1024,1024,1024,0,0,0,0,0,0,0,75,3.921,3.92,0,0,0,0,0.0,72.5,720.7103268685,0.0,41,Motors_Started,,0.0
325700,2026-01-13 17:38:31,720.7103268685,0.328084,0.0,0.0269163722524,0.030271818554,17,5,0.0,720.7103268685,0.0,0.0,0.0269163722524,0.0,0.0,0.0,42.6,2.2,0.1,0,0,1024,1024,1024,1024,0,0,0,0,0,0,0,75,3.921,3.92,0,0,0,0,0.0,72.5,720.7103268685,0.0,41,Motors_Started,,0.0
325800,2026-01-13 17:38:31,720.7103268685,0.328084,0.0,0.038677166592,0.042051838616,17,5,0.0,720.7103268685,0.0,0.0,0.038677166592,0.0,0.0,0.0,42.6,2.2,0.1,0,0,1024,1024,1024,1024,0,0,0,0,0,0,0,75,3.921,3.92,0,0,0,0,0.0,72.5,720.7103268685,0.0,41,Motors_Started,,0.0
325900,2026-01-13 17:38:31,720.7103268685,0.328084,0.0,0.054601707784,0.07043635396,17,5,0.0,720.7103268685,0.0,0.0,0.054601707784,0.0,0.0,0.0,42.6,2.2,0.1,0,0,1024,1024,1024,1024,0,0,0,0,0,0,0,75,3.921,3.92,0,0,0,0,0.0,72.5,720.7103268685,0.0,41,Motors_Started,,0.0
326000,2026-01-13 17:38:31,720.7103268685,0.328084,0.0,0.040208990788,0.143934715892,17,5,0.0,720.7103268685,0.0,0.0,0.054601707784,0.0,0.0,0.0,42.6,2.2,0.2,0,0,1024,1024,1024,1024,0,0,0,0,0,0,0,75,3.921,3.92,0,0,0,0,0.0,72.5,720.7103268685,0.0,41,Motors_Started,,0.0
326100,2026-01-13 17:38:32,720.7103268685,0.328084,0.0,0.038697179716,0.153540359244,17,5,0.0,720.7103268685,0.0,0.0,0.054601707784,0.0,0.0,0.0,42.5,2.3,0.0,0,0,1024,1024,1024,1024,0,0,0,0,0,0,0,75,3.921,3.92,0,0,0,0,0.0,72.5,720.7103268685,0.0,41,Motors_Started,Setting new Return-To-Home altitude to 90m (295 ft). Data Recorder File Index is 37. Setting new Maximum Flight Altitude to 90m (295 ft),0.0
326200,2026-01-13 17:38:32,720.7103268685,0.328084,0.0,1.30389111784,0.160783797796,17,5,0.0,720.7103268685,0.0,0.0,1.30389111784,0.0,0.0,0.0,42.6,2.2,0.2,0,0,1024,1024,1024,1024,0,0,0,0,0,0,0,75,3.921,3.92,0,0,0,0,0.0,72.5,720.7103268685,0.0,41,Motors_Started,,0.0
326300,2026-01-13 17:38:32,720.7103268685,0.328084,0.0,1.30083337496,0.173846462256,17,5,0.0,720.7103268685,0.0,0.0,1.30389111784,0.0,0.0,0.0,42.6,2.1,0.3,0,0,1024,1024,1024,1024,0,0,0,0,0,0,0,75,3.921,3.92,0,0,0,0,0.0,72.5,720.7103268685,0.0,41,Motors_Started,,0.0
326400,2026-01-13 17:38:32,720.7103268685,0.328084,0.0,1.384350438,0.269595152984,17,5,0.0,720.7103268685,0.0,0.0,1.384350438,0.0,0.0,0.0,42.7,2.1,0.3,0,0,1024,1024,1024,1024,0,0,0,0,0,0,0,75,3.921,3.92,0,0,0,0,0.0,72.5,720.7103268685,0.0,41,Motors_Started,,0.0
326500,2026-01-13 17:38:32,720.7103268685,0.328084,0.0,1.38644361392,0.29002297516,17,5,0.0,720.7103268685,0.0,0.0,1.38644361392,0.0,0.0,0.0,42.6,2.0,0.3,0,0,1024,1024,1024,1024,0,0,0,0,0,0,0,75,3.921,3.92,0,0,0,0,0.0,72.5,720.7103268685,0.0,41,Motors_Started,,0.0
326600,2026-01-13 17:38:32,720.7103268685,0.328084,0.0,1.38638127796,0.308099091224,17,5,7.841,720.7103268685,0.0,0.0,1.38644361392,0.0,0.0,0.0,42.6,2.0,0.3,0,0,1024,1024,1024,1024,0,0,0,0,0,0,0,75,3.922,3.919,0,0,0,0,1.11,72.5,720.7103268685,0.0,11,AutoTakeoff,,0.0
326700,2026-01-13 17:38:32,720.7103268685,0.328084,0.0,1.3762959758,0.325717858192,17,5,7.841,720.7103268685,0.0,0.0,1.38644361392,0.0,0.0,0.0,42.6,2.0,0.3,0,0,1024,1024,1024,1024,0,0,0,0,0,0,0,75,3.922,3.919,0,0,0,0,1.11,72.5,720.7103268685,0.0,11,AutoTakeoff,,0.0
326800,2026-01-13 17:38:32,720.7103268685,0.328084,0.0,1.41264440216,0.39879922536,17,5,7.841,720.7103268685,0.0,0.0,1.41264440216,0.0,0.0,0.0,42.6,2.0,0.3,0,0,1024,1024,1024,1024,0,0,0,0,0,0,0,75,3.922,3.919,0,0,0,0,1.11,72.5,720.7103268685,0.0,11,AutoTakeoff,,0.0
326900,2026-01-13 17:38:32,720.7103268685,0.328084,0.0,1.39835306312,0.41857612888,17,5,7.841,720.7103268685,0.0,0.0,1.41264440216,0.0,0.0,0.0,42.6,2.0,0.4,0,0,1024,1024,1024,1024,0,0,0,0,0,0,0,75,3.922,3.919,0,0,0,0,1.11,72.5,720.7103268685,0.0,11,AutoTakeoff,,0.0
327000,2026-01-13 17:38:33,720.7103268685,0.328084,0.0,1.38276907312,0.44044620832,17,5,7.841,720.7103268685,0.0,0.0,1.41264440216,0.0,0.0,0.0,42.9,2.0,0.4,0,0,1024,1024,1024,1024,0,0,0,0,0,0,0,75,3.922,3.919,0,0,0,0,1.11,72.5,720.7103268685,0.0,11,AutoTakeoff,,0.0
327100,2026-01-13 17:38:33,720.7103268685,0.328084,0.0,1.36139440052,0.47599739056,17,5,7.841,720.7103268685,0.0,0.0,1.41264440216,0.0,0.0,0.0,42.7,2.0,0.5,0,0,1024,1024,1024,1024,0,0,0,0,0,0,0,75,3.922,3.919,0,0,0,0,1.11,72.5,720.7103268685,0.0,11,AutoTakeoff,,0.0
327200,2026-01-13 17:38:33,720.7103268685,0.328084,0.0,1.34148298256,0.517634531,17,5,7.841,720.7103268685,0.0,0.0,1.41264440216,0.0,0.0,0.0,43.5,2.0,0.4,0,0,1024,1024,1024,1024,0,0,0,0,0,0,0,75,3.922,3.919,0,0,0,0,1.11,72.5,720.7103268685,0.0,11,AutoTakeoff,,0.0
327300,2026-01-13 17:38:33,720.7103268685,0.328084,0.0,1.33285109252,0.52786090928,17,5,7.841,720.7103268685,0.0,0.0,1.41264440216,0.0,0.0,0.0,45.2,2.1,0.3,0,0,1024,1024,1024,1024,0,0,0,0,0,0,0,75,3.922,3.919,0,0,0,0,1.11,72.5,720.7103268685,0.0,11,AutoTakeoff,,0.0
327400,2026-01-13 17:38:33,720.7103268685,0.328084,0.0,1.33090883524,0.53171917712,17,5,7.841,720.7103268685,0.0,0.0,1.41264440216,0.0,0.0,0.0,46.7,0.8,-0.2,0,0,1024,1024,1024,1024,0,0,0,0,0,0,0,75,3.922,3.919,0,0,0,0,1.11,72.5,720.7103268685,0.0,11,AutoTakeoff,,0.0
327500,2026-01-13 17:38:33,720.7103268685,0.328084,0.0,1.33271329724,0.54434384944,17,5,7.841,720.7103268685,0.0,0.0,1.41264440216,0.0,0.0,-0.447388,48.0,1.0,-0.3,0,0,1024,1024,1024,1024,0,0,0,0,0,0,0,75,3.922,3.919,0,0,0,0,1.11,72.5,720.7103268685,0.0,11,AutoTakeoff,,0.0
327600,2026-01-13 17:38:33,720.7103268685,0.656168,0.223694,1.34419951808,0.56789043812,17,5,7.822,720.7103268685,0.0,0.223694,1.41264440216,0.0,0.223694,-0.894776,48.1,0.5,-0.1,0,0,1024,1024,1024,1024,0,0,0,0,0,0,0,75,3.895,3.893,0,0,0,0,1.739,72.5,720.7103268685,0.0,11,AutoTakeoff,,0.0
327700,2026-01-13 17:38:33,720.7103268685,0.656168,0.223694,1.385006606,0.62684713292,17,5,7.822,720.7103268685,0.0,0.223694,1.41264440216,0.0,0.223694,-1.11847,47.8,2.9,-1.0,0,0,1024,1024,1024,1024,0,0,0,0,0,0,0,75,3.895,3.893,0,0,0,0,1.739,72.5,720.7103268685,0.0,11,AutoTakeoff,,0.0
327800,2026-01-13 17:38:33,720.7103268685,0.656168,0.223694,1.42344820828,0.68191275148,17,5,7.822,720.7103268685,0.0,0.223694,1.42344820828,0.0,0.223694,-1.342164,47.8,2.5,-1.1,0,0,1024,1024,1179,1024,0,0,23,0,0,0,0,75,3.895,3.893,0,0,0,0,1.739,72.5,720.7103268685,0.0,11,AutoTakeoff,,0.0
327900,2026-01-13 17:38:33,721.0384108685,0.984252,0.223694,1.4645013592,0.74860238616,17,5,7.822,721.0384108685,0.328084,0.223694,1.4645013592,0.0,0.223694,-1.565858,47.8,2.7,-0.8,0,0,1024,1024,1684,1024,0,0,100,0,0,0,0,75,3.895,3.893,0,0,0,0,1.739,72.5,721.0384108685,0.328084,11,AutoTakeoff,,0.1
328000,2026-01-13 17:38:33,721.0384108685,0.984252,0.447388,1.51103023208,0.82526577444,17,5,7.822,721.0384108685,0.328084,0.447388,1.51103023208,0.0,0.447388,-1.789552,47.7,3.2,-1.7,0,0,1024,1024,1684,1024,0,0,100,0,0,0,0,75,3.895,3.893,0,0,0,0,1.739,72.5,721.0384108685,0.328084,11,AutoTakeoff,,0.1
328100,2026-01-13 17:38:34,721.3664948685,1.312336,0.223694,1.63648955368,1.0489501648,17,5,7.822,721.3664948685,0.656168,0.447388,1.63648955368,0.0,0.223694,-2.013246,47.6,4.8,-1.7,0,0,1024,1024,1684,1024,0,0,100,0,0,0,0,75,3.895,3.893,0,0,0,0,1.739,72.5,721.3664948685,0.656168,11,AutoTakeoff,,0.2
328200,2026-01-13 17:38:34,721.6945788685,1.64042,0.223694,1.70466540888,1.14531499728,17,5,7.822,721.6945788685,0.984252,0.447388,1.70466540888,0.0,0.223694,-2.23694,47.8,4.7,-1.4,0,0,1024,1024,1684,1024,0,0,100,0,0,0,0,75,3.895,3.893,0,0,0,0,1.739,72.5,721.6945788685,0.984252,11,AutoTakeoff,Home Point updated. RTH altitude adjusted to 90 m (Code: 120852),0.3
328300,2026-01-13 17:38:34,722.0226628685,1.968504,0.223694,1.7536253842,1.19468835844,17,5,7.822,722.0226628685,1.312336,0.447388,1.7536253842,0.0,0.223694,-2.908022,47.9,4.6,-1.0,0,0,1024,1024,1684,1024,0,0,100,0,0,0,0,75,3.895,3.893,0,0,0,0,1.739,72.5,722.0226628685,1.312336,11,AutoTakeoff,,0.4
328400,2026-01-13 17:38:34,722.6788308685,2.296588,0.223694,1.79977696048,1.24089898984,17,5,7.822,722.6788308685,1.968504,0.447388,1.79977696048,0.0,0.223694,-3.35541,47.8,4.7,-1.0,0,0,1024,1024,1684,1024,0,0,100,0,0,0,0,75,3.895,3.893,0,0,0,0,1.739,72.5,722.6788308685,1.968504,11,AutoTakeoff,,0.6
328500,2026-01-13 17:38:34,723.0069148685,2.624672,0.0,1.895341268,1.3751804902,17,5,7.822,723.0069148685,2.296588,0.447388,1.895341268,0.0,0.0,-3.579104,47.8,5.0,-0.9,0,0,1024,1024,1684,1024,0,0,100,0,0,0,0,75,3.895,3.893,0,0,0,0,1.739,72.5,723.0069148685,2.296588,11,AutoTakeoff,,0.7
328600,2026-01-13 17:38:34,723.6630828685,3.28084,0.0,1.92823496984,1.4088091002,17,5,7.594,723.6630828685,2.952756,0.447388,1.92823496984,0.0,0.0,-3.802798,47.8,4.9,-0.2,0,0,1024,1024,1684,1024,0,0,100,0,0,0,0,75,3.8,3.781,0,0,0,0,5.335,72.5,723.6630828685,2.952756,6,P-GPS,,0.9
328700,2026-01-13 17:38:34,724.3192508685,3.937008,0.0,1.89925202928,1.45708994164,17,5,7.594,724.3192508685,3.608924,0.447388,1.92823496984,0.0,0.0,-4.026492,47.7,4.2,0.1,0,0,1024,1024,1684,928,0,0,100,-15,0,0,0,75,3.8,3.781,0,0,0,0,5.335,72.5,724.3192508685,3.608924,6,P-GPS,,1.1
328800,2026-01-13 17:38:34,724.9754188685,4.265092,0.0,1.87517394452,1.49051513956,17,5,7.594,724.9754188685,4.265092,0.447388,1.92823496984,0.0,0.0,-4.250186,47.7,4.7,-0.2,0,0,1024,1024,1684,364,0,0,100,-100,0,0,0,75,3.8,3.781,0,0,0,0,5.335,72.5,724.9754188685,4.265092,6,P-GPS,,1.3
328900,2026-01-13 17:38:34,725.6315868685,4.92126,0.0,1.80639441476,1.5593504436,17,5,7.594,725.6315868685,4.92126,0.447388,1.92823496984,0.0,0.0,-4.250186,47.3,4.0,0.0,0,0,1024,1024,1684,364,0,0,100,-100,0,0,0,75,3.8,3.781,0,0,0,0,5.335,72.5,725.6315868685,4.92126,6,P-GPS,,1.5
329000,2026-01-13 17:38:35,726.2877548685,5.577428,0.0,1.812500058,1.58342196668,17,5,7.594,726.2877548685,5.577428,0.447388,1.92823496984,0.0,0.0,-4.250186,38.7,4.2,1.3,0,0,1024,1024,1684,1024,0,0,100,0,0,0,0,75,3.8,3.781,0,0,0,0,5.335,72.5,726.2877548685,5.577428,6,P-GPS,,1.7
329100,2026-01-13 17:38:35,726.9439228685,6.233596,0.0,1.82843509788,1.61859913316,17,5,7.594,726.9439228685,6.233596,0.447388,1.92823496984,0.0,0.0,-4.250186,26.0,4.3,-0.4,0,0,1024,1024,1684,1024,0,0,100,0,0,0,0,75,3.8,3.781,0,0,0,0,5.335,72.5,726.9439228685,6.233596,6,P-GPS,,1.9
329200,2026-01-13 17:38:35,727.6000908685,6.889764,0.0,1.85047906184,1.65531173276,16,5,7.594,727.6000908685,6.889764,0.447388,1.92823496984,0.0,0.0,-4.250186,20.3,4.3,-3.0,0,0,1024,1024,1684,1024,0,0,100,0,0,0,0,75,3.8,3.781,0,0,0,0,5.335,72.5,727.6000908685,6.889764,6,P-GPS,,2.1
329300,2026-01-13 17:38:35,728.2562588685,7.545932,0.0,1.8700952042,1.67554467304,16,5,7.594,728.2562588685,7.545932,0.447388,1.92823496984,0.0,0.0,-4.250186,20.5,3.8,-2.1,0,0,1024,1024,1684,1024,0,0,100,0,0,0,0,75,3.8,3.781,0,0,0,0,5.335,72.5,728.2562588685,7.545932,6,P-GPS,,2.3
329400,2026-01-13 17:38:35,728.9124268685,7.874016,0.0,1.9028379874,1.7377625228,17,5,7.594,728.9124268685,8.2021,0.447388,1.92823496984,0.0,0.0,-4.47388,20.6,3.4,-1.2,0,0,1024,1024,1684,1024,0,0,100,0,0,0,0,75,3.8,3.781,0,0,0,0,5.335,72.5,728.9124268685,8.2021,6,P-GPS,,2.5
329500,2026-01-13 17:38:35,729.5685948685,8.530184,0.0,1.91515426076,1.78901580528,17,5,7.594,729.5685948685,8.858268,0.447388,1.92823496984,0.0,0.0,-4.47388,20.5,3.3,-0.8,0,0,1024,1024,1684,1024,0,0,100,0,0,0,0,75,3.8,3.781,0,0,0,0,5.335,72.5,729.5685948685,8.858268,6,P-GPS,,2.7
329600,2026-01-13 17:38:35,730.2247628685,9.186352,0.0,1.94052499648,1.85064310384,18,5,7.532,730.2247628685,9.514436,0.447388,1.94052499648,0.0,0.0,-4.250186,20.4,2.2,-0.6,0,0,1024,1024,1684,1024,0,0,100,0,0,0,0,75,3.765,3.767,0,0,0,0,7.514,72.5,730.2247628685,9.514436,6,P-GPS,,2.9
329700,2026-01-13 17:38:35,730.8809308685,9.84252,0.0,2.02479665272,1.97021659848,18,5,7.532,730.8809308685,10.170604,0.447388,2.02479665272,0.0,0.0,-4.47388,20.4,2.4,-0.9,0,0,1024,1024,1684,1024,0,0,100,0,0,0,0,75,3.765,3.767,0,0,0,0,7.514,72.5,730.8809308685,10.170604,6,P-GPS,,3.1
329800,2026-01-13 17:38:35,731.5370988685,10.498688,0.0,2.25306437656,2.23148301104,17,5,7.532,731.5370988685,10.826772,0.447388,2.25306437656,0.0,0.0,-4.47388,20.3,3.5,-2.0,0,0,1024,1024,1684,1024,0,0,100,0,0,0,0,75,3.765,3.767,0,0,0,0,7.514,72.5,731.5370988685,10.826772,6,P-GPS,,3.3
329900,2026-01-13 17:38:35,732.1932668685,10.826772,0.0,2.35386818556,2.33233603264,17,5,7.532,732.1932668685,11.48294,0.447388,2.35386818556,0.0,0.0,-4.47388,20.5,3.0,-2.0,0,0,1024,1024,1684,1024,0,0,100,0,0,0,0,75,3.765,3.767,0,0,0,0,7.514,72.5,732.1932668685,11.48294,6,P-GPS,,3.5
330000,2026-01-13 17:38:35,732.8494348685,11.48294,0.0,2.441273044,2.41990165224,17,5,7.532,732.8494348685,12.139108,0.447388,2.441273044,0.0,0.0,-4.47388,20.4,3.9,-1.9,0,0,1024,1024,1684,1024,0,0,100,0,0,0,0,75,3.765,3.767,0,0,0,0,7.514,72.5,732.8494348685,12.139108,6,P-GPS,,3.7
330100,2026-01-13 17:38:36,733.5056028685,12.139108,0.0,2.4967520484,2.47575139156,17,5,7.532,733.5056028685,12.795276,0.447388,2.4967520484,0.0,0.0,-4.47388,20.3,4.6,-2.4,0,0,1024,1024,1684,1024,0,0,100,0,0,0,0,75,3.765,3.767,0,0,0,0,7.514,72.5,733.5056028685,12.795276,6,P-GPS,,3.9
330200,2026-01-13 17:38:36,734.1617708685,12.795276,0.223694,2.61219824632,2.60088919084,18,5,7.532,734.1617708685,13.451444,0.447388,2.61219824632,-0.223694,0.0,-4.250186,20.3,3.1,-3.6,0,0,1024,1024,1684,1024,0,0,100,0,0,0,0,75,3.765,3.767,0,0,0,0,7.514,72.5,734.1617708685,13.451444,6,P-GPS,,4.1
330300,2026-01-13 17:38:36,734.8179388685,13.451444,0.223694,2.64175861472,2.66039706676,18,5,7.532,734.8179388685,14.107612,0.447388,2.64175861472,-0.223694,0.0,-4.250186,20.3,2.8,-3.6,0,0,1024,1024,1684,1024,0,0,100,0,0,0,0,75,3.765,3.767,0,0,0,0,7.514,72.5,734.8179388685,14.107612,6,P-GPS,,4.3
330400,2026-01-13 17:38:36,735.4741068685,13.779528,0.0,2.65001976984,2.69823499448,18,5,7.532,735.4741068685,14.76378,0.447388,2.65001976984,0.0,0.0,-4.47388,20.4,3.1,-2.6,0,0,1024,1024,1684,1024,0,0,100,0,0,0,0,75,3.765,3.767,0,0,0,0,7.514,72.5,735.4741068685,14.76378,6,P-GPS,,4.5
330500,2026-01-13 17:38:36,736.1302748685,14.435696,0.0,2.61171596284,2.73699483824,18,5,7.559,736.1302748685,15.419948,0.447388,2.65001976984,0.0,0.0,-4.47388,20.4,3.2,-2.1,0,0,1024,1024,1684,1227,0,0,100,31,0,0,0,75,3.777,3.778,0,0,0,0,6.676,72.5,736.1302748685,15.419948,6,P-GPS,,4.7
330600,2026-01-13 17:38:36,736.7864428685,15.091864,0.0,2.3680610994,2.99215232672,18,5,7.559,736.7864428685,16.076116,0.447388,2.65001976984,0.0,0.0,-4.47388,20.7,2.5,-1.9,0,0,1024,1024,1684,1024,0,0,100,0,0,0,0,75,3.777,3.778,0,0,0,0,6.676,72.5,736.7864428685,16.076116,6,P-GPS,,4.9
330700,2026-01-13 17:38:36,737.4426108685,15.748032,0.0,2.32634193796,3.03816610772,18,5,7.559,737.4426108685,16.732284,0.447388,2.65001976984,0.0,0.0,-4.47388,21.9,3.5,-1.0,0,0,1024,1024,1684,1024,0,0,100,0,0,0,0,75,3.777,3.778,0,0,0,0,6.676,72.5,737.4426108685,16.732284,6,P-GPS,,5.1
330800,2026-01-13 17:38:36,738.0987788685,16.4042,0.0,2.286253354,3.08024616156,18,5,7.559,738.0987788685,17.388452,0.447388,2.65001976984,0.0,0.0,-4.47388,22.7,4.1,-0.8,0,0,1024,1024,1684,1024,0,0,100,0,0,0,0,75,3.777,3.778,0,0,0,0,6.676,72.5,738.0987788685,17.388452,6,P-GPS,,5.3
330900,2026-01-13 17:38:36,738.7549468685,17.388452,0.0,2.24012146276,3.1263780528,18,5,7.559,738.7549468685,18.04462,0.447388,2.65001976984,0.0,0.0,-4.250186,22.7,4.5,-1.1,0,0,1024,1024,1684,1024,0,0,100,0,0,0,0,75,3.777,3.778,0,0,0,0,6.676,72.5,738.7549468685,18.04462,6,P-GPS,,5.5
331000,2026-01-13 17:38:37,739.4111148685,18.04462,0.0,2.20632881076,3.16197188596,18,5,7.559,739.4111148685,18.700788,0.447388,2.65001976984,0.0,0.0,-4.250186,22.8,3.8,-1.6,0,0,1024,1024,1684,1024,0,0,100,0,0,0,0,75,3.777,3.778,0,0,0,0,6.676,72.5,739.4111148685,18.700788,6,P-GPS,,5.7
331100,2026-01-13 17:38:37,740.0672828685,18.700788,0.0,2.17746398044,3.2070867168,18,5,7.559,740.0672828685,19.356956,0.447388,2.65001976984,0.0,0.0,-4.250186,22.7,4.2,-1.8,0,0,1024,1024,1684,1024,0,0,100,0,0,0,0,75,3.777,3.778,0,0,0,0,6.676,72.5,740.0672828685,19.356956,6,P-GPS,,5.9
331200,2026-01-13 17:38:37,740.7234508685,19.356956,0.223694,2.15991804812,3.25413068156,18,5,7.559,740.7234508685,20.013124,0.447388,2.65001976984,-0.223694,0.0,-4.250186,22.7,2.7,-1.8,0,0,1024,1024,1684,1024,0,0,100,0,0,0,0,75,3.777,3.778,0,0,0,0,6.676,72.5,740.7234508685,20.013124,6,P-GPS,,6.1
331300,2026-01-13 17:38:37,741.0515348685,20.013124,0.223694,2.10150269192,3.3360237288,18,5,7.559,741.0515348685,20.341208,0.447388,2.65001976984,-0.223694,0.0,-4.250186,22.7,2.4,-1.1,0,0,1024,1024,1684,1024,0,0,100,0,0,0,0,75,3.777,3.778,0,0,0,0,6.676,72.5,741.0515348685,20.341208,6,P-GPS,,6.2
331400,2026-01-13 17:38:37,741.7077028685,20.997376,0.223694,2.045767782,3.4108268808,18,5,7.559,741.7077028685,20.997376,0.447388,2.65001976984,0.0,-0.223694,-4.47388,22.9,2.2,-0.4,0,0,1024,1024,1684,1024,0,0,100,0,0,0,0,75,3.777,3.778,0,0,0,0,6.676,72.5,741.7077028685,20.997376,6,P-GPS,,6.4
331500,2026-01-13 17:38:37,742.3638708685,21.653544,0.0,1.93749021948,3.5537074628,18,5,7.559,742.3638708685,21.653544,0.447388,2.65001976984,0.0,0.0,-4.47388,22.8,2.6,0.0,0,0,1024,1024,1684,1024,0,0,100,0,0,0,0,75,3.777,3.778,0,0,0,0,6.676,72.5,742.3638708685,21.653544,6,P-GPS,,6.6
331600,2026-01-13 17:38:37,743.0200388685,22.637796,0.0,1.89682092684,3.6019686192,18,5,7.561,743.0200388685,22.309712,0.447388,2.65001976984,0.0,0.0,-4.250186,22.7,3.0,-0.1,0,0,1024,1024,1684,1024,0,0,100,0,0,0,0,75,3.78,3.78,0,0,0,0,6.205,72.5,743.0200388685,22.309712,6,P-GPS,,6.8
331700,2026-01-13 17:38:37,743.6762068685,23.293964,0.0,1.84595150264,3.6530184896,18,5,7.561,743.6762068685,22.96588,0.447388,2.65001976984,0.0,0.0,-4.250186,22.7,2.7,0.1,0,0,1024,1024,1684,1024,0,0,100,0,0,0,0,75,3.78,3.78,0,0,0,0,6.205,72.5,743.6762068685,22.96588,6,P-GPS,,7.0
331800,2026-01-13 17:38:37,744.3323748685,24.278216,0.0,1.7981135746,3.701115604,18,5,7.561,744.3323748685,23.622048,0.447388,2.65001976984,0.0,0.0,-4.250186,22.9,3.4,0.3,0,0,1024,1024,1684,1024,0,0,100,0,0,0,0,75,3.78,3.78,0,0,0,0,6.205,72.5,744.3323748685,23.622048,6,P-GPS,,7.2
331900,2026-01-13 17:38:37,744.9885428685,25.262468,0.0,1.68535766548,3.8770998616,18,5,7.561,744.9885428685,24.278216,0.447388,2.65001976984,0.0,0.0,-4.250186,22.9,4.3,0.3,0,0,1024,1024,1684,1024,0,0,100,0,0,0,0,75,3.78,3.78,0,0,0,0,6.205,72.5,744.9885428685,24.278216,6,P-GPS,,7.4
332000,2026-01-13 17:38:38,745.6447108685,25.918636,0.0,1.64562669308,3.9293308344,18,5,7.561,745.6447108685,24.934384,0.447388,2.65001976984,0.0,0.0,-4.47388,22.9,4.1,-0.2,0,0,1024,1024,1684,1024,0,0,100,0,0,0,0,75,3.78,3.78,0,0,0,0,6.205,72.5,745.6447108685,24.934384,6,P-GPS,,7.6
332100,2026-01-13 17:38:38,746.3008788685,26.574804,0.0,1.61625005172,3.978182542,18,5,7.561,746.3008788685,25.590552,0.447388,2.65001976984,0.0,0.0,-4.47388,22.8,4.5,-0.4,0,0,1024,1024,1684,1024,0,0,100,0,0,0,0,75,3.78,3.78,0,0,0,0,6.205,72.5,746.3008788685,25.590552,6,P-GPS,,7.8
332200,2026-01-13 17:38:38,746.6289628685,26.902888,0.0,1.59032813488,4.0146982912,18,5,7.561,746.6289628685,25.918636,0.447388,2.65001976984,0.0,0.0,-4.47388,22.8,4.4,-0.5,0,0,1024,1024,1684,1024,0,0,100,0,0,0,0,75,3.78,3.78,0,0,0,0,6.205,72.5,746.6289628685,25.918636,6,P-GPS,SD card speed low. Normal use may be affected. Replace SD card (Code: 10028). Gimbal stuck. Make sure gimbal cover is removed and manually check whether gimbal can rotate freely (Code: 40002),7.9
332300,2026-01-13 17:38:38,747.2851308685,29.855644,0.0,1.54620083688,4.0838583984,18,5,7.561,747.2851308685,26.574804,0.447388,2.65001976984,0.0,0.0,-4.250186,22.8,3.8,-0.7,0,0,1024,1024,1684,1024,0,0,100,0,0,0,0,75,3.78,3.78,0,0,0,0,6.205,72.5,747.2851308685,26.574804,6,P-GPS,,8.1
332400,2026-01-13 17:38:38,747.9412988685,30.511812,0.0,1.5212106786,4.1094489504,18,5,7.561,747.9412988685,27.230972,0.447388,2.65001976984,0.0,0.0,-4.250186,22.9,3.8,-0.2,0,0,1024,1024,1684,1024,0,0,100,0,0,0,0,75,3.78,3.78,0,0,0,0,6.205,72.5,747.9412988685,27.230972,6,P-GPS,,8.3
332500,2026-01-13 17:38:38,748.5974668685,31.496064,0.0,1.50769689864,4.1312993448,18,5,7.561,748.5974668685,27.88714,0.447388,2.65001976984,0.0,0.0,-4.250186,22.9,3.5,-0.3,0,0,1024,1024,1684,1024,0,0,100,0,0,0,0,75,3.78,3.78,0,0,0,0,6.205,72.5,748.5974668685,27.88714,6,P-GPS,,8.5
332600,2026-01-13 17:38:38,749.2536348685,32.480316,0.0,1.4958497854,4.153215356,18,5,7.561,749.2536348685,28.543308,0.447388,2.65001976984,0.0,0.0,-4.250186,22.9,3.7,-0.5,0,0,1024,1024,1684,1024,0,0,100,0,0,0,0,75,3.791,3.788,0,0,0,0,6.205,72.5,749.2536348685,28.543308,6,P-GPS,,8.7
332700,2026-01-13 17:38:38,749.9098028685,32.8084,0.0,1.47066605756,4.185695672,18,5,7.561,749.9098028685,29.199476,0.447388,2.65001976984,0.0,0.0,-4.250186,22.9,3.3,-0.9,0,0,1024,1024,1684,1024,0,0,100,0,0,0,0,75,3.791,3.788,0,0,0,0,6.205,72.5,749.9098028685,29.199476,6,P-GPS,,8.9
332800,2026-01-13 17:38:38,750.5659708685,33.464568,0.0,1.40945870652,4.2580053856,18,5,7.561,750.5659708685,29.855644,0.447388,2.65001976984,0.0,0.0,-4.250186,23.0,3.5,0.2,0,0,1024,1024,1684,1024,0,0,100,0,0,0,0,75,3.791,3.788,0,0,0,0,6.205,72.5,750.5659708685,29.855644,6,P-GPS,,9.1
332900,2026-01-13 17:38:38,751.2221388685,34.120736,0.0,1.3631562116,4.3049870144,18,5,7.561,751.2221388685,30.511812,0.447388,2.65001976984,0.0,0.0,-4.250186,23.1,3.6,0.4,0,0,1024,1024,1684,1024,0,0,100,0,0,0,0,75,3.791,3.788,0,0,0,0,6.205,72.5,751.2221388685,30.511812,6,P-GPS,,9.3
333000,2026-01-13 17:38:38,751.8783068685,34.776904,0.0,1.33095148616,4.33727048,19,5,7.561,751.8783068685,31.16798,0.447388,2.65001976984,0.0,0.0,-4.250186,23.0,4.6,-0.1,0,0,1024,1024,1684,1024,0,0,100,0,0,0,0,75,3.791,3.788,0,0,0,0,6.205,72.5,751.8783068685,31.16798,6,P-GPS,,9.5
333100,2026-01-13 17:38:39,752.5344748685,35.433072,0.0,1.3205709084,4.3493439712,19,5,7.561,752.5344748685,31.824148,0.447388,2.65001976984,0.0,0.0,-4.250186,22.8,4.9,-0.5,0,0,1024,1024,1684,1024,0,0,100,0,0,0,0,75,3.791,3.788,0,0,0,0,6.205,72.5,752.5344748685,31.824148,6,P-GPS,,9.7
333200,2026-01-13 17:38:39,753.1906428685,36.08924,0.223694,1.2710630328,4.4093505348,19,5,7.561,753.1906428685,32.480316,0.447388,2.65001976984,-0.223694,0.0,-4.250186,22.7,3.5,-1.1,0,0,1024,1024,1684,1024,0,0,100,0,0,0,0,75,3.791,3.788,0,0,0,0,6.205,72.5,753.1906428685,32.480316,6,P-GPS,,9.9
333300,2026-01-13 17:38:39,753.8468108685,36.745408,0.223694,1.2722769436,4.4518046044,19,5,7.561,753.8468108685,33.136484,0.447388,2.65001976984,-0.223694,0.0,-4.47388,22.8,2.9,-0.9,0,0,1024,1024,1024,1024,0,0,0,0,0,0,0,75,3.791,3.788,0,0,0,0,6.205,72.5,753.8468108685,33.136484,6,P-GPS,,10.1
333400,2026-01-13 17:38:39,754.5029788685,37.401576,0.223694,1.28209977856,4.4918636608,19,5,7.561,754.5029788685,33.792652,0.447388,2.65001976984,-0.223694,0.0,-4.47388,22.8,2.4,-1.4,0,0,1024,1024,1024,1024,0,0,0,0,0,0,0,75,3.791,3.788,0,0,0,0,6.205,72.5,754.5029788685,33.792652,6,P-GPS,,10.3
333500,2026-01-13 17:38:39,755.1591468685,38.057744,0.223694,1.31024938576,4.533136628,19,5,7.561,755.1591468685,34.44882,0.447388,2.65001976984,-0.223694,0.0,-4.026492,22.9,1.9,-2.9,0,0,1024,1024,1024,1024,0,0,0,0,0,0,0,75,3.791,3.788,0,0,0,0,6.205,72.5,755.1591468685,34.44882,6,P-GPS,,10.5
333600,2026-01-13 17:38:39,755.8153148685,38.713912,0.223694,1.347030883,4.5926510656,19,5,7.561,755.8153148685,35.104988,0.447388,2.65001976984,0.0,0.223694,-3.35541,23.0,2.2,-2.6,0,0,1024,1024,1024,1024,0,0,0,0,0,0,0,75,3.791,3.788,0,0,0,0,6.205,72.5,755.8153148685,35.104988,6,P-GPS,,10.7
333700,2026-01-13 17:38:39,756.1433988685,39.041996,0.223694,1.3828248474,4.6435697024,19,5,7.561,756.1433988685,35.433072,0.447388,2.65001976984,0.0,0.223694,-2.684328,23.0,2.6,-2.4,0,0,1024,1024,1024,1024,0,0,0,0,0,0,0,75,3.791,3.788,0,0,0,0,6.205,72.5,756.1433988685,35.433072,6,P-GPS,,10.8
333800,2026-01-13 17:38:39,756.7995668685,39.041996,0.223694,1.42427169912,4.6912403076,19,5,7.647,756.7995668685,36.08924,0.447388,2.65001976984,0.0,0.223694,-2.013246,23.0,3.0,-2.6,0,0,1024,1024,1024,1024,0,0,0,0,0,0,0,75,3.824,3.823,0,0,0,0,5.053,72.68,756.7995668685,36.08924,6,P-GPS,,11.0
333900,2026-01-13 17:38:39,756.7995668685,39.041996,0.223694,1.48145674032,4.7485893908,19,5,7.647,756.7995668685,36.08924,0.447388,2.65001976984,0.0,0.223694,-1.11847,23.0,3.3,-3.0,0,0,1024,1024,1024,1024,0,0,0,0,0,0,0,75,3.824,3.823,0,0,0,0,5.053,72.68,756.7995668685,36.08924,6,P-GPS,,11.0
334000,2026-01-13 17:38:40,757.1276508685,39.041996,0.223694,1.59810372568,4.8659450376,19,5,7.647,757.1276508685,36.417324,0.447388,2.65001976984,0.0,0.223694,-0.671082,22.9,3.3,-3.2,0,0,1024,1024,1024,1024,0,0,0,0,0,0,0,75,3.824,3.823,0,0,0,0,5.053,72.68,757.1276508685,36.417324,6,P-GPS,,11.1
334100,2026-01-13 17:38:40,757.4557348685,39.041996,0.223694,1.66310044692,4.932414856,19,5,7.647,757.4557348685,36.745408,0.447388,2.65001976984,0.0,0.223694,-0.223694,22.8,3.3,-3.7,0,0,1024,1024,1024,1024,0,0,0,0,0,0,0,75,3.824,3.823,0,0,0,0,5.053,72.68,757.4557348685,36.745408,6,P-GPS,,11.2
334200,2026-01-13 17:38:40,757.4557348685,39.041996,0.223694,1.71303155088,4.98359596,19,5,7.647,757.4557348685,36.745408,0.447388,2.65001976984,0.0,0.223694,0.0,22.7,3.7,-4.2,0,0,1024,1024,1024,1024,0,0,0,0,0,0,0,75,3.824,3.823,0,0,0,0,5.053,72.68,757.4557348685,36.745408,6,P-GPS,,11.2
334300,2026-01-13 17:38:40,757.4557348685,39.041996,0.223694,1.711122102,4.9919949104,19,5,7.647,757.4557348685,36.745408,0.447388,2.65001976984,0.0,0.223694,0.0,22.6,3.4,-3.5,0,0,1024,1024,1024,1024,0,0,0,0,0,0,0,75,3.824,3.823,0,0,0,0,5.053,72.68,757.4557348685,36.745408,6,P-GPS,,11.2
334400,2026-01-13 17:38:40,757.7838188685,39.041996,0.0,1.69708338764,5.006069714,19,5,7.647,757.7838188685,37.073492,0.447388,2.65001976984,0.0,0.0,0.0,22.6,2.5,-3.3,0,0,1024,1024,1024,1024,0,0,0,0,0,0,0,75,3.824,3.823,0,0,0,0,5.053,72.68,757.7838188685,37.073492,6,P-GPS,,11.3
334500,2026-01-13 17:38:40,757.7838188685,39.041996,0.0,1.48800529696,5.2151576472,19,5,7.647,757.7838188685,37.073492,0.447388,2.65001976984,0.0,0.0,0.0,22.6,2.0,-3.5,0,0,1024,1024,1024,1024,0,0,0,0,0,0,0,75,3.824,3.823,0,0,0,0,5.053,72.68,757.7838188685,37.073492,6,P-GPS,,11.3
334600,2026-01-13 17:38:40,757.7838188685,39.041996,0.0,1.45439309116,5.249672084,19,5,7.647,757.7838188685,37.073492,0.447388,2.65001976984,0.0,0.0,0.0,22.6,2.7,-3.6,0,0,1024,1024,1024,1024,0,0,0,0,0,0,0,75,3.824,3.823,0,0,0,0,5.053,72.68,757.7838188685,37.073492,6,P-GPS,,11.3
334700,2026-01-13 17:38:40,758.1119028685,39.041996,0.0,1.44552498064,5.2606300896,19,5,7.647,758.1119028685,37.401576,0.447388,2.65001976984,0.0,0.0,0.0,22.5,5.5,-2.7,0,0,1024,1024,1024,1024,0,0,0,0,0,0,0,75,3.824,3.823,0,0,0,0,5.053,72.68,758.1119028685,37.401576,6,P-GPS,,11.4
334800,2026-01-13 17:38:40,758.1119028685,39.041996,0.223694,1.44106631908,5.2907810092,19,5,7.647,758.1119028685,37.401576,0.447388,2.65001976984,-0.223694,0.0,0.0,22.2,3.7,-3.6,0,0,1024,1024,1024,1024,0,0,0,0,0,0,0,75,3.824,3.823,0,0,0,0,5.053,72.68,758.1119028685,37.401576,6,P-GPS,,11.4
334900,2026-01-13 17:38:40,758.1119028685,39.041996,0.223694,1.40344820764,5.4395999116,19,5,7.63,758.1119028685,37.401576,0.447388,2.65001976984,-0.223694,0.0,0.0,22.3,1.8,-4.7,0,0,1024,1024,1024,1024,0,0,0,0,0,0,0,75,3.814,3.815,0,0,0,0,4.193,72.68,758.1119028685,37.401576,6,P-GPS,,11.4
335000,2026-01-13 17:38:40,758.1119028685,39.041996,0.223694,1.40898298472,5.509186528,19,5,7.63,758.1119028685,37.401576,0.447388,2.65001976984,-0.223694,0.0,0.0,22.4,1.0,-4.9,0,0,1024,1024,1024,1024,0,0,0,0,0,0,0,75,3.814,3.815,0,0,0,0,4.193,72.68,758.1119028685,37.401576,6,P-GPS,,11.4
335100,2026-01-13 17:38:41,758.4399868685,39.041996,0.223694,1.41403219748,5.5498361356,19,5,7.63,758.4399868685,37.72966,0.447388,2.65001976984,-0.223694,0.0,0.0,22.3,1.2,-5.4,0,0,1024,1024,1024,1024,0,0,0,0,0,0,0,75,3.814,3.815,0,0,0,0,4.193,72.68,758.4399868685,37.72966,6,P-GPS,,11.5
335200,2026-01-13 17:38:41,758.4399868685,39.041996,0.223694,1.41942917928,5.5845802312,19,5,7.63,758.4399868685,37.72966,0.447388,2.65001976984,-0.223694,0.0,0.0,22.4,1.6,-5.2,0,0,1024,1024,1024,1024,0,0,0,0,0,0,0,75,3.814,3.815,0,0,0,0,4.193,72.68,758.4399868685,37.72966,6,P-GPS,,11.5
335300,2026-01-13 17:38:41,758.4399868685,39.041996,0.223694,1.44668967884,5.6462600232,19,5,7.63,758.4399868685,37.72966,0.447388,2.65001976984,-0.223694,0.0,0.0,22.6,1.3,-4.6,0,0,1024,1024,1024,1024,0,0,0,0,0,0,0,75,3.814,3.815,0,0,0,0,4.193,72.68,758.4399868685,37.72966,6,P-GPS,,11.5
335400,2026-01-13 17:38:41,758.4399868685,39.041996,0.223694,1.46643377396,5.6873689484,19,5,7.63,758.4399868685,37.72966,0.447388,2.65001976984,-0.223694,0.0,0.0,22.6,2.8,-4.2,0,0,1024,1024,1024,1024,0,0,0,0,0,0,0,75,3.814,3.815,0,0,0,0,4.193,72.68,758.4399868685,37.72966,6,P-GPS,,11.5
335500,2026-01-13 17:38:41,758.4399868685,39.041996,0.223694,1.49103023144,5.735236404,19,5,7.63,758.4399868685,37.72966,0.447388,2.65001976984,-0.223694,0.0,0.223694,22.6,1.2,-3.9,0,0,1024,1024,1024,1024,0,0,0,0,0,0,0,75,3.814,3.815,0,0,0,0,4.193,72.68,758.4399868685,37.72966,6,P-GPS,,11.5
335600,2026-01-13 17:38:41,758.1119028685,39.041996,0.223694,1.50809716112,5.7791668516,19,5,7.63,758.4399868685,37.72966,0.447388,2.65001976984,-0.223694,0.0,0.223694,22.7,-0.4,-3.4,0,0,1024,1024,1024,1024,0,0,0,0,0,0,0,75,3.814,3.815,0,0,0,0,4.193,72.68,758.1119028685,37.401576,6,P-GPS,,11.4
335700,2026-01-13 17:38:41,758.1119028685,39.041996,0.223694,1.44470805148,5.8607941508,19,5,7.63,758.4399868685,37.72966,0.447388,2.65001976984,-0.223694,0.0,0.223694,22.9,-1.0,-3.5,0,0,1024,1024,1024,1024,0,0,0,0,0,0,0,75,3.814,3.815,0,0,0,0,4.193,72.68,758.1119028685,37.401576,6,P-GPS,,11.4
335800,2026-01-13 17:38:41,758.1119028685,39.041996,0.0,1.4227526702,5.8943899524,19,5,7.63,758.4399868685,37.72966,0.447388,2.65001976984,0.0,0.0,0.0,22.9,-1.3,-3.2,0,0,1024,1024,1024,1024,0,0,0,0,0,0,0,75,3.814,3.815,0,0,0,0,4.193,72.68,758.1119028685,37.401576,6,P-GPS,,11.4
335900,2026-01-13 17:38:41,758.1119028685,39.041996,0.0,1.39505909976,5.9287075388,19,5,7.63,758.4399868685,37.72966,0.447388,2.65001976984,0.0,0.0,0.0,22.9,-0.2,-3.4,0,0,1024,1024,1024,1024,0,0,0,0,0,0,0,75,3.814,3.815,0,0,0,0,4.193,72.68,758.1119028685,37.401576,6,P-GPS,,11.4
336000,2026-01-13 17:38:42,757.7838188685,39.041996,0.223694,1.35413718244,5.9702101648,19,5,7.593,758.4399868685,37.72966,0.447388,2.65001976984,0.223694,0.0,0.0,22.7,1.7,-1.9,0,0,1024,1024,1024,1024,0,0,0,0,0,0,0,75,3.797,3.796,0,0,0,0,5.021,72.68,757.7838188685,37.073492,6,P-GPS,,11.3
336100,2026-01-13 17:38:42,757.7838188685,39.041996,0.223694,1.29826447724,6.02608287,19,5,7.593,758.4399868685,37.72966,0.447388,2.65001976984,0.223694,0.0,0.0,22.8,2.7,-1.8,0,0,1024,1024,1024,1024,0,0,0,0,0,0,0,75,3.797,3.796,0,0,0,0,5.021,72.68,757.7838188685,37.073492,6,P-GPS,,11.3
336200,2026-01-13 17:38:42,757.7838188685,39.041996,0.0,1.16434715012,6.1713912736,19,5,7.593,758.4399868685,37.72966,0.447388,2.65001976984,0.0,0.0,0.0,22.6,3.2,-0.8,0,0,1024,1024,1024,1024,0,0,0,0,0,0,0,75,3.797,3.796,0,0,0,0,5.021,72.68,757.7838188685,37.073492,6,P-GPS,,11.3
336300,2026-01-13 17:38:42,757.4557348685,39.041996,0.0,1.10226709564,6.2337928504,19,5,7.593,758.4399868685,37.72966,0.447388,2.65001976984,0.0,0.0,0.0,22.8,3.3,-0.7,0,0,1024,1024,1024,1024,0,0,0,0,0,0,0,75,3.797,3.796,0,0,0,0,5.021,72.68,757.4557348685,36.745408,6,P-GPS,,11.2
336400,2026-01-13 17:38:42,757.4557348685,39.041996,0.0,1.0563648632,6.2802823532,19,5,7.593,758.4399868685,37.72966,0.447388,2.65001976984,0.0,0.0,0.0,23.0,2.8,-0.4,0,0,1024,1024,1024,1024,0,0,0,0,0,0,0,75,3.797,3.796,0,0,0,0,5.021,72.68,757.4557348685,36.745408,6,P-GPS,,11.2
336500,2026-01-13 17:38:42,757.4557348685,39.041996,0.0,1.0389271986,6.3065618816,19,5,7.593,758.4399868685,37.72966,0.447388,2.65001976984,0.0,0.0,0.0,23.0,2.5,-0.3,0,0,1024,1024,1024,1024,0,0,0,0,0,0,0,75,3.797,3.796,0,0,0,0,5.021,72.68,757.4557348685,36.745408,6,P-GPS,,11.2
336600,2026-01-13 17:38:42,757.1276508685,39.041996,0.0,0.9787237846,6.3781826188,19,5,7.593,758.4399868685,37.72966,0.447388,2.65001976984,0.0,0.0,0.0,23.1,1.5,-0.2,0,0,1024,1024,1024,1024,0,0,0,0,0,0,0,75,3.797,3.796,0,0,0,0,5.021,72.68,757.1276508685,36.417324,6,P-GPS,,11.1
336700,2026-01-13 17:38:42,757.1276508685,39.041996,0.0,0.98120409964,6.400590756,19,5,7.593,758.4399868685,37.72966,0.447388,2.65001976984,0.0,0.0,0.0,23.0,2.3,0.1,0,0,1024,1024,1024,1024,0,0,0,0,0,0,0,75,3.797,3.796,0,0,0,0,5.021,72.68,757.1276508685,36.417324,6,P-GPS,,11.1
336800,2026-01-13 17:38:42,757.1276508685,39.041996,0.0,0.98981958548,6.4229988932,19,5,7.593,758.4399868685,37.72966,0.447388,2.65001976984,0.0,0.0,0.0,22.8,2.6,-0.2,0,0,1024,1024,1024,1024,0,0,0,0,0,0,0,75,3.797,3.796,0,0,0,0,5.021,72.68,757.1276508685,36.417324,6,P-GPS,,11.1
336900,2026-01-13 17:38:42,757.1276508685,39.041996,0.0,1.00259517644,6.4361550616,19,5,7.593,758.4399868685,37.72966,0.447388,2.65001976984,0.0,0.0,0.0,22.8,2.8,0.1,0,0,1024,1024,1024,1024,0,0,0,0,0,0,0,75,3.797,3.796,0,0,0,0,5.021,72.68,757.1276508685,36.417324,6,P-GPS,,11.1
337000,2026-01-13 17:38:42,757.1276508685,39.041996,0.0,1.04434714628,6.4953742236,19,5,7.593,758.4399868685,37.72966,0.447388,2.65001976984,0.0,0.0,0.0,22.8,2.2,0.1,0,0,1024,1024,1024,1024,0,0,0,0,0,0,0,75,3.797,3.796,0,0,0,0,5.021,72.68,757.1276508685,36.417324,6,P-GPS,,11.1
337100,2026-01-13 17:38:43,757.1276508685,39.041996,0.0,1.05795935144,6.5155185812,19,5,7.597,758.4399868685,37.72966,0.447388,2.65001976984,0.0,0.0,0.0,22.8,2.5,-0.1,0,0,1024,1024,1024,1024,0,0,0,0,0,0,0,74,3.8,3.798,0,0,0,0,5.108,72.68,757.1276508685,36.417324,6,P-GPS,,11.1
337200,2026-01-13 17:38:43,757.1276508685,39.041996,0.223694,1.07491473256,6.533300734,19,5,7.597,758.4399868685,37.72966,0.447388,2.65001976984,0.0,0.223694,0.0,22.9,2.8,-0.2,0,0,1024,1024,1024,1024,0,0,0,0,0,0,0,74,3.8,3.798,0,0,0,0,5.108,72.68,757.1276508685,36.417324,6,P-GPS,,11.1
337300,2026-01-13 17:38:43,757.1276508685,39.041996,0.223694,1.0860728694,6.5486550652,19,5,7.597,758.4399868685,37.72966,0.447388,2.65001976984,0.0,0.223694,-0.223694,22.9,2.1,-0.6,0,0,1024,1024,1024,1024,0,0,0,0,0,0,0,74,3.8,3.798,0,0,0,0,5.108,72.68,757.1276508685,36.417324,6,P-GPS,,11.1
337400,2026-01-13 17:38:43,757.1276508685,39.041996,0.223694,1.01713585932,6.6816275104,19,5,7.597,758.4399868685,37.72966,0.447388,2.65001976984,0.0,0.223694,-0.223694,22.9,1.6,-1.0,0,0,1024,1024,1024,1024,0,0,0,0,0,0,0,74,3.8,3.798,0,0,0,0,5.108,72.68,757.1276508685,36.417324,6,P-GPS,,11.1
337500,2026-01-13 17:38:43,757.1276508685,39.041996,0.223694,1.0333661748,6.7003939152,19,5,7.597,758.4399868685,37.72966,0.447388,2.65001976984,0.0,0.223694,-0.223694,23.1,2.0,-0.7,0,0,1024,1024,1024,1024,0,0,0,0,0,0,0,74,3.8,3.798,0,0,0,0,5.108,72.68,757.1276508685,36.417324,6,P-GPS,,11.1
337600,2026-01-13 17:38:43,757.1276508685,39.041996,0.223694,1.0500164378,6.723425412,19,5,7.597,758.4399868685,37.72966,0.447388,2.65001976984,0.0,0.223694,-0.223694,23.1,2.9,-1.2,0,0,1024,1024,1024,1024,0,0,0,0,0,0,0,74,3.8,3.798,0,0,0,0,5.108,72.68,757.1276508685,36.417324,6,P-GPS,,11.1
337700,2026-01-13 17:38:43,757.1276508685,39.041996,0.223694,1.06610239632,6.7494424732,19,5,7.597,758.4399868685,37.72966,0.447388,2.65001976984,0.0,0.223694,-0.223694,23.1,3.6,-1.4,0,0,1024,1024,1024,1024,0,0,0,0,0,0,0,74,3.8,3.798,0,0,0,0,5.108,72.68,757.1276508685,36.417324,6,P-GPS,,11.1
337800,2026-01-13 17:38:43,757.1276508685,39.041996,0.223694,1.07929137312,6.773622264,19,5,7.597,758.4399868685,37.72966,0.447388,2.65001976984,0.0,0.223694,-0.223694,23.2,3.9,-1.4,0,0,1024,1024,1024,1024,0,0,0,0,0,0,0,74,3.8,3.798,0,0,0,0,5.108,72.68,757.1276508685,36.417324,6,P-GPS,,11.1
337900,2026-01-13 17:38:43,757.1276508685,39.041996,0.223694,0.99318900816,6.8602036316,19,5,7.597,758.4399868685,37.72966,0.447388,2.65001976984,0.0,0.223694,0.0,23.1,4.0,-1.4,0,0,1024,1024,1024,1024,0,0,0,0,0,0,0,74,3.8,3.798,0,0,0,0,5.108,72.68,757.1276508685,36.417324,6,P-GPS,,11.1
338000,2026-01-13 17:38:44,757.4557348685,39.041996,0.223694,0.99315291892,6.8948821104,18,5,7.597,758.4399868685,37.72966,0.447388,2.65001976984,0.0,0.223694,0.0,23.0,4.9,-1.8,0,0,1024,1024,1024,1024,0,0,0,0,0,0,0,74,3.8,3.798,0,0,0,0,5.108,72.68,757.4557348685,36.745408,6,P-GPS,,11.2
338100,2026-01-13 17:38:44,757.4557348685,39.041996,0.223694,0.994340583,6.9542653144,18,5,7.597,758.4399868685,37.72966,0.447388,2.65001976984,0.0,0.223694,0.0,23.1,4.9,-2.0,0,0,1024,1024,1024,1024,0,0,0,0,0,0,0,74,3.8,3.798,0,0,0,0,5.108,72.68,757.4557348685,36.745408,6,P-GPS,,11.2
338200,2026-01-13 17:38:44,757.4557348685,39.041996,0.223694,1.00956039976,7.0077430064,19,5,7.614,758.4399868685,37.72966,0.447388,2.65001976984,0.0,0.223694,0.0,23.1,4.6,-2.3,0,0,1024,1024,1024,1024,0,0,0,0,0,0,0,74,3.802,3.799,0,0,0,0,4.629,72.86,757.4557348685,36.745408,6,P-GPS,,11.2
338300,2026-01-13 17:38:44,757.4557348685,39.041996,0.223694,1.03289373384,7.0983598072,19,5,7.614,758.4399868685,37.72966,0.447388,2.65001976984,0.0,0.223694,0.0,23.0,4.5,-2.4,0,0,1024,1024,1024,1024,0,0,0,0,0,0,0,74,3.802,3.799,0,0,0,0,4.629,72.86,757.4557348685,36.745408,6,P-GPS,,11.2
338400,2026-01-13 17:38:44,757.4557348685,39.041996,0.223694,1.07816932584,7.152395242,19,5,7.614,758.4399868685,37.72966,0.447388,2.65001976984,0.0,0.223694,0.0,22.8,4.9,-2.9,0,0,1024,1024,1024,1024,0,0,0,0,0,0,0,74,3.802,3.799,0,0,0,0,4.629,72.86,757.4557348685,36.745408,6,P-GPS,,11.2
338500,2026-01-13 17:38:44,757.4557348685,39.041996,0.223694,1.1220308758,7.1988847448,19,5,7.614,758.4399868685,37.72966,0.447388,2.65001976984,0.0,0.223694,0.0,22.9,5.1,-3.2,0,0,1024,1024,1024,1024,0,0,0,0,0,0,0,74,3.802,3.799,0,0,0,0,4.629,72.86,757.4557348685,36.745408,6,P-GPS,,11.2
338600,2026-01-13 17:38:44,757.4557348685,39.041996,0.223694,1.16042326548,7.2381235912,19,5,7.614,758.4399868685,37.72966,0.447388,2.65001976984,0.0,0.223694,0.0,22.9,4.6,-2.7,0,0,1024,1024,1024,1024,0,0,0,0,0,0,0,74,3.802,3.799,0,0,0,0,4.629,72.86,757.4557348685,36.745408,6,P-GPS,,11.2
338700,2026-01-13 17:38:44,757.7838188685,39.041996,0.223694,1.20062995968,7.3323165076,19,5,7.614,758.4399868685,37.72966,0.447388,2.65001976984,0.0,0.223694,0.0,22.8,4.6,-2.5,0,0,1024,1024,1024,1024,0,0,0,0,0,0,0,74,3.802,3.799,0,0,0,0,4.629,72.86,757.7838188685,37.073492,6,P-GPS,,11.3
338800,2026-01-13 17:38:44,757.7838188685,39.041996,0.223694,1.23681762488,7.3688650652,19,5,7.614,758.4399868685,37.72966,0.447388,2.65001976984,0.0,0.223694,0.0,22.9,5.1,-2.3,0,0,1024,1024,1024,1024,0,0,0,0,0,0,0,74,3.802,3.799,0,0,0,0,4.629,72.86,757.7838188685,37.073492,6,P-GPS,,11.3
338900,2026-01-13 17:38:44,757.7838188685,39.041996,0.223694,1.28186355808,7.4139438068,19,5,7.614,758.4399868685,37.72966,0.447388,2.65001976984,0.0,0.223694,0.0,22.9,5.0,-2.8,0,0,1024,1024,1024,1024,0,0,0,0,0,0,0,74,3.802,3.799,0,0,0,0,4.629,72.86,757.7838188685,37.073492,6,P-GPS,,11.3
339000,2026-01-13 17:38:45,757.7838188685,39.041996,0.223694,1.32435371692,7.4571196612,19,5,7.614,758.4399868685,37.72966,0.447388,2.65001976984,0.0,0.223694,0.0,22.8,4.7,-3.3,0,0,1024,1024,1024,1024,0,0,0,0,0,0,0,74,3.802,3.799,0,0,0,0,4.629,72.86,757.7838188685,37.073492,6,P-GPS,,11.3
339100,2026-01-13 17:38:45,757.7838188685,39.041996,0.0,1.35672248436,7.5281826556,19,5,7.614,758.4399868685,37.72966,0.447388,2.65001976984,0.0,0.0,0.0,22.9,4.2,-2.7,0,0,1024,1024,1024,1024,0,0,0,0,0,0,0,74,3.802,3.799,0,0,0,0,4.629,72.86,757.7838188685,37.073492,6,P-GPS,,11.3
339200,2026-01-13 17:38:45,757.4557348685,39.041996,0.0,1.38227694712,7.556102604,19,5,7.614,758.4399868685,37.72966,0.447388,2.65001976984,0.0,0.0,0.0,22.9,3.5,-2.6,0,0,1024,1024,1024,1024,0,0,0,0,0,0,0,74,3.802,3.799,0,0,0,0,4.629,72.86,757.4557348685,36.745408,6,P-GPS,,11.2
339300,2026-01-13 17:38:45,757.4557348685,39.041996,0.0,1.39256566136,7.5701117908,19,5,7.582,758.4399868685,37.72966,0.447388,2.65001976984,0.0,0.0,0.0,22.7,4.5,-2.5,0,0,1024,1024,1024,1024,0,0,0,0,0,0,0,74,3.795,3.787,0,0,0,0,4.884,72.68,757.4557348685,36.745408,6,P-GPS,,11.2
339400,2026-01-13 17:38:45,757.4557348685,39.041996,0.0,1.39501644884,7.5827430248,19,5,7.582,758.4399868685,37.72966,0.447388,2.65001976984,0.0,0.0,0.0,22.6,4.9,-1.9,0,0,1024,1024,1024,1024,0,0,0,0,0,0,0,74,3.795,3.787,0,0,0,0,4.884,72.68,757.4557348685,36.745408,6,P-GPS,,11.2
339500,2026-01-13 17:38:45,757.4557348685,39.041996,0.0,1.3939140866,7.5864175656,19,5,7.582,758.4399868685,37.72966,0.447388,2.65001976984,0.0,0.0,0.0,22.7,5.0,-1.6,0,0,1024,1024,1024,1024,0,0,0,0,0,0,0,74,3.795,3.787,0,0,0,0,4.884,72.68,757.4557348685,36.745408,6,P-GPS,,11.2
339600,2026-01-13 17:38:45,757.1276508685,39.041996,0.0,1.34767720848,7.6329070684,19,5,7.582,758.4399868685,37.72966,0.447388,2.65001976984,0.0,0.0,0.0,22.9,4.5,-1.7,0,0,1024,1024,1024,1024,0,0,0,0,0,0,0,74,3.795,3.787,0,0,0,0,4.884,72.68,757.1276508685,36.417324,6,P-GPS,,11.1
339700,2026-01-13 17:38:45,757.1276508685,39.041996,0.0,1.36261159216,7.6571196676,19,5,7.582,758.4399868685,37.72966,0.447388,2.65001976984,0.0,0.0,0.0,22.8,4.4,-1.9,0,0,1024,1024,1024,1024,0,0,0,0,0,0,0,74,3.795,3.787,0,0,0,0,4.884,72.68,757.1276508685,36.417324,6,P-GPS,,11.1
339800,2026-01-13 17:38:45,757.1276508685,39.041996,0.0,1.37965227512,7.680282398,19,5,7.582,758.4399868685,37.72966,0.447388,2.65001976984,0.0,0.0,0.0,22.8,4.2,-1.9,0,0,1024,1024,1024,1024,0,0,0,0,0,0,0,74,3.795,3.787,0,0,0,0,4.884,72.68,757.1276508685,36.417324,6,P-GPS,,11.1
339900,2026-01-13 17:38:45,757.1276508685,39.041996,0.0,1.40057747264,7.7012141572,19,5,7.582,758.4399868685,37.72966,0.447388,2.65001976984,0.0,0.0,0.0,22.8,3.8,-1.9,0,0,1024,1024,1024,1024,0,0,0,0,0,0,0,74,3.795,3.787,0,0,0,0,4.884,72.68,757.1276508685,36.417324,6,P-GPS,,11.1
340000,2026-01-13 17:38:46,756.7995668685,39.041996,0.0,1.41116802416,7.7303808248,19,5,7.582,758.4399868685,37.72966,0.447388,2.65001976984,0.0,0.0,0.0,22.8,3.2,-1.5,0,0,1024,1024,1024,1024,0,0,0,0,0,0,0,74,3.795,3.787,0,0,0,0,4.884,72.68,756.7995668685,36.08924,6,P-GPS,,11.0
340100,2026-01-13 17:38:46,756.7995668685,39.041996,0.0,1.44073495424,7.7652889624,19,5,7.582,758.4399868685,37.72966,0.447388,2.65001976984,0.0,0.0,0.0,22.7,2.5,-1.4,0,0,1024,1024,1024,1024,0,0,0,0,0,0,0,74,3.795,3.787,0,0,0,0,4.884,72.68,756.7995668685,36.08924,6,P-GPS,,11.0
340200,2026-01-13 17:38:46,756.7995668685,39.041996,0.0,1.46381894448,7.7914700656,19,5,7.582,758.4399868685,37.72966,0.447388,2.65001976984,0.0,0.0,0.0,22.7,2.7,-1.7,0,0,1024,1024,1024,1024,0,0,0,0,0,0,0,74,3.795,3.787,0,0,0,0,4.884,72.68,756.7995668685,36.08924,6,P-GPS,,11.0
340300,2026-01-13 17:38:46,756.7995668685,39.041996,0.0,1.46803810472,7.7963585172,19,5,7.582,758.4399868685,37.72966,0.447388,2.65001976984,0.0,0.0,0.0,22.8,2.6,-1.3,0,0,1024,1024,1024,1024,0,0,0,0,0,0,0,74,3.795,3.787,0,0,0,0,4.884,72.68,756.7995668685,36.08924,6,P-GPS,,11.0
340400,2026-01-13 17:38:46,756.7995668685,39.041996,0.0,1.4482283928,7.8291997256,19,5,7.56,758.4399868685,37.72966,0.447388,2.65001976984,0.0,0.0,0.0,22.8,2.5,-1.1,0,0,1024,1024,1024,1024,0,0,0,0,0,0,0,74,3.777,3.782,0,0,0,0,5.286,72.68,756.7995668685,36.08924,6,P-GPS,,11.0
340500,2026-01-13 17:38:46,756.7995668685,39.041996,0.0,1.45000332724,7.8311354212,19,5,7.56,758.4399868685,37.72966,0.447388,2.65001976984,0.0,0.0,0.0,22.8,2.6,-1.1,0,0,1024,1024,1024,1024,0,0,0,0,0,0,0,74,3.777,3.782,0,0,0,0,5.286,72.68,756.7995668685,36.08924,6,P-GPS,,11.0
340600,2026-01-13 17:38:46,756.7995668685,39.041996,0.0,1.45153547952,7.8331367336,19,5,7.56,758.4399868685,37.72966,0.447388,2.65001976984,0.0,0.0,0.0,22.7,2.5,-0.9,0,0,1024,1024,1024,1024,0,0,0,0,0,0,0,74,3.777,3.782,0,0,0,0,5.286,72.68,756.7995668685,36.08924,6,P-GPS,,11.0
340700,2026-01-13 17:38:46,756.7995668685,39.041996,0.0,1.4579888918,7.8470146868,19,5,7.56,758.4399868685,37.72966,0.447388,2.65001976984,0.0,0.0,0.0,22.7,2.8,-0.6,0,0,1024,1024,1024,1024,0,0,0,0,0,0,0,74,3.777,3.782,0,0,0,0,5.286,72.68,756.7995668685,36.08924,6,P-GPS,,11.0
340800,2026-01-13 17:38:46,756.7995668685,39.041996,0.0,1.42227366756,7.9530186272,19,5,7.56,758.4399868685,37.72966,0.447388,2.65001976984,0.0,0.0,0.0,22.7,2.8,-0.7,0,0,1024,1024,1024,1024,0,0,0,0,0,0,0,74,3.777,3.782,0,0,0,0,5.286,72.68,756.7995668685,36.08924,6,P-GPS,,11.0
340900,2026-01-13 17:38:46,756.7995668685,39.041996,0.0,1.41790358868,7.97408162,19,5,7.56,758.4399868685,37.72966,0.447388,2.65001976984,0.0,0.0,0.0,22.7,2.7,0.0,0,0,1024,1024,1024,1024,0,0,0,0,0,0,0,74,3.777,3.782,0,0,0,0,5.286,72.68,756.7995668685,36.08924,6,P-GPS,,11.0
341000,2026-01-13 17:38:46,757.1276508685,39.041996,0.0,1.41531828676,7.9877627228,19,5,7.56,758.4399868685,37.72966,0.447388,2.65001976984,0.0,0.0,0.0,22.8,2.5,0.0,0,0,1024,1024,1024,1024,0,0,0,0,0,0,0,74,3.777,3.782,0,0,0,0,5.286,72.68,757.1276508685,36.417324,6,P-GPS,,11.1
341100,2026-01-13 17:38:47,757.1276508685,39.041996,0.0,1.40287734148,8.00442939,19,5,7.56,758.4399868685,37.72966,0.447388,2.65001976984,0.0,0.0,0.0,22.8,2.5,-0.7,0,0,1024,1024,1024,1024,0,0,0,0,0,0,0,74,3.777,3.782,0,0,0,0,5.286,72.68,757.1276508685,36.417324,6,P-GPS,,11.1
341200,2026-01-13 17:38:47,757.1276508685,39.041996,0.0,1.39872707888,8.0197181044,19,5,7.56,758.4399868685,37.72966,0.447388,2.65001976984,0.0,0.0,0.0,22.8,2.3,-0.8,0,0,1024,1024,1024,1024,0,0,0,0,0,0,0,74,3.777,3.782,0,0,0,0,5.286,72.68,757.1276508685,36.417324,6,P-GPS,,11.1
341300,2026-01-13 17:38:47,757.1276508685,39.041996,0.0,1.3701279966,8.063648552,19,5,7.56,758.4399868685,37.72966,0.447388,2.65001976984,0.0,0.0,0.0,22.8,1.7,-0.7,0,0,1024,1024,1024,1024,0,0,0,0,0,0,0,74,3.777,3.782,0,0,0,0,5.286,72.68,757.1276508685,36.417324,6,P-GPS,,11.1
341400,2026-01-13 17:38:47,757.1276508685,39.041996,0.0,1.38985240668,8.0938650884,19,5,7.56,758.4399868685,37.72966,0.447388,2.65001976984,0.0,0.0,0.0,23.0,1.3,-0.8,0,0,1024,1024,1024,1024,0,0,0,0,0,0,0,74,3.777,3.782,0,0,0,0,5.286,72.68,757.1276508685,36.417324,6,P-GPS,,11.1
341500,2026-01-13 17:38:47,757.4557348685,39.041996,0.223694,1.41803154144,8.1362207328,19,5,7.587,758.4399868685,37.72966,0.447388,2.65001976984,0.0,0.223694,0.0,22.9,1.4,-1.8,0,0,1024,1024,1024,1024,0,0,0,0,0,0,0,74,3.794,3.793,0,0,0,0,4.99,72.68,757.4557348685,36.745408,6,P-GPS,,11.2
341600,2026-01-13 17:38:47,757.4557348685,39.041996,0.223694,1.44405188348,8.1836944876,19,5,7.587,758.4399868685,37.72966,0.447388,2.65001976984,0.0,0.223694,0.0,22.9,2.6,-2.1,0,0,1024,1024,1024,1024,0,0,0,0,0,0,0,74,3.794,3.793,0,0,0,0,4.99,72.68,757.4557348685,36.745408,6,P-GPS,,11.2
341700,2026-01-13 17:38:47,757.4557348685,39.041996,0.223694,1.45146658188,8.215059318,19,5,7.587,758.4399868685,37.72966,0.447388,2.65001976984,0.0,0.223694,0.0,23.1,2.7,-1.6,0,0,1024,1024,1024,1024,0,0,0,0,0,0,0,74,3.794,3.793,0,0,0,0,4.99,72.68,757.4557348685,36.745408,6,P-GPS,,11.2
341800,2026-01-13 17:38:47,757.7838188685,39.041996,0.223694,1.47473758,8.2731958028,19,5,7.587,758.4399868685,37.72966,0.447388,2.65001976984,0.0,0.223694,0.0,22.9,3.3,-1.9,0,0,1024,1024,1024,1024,0,0,0,0,0,0,0,74,3.794,3.793,0,0,0,0,4.99,72.68,757.7838188685,37.073492,6,P-GPS,,11.3
341900,2026-01-13 17:38:47,757.7838188685,39.041996,0.447388,1.52471461572,8.354823102,19,5,7.587,758.4399868685,37.72966,0.447388,2.65001976984,0.0,0.447388,0.0,22.6,4.8,-2.7,0,0,1024,1024,1024,1024,0,0,0,0,0,0,0,74,3.794,3.793,0,0,0,0,4.99,72.68,757.7838188685,37.073492,6,P-GPS,,11.3
342000,2026-01-13 17:38:48,758.1119028685,39.041996,0.447388,1.58198167792,8.4382548632,19,5,7.587,758.4399868685,37.72966,0.447388,2.65001976984,0.0,0.447388,0.0,22.7,4.8,-3.9,0,0,1024,1024,1024,1024,0,0,0,0,0,0,0,74,3.794,3.793,0,0,0,0,4.99,72.68,758.1119028685,37.401576,6,P-GPS,,11.4
342100,2026-01-13 17:38:48,758.1119028685,39.041996,0.447388,1.65079729692,8.5163716636,19,5,7.587,758.4399868685,37.72966,0.447388,2.65001976984,0.0,0.447388,0.0,22.8,4.5,-4.8,0,0,1024,1024,1024,1024,0,0,0,0,0,0,0,74,3.794,3.793,0,0,0,0,4.99,72.68,758.1119028685,37.401576,6,P-GPS,,11.4
342200,2026-01-13 17:38:48,758.4399868685,39.041996,0.447388,1.69836291524,8.596128884,19,5,7.587,758.4399868685,37.72966,0.447388,2.65001976984,0.0,0.447388,0.0,22.8,4.6,-4.8,0,0,1024,1024,1024,1024,0,0,0,0,0,0,0,74,3.794,3.793,0,0,0,0,4.99,72.68,758.4399868685,37.72966,6,P-GPS,,11.5
342300,2026-01-13 17:38:48,758.4399868685,39.041996,0.4921268,1.735236276,8.6823821676,19,5,7.587,758.4399868685,37.72966,0.4921268,2.65001976984,0.223694,0.447388,0.0,22.7,5.5,-5.0,0,0,1024,1024,1024,1024,0,0,0,0,0,0,0,74,3.794,3.793,0,0,0,0,4.99,72.68,758.4399868685,37.72966,6,P-GPS,,11.5
342400,2026-01-13 17:38:48,758.4399868685,39.041996,0.4921268,1.76797249752,8.764600018,19,5,7.587,758.4399868685,37.72966,0.4921268,2.65001976984,0.223694,0.223694,0.0,22.5,6.9,-4.5,0,0,1024,1024,1024,1024,0,0,0,0,0,0,0,74,3.794,3.793,0,0,0,0,4.99,72.68,758.4399868685,37.72966,6,P-GPS,,11.5
342500,2026-01-13 17:38:48,758.4399868685,39.041996,0.3131716,1.80305451964,8.8126971324,19,5,7.587,758.4399868685,37.72966,0.4921268,2.65001976984,0.223694,0.223694,0.0,22.6,7.7,-4.6,0,0,1024,1024,1024,1024,0,0,0,0,0,0,0,74,3.794,3.793,0,0,0,0,4.99,72.68,758.4399868685,37.72966,6,P-GPS,,11.5
342600,2026-01-13 17:38:48,758.7680708685,39.041996,0.3131716,1.83350727652,8.883858552,19,5,7.587,758.7680708685,38.057744,0.4921268,2.65001976984,0.223694,0.223694,0.223694,22.4,8.3,-4.2,0,0,1024,1024,1024,1024,0,0,0,0,0,0,0,74,3.799,3.798,0,0,0,0,4.99,72.68,758.7680708685,38.057744,6,P-GPS,,11.6
342700,2026-01-13 17:38:48,758.4399868685,39.041996,0.223694,1.83771987508,8.96325488,19,5,7.587,758.7680708685,38.057744,0.4921268,2.65001976984,0.223694,0.0,0.223694,22.1,8.2,-3.0,0,0,1024,1024,1024,1024,0,0,0,0,0,0,0,74,3.799,3.798,0,0,0,0,4.99,72.68,758.4399868685,37.72966,6,P-GPS,,11.5
342800,2026-01-13 17:38:48,758.4399868685,39.041996,0.223694,1.83708339212,9.0267719424,19,5,7.587,758.7680708685,38.057744,0.4921268,2.65001976984,0.223694,0.0,0.0,22.3,8.2,-2.8,0,0,1024,1024,1024,1024,0,0,0,0,0,0,0,74,3.799,3.798,0,0,0,0,4.99,72.68,758.4399868685,37.72966,6,P-GPS,,11.5
342900,2026-01-13 17:38:48,758.4399868685,39.041996,0.223694,1.8352690876,9.077756196,19,5,7.587,758.7680708685,38.057744,0.4921268,2.65001976984,0.223694,0.0,0.223694,22.3,7.7,-2.3,0,0,1024,1024,1024,1024,0,0,0,0,0,0,0,74,3.799,3.798,0,0,0,0,4.99,72.68,758.4399868685,37.72966,6,P-GPS,,11.5
343000,2026-01-13 17:38:49,758.4399868685,39.041996,0.223694,1.78236226176,9.156332314,19,5,7.587,758.7680708685,38.057744,0.4921268,2.65001976984,0.223694,0.0,0.223694,22.4,7.8,-0.7,0,0,1024,1024,1024,1024,0,0,0,0,0,0,0,74,3.799,3.798,0,0,0,0,4.99,72.68,758.4399868685,37.72966,6,P-GPS,,11.5
343100,2026-01-13 17:38:49,758.4399868685,39.041996,0.0,1.77024940048,9.17650948,19,5,7.587,758.7680708685,38.057744,0.4921268,2.65001976984,0.0,0.0,0.0,22.7,7.1,-0.1,0,0,1024,1024,1024,1024,0,0,0,0,0,0,0,74,3.799,3.798,0,0,0,0,4.99,72.68,758.4399868685,37.72966,6,P-GPS,,11.5
343200,2026-01-13 17:38:49,758.7680708685,39.041996,0.0,1.76687341612,9.185039664,19,5,7.587,758.7680708685,38.057744,0.4921268,2.65001976984,0.0,0.0,0.0,22.6,7.4,-0.3,0,0,1024,1024,1024,1024,0,0,0,0,0,0,0,74,3.799,3.798,0,0,0,0,4.99,72.68,758.7680708685,38.057744,6,P-GPS,,11.6
343300,2026-01-13 17:38:49,758.7680708685,39.041996,0.0,1.7676181668,9.185859874,19,5,7.587,758.7680708685,38.057744,0.4921268,2.65001976984,0.0,0.0,0.0,22.6,7.0,-1.3,0,0,1024,1024,1024,1024,0,0,0,0,0,0,0,74,3.799,3.798,0,0,0,0,4.99,72.68,758.7680708685,38.057744,6,P-GPS,,11.6
343400,2026-01-13 17:38:49,758.7680708685,39.041996,0.0,1.71655845388,9.2753939976,19,5,7.587,758.7680708685,38.057744,0.4921268,2.65001976984,0.0,0.0,0.0,22.8,4.8,-2.3,0,0,1024,1024,1024,1024,0,0,0,0,0,0,0,74,3.799,3.798,0,0,0,0,4.99,72.68,758.7680708685,38.057744,6,P-GPS,,11.6
343500,2026-01-13 17:38:49,758.7680708685,39.041996,0.0,1.73534782456,9.3213257576,19,5,7.587,758.7680708685,38.057744,0.4921268,2.65001976984,0.0,0.0,0.0,23.0,4.0,-2.7,0,0,1024,1024,1024,1024,0,0,0,0,0,0,0,74,3.799,3.798,0,0,0,0,4.99,72.68,758.7680708685,38.057744,6,P-GPS,,11.6
343600,2026-01-13 17:38:49,758.7680708685,39.041996,0.223694,1.7582185602,9.3581695908,19,5,7.587,758.7680708685,38.057744,0.4921268,2.65001976984,0.0,0.223694,0.0,23.1,2.9,-3.8,0,0,1024,1024,1024,1024,0,0,0,0,0,0,0,74,3.799,3.798,0,0,0,0,4.99,72.68,758.7680708685,38.057744,6,P-GPS,,11.6
343700,2026-01-13 17:38:49,758.7680708685,39.041996,0.223694,1.78064638244,9.3819556808,19,5,7.597,758.7680708685,38.057744,0.4921268,2.65001976984,0.0,0.223694,0.0,23.0,4.8,-3.5,0,0,1024,1024,1024,1024,0,0,0,0,0,0,0,74,3.795,3.791,0,0,0,0,4.811,72.68,758.7680708685,38.057744,6,P-GPS,,11.6
343800,2026-01-13 17:38:49,758.7680708685,39.041996,0.0,1.75699480688,9.4566275992,19,5,7.597,758.7680708685,38.057744,0.4921268,2.65001976984,0.0,0.0,0.0,23.0,6.6,-3.1,0,0,1024,1024,1024,1024,0,0,0,0,0,0,0,74,3.795,3.791,0,0,0,0,4.811,72.68,758.7680708685,38.057744,6,P-GPS,,11.6
343900,2026-01-13 17:38:49,758.7680708685,39.041996,0.0,1.77243443992,9.4774609332,19,5,7.597,758.7680708685,38.057744,0.4921268,2.65001976984,0.0,0.0,0.223694,23.2,6.3,-2.2,0,0,1024,1024,1024,1024,0,0,0,0,0,0,0,74,3.795,3.791,0,0,0,0,4.811,72.68,758.7680708685,38.057744,6,P-GPS,,11.6
344000,2026-01-13 17:38:49,758.7680708685,39.041996,0.0,1.78657486032,9.5051184144,19,5,7.597,758.7680708685,38.057744,0.4921268,2.65001976984,0.0,0.0,0.0,23.1,5.0,-3.7,0,0,1024,1024,1024,1024,0,0,0,0,0,0,0,74,3.795,3.791,0,0,0,0,4.811,72.68,758.7680708685,38.057744,6,P-GPS,,11.6
344100,2026-01-13 17:38:50,758.4399868685,39.041996,0.0,1.78011488636,9.5153218268,19,5,7.597,758.7680708685,38.057744,0.4921268,2.65001976984,0.0,0.0,0.0,22.9,5.0,-3.0,0,0,1024,1024,1024,1024,0,0,0,0,0,0,0,74,3.795,3.791,0,0,0,0,4.811,72.68,758.4399868685,37.72966,6,P-GPS,,11.5
344200,2026-01-13 17:38:50,758.4399868685,39.041996,0.0,1.70522643252,9.590551488,19,5,7.597,758.7680708685,38.057744,0.4921268,2.65001976984,0.0,0.0,0.0,22.8,5.2,-1.6,0,0,1024,1024,1024,1024,0,0,0,0,0,0,0,74,3.795,3.791,0,0,0,0,4.811,72.68,758.4399868685,37.72966,6,P-GPS,,11.5
344300,2026-01-13 17:38:50,758.4399868685,39.041996,0.0,1.68859257372,9.609908444,19,5,7.597,758.7680708685,38.057744,0.4921268,2.65001976984,0.0,0.0,0.0,22.7,5.6,-1.5,0,0,1024,1024,1024,1024,0,0,0,0,0,0,0,74,3.795,3.791,0,0,0,0,4.811,72.68,758.4399868685,37.72966,6,P-GPS,,11.5
344400,2026-01-13 17:38:50,758.1119028685,39.041996,0.0,1.68427498828,9.6165029324,19,5,7.597,758.7680708685,38.057744,0.4921268,2.65001976984,0.0,0.0,0.223694,22.6,6.0,-2.2,0,0,1024,1024,1024,1024,0,0,0,0,0,0,0,74,3.795,3.791,0,0,0,0,4.811,72.68,758.1119028685,37.401576,6,P-GPS,,11.4
344500,2026-01-13 17:38:50,758.1119028685,39.041996,0.0,1.69938981816,9.6335961088,19,5,7.597,758.7680708685,38.057744,0.4921268,2.65001976984,0.0,0.0,0.223694,22.5,6.1,-2.8,0,0,1024,1024,1024,1024,0,0,0,0,0,0,0,74,3.795,3.791,0,0,0,0,4.811,72.68,758.1119028685,37.401576,6,P-GPS,,11.4
344600,2026-01-13 17:38:50,758.1119028685,39.041996,0.0,1.7137139656,9.6506892852,19,5,7.597,758.7680708685,38.057744,0.4921268,2.65001976984,0.0,0.0,0.223694,22.6,6.6,-1.8,0,0,1024,1024,1024,1024,0,0,0,0,0,0,0,74,3.795,3.791,0,0,0,0,4.811,72.68,758.1119028685,37.401576,6,P-GPS,,11.4
344700,2026-01-13 17:38:50,758.1119028685,39.041996,0.0,1.7426345702,9.6797575276,19,5,7.597,758.7680708685,38.057744,0.4921268,2.65001976984,0.0,0.0,0.223694,23.2,3.4,-2.3,0,0,1024,1024,1024,1024,0,0,0,0,0,0,0,74,3.795,3.791,0,0,0,0,4.811,72.68,758.1119028685,37.401576,6,P-GPS,,11.4
344800,2026-01-13 17:38:50,757.7838188685,39.041996,0.0,1.76671265496,9.7039701268,19,5,7.586,758.7680708685,38.057744,0.4921268,2.65001976984,0.0,0.0,0.0,22.8,3.7,-2.6,0,0,1024,1024,1024,1024,0,0,0,0,0,0,0,74,3.795,3.791,0,0,0,0,4.844,72.86,757.7838188685,37.073492,6,P-GPS,,11.3
344900,2026-01-13 17:38:50,757.7838188685,39.041996,0.0,1.79592197348,9.7335304952,19,5,7.586,758.7680708685,38.057744,0.4921268,2.65001976984,0.0,0.0,0.0,22.7,4.3,-2.9,0,0,1024,1024,1024,1024,0,0,0,0,0,0,0,74,3.795,3.791,0,0,0,0,4.844,72.86,757.7838188685,37.073492,6,P-GPS,,11.3
345000,2026-01-13 17:38:51,757.7838188685,39.041996,0.0,1.81846134428,9.7592194724,19,5,7.586,758.7680708685,38.057744,0.4921268,2.65001976984,0.0,0.0,0.0,22.7,5.3,-2.7,0,0,1024,1024,1024,1024,0,0,0,0,0,0,0,74,3.795,3.791,0,0,0,0,4.844,72.86,757.7838188685,37.073492,6,P-GPS,,11.3
345100,2026-01-13 17:38:51,757.7838188685,39.041996,0.0,1.80414703936,9.7745738036,19,5,7.586,758.7680708685,38.057744,0.4921268,2.65001976984,0.0,0.0,0.0,22.5,6.2,-3.1,0,0,1024,1024,1024,1024,0,0,0,0,0,0,0,74,3.795,3.791,0,0,0,0,4.844,72.86,757.7838188685,37.073492,6,P-GPS,,11.3
345200,2026-01-13 17:38:51,757.7838188685,39.041996,0.0,1.80684388984,9.7866801032,19,5,7.586,758.7680708685,38.057744,0.4921268,2.65001976984,0.0,0.0,0.0,22.5,6.0,-3.1,0,0,1024,1024,1024,1024,0,0,0,0,0,0,0,74,3.795,3.791,0,0,0,0,4.844,72.86,757.7838188685,37.073492,6,P-GPS,,11.3
345300,2026-01-13 17:38:51,757.7838188685,39.041996,0.0,1.8077756484,9.7931105496,19,5,7.586,758.7680708685,38.057744,0.4921268,2.65001976984,0.0,0.0,0.0,22.7,5.2,-3.0,0,0,1024,1024,1024,1024,0,0,0,0,0,0,0,74,3.795,3.791,0,0,0,0,4.844,72.86,757.7838188685,37.073492,6,P-GPS,,11.3
345400,2026-01-13 17:38:51,757.4557348685,39.041996,0.0,1.8043143622,9.8035764292,19,5,7.586,758.7680708685,38.057744,0.4921268,2.65001976984,0.0,0.0,0.0,22.7,5.8,-2.8,0,0,1024,1024,1024,1024,0,0,0,0,0,0,0,74,3.795,3.791,0,0,0,0,4.844,72.86,757.4557348685,36.745408,6,P-GPS,,11.2
345500,2026-01-13 17:38:51,757.4557348685,39.041996,0.0,1.76995084404,9.8426512336,19,5,7.586,758.7680708685,38.057744,0.4921268,2.65001976984,0.0,0.0,0.0,22.6,6.1,-2.1,0,0,1024,1024,1024,1024,0,0,0,0,0,0,0,74,3.795,3.791,0,0,0,0,4.844,72.86,757.4557348685,36.745408,6,P-GPS,,11.2
345600,2026-01-13 17:38:51,757.4557348685,39.041996,0.0,1.7658629174,9.87204756,19,5,7.586,758.7680708685,38.057744,0.4921268,2.65001976984,0.0,0.0,0.0,22.3,8.8,-2.7,0,0,1024,1024,1024,1024,0,0,0,0,0,0,0,74,3.795,3.791,0,0,0,0,4.844,72.86,757.4557348685,36.745408,6,P-GPS,,11.2
345700,2026-01-13 17:38:51,757.4557348685,39.041996,0.0,1.76374349476,9.905512128,19,5,7.586,758.7680708685,38.057744,0.4921268,2.65001976984,0.0,0.0,0.447388,22.3,8.9,-2.4,0,0,1024,1024,1024,1024,0,0,0,0,0,0,0,74,3.795,3.791,0,0,0,0,4.844,72.86,757.4557348685,36.745408,6,P-GPS,,11.2
345800,2026-01-13 17:38:51,757.4557348685,39.041996,0.0,1.76803483348,9.9193900812,19,5,7.586,758.7680708685,38.057744,0.4921268,2.65001976984,0.0,0.0,0.223694,22.4,7.0,-2.1,0,0,1024,1024,1024,1024,0,0,0,0,0,0,0,74,3.795,3.791,0,0,0,0,4.844,72.86,757.4557348685,36.745408,6,P-GPS,,11.2
345900,2026-01-13 17:38:51,757.4557348685,39.041996,0.223694,1.74491803484,9.9445213156,19,5,7.597,758.7680708685,38.057744,0.4921268,2.65001976984,-0.223694,0.0,0.223694,22.4,5.8,-2.6,0,0,1024,1024,1024,1024,0,0,0,0,0,0,0,74,3.798,3.772,0,0,0,0,4.85,72.86,757.4557348685,36.745408,6,P-GPS,,11.2
346000,2026-01-13 17:38:51,757.4557348685,39.041996,0.223694,1.75601383572,9.9749347024,19,5,7.597,758.7680708685,38.057744,0.4921268,2.65001976984,-0.223694,0.0,0.0,22.6,2.4,-2.5,0,0,1024,1024,1024,1024,0,0,0,0,0,0,0,74,3.798,3.772,0,0,0,0,4.85,72.86,757.4557348685,36.745408,6,P-GPS,,11.2
346100,2026-01-13 17:38:52,757.4557348685,39.041996,0.223694,1.77464244524,10.0157155436,19,5,7.597,758.7680708685,38.057744,0.4921268,2.65001976984,-0.223694,0.0,-0.223694,22.6,2.3,-2.7,0,0,1024,1024,1024,1024,0,0,0,0,0,0,0,74,3.798,3.772,0,0,0,0,4.85,72.86,757.4557348685,36.745408,6,P-GPS,,11.2
