time(millisecond),timestamp,altitude_above_seaLevel(feet),height_sonar(feet),speed(mph),distance(feet),mileage(feet),satellites,gpslevel,voltage(v),max_altitude(feet),max_ascent(feet),max_speed(mph),max_distance(feet), xSpeed(mph), ySpeed(mph), zSpeed(mph), compass_heading(degrees), pitch(degrees), roll(degrees),isPhoto,isVideo,rc_elevator,rc_aileron,rc_throttle,rc_rudder,rc_elevator(percent),rc_aileron(percent),rc_throttle(percent),rc_rudder(percent),gimbal_heading(degrees),gimbal_pitch(degrees),gimbal_roll(degrees),battery_percent,voltageCell1,voltageCell2,voltageCell3,voltageCell4,voltageCell5,voltageCell6,current(A),battery_temperature(f),altitude(feet),ascent(feet),flycStateRaw,flycState,message,height_above_takeoff(meters)
140700,2026-01-13 12:21:57,720.81025010005,0.328084,0.0,0.0,0.0,18,5,0.0,720.81025010005,0.0,0.0,0.0,0.0,0.0,0.0,7.8,4.4,0.4,0,0,1024,1024,1024,1024,0,0,0,0,0,0,0,90,4.024,4.026,0,0,0,0,0.0,68.18,720.81025010005,0.0,41,Motors_Started,Setting new Return-To-Home altitude to 90m (295 ft). Data Recorder File Index is 36. Setting new Maximum Flight Altitude to 90m (295 ft). SD card speed low SD card speed low. Normal use may be affected. Replace SD card (Code: 10028). Gimbal stuck. Make sure gimbal cover is removed and manually check whether gimbal can rotate freely (Code: 40002),0.0
140800,2026-01-13 12:21:57,720.81025010005,0.328084,0.0,3.407316382,0.04223753416,18,5,0.0,720.81025010005,0.0,0.0,3.407316382,0.0,0.0,0.0,7.8,4.4,0.4,0,0,1024,1024,1024,1024,0,0,0,0,0,0,0,90,4.024,4.026,0,0,0,0,0.0,68.18,720.81025010005,0.0,41,Motors_Started,,0.0
140900,2026-01-13 12:21:57,720.81025010005,0.328084,0.0,3.4223098208,0.061756563656,18,5,0.0,720.81025010005,0.0,0.0,3.4223098208,0.0,0.0,0.0,7.8,4.4,0.4,0,0,1024,1024,1024,1024,0,0,0,0,0,0,0,90,4.024,4.026,0,0,0,0,0.0,68.18,720.81025010005,0.0,41,Motors_Started,SD card speed low. Normal use may be affected. Replace SD card (Code: 40112),0.0
141000,2026-01-13 12:21:57,720.81025010005,0.328084,0.0,3.4354331808,0.075559057536,18,5,8.057,720.81025010005,0.0,0.0,3.4354331808,0.0,0.0,0.0,7.8,4.4,0.4,0,0,1024,1024,1024,1024,0,0,0,0,0,0,0,90,4.024,4.026,0,0,0,0,0.662,68.18,720.81025010005,0.0,41,Motors_Started,,0.0
141100,2026-01-13 12:21:57,720.81025010005,0.328084,0.0,3.4483924988,0.090206367716,18,5,8.057,720.81025010005,0.0,0.0,3.4483924988,0.0,0.0,0.0,7.8,4.3,0.4,0,0,1024,1024,1024,1024,0,0,0,0,0,0,0,90,4.024,4.026,0,0,0,0,0.662,68.18,720.81025010005,0.0,41,Motors_Started,,0.0
141200,2026-01-13 12:21:57,720.81025010005,0.328084,0.0,3.4570539164,0.123101053808,18,5,8.057,720.81025010005,0.0,0.0,3.4570539164,0.0,0.0,0.0,7.8,4.4,0.4,0,0,1024,1024,1024,1024,0,0,0,0,0,0,0,90,4.024,4.026,0,0,0,0,0.662,68.18,720.81025010005,0.0,41,Motors_Started,,0.0
141300,2026-01-13 12:21:57,720.81025010005,0.328084,0.0,3.4592192708,0.127111880708,18,5,8.057,720.81025010005,0.0,0.0,3.4592192708,0.0,0.0,0.0,7.9,4.3,0.5,0,0,1024,1024,1024,1024,0,0,0,0,0,0,0,90,4.024,4.026,0,0,0,0,0.662,68.18,720.81025010005,0.0,41,Motors_Started,,0.0
141400,2026-01-13 12:21:57,720.81025010005,0.328084,0.0,3.4571523416,0.129233599936,18,5,8.057,720.81025010005,0.0,0.0,3.4592192708,0.0,0.0,0.0,7.8,4.4,0.4,0,0,1024,1024,1024,1024,0,0,0,0,0,0,0,90,4.024,4.026,0,0,0,0,0.662,68.18,720.81025010005,0.0,41,Motors_Started,,0.0
141500,2026-01-13 12:21:58,720.81025010005,0.328084,0.0,3.454888562,0.131520017332,18,5,8.057,720.81025010005,0.0,0.0,3.4592192708,0.0,0.0,0.0,7.8,4.3,0.4,0,0,1024,1024,1024,1024,0,0,0,0,0,0,0,90,4.024,4.026,0,0,0,0,0.662,68.18,720.81025010005,0.0,41,Motors_Started,,0.0
141600,2026-01-13 12:21:58,720.81025010005,0.328084,0.0,3.452099848,0.13445538488,18,5,8.057,720.81025010005,0.0,0.0,3.4592192708,0.0,0.0,0.0,7.8,4.3,0.5,0,0,1024,1024,1024,1024,0,0,0,0,0,0,0,90,4.024,4.026,0,0,0,0,0.662,68.18,720.81025010005,0.0,41,Motors_Started,,0.0
141700,2026-01-13 12:21:58,720.81025010005,0.328084,0.0,3.4271982724,0.159362209824,18,5,8.057,720.81025010005,0.0,0.0,3.4592192708,0.0,0.0,0.0,7.8,4.3,0.4,0,0,1024,1024,1024,1024,0,0,0,0,0,0,0,90,4.024,4.026,0,0,0,0,0.662,68.18,720.81025010005,0.0,41,Motors_Started,,0.0
141800,2026-01-13 12:21:58,720.81025010005,0.328084,0.0,3.4041667756,0.182394690876,18,5,8.057,720.81025010005,0.0,0.0,3.4592192708,0.0,0.0,0.0,7.7,4.3,0.5,0,0,1024,1024,1024,1024,0,0,0,0,0,0,0,90,4.024,4.026,0,0,0,0,0.662,68.18,720.81025010005,0.0,11,AutoTakeoff,,0.0
141900,2026-01-13 12:21:58,720.81025010005,0.328084,0.0,3.377788822,0.208757552612,19,5,8.057,720.81025010005,0.0,0.0,3.4592192708,0.0,0.0,0.0,7.7,4.4,0.4,0,0,1024,1024,1024,1024,0,0,0,0,0,0,0,90,4.024,4.026,0,0,0,0,0.662,68.18,720.81025010005,0.0,11,AutoTakeoff,,0.0
142000,2026-01-13 12:21:58,720.81025010005,0.328084,0.0,3.366798008,0.219750007032,19,5,8.057,720.81025010005,0.0,0.0,3.4592192708,0.0,0.0,0.0,7.6,4.4,0.4,0,0,1024,1024,1024,1024,0,0,0,0,0,0,0,90,4.024,4.026,0,0,0,0,0.662,68.18,720.81025010005,0.0,11,AutoTakeoff,,0.0
142100,2026-01-13 12:21:58,720.81025010005,0.328084,0.0,3.3212271404,0.265393053112,19,5,8.047,720.81025010005,0.0,0.0,3.4592192708,0.0,0.0,0.0,7.6,4.3,0.4,0,0,1024,1024,1024,1024,0,0,0,0,0,0,0,90,4.026,4.021,0,0,0,0,1.402,68.18,720.81025010005,0.0,11,AutoTakeoff,,0.0
142200,2026-01-13 12:21:58,720.81025010005,0.328084,0.0,3.3204725472,0.266272318232,19,5,8.047,720.81025010005,0.0,0.0,3.4592192708,0.0,0.0,0.0,7.6,4.4,0.4,0,0,1024,1024,1024,1024,0,0,0,0,0,0,0,90,4.026,4.021,0,0,0,0,1.402,68.18,720.81025010005,0.0,11,AutoTakeoff,,0.0
142300,2026-01-13 12:21:58,720.81025010005,0.328084,0.0,3.3209974816,0.267563656856,19,5,8.047,720.81025010005,0.0,0.0,3.4592192708,0.0,0.0,0.0,7.6,4.4,0.3,0,0,1024,1024,1024,1024,0,0,0,0,0,0,0,90,4.026,4.021,0,0,0,0,1.402,68.18,720.81025010005,0.0,11,AutoTakeoff,,0.0
142400,2026-01-13 12:21:58,720.81025010005,0.328084,0.0,3.3286418388,0.275484260784,19,5,8.047,720.81025010005,0.0,0.0,3.4592192708,0.0,0.0,0.0,8.0,4.3,0.3,0,0,1024,1024,1024,1024,0,0,0,0,0,0,0,90,4.026,4.021,0,0,0,0,1.402,68.18,720.81025010005,0.0,11,AutoTakeoff,,0.0
142500,2026-01-13 12:21:59,720.81025010005,0.328084,0.0,3.3731300292,0.320021007616,19,5,8.047,720.81025010005,0.0,0.0,3.4592192708,0.0,0.0,0.0,9.0,2.5,0.2,0,0,1024,1024,1024,1024,0,0,0,0,0,0,0,90,4.026,4.021,0,0,0,0,1.402,68.18,720.81025010005,0.0,11,AutoTakeoff,,0.0
142600,2026-01-13 12:21:59,720.81025010005,0.328084,0.0,3.4024935472,0.34940946,19,5,8.047,720.81025010005,0.0,0.0,3.4592192708,0.0,0.0,-0.223694,10.5,1.5,0.1,0,0,1024,1024,1024,1024,0,0,0,0,0,0,0,90,4.026,4.021,0,0,0,0,1.402,68.18,720.81025010005,0.0,11,AutoTakeoff,,0.0
142700,2026-01-13 12:21:59,720.81025010005,0.328084,0.0,3.4458006352,0.39291667924,19,5,8.047,720.81025010005,0.0,0.0,3.4592192708,0.0,0.0,-0.223694,11.0,0.9,-0.5,0,0,1024,1024,1042,1024,0,0,3,0,0,0,0,90,4.026,4.021,0,0,0,0,1.402,68.18,720.81025010005,0.0,11,AutoTakeoff,,0.0
142800,2026-01-13 12:21:59,720.81025010005,0.328084,0.3131716,3.4730316072,0.42121392424,19,5,8.047,720.81025010005,0.0,0.3131716,3.4730316072,-0.223694,0.223694,-0.671082,10.9,0.5,-1.4,0,0,1024,1024,1199,1024,0,0,27,0,0,0,0,90,4.026,4.021,0,0,0,0,1.402,68.18,720.81025010005,0.0,11,AutoTakeoff,,0.0
142900,2026-01-13 12:21:59,720.81025010005,0.656168,0.0,3.472605098,0.43114830776,19,5,8.047,720.81025010005,0.0,0.3131716,3.4730316072,0.0,0.0,-0.894776,11.0,0.2,-1.0,0,0,1024,1024,1330,1024,0,0,46,0,0,0,0,90,4.026,4.021,0,0,0,0,1.402,68.18,720.81025010005,0.0,11,AutoTakeoff,,0.0
143000,2026-01-13 12:21:59,720.81025010005,0.656168,0.223694,3.5074148104,0.46626641912,19,5,8.047,720.81025010005,0.0,0.3131716,3.5074148104,0.0,0.223694,-1.342164,11.0,0.3,-0.8,0,0,1024,1024,1684,1024,0,0,100,0,0,0,0,90,4.026,4.021,0,0,0,0,1.402,68.18,720.81025010005,0.0,11,AutoTakeoff,,0.0
143100,2026-01-13 12:21:59,721.13833410005,0.984252,0.223694,3.545275704,0.505741486,19,5,8.047,721.13833410005,0.328084,0.3131716,3.545275704,0.0,0.223694,-1.565858,10.9,0.2,-1.5,0,0,1024,1024,1684,1024,0,0,100,0,0,0,0,90,4.026,4.021,0,0,0,0,1.402,68.18,721.13833410005,0.328084,11,AutoTakeoff,,0.1
143200,2026-01-13 12:21:59,721.13833410005,0.984252,0.223694,3.581200902,0.55097114624,19,5,7.796,721.13833410005,0.328084,0.3131716,3.581200902,0.0,0.223694,-1.789552,11.0,0.4,-2.2,0,0,1024,1024,1684,1024,0,0,100,0,0,0,0,90,3.886,3.886,0,0,0,0,4.476,68.18,721.13833410005,0.328084,11,AutoTakeoff,,0.1
143300,2026-01-13 12:21:59,721.46641810005,1.312336,0.223694,3.6150919792,0.59793309,19,5,7.796,721.46641810005,0.656168,0.3131716,3.6150919792,0.0,0.223694,-2.23694,10.9,0.9,-2.3,0,0,1024,1024,1684,1024,0,0,100,0,0,0,0,90,3.886,3.886,0,0,0,0,4.476,68.18,721.46641810005,0.656168,11,AutoTakeoff,,0.2
143400,2026-01-13 12:21:59,721.79450210005,1.64042,0.0,3.6740814824,0.65777889244,19,5,7.796,721.79450210005,0.984252,0.3131716,3.6740814824,0.0,0.0,-2.684328,11.0,1.4,-2.0,0,0,1024,1024,1684,1024,0,0,100,0,0,0,0,90,3.886,3.886,0,0,0,0,4.476,68.18,721.79450210005,0.984252,11,AutoTakeoff,,0.3
143500,2026-01-13 12:22:00,722.45067010005,1.968504,0.223694,3.7135171792,0.69733926116,19,5,7.796,722.45067010005,1.64042,0.3131716,3.7135171792,0.0,0.223694,-3.35541,11.0,1.2,-2.0,0,0,1024,1024,1684,1024,0,0,100,0,0,0,0,90,3.886,3.886,0,0,0,0,4.476,68.18,722.45067010005,1.64042,11,AutoTakeoff,,0.5
143600,2026-01-13 12:22:00,723.10683810005,2.624672,0.0,3.7494423772,0.74070212344,19,5,7.796,723.10683810005,2.296588,0.3131716,3.7494423772,0.0,0.0,-3.802798,10.8,1.3,-2.7,0,0,1024,1024,1684,1024,0,0,100,0,0,0,0,90,3.886,3.886,0,0,0,0,4.476,68.18,723.10683810005,2.296588,11,AutoTakeoff,,0.7
143700,2026-01-13 12:22:00,723.76300610005,3.28084,0.0,3.787073612,0.7850886078,19,5,7.796,723.76300610005,2.952756,0.3131716,3.787073612,0.0,0.0,-4.026492,10.8,0.7,-2.9,0,0,1024,1024,1684,1024,0,0,100,0,0,0,0,90,3.886,3.886,0,0,0,0,4.476,68.18,723.76300610005,2.952756,6,P-GPS,,0.9
143800,2026-01-13 12:22:00,724.41917410005,3.937008,0.0,3.805938442,0.80921262432,19,5,7.796,724.41917410005,3.608924,0.3131716,3.805938442,0.0,0.0,-4.250186,11.0,0.9,-2.9,0,0,1024,1024,1684,1024,0,0,100,0,0,0,0,90,3.886,3.886,0,0,0,0,4.476,68.18,724.41917410005,3.608924,6,P-GPS,Home Point updated. RTH altitude adjusted to 90 m (Code: 120852),1.1
143900,2026-01-13 12:22:00,725.07534210005,4.593176,0.0,3.8097442164,0.81622706024,19,5,7.796,725.07534210005,4.265092,0.3131716,3.8097442164,0.0,0.0,-4.47388,11.0,0.4,-2.7,0,0,1024,1024,1684,1024,0,0,100,0,0,0,0,90,3.886,3.886,0,0,0,0,4.476,68.18,725.07534210005,4.265092,6,P-GPS,,1.3
144000,2026-01-13 12:22:00,725.73151010005,5.249344,0.0,3.7791339792,0.84966210068,19,5,7.796,725.73151010005,4.92126,0.3131716,3.8097442164,0.0,0.0,-4.47388,11.1,0.8,-2.7,0,0,1024,1024,1684,1024,0,0,100,0,0,0,0,90,3.886,3.886,0,0,0,0,4.476,68.18,725.73151010005,4.92126,6,P-GPS,,1.5
144100,2026-01-13 12:22:00,726.38767810005,5.905512,0.0,3.7406825344,0.89152233824,19,5,7.796,726.38767810005,5.577428,0.3131716,3.8097442164,0.0,0.0,-4.47388,11.0,0.9,-2.5,0,0,1024,1024,1684,1024,0,0,100,0,0,0,0,90,3.886,3.886,0,0,0,0,4.476,68.18,726.38767810005,5.577428,6,P-GPS,,1.7
144200,2026-01-13 12:22:00,727.04384610005,6.56168,0.0,3.603346572,1.02931105656,19,5,7.796,727.04384610005,6.233596,0.3131716,3.8097442164,0.0,0.0,-4.47388,10.9,1.4,-2.4,0,0,1024,1024,1684,1024,0,0,100,0,0,0,0,90,3.882,3.883,0,0,0,0,4.476,68.18,727.04384610005,6.233596,6,P-GPS,,1.9
144300,2026-01-13 12:22:00,727.70001410005,7.217848,0.0,3.5711287232,1.06313323612,19,5,7.796,727.70001410005,6.889764,0.3131716,3.8097442164,0.0,0.0,-4.47388,10.8,2.2,-2.4,0,0,1024,1024,1684,1024,0,0,100,0,0,0,0,90,3.882,3.883,0,0,0,0,4.476,68.18,727.70001410005,6.889764,6,P-GPS,,2.1
144400,2026-01-13 12:22:00,728.35618210005,7.874016,0.0,3.5651904028,1.070210008,19,5,7.796,728.35618210005,7.545932,0.3131716,3.8097442164,0.0,0.0,-4.47388,10.8,2.6,-2.3,0,0,1024,1024,1684,1024,0,0,100,0,0,0,0,90,3.882,3.883,0,0,0,0,4.476,68.18,728.35618210005,7.545932,6,P-GPS,,2.3
144500,2026-01-13 12:22:01,729.01235010005,8.530184,0.0,3.566765206,1.07221460124,18,5,7.796,729.01235010005,8.2021,0.3131716,3.8097442164,0.0,0.0,-4.47388,10.8,1.8,-2.3,0,0,1024,1024,1684,1024,0,0,100,0,0,0,0,90,3.882,3.883,0,0,0,0,4.476,68.18,729.01235010005,8.2021,6,P-GPS,,2.5
144600,2026-01-13 12:22:01,729.66851810005,9.186352,0.0,3.6730316136,1.2031496448,18,5,7.796,729.66851810005,8.858268,0.3131716,3.8097442164,0.0,0.0,-4.47388,10.8,2.3,-2.5,0,0,1024,1024,1684,1024,0,0,100,0,0,0,0,90,3.882,3.883,0,0,0,0,4.476,68.18,729.66851810005,8.858268,6,P-GPS,,2.7
144700,2026-01-13 12:22:01,730.32468610005,9.84252,0.0,3.6915027428,1.22613849068,18,5,7.796,730.32468610005,9.514436,0.3131716,3.8097442164,0.0,0.0,-4.250186,10.8,2.6,-2.1,0,0,1024,1024,1684,1024,0,0,100,0,0,0,0,90,3.882,3.883,0,0,0,0,4.476,68.18,730.32468610005,9.514436,6,P-GPS,,2.9
144800,2026-01-13 12:22:01,730.98085410005,10.170604,0.0,3.7192258408,1.25439964644,18,5,7.796,730.98085410005,10.170604,0.3131716,3.8097442164,0.0,0.0,-4.250186,10.9,2.4,-1.7,0,0,1024,1024,1684,1024,0,0,100,0,0,0,0,90,3.882,3.883,0,0,0,0,4.476,68.18,730.98085410005,10.170604,6,P-GPS,,3.1
144900,2026-01-13 12:22:01,731.63702210005,10.826772,0.0,3.7432415896,1.28099085464,19,5,7.796,731.63702210005,10.826772,0.3131716,3.8097442164,0.0,0.0,-4.250186,10.9,2.5,-1.4,0,0,1024,1024,1684,1024,0,0,100,0,0,0,0,90,3.882,3.883,0,0,0,0,4.476,68.18,731.63702210005,10.826772,6,P-GPS,,3.3
145000,2026-01-13 12:22:01,732.29319010005,11.48294,0.0,3.8203085212,1.42381238152,19,5,7.796,732.29319010005,11.48294,0.3131716,3.8203085212,0.0,0.0,-4.250186,11.0,1.2,-0.6,0,0,1024,1024,1684,1024,0,0,100,0,0,0,0,90,3.882,3.883,0,0,0,0,4.476,68.18,732.29319010005,11.48294,6,P-GPS,,3.5
145100,2026-01-13 12:22:01,732.94935810005,12.139108,0.223694,4.0797573484,1.79092525416,20,5,7.796,732.94935810005,12.139108,0.3131716,4.0797573484,0.223694,0.0,-4.250186,11.0,1.4,-0.6,0,0,1024,1024,1684,1024,0,0,100,0,0,0,0,90,3.882,3.883,0,0,0,0,4.476,68.18,732.94935810005,12.139108,6,P-GPS,,3.7
145200,2026-01-13 12:22:01,733.60552610005,12.795276,0.223694,4.0504594472,1.83326449436,20,5,7.796,733.60552610005,12.795276,0.3131716,4.0797573484,0.223694,0.0,-4.250186,10.9,2.9,-0.7,0,0,1024,1024,1684,1024,0,0,100,0,0,0,0,90,3.882,3.883,0,0,0,0,4.476,68.18,733.60552610005,12.795276,6,P-GPS,,3.9
145300,2026-01-13 12:22:01,734.26169410005,13.451444,0.223694,4.0037402856,1.88398299992,20,5,7.765,734.26169410005,13.451444,0.3131716,4.0797573484,0.223694,0.0,-4.250186,10.9,3.6,-0.3,0,0,1024,1024,1684,1024,0,0,100,0,0,0,0,90,3.884,3.879,0,0,0,0,6.259,68.18,734.26169410005,13.451444,6,P-GPS,,4.1
145400,2026-01-13 12:22:01,734.91786210005,13.779528,0.223694,3.9439305724,1.94379599396,20,5,7.765,734.91786210005,14.107612,0.3131716,4.0797573484,0.223694,0.0,-4.250186,10.9,3.6,0.0,0,0,1024,1024,1684,1024,0,0,100,0,0,0,0,90,3.884,3.879,0,0,0,0,6.259,68.18,734.91786210005,14.107612,6,P-GPS,,4.3
145500,2026-01-13 12:22:02,735.57403010005,14.435696,0.0,3.7297245288,2.16621398008,20,5,7.765,735.57403010005,14.76378,0.3131716,4.0797573484,0.0,0.0,-4.250186,10.9,4.2,0.0,0,0,1024,1024,1684,1024,0,0,100,0,0,0,0,90,3.884,3.879,0,0,0,0,6.259,68.18,735.57403010005,14.76378,6,P-GPS,,4.5
145600,2026-01-13 12:22:02,736.23019810005,15.091864,0.0,3.725065736,2.17138786476,20,5,7.765,736.23019810005,15.419948,0.3131716,4.0797573484,0.0,0.0,-4.250186,10.8,3.7,-0.6,0,0,1024,1024,1684,1024,0,0,100,0,0,0,0,90,3.884,3.879,0,0,0,0,6.259,68.18,736.23019810005,15.419948,6,P-GPS,,4.7
145700,2026-01-13 12:22:02,736.88636610005,15.748032,0.0,3.735892508,2.18400269456,20,5,7.765,736.88636610005,16.076116,0.3131716,4.0797573484,0.0,0.0,-4.250186,10.8,3.2,-0.8,0,0,1024,1024,1684,1024,0,0,100,0,0,0,0,90,3.884,3.879,0,0,0,0,6.259,68.18,736.88636610005,16.076116,6,P-GPS,,4.9
145800,2026-01-13 12:22:02,737.54253410005,16.4042,0.0,3.7392389648,2.19246726176,20,5,7.765,737.54253410005,16.732284,0.3131716,4.0797573484,0.0,0.0,-4.250186,11.0,3.0,-0.4,0,0,1024,1024,1684,1024,0,0,100,0,0,0,0,90,3.884,3.879,0,0,0,0,6.259,68.18,737.54253410005,16.732284,6,P-GPS,,5.1
145900,2026-01-13 12:22:02,738.19870210005,17.388452,0.223694,3.7753282048,2.23124022888,20,5,7.765,738.19870210005,17.388452,0.3131716,4.0797573484,-0.223694,0.0,-4.47388,10.8,2.9,-1.3,0,0,1024,1024,1684,1024,0,0,100,0,0,0,0,90,3.884,3.879,0,0,0,0,6.259,68.18,738.19870210005,17.388452,6,P-GPS,,5.3
146000,2026-01-13 12:22:02,738.85487010005,18.04462,0.0,3.8498360812,2.31239836796,20,5,7.765,738.85487010005,18.04462,0.3131716,4.0797573484,0.0,0.0,-4.47388,10.5,2.2,-2.5,0,0,1024,1024,1684,1024,0,0,100,0,0,0,0,90,3.884,3.879,0,0,0,0,6.259,68.18,738.85487010005,18.04462,6,P-GPS,,5.5
146100,2026-01-13 12:22:02,739.51103810005,19.028872,0.0,3.9393373964,2.41186359424,20,5,7.765,739.51103810005,18.700788,0.3131716,4.0797573484,0.0,0.0,-4.250186,10.7,1.7,-1.6,0,0,1024,1024,1684,1024,0,0,100,0,0,0,0,90,3.884,3.879,0,0,0,0,6.259,68.18,739.51103810005,18.700788,6,P-GPS,,5.7
146200,2026-01-13 12:22:02,740.16720610005,19.68504,0.0,4.0150263752,2.4921096598,20,5,7.765,740.16720610005,19.356956,0.3131716,4.0797573484,0.0,0.0,-4.47388,10.8,1.0,-1.4,0,0,1024,1024,1684,1024,0,0,100,0,0,0,0,90,3.884,3.879,0,0,0,0,6.259,68.18,740.16720610005,19.356956,6,P-GPS,,5.9
146300,2026-01-13 12:22:02,740.82337410005,20.341208,0.0,4.2258531536,2.70413722564,20,5,7.765,740.82337410005,20.013124,0.3131716,4.2258531536,0.0,0.0,-4.47388,10.9,1.3,-1.6,0,0,1024,1024,1684,1024,0,0,100,0,0,0,0,90,3.884,3.879,0,0,0,0,6.259,68.18,740.82337410005,20.013124,6,P-GPS,,6.1
146400,2026-01-13 12:22:02,741.47954210005,20.997376,0.0,4.2653544672,2.74786426116,20,5,7.765,741.47954210005,20.669292,0.3131716,4.2653544672,0.0,0.0,-4.47388,10.8,2.2,-2.1,0,0,1024,1024,1684,1024,0,0,100,0,0,0,0,90,3.884,3.879,0,0,0,0,6.259,68.18,741.47954210005,20.669292,6,P-GPS,,6.3
146500,2026-01-13 12:22:03,742.13571010005,21.653544,0.0,4.2953413448,2.78566938048,20,5,7.761,742.13571010005,21.32546,0.3131716,4.2953413448,0.0,0.0,-4.47388,10.8,2.4,-1.4,0,0,1024,1024,1684,1024,0,0,100,0,0,0,0,89,3.884,3.878,0,0,0,0,5.458,68.18,742.13571010005,21.32546,6,P-GPS,,6.5
146600,2026-01-13 12:22:03,742.79187810005,23.950132,0.0,4.284941082,2.82255914544,20,5,7.761,742.79187810005,21.981628,0.3131716,4.2953413448,0.0,0.0,-4.47388,10.8,2.1,-1.2,0,0,1024,1024,1684,1024,0,0,100,0,0,0,0,89,3.884,3.878,0,0,0,0,5.458,68.18,742.79187810005,21.981628,6,P-GPS,,6.7
146700,2026-01-13 12:22:03,743.77613010005,24.934384,0.0,4.2673229712,2.87668644376,20,5,7.761,743.77613010005,22.96588,0.3131716,4.2953413448,0.0,0.0,-4.250186,10.8,2.2,-0.6,0,0,1024,1024,1684,1024,0,0,100,0,0,0,0,89,3.884,3.878,0,0,0,0,5.458,68.18,743.77613010005,22.96588,6,P-GPS,,7.0
146800,2026-01-13 12:22:03,744.43229810005,25.590552,0.0,4.200131368,2.9903544264,20,5,7.761,744.43229810005,23.622048,0.3131716,4.2953413448,0.0,0.0,-4.250186,10.8,0.7,0.0,0,0,1024,1024,1684,1024,0,0,100,0,0,0,0,89,3.884,3.878,0,0,0,0,5.458,68.18,744.43229810005,23.622048,6,P-GPS,,7.2
146900,2026-01-13 12:22:03,745.08846610005,26.574804,0.0,4.194061814,3.03808408672,20,5,7.761,745.08846610005,24.278216,0.3131716,4.2953413448,0.0,0.0,-4.250186,10.8,1.6,0.6,0,0,1024,1024,1684,1024,0,0,100,0,0,0,0,89,3.884,3.878,0,0,0,0,5.458,68.18,745.08846610005,24.278216,6,P-GPS,,7.4
147000,2026-01-13 12:22:03,745.74463410005,27.230972,0.0,4.2076116832,3.09546925916,20,5,7.761,745.74463410005,24.934384,0.3131716,4.2953413448,0.0,0.0,-4.47388,10.8,0.5,0.2,0,0,1024,1024,1684,1024,0,0,100,0,0,0,0,89,3.884,3.878,0,0,0,0,5.458,68.18,745.74463410005,24.934384,6,P-GPS,,7.6
147100,2026-01-13 12:22:03,746.40080210005,27.88714,0.0,4.2272311064,3.15128619008,20,5,7.761,746.40080210005,25.590552,0.3131716,4.2953413448,0.0,0.0,-4.47388,10.7,0.6,-0.6,0,0,1024,1024,1684,1024,0,0,100,0,0,0,0,89,3.884,3.878,0,0,0,0,5.458,68.18,746.40080210005,25.590552,6,P-GPS,,7.8
147200,2026-01-13 12:22:03,747.05697010005,28.543308,0.0,4.22490171,3.24520023508,20,5,7.761,747.05697010005,26.24672,0.3131716,4.2953413448,0.0,0.0,-4.47388,10.3,0.3,-2.0,0,0,1024,1024,1684,1024,0,0,100,0,0,0,0,89,3.884,3.878,0,0,0,0,5.458,68.18,747.05697010005,26.24672,6,P-GPS,,8.0
147300,2026-01-13 12:22:03,747.71313810005,28.871392,0.0,4.2283137836,3.26130915948,20,5,7.761,747.71313810005,26.902888,0.3131716,4.2953413448,0.0,0.0,-4.47388,10.5,0.7,-1.5,0,0,1024,1024,1684,1024,0,0,100,0,0,0,0,89,3.884,3.878,0,0,0,0,5.458,68.18,747.71313810005,26.902888,6,P-GPS,,8.2
147400,2026-01-13 12:22:03,748.36930610005,32.480316,0.0,4.2114830744,3.2877953808,20,5,7.761,748.36930610005,27.559056,0.3131716,4.2953413448,0.0,0.0,-4.47388,10.9,1.1,-0.4,0,0,1024,1024,1684,1024,0,0,100,0,0,0,0,89,3.884,3.878,0,0,0,0,5.458,68.18,748.36930610005,27.559056,6,P-GPS,,8.4
147500,2026-01-13 12:22:03,749.02547410005,32.480316,0.0,4.1846786116,3.3226050932,20,5,7.761,749.02547410005,28.215224,0.3131716,4.2953413448,0.0,0.0,-4.47388,10.8,1.2,0.0,0,0,1024,1024,1684,1024,0,0,100,0,0,0,0,89,3.884,3.878,0,0,0,0,5.458,68.18,749.02547410005,28.215224,6,P-GPS,,8.6
147600,2026-01-13 12:22:04,749.68164210005,33.136484,0.0,4.2356300568,3.4400591652,20,5,7.759,749.68164210005,28.871392,0.3131716,4.2953413448,0.0,0.0,-4.47388,10.7,0.4,0.3,0,0,1024,1024,1684,1024,0,0,100,0,0,0,0,89,3.879,3.88,0,0,0,0,5.504,68.18,749.68164210005,28.871392,6,P-GPS,,8.8
147700,2026-01-13 12:22:04,750.33781010005,33.136484,0.0,4.2461943616,3.4850066732,20,5,7.759,750.33781010005,29.52756,0.3131716,4.2953413448,0.0,0.0,-4.47388,10.8,1.3,0.6,0,0,1024,1024,1684,1024,0,0,100,0,0,0,0,89,3.879,3.88,0,0,0,0,5.504,68.18,750.33781010005,29.52756,6,P-GPS,,9.0
147800,2026-01-13 12:22:04,750.99397810005,33.464568,0.0,4.2139437044,3.5233925012,20,5,7.759,750.99397810005,30.183728,0.3131716,4.2953413448,0.223694,0.0,-4.47388,10.8,2.5,0.8,0,0,1024,1024,1684,1024,0,0,100,0,0,0,0,89,3.879,3.88,0,0,0,0,5.504,68.18,750.99397810005,30.183728,6,P-GPS,,9.2
147900,2026-01-13 12:22:04,751.65014610005,33.792652,0.0,4.1724738868,3.566601164,20,5,7.759,751.65014610005,30.839896,0.3131716,4.2953413448,0.0,0.0,-4.47388,10.9,2.7,0.4,0,0,1024,1024,1684,1024,0,0,100,0,0,0,0,89,3.879,3.88,0,0,0,0,5.504,68.18,751.65014610005,30.839896,6,P-GPS,,9.4
148000,2026-01-13 12:22:04,752.30631410005,34.120736,0.0,4.1770998712,3.618274394,20,5,7.759,752.30631410005,31.496064,0.3131716,4.2953413448,0.0,0.0,-4.47388,10.9,2.6,-0.1,0,0,1024,1024,1684,1024,0,0,100,0,0,0,0,89,3.879,3.88,0,0,0,0,5.504,68.18,752.30631410005,31.496064,6,P-GPS,,9.6
148100,2026-01-13 12:22:04,752.96248210005,34.44882,0.0,4.1781169316,3.6412730824,20,5,7.759,752.96248210005,32.152232,0.3131716,4.2953413448,0.0,0.0,-4.47388,10.9,2.8,-0.5,0,0,1024,1024,1024,1024,0,0,0,0,0,0,0,89,3.879,3.88,0,0,0,0,5.504,68.18,752.96248210005,32.152232,6,P-GPS,,9.8
148200,2026-01-13 12:22:04,753.61865010005,35.104988,0.0,4.158792784,3.6635827944,20,5,7.759,753.61865010005,32.8084,0.3131716,4.2953413448,0.0,0.0,-4.250186,11.0,3.2,-0.3,0,0,1024,1024,1024,1024,0,0,0,0,0,0,0,89,3.879,3.88,0,0,0,0,5.504,68.18,753.61865010005,32.8084,6,P-GPS,,10.0
148300,2026-01-13 12:22:04,754.27481810005,35.761156,0.0,4.1358925208,3.6922901444,20,5,7.759,754.27481810005,33.464568,0.3131716,4.2953413448,0.0,0.0,-4.250186,11.1,3.1,-0.2,0,0,1024,1024,1024,1024,0,0,0,0,0,0,0,89,3.879,3.88,0,0,0,0,5.504,68.18,754.27481810005,33.464568,6,P-GPS,,10.2
148400,2026-01-13 12:22:04,754.93098610005,36.417324,0.0,4.1325132556,3.702263898,20,5,7.759,754.93098610005,34.120736,0.3131716,4.2953413448,0.0,0.0,-4.250186,11.0,2.6,-0.4,0,0,1024,1024,1024,1024,0,0,0,0,0,0,0,89,3.879,3.88,0,0,0,0,5.504,68.18,754.93098610005,34.120736,6,P-GPS,,10.4
148500,2026-01-13 12:22:05,755.58715410005,37.073492,0.0,4.13631903,3.7622376532,20,5,7.759,755.58715410005,34.776904,0.3131716,4.2953413448,0.0,0.0,-3.579104,10.9,3.3,-0.4,0,0,1024,1024,1024,1024,0,0,0,0,0,0,0,89,3.879,3.88,0,0,0,0,5.504,68.18,755.58715410005,34.776904,6,P-GPS,,10.6
148600,2026-01-13 12:22:05,755.91523810005,37.401576,0.0,4.117290158,3.78280852,20,5,7.759,755.91523810005,35.104988,0.3131716,4.2953413448,0.0,0.0,-2.684328,10.9,3.0,-0.6,0,0,1024,1024,1024,1024,0,0,0,0,0,0,0,89,3.879,3.88,0,0,0,0,5.504,68.18,755.91523810005,35.104988,6,P-GPS,,10.7
148700,2026-01-13 12:22:05,756.24332210005,37.72966,0.0,4.095144488,3.8064633764,20,5,7.759,756.24332210005,35.433072,0.3131716,4.2953413448,0.0,0.0,-2.013246,10.9,2.8,-1.0,0,0,1024,1024,1024,1024,0,0,0,0,0,0,0,89,3.879,3.88,0,0,0,0,5.504,68.18,756.24332210005,35.433072,6,P-GPS,,10.8
148800,2026-01-13 12:22:05,756.57140610005,38.057744,0.0,4.1308400272,3.842191724,20,5,7.871,756.57140610005,35.761156,0.3131716,4.2953413448,0.0,0.0,-1.11847,10.8,3.1,-1.2,0,0,1024,1024,1024,1024,0,0,0,0,0,0,0,89,3.944,3.948,0,0,0,0,4.496,68.18,756.57140610005,35.761156,6,P-GPS,,10.9
148900,2026-01-13 12:22:05,756.89949010005,38.057744,0.0,4.2410106344,3.9528872656,20,5,7.871,756.89949010005,36.08924,0.3131716,4.2953413448,0.0,0.0,-0.447388,10.9,3.3,-1.3,0,0,1024,1024,1024,1024,0,0,0,0,0,0,0,89,3.944,3.948,0,0,0,0,4.496,68.18,756.89949010005,36.08924,6,P-GPS,,11.0
149000,2026-01-13 12:22:05,756.89949010005,38.385828,0.0,4.272801974,3.9932087892,20,5,7.871,756.89949010005,36.08924,0.3131716,4.2953413448,0.0,0.0,-0.223694,10.9,3.2,-1.2,0,0,1024,1024,1024,1024,0,0,0,0,0,0,0,89,3.944,3.948,0,0,0,0,4.496,68.18,756.89949010005,36.08924,6,P-GPS,,11.0
149100,2026-01-13 12:22:05,756.89949010005,38.385828,0.0,4.3019686416,4.0351379244,20,5,7.871,756.89949010005,36.08924,0.3131716,4.3019686416,0.0,0.0,0.0,10.9,2.8,-1.3,0,0,1024,1024,1024,1024,0,0,0,0,0,0,0,89,3.944,3.948,0,0,0,0,4.496,68.18,756.89949010005,36.08924,6,P-GPS,,11.0
149200,2026-01-13 12:22:05,757.22757410005,38.385828,0.0,4.3373360968,4.072998818,20,5,7.871,757.22757410005,36.417324,0.3131716,4.3373360968,0.0,0.0,0.0,11.0,2.8,-1.5,0,0,1024,1024,1024,1024,0,0,0,0,0,0,0,89,3.944,3.948,0,0,0,0,4.496,68.18,757.22757410005,36.417324,6,P-GPS,,11.1
149300,2026-01-13 12:22:05,757.22757410005,38.385828,0.0,4.4128282252,4.1636156188,20,5,7.871,757.22757410005,36.417324,0.3131716,4.4128282252,0.0,0.0,0.0,11.0,2.5,-1.6,0,0,1024,1024,1024,1024,0,0,0,0,0,0,0,89,3.944,3.948,0,0,0,0,4.496,68.18,757.22757410005,36.417324,6,P-GPS,,11.1
149400,2026-01-13 12:22:05,757.22757410005,38.385828,0.0,4.446194368,4.1970473784,20,5,7.871,757.22757410005,36.417324,0.3131716,4.446194368,0.0,0.0,0.0,11.0,2.5,-1.6,0,0,1024,1024,1024,1024,0,0,0,0,0,0,0,89,3.944,3.948,0,0,0,0,4.496,68.18,757.22757410005,36.417324,6,P-GPS,,11.1
149500,2026-01-13 12:22:06,757.22757410005,38.385828,0.0,4.4791011932,4.230151054,20,5,7.871,757.22757410005,36.417324,0.3131716,4.4791011932,0.0,0.0,0.0,10.9,2.9,-1.7,0,0,1024,1024,1024,1024,0,0,0,0,0,0,0,89,3.944,3.948,0,0,0,0,4.496,68.18,757.22757410005,36.417324,6,P-GPS,,11.1
149600,2026-01-13 12:22:06,757.22757410005,38.385828,0.0,4.5230644492,4.2742127352,20,5,7.871,757.22757410005,36.417324,0.3131716,4.5230644492,0.0,0.0,0.0,10.9,2.3,-1.7,0,0,1024,1024,1024,1024,0,0,0,0,0,0,0,89,3.944,3.948,0,0,0,0,4.496,68.18,757.22757410005,36.417324,6,P-GPS,,11.1
149700,2026-01-13 12:22:06,757.55565810005,38.385828,0.0,4.608431906,4.3632875412,20,5,7.871,757.55565810005,36.745408,0.3131716,4.608431906,0.0,0.0,0.0,10.9,2.3,-1.7,0,0,1024,1024,1024,1024,0,0,0,0,0,0,0,89,3.944,3.948,0,0,0,0,4.496,68.18,757.55565810005,36.745408,6,P-GPS,,11.2
149800,2026-01-13 12:22:06,757.55565810005,38.385828,0.0,4.651082826,4.4073820308,20,5,7.871,757.55565810005,36.745408,0.3131716,4.651082826,0.0,0.0,0.0,10.8,1.6,-2.1,0,0,1024,1024,1024,1024,0,0,0,0,0,0,0,89,3.944,3.948,0,0,0,0,4.496,68.18,757.55565810005,36.745408,6,P-GPS,,11.2
149900,2026-01-13 12:22:06,757.55565810005,38.385828,0.0,4.6909778404,4.4494423996,20,5,7.815,757.55565810005,36.745408,0.3131716,4.6909778404,0.0,0.0,0.0,10.7,1.7,-2.1,0,0,1024,1024,1024,1024,0,0,0,0,0,0,0,89,3.906,3.908,0,0,0,0,4.358,68.36,757.55565810005,36.745408,6,P-GPS,,11.2
150000,2026-01-13 12:22:06,757.55565810005,38.385828,0.0,4.726706188,4.4853347892,20,5,7.815,757.55565810005,36.745408,0.3131716,4.726706188,0.0,0.0,0.0,10.7,1.5,-1.8,0,0,1024,1024,1024,1024,0,0,0,0,0,0,0,89,3.906,3.908,0,0,0,0,4.358,68.36,757.55565810005,36.745408,6,P-GPS,,11.2
150100,2026-01-13 12:22:06,757.55565810005,38.385828,0.0,4.7605316484,4.519193058,20,5,7.815,757.55565810005,36.745408,0.3131716,4.7605316484,0.0,0.0,0.0,10.8,1.3,-2.1,0,0,1024,1024,1024,1024,0,0,0,0,0,0,0,89,3.906,3.908,0,0,0,0,4.358,68.36,757.55565810005,36.745408,6,P-GPS,,11.2
150200,2026-01-13 12:22:06,757.55565810005,38.385828,0.0,4.8222442488,4.5822836112,20,5,7.815,757.55565810005,36.745408,0.3131716,4.8222442488,0.0,0.0,0.0,10.9,0.9,-2.0,0,0,1024,1024,1024,1024,0,0,0,0,0,0,0,89,3.906,3.908,0,0,0,0,4.358,68.36,757.55565810005,36.745408,6,P-GPS,,11.2
150300,2026-01-13 12:22:06,757.55565810005,38.385828,0.0,4.8540683968,4.615977838,20,5,7.815,757.55565810005,36.745408,0.3131716,4.8540683968,0.0,0.0,0.0,10.9,0.8,-2.2,0,0,1024,1024,1024,1024,0,0,0,0,0,0,0,89,3.906,3.908,0,0,0,0,4.358,68.36,757.55565810005,36.745408,6,P-GPS,,11.2
150400,2026-01-13 12:22:06,757.55565810005,38.385828,0.0,4.8681760088,4.6312993608,20,5,7.815,757.55565810005,36.745408,0.3131716,4.8681760088,0.0,0.0,0.0,10.9,0.9,-2.4,0,0,1024,1024,1024,1024,0,0,0,0,0,0,0,89,3.906,3.908,0,0,0,0,4.358,68.36,757.55565810005,36.745408,6,P-GPS,,11.2
150500,2026-01-13 12:22:07,757.55565810005,38.385828,0.0,4.8716865076,4.6377298072,20,5,7.815,757.55565810005,36.745408,0.3131716,4.8716865076,0.0,0.0,0.0,10.8,0.9,-1.7,0,0,1024,1024,1024,1024,0,0,0,0,0,0,0,89,3.906,3.908,0,0,0,0,4.358,68.36,757.55565810005,36.745408,6,P-GPS,,11.2
150600,2026-01-13 12:22:07,757.55565810005,38.385828,0.0,4.8605316516,4.657480464,20,5,7.815,757.55565810005,36.745408,0.3131716,4.8716865076,0.0,0.0,0.0,10.8,0.4,-1.6,0,0,1024,1024,1024,1024,0,0,0,0,0,0,0,89,3.906,3.908,0,0,0,0,4.358,68.36,757.55565810005,36.745408,6,P-GPS,,11.2
150700,2026-01-13 12:22:07,757.55565810005,38.385828,0.0,4.8351051416,4.6882875516,20,5,7.815,757.55565810005,36.745408,0.3131716,4.8716865076,0.0,0.0,0.0,10.8,1.2,-1.5,0,0,1024,1024,1024,1024,0,0,0,0,0,0,0,89,3.906,3.908,0,0,0,0,4.358,68.36,757.55565810005,36.745408,6,P-GPS,,11.2
150800,2026-01-13 12:22:07,757.55565810005,38.385828,0.0,4.795931912,4.7322508076,20,5,7.815,757.55565810005,36.745408,0.3131716,4.8716865076,0.0,0.0,0.0,10.8,1.4,-2.0,0,0,1024,1024,1024,1024,0,0,0,0,0,0,0,89,3.906,3.908,0,0,0,0,4.358,68.36,757.55565810005,36.745408,6,P-GPS,,11.2
150900,2026-01-13 12:22:07,757.88374210005,38.385828,0.0,4.7493767924,4.7843177384,20,5,7.815,757.88374210005,37.073492,0.3131716,4.8716865076,0.0,0.0,0.0,10.9,1.3,-2.1,0,0,1024,1024,1024,1024,0,0,0,0,0,0,0,89,3.906,3.908,0,0,0,0,4.358,68.36,757.88374210005,37.073492,6,P-GPS,,11.3
151000,2026-01-13 12:22:07,757.88374210005,38.385828,0.0,4.670439782,4.8697180036,20,5,7.803,757.88374210005,37.073492,0.3131716,4.8716865076,0.0,0.0,0.0,11.0,2.0,-2.3,0,0,1024,1024,1024,1024,0,0,0,0,0,0,0,89,3.9,3.903,0,0,0,0,4.619,68.36,757.88374210005,37.073492,6,P-GPS,,11.3
151100,2026-01-13 12:22:07,757.88374210005,38.385828,0.0,4.6315946364,4.9167324408,20,5,7.803,757.88374210005,37.073492,0.3131716,4.8716865076,0.0,0.0,0.0,10.9,2.6,-2.5,0,0,1024,1024,1024,1024,0,0,0,0,0,0,0,89,3.9,3.903,0,0,0,0,4.619,68.36,757.88374210005,37.073492,6,P-GPS,,11.3
151200,2026-01-13 12:22:07,757.88374210005,38.385828,0.0,4.6051182576,4.9597442532,20,5,7.803,757.88374210005,37.073492,0.3131716,4.8716865076,0.0,0.0,0.0,10.8,2.8,-2.7,0,0,1024,1024,1024,1024,0,0,0,0,0,0,0,89,3.9,3.903,0,0,0,0,4.619,68.36,757.88374210005,37.073492,6,P-GPS,,11.3
151300,2026-01-13 12:22:07,757.88374210005,38.385828,0.0,4.5804791492,5.0010500288,20,5,7.803,757.88374210005,37.073492,0.3131716,4.8716865076,0.0,0.0,0.0,10.7,2.5,-2.6,0,0,1024,1024,1024,1024,0,0,0,0,0,0,0,89,3.9,3.903,0,0,0,0,4.619,68.36,757.88374210005,37.073492,6,P-GPS,,11.3
151400,2026-01-13 12:22:07,757.88374210005,38.385828,0.0,4.556430592,5.0442915,20,5,7.803,757.88374210005,37.073492,0.3131716,4.8716865076,0.0,0.0,0.0,10.7,2.5,-2.3,0,0,1024,1024,1024,1024,0,0,0,0,0,0,0,89,3.9,3.903,0,0,0,0,4.619,68.36,757.88374210005,37.073492,6,P-GPS,,11.3
151500,2026-01-13 12:22:08,757.88374210005,38.385828,0.0,4.5191602496,5.0838912388,20,5,7.803,757.88374210005,37.073492,0.3131716,4.8716865076,0.0,0.0,0.0,10.7,2.1,-2.1,0,0,1024,1024,1024,1024,0,0,0,0,0,0,0,89,3.9,3.903,0,0,0,0,4.619,68.36,757.88374210005,37.073492,6,P-GPS,,11.3
151600,2026-01-13 12:22:08,757.88374210005,38.385828,0.0,4.4896326896,5.1153544944,20,5,7.803,757.88374210005,37.073492,0.3131716,4.8716865076,0.0,0.0,0.0,10.7,1.9,-1.9,0,0,1024,1024,1024,1024,0,0,0,0,0,0,0,89,3.9,3.903,0,0,0,0,4.619,68.36,757.88374210005,37.073492,6,P-GPS,,11.3
151700,2026-01-13 12:22:08,757.88374210005,38.385828,0.0,4.4589240272,5.1475395348,20,5,7.803,757.88374210005,37.073492,0.3131716,4.8716865076,0.0,0.0,0.0,10.7,2.0,-1.7,0,0,1024,1024,1024,1024,0,0,0,0,0,0,0,89,3.9,3.903,0,0,0,0,4.619,68.36,757.88374210005,37.073492,6,P-GPS,,11.3
151800,2026-01-13 12:22:08,757.88374210005,38.385828,0.0,4.4401904308,5.167487042,20,5,7.803,757.88374210005,37.073492,0.3131716,4.8716865076,0.0,0.0,0.0,10.7,1.9,-1.5,0,0,1024,1024,1024,1024,0,0,0,0,0,0,0,89,3.9,3.903,0,0,0,0,4.619,68.36,757.88374210005,37.073492,6,P-GPS,,11.3
151900,2026-01-13 12:22:08,757.88374210005,38.385828,0.0,4.455872846,5.2052495104,20,5,7.803,757.88374210005,37.073492,0.3131716,4.8716865076,0.0,0.0,0.0,10.8,2.1,-1.3,0,0,1024,1024,1024,1024,0,0,0,0,0,0,0,89,3.9,3.903,0,0,0,0,4.619,68.36,757.88374210005,37.073492,6,P-GPS,,11.3
152000,2026-01-13 12:22:08,757.88374210005,38.385828,0.0,4.4306431864,5.2306760204,20,5,7.803,757.88374210005,37.073492,0.3131716,4.8716865076,0.0,0.0,0.0,10.8,2.6,-1.3,0,0,1024,1024,1024,1024,0,0,0,0,0,0,0,89,3.9,3.903,0,0,0,0,4.619,68.36,757.88374210005,37.073492,6,P-GPS,,11.3
152100,2026-01-13 12:22:08,757.88374210005,38.385828,0.0,4.4040683824,5.2581038428,20,5,7.793,757.88374210005,37.073492,0.3131716,4.8716865076,0.0,0.0,0.0,10.8,2.4,-1.5,0,0,1024,1024,1024,1024,0,0,0,0,0,0,0,89,3.896,3.897,0,0,0,0,4.743,68.36,757.88374210005,37.073492,6,P-GPS,,11.3
152200,2026-01-13 12:22:08,757.88374210005,38.385828,0.0,4.384350534,5.2778216912,20,5,7.793,757.88374210005,37.073492,0.3131716,4.8716865076,0.0,0.0,0.0,10.8,2.0,-1.6,0,0,1024,1024,1024,1024,0,0,0,0,0,0,0,89,3.896,3.897,0,0,0,0,4.743,68.36,757.88374210005,37.073492,6,P-GPS,,11.3
152300,2026-01-13 12:22:08,757.88374210005,38.385828,0.0,4.37417993,5.2915684108,20,5,7.793,757.88374210005,37.073492,0.3131716,4.8716865076,0.0,0.0,0.0,10.8,2.2,-1.4,0,0,1024,1024,1024,1024,0,0,0,0,0,0,0,89,3.896,3.897,0,0,0,0,4.743,68.36,757.88374210005,37.073492,6,P-GPS,,11.3
152400,2026-01-13 12:22:08,757.88374210005,38.385828,0.0,4.3639765176,5.3053479388,20,5,7.793,757.88374210005,37.073492,0.3131716,4.8716865076,0.0,0.0,0.0,10.8,2.9,-1.3,0,0,1024,1024,1024,1024,0,0,0,0,0,0,0,89,3.896,3.897,0,0,0,0,4.743,68.36,757.88374210005,37.073492,6,P-GPS,,11.3
152500,2026-01-13 12:22:08,757.88374210005,38.385828,0.0,4.3579725804,5.3177823224,20,5,7.793,757.88374210005,37.073492,0.3131716,4.8716865076,0.0,0.0,0.0,10.8,3.2,-1.3,0,0,1024,1024,1024,1024,0,0,0,0,0,0,0,89,3.896,3.897,0,0,0,0,4.743,68.36,757.88374210005,37.073492,6,P-GPS,,11.3
152600,2026-01-13 12:22:09,757.88374210005,38.385828,0.0,4.35777573,5.327756076,20,5,7.793,757.88374210005,37.073492,0.3131716,4.8716865076,0.0,0.0,0.0,10.8,3.2,-1.4,0,0,1024,1024,1024,1024,0,0,0,0,0,0,0,89,3.896,3.897,0,0,0,0,4.743,68.36,757.88374210005,37.073492,6,P-GPS,,11.3
152700,2026-01-13 12:22:09,757.88374210005,38.385828,0.0,4.3931103768,5.3724411168,20,5,7.793,757.88374210005,37.073492,0.3131716,4.8716865076,0.0,0.0,0.0,10.8,2.6,-1.6,0,0,1024,1024,1024,1024,0,0,0,0,0,0,0,89,3.896,3.897,0,0,0,0,4.743,68.36,757.88374210005,37.073492,6,P-GPS,,11.3
152800,2026-01-13 12:22:09,757.55565810005,38.385828,0.0,4.3867455472,5.3839240568,20,5,7.793,757.88374210005,37.073492,0.3131716,4.8716865076,0.0,0.0,0.0,10.7,2.1,-1.9,0,0,1024,1024,1024,1024,0,0,0,0,0,0,0,89,3.896,3.897,0,0,0,0,4.743,68.36,757.55565810005,36.745408,6,P-GPS,,11.2
152900,2026-01-13 12:22:09,757.55565810005,38.385828,0.0,4.376312476,5.3976707764,20,5,7.793,757.88374210005,37.073492,0.3131716,4.8716865076,0.0,0.0,0.0,10.6,2.1,-1.9,0,0,1024,1024,1024,1024,0,0,0,0,0,0,0,89,3.896,3.897,0,0,0,0,4.743,68.36,757.55565810005,36.745408,6,P-GPS,,11.2
153000,2026-01-13 12:22:09,757.55565810005,38.385828,0.0,4.3708334732,5.4032810128,20,5,7.793,757.88374210005,37.073492,0.3131716,4.8716865076,0.0,0.0,0.0,10.6,2.0,-1.8,0,0,1024,1024,1024,1024,0,0,0,0,0,0,0,89,3.896,3.897,0,0,0,0,4.743,68.36,757.55565810005,36.745408,6,P-GPS,,11.2
153100,2026-01-13 12:22:09,757.55565810005,38.385828,0.0,4.3409122124,5.4346458432,20,5,7.793,757.88374210005,37.073492,0.3131716,4.8716865076,0.0,0.0,0.0,10.7,1.5,-1.5,0,0,1024,1024,1024,1024,0,0,0,0,0,0,0,89,3.896,3.897,0,0,0,0,4.743,68.36,757.55565810005,36.745408,6,P-GPS,,11.2
153200,2026-01-13 12:22:09,757.55565810005,38.385828,0.0,4.3460631312,5.4495408568,20,5,7.782,757.88374210005,37.073492,0.3131716,4.8716865076,0.0,0.0,0.0,10.9,1.7,-0.9,0,0,1024,1024,1024,1024,0,0,0,0,0,0,0,89,3.89,3.892,0,0,0,0,4.786,68.36,757.55565810005,36.745408,6,P-GPS,,11.2
153300,2026-01-13 12:22:09,757.55565810005,38.385828,0.0,4.3546261236,5.4659450568,20,5,7.782,757.88374210005,37.073492,0.3131716,4.8716865076,0.0,0.0,0.0,10.9,1.7,-1.1,0,0,1024,1024,1024,1024,0,0,0,0,0,0,0,89,3.89,3.892,0,0,0,0,4.786,68.36,757.55565810005,36.745408,6,P-GPS,,11.2
153400,2026-01-13 12:22:09,757.55565810005,38.385828,0.0,4.3604660188,5.4753282592,20,5,7.782,757.88374210005,37.073492,0.3131716,4.8716865076,0.0,0.0,0.0,10.7,1.6,-1.5,0,0,1024,1024,1024,1024,0,0,0,0,0,0,0,89,3.89,3.892,0,0,0,0,4.786,68.36,757.55565810005,36.745408,6,P-GPS,,11.2
153500,2026-01-13 12:22:10,757.55565810005,38.385828,0.0,4.3664371476,5.4833335088,20,5,7.782,757.88374210005,37.073492,0.3131716,4.8716865076,0.0,0.0,0.0,10.5,1.8,-1.7,0,0,1024,1024,1024,1024,0,0,0,0,0,0,0,89,3.89,3.892,0,0,0,0,4.786,68.36,757.55565810005,36.745408,6,P-GPS,,11.2
153600,2026-01-13 12:22:10,757.55565810005,38.385828,0.0,4.3873360984,5.5081366592,20,5,7.782,757.88374210005,37.073492,0.3131716,4.8716865076,0.0,0.0,0.0,10.4,1.8,-2.0,0,0,1024,1024,1024,1024,0,0,0,0,0,0,0,89,3.89,3.892,0,0,0,0,4.786,68.36,757.55565810005,36.745408,6,P-GPS,,11.2
153700,2026-01-13 12:22:10,757.55565810005,38.385828,0.0,4.39468518,5.5155513576,20,5,7.782,757.88374210005,37.073492,0.3131716,4.8716865076,0.0,0.0,0.0,10.5,1.9,-2.0,0,0,1024,1024,1024,1024,0,0,0,0,0,0,0,89,3.89,3.892,0,0,0,0,4.786,68.36,757.55565810005,36.745408,6,P-GPS,,11.2
153800,2026-01-13 12:22:10,757.55565810005,38.385828,0.0,4.407972582,5.5306432216,20,5,7.782,757.88374210005,37.073492,0.3131716,4.8716865076,0.0,0.0,0.0,10.6,1.6,-2.0,0,0,1024,1024,1024,1024,0,0,0,0,0,0,0,89,3.89,3.892,0,0,0,0,4.786,68.36,757.55565810005,36.745408,6,P-GPS,,11.2
153900,2026-01-13 12:22:10,757.55565810005,38.385828,0.0,4.4217193016,5.5459647444,20,5,7.782,757.88374210005,37.073492,0.3131716,4.8716865076,0.0,0.0,0.0,10.7,0.5,-1.6,0,0,1024,1024,1024,1024,0,0,0,0,0,0,0,89,3.89,3.892,0,0,0,0,4.786,68.36,757.55565810005,36.745408,6,P-GPS,,11.2
154000,2026-01-13 12:22:10,757.55565810005,38.385828,0.0,4.3981956788,5.6420933564,20,5,7.782,757.88374210005,37.073492,0.3131716,4.8716865076,0.0,0.0,0.0,10.5,1.3,-1.9,0,0,1024,1024,1024,1024,0,0,0,0,0,0,0,89,3.89,3.892,0,0,0,0,4.786,68.36,757.55565810005,36.745408,6,P-GPS,,11.2
154100,2026-01-13 12:22:10,757.55565810005,38.385828,0.0,4.3837271744,5.6657154044,20,5,7.782,757.88374210005,37.073492,0.3131716,4.8716865076,0.0,0.0,0.0,10.6,1.5,-1.6,0,0,1024,1024,1024,1024,0,0,0,0,0,0,0,89,3.89,3.892,0,0,0,0,4.786,68.36,757.55565810005,36.745408,6,P-GPS,,11.2
154200,2026-01-13 12:22:10,757.55565810005,38.385828,0.0,4.3789699564,5.6723755096,20,5,7.782,757.88374210005,37.073492,0.3131716,4.8716865076,0.0,0.0,0.0,10.8,1.7,-1.8,0,0,1024,1024,1024,1024,0,0,0,0,0,0,0,89,3.89,3.892,0,0,0,0,4.786,68.36,757.55565810005,36.745408,6,P-GPS,,11.2
154300,2026-01-13 12:22:10,757.55565810005,38.385828,0.0,4.3754266492,5.6841209168,20,5,7.782,757.88374210005,37.073492,0.3131716,4.8716865076,0.0,0.0,0.0,10.6,2.1,-1.8,0,0,1024,1024,1024,1024,0,0,0,0,0,0,0,89,3.888,3.89,0,0,0,0,4.818,68.54,757.55565810005,36.745408,6,P-GPS,,11.2
154400,2026-01-13 12:22:10,757.55565810005,38.385828,0.0,4.3632875412,5.7206038576,20,5,7.782,757.88374210005,37.073492,0.3131716,4.8716865076,0.0,0.0,0.0,10.6,2.3,-1.2,0,0,1024,1024,1024,1024,0,0,0,0,0,0,0,89,3.888,3.89,0,0,0,0,4.818,68.54,757.55565810005,36.745408,6,P-GPS,,11.2
154500,2026-01-13 12:22:10,757.55565810005,38.385828,0.0,4.3527560448,5.7345146192,20,5,7.782,757.88374210005,37.073492,0.3131716,4.8716865076,0.0,0.0,0.0,10.8,2.2,-1.1,0,0,1024,1024,1024,1024,0,0,0,0,0,0,0,89,3.888,3.89,0,0,0,0,4.818,68.54,757.55565810005,36.745408,6,P-GPS,,11.2
154600,2026-01-13 12:22:11,757.55565810005,38.385828,0.0,4.3583334728,5.7417652756,20,5,7.782,757.88374210005,37.073492,0.3131716,4.8716865076,0.0,0.0,0.0,10.7,1.7,-1.8,0,0,1024,1024,1024,1024,0,0,0,0,0,0,0,89,3.888,3.89,0,0,0,0,4.818,68.54,757.55565810005,36.745408,6,P-GPS,,11.2
154700,2026-01-13 12:22:11,757.55565810005,38.385828,0.0,4.3693899036,5.7551839112,20,5,7.782,757.88374210005,37.073492,0.3131716,4.8716865076,0.0,0.0,0.0,10.8,1.5,-2.2,0,0,1024,1024,1024,1024,0,0,0,0,0,0,0,89,3.888,3.89,0,0,0,0,4.818,68.54,757.55565810005,36.745408,6,P-GPS,,11.2
154800,2026-01-13 12:22:11,757.55565810005,38.385828,0.0,4.3991799308,5.785105172,20,5,7.782,757.88374210005,37.073492,0.3131716,4.8716865076,0.0,0.0,0.0,10.8,1.3,-2.1,0,0,1024,1024,1024,1024,0,0,0,0,0,0,0,89,3.888,3.89,0,0,0,0,4.818,68.54,757.55565810005,36.745408,6,P-GPS,,11.2
154900,2026-01-13 12:22:11,757.55565810005,38.385828,0.0,4.4070211384,5.8010828628,20,5,7.782,757.88374210005,37.073492,0.3131716,4.8716865076,0.0,0.0,0.0,10.9,1.1,-2.1,0,0,1024,1024,1024,1024,0,0,0,0,0,0,0,89,3.888,3.89,0,0,0,0,4.818,68.54,757.55565810005,36.745408,6,P-GPS,,11.2
155000,2026-01-13 12:22:11,757.55565810005,38.385828,0.0,4.414534262,5.8116471676,20,5,7.782,757.88374210005,37.073492,0.3131716,4.8716865076,0.0,0.0,0.0,10.9,1.1,-2.2,0,0,1024,1024,1024,1024,0,0,0,0,0,0,0,89,3.888,3.89,0,0,0,0,4.818,68.54,757.55565810005,36.745408,6,P-GPS,,11.2
155100,2026-01-13 12:22:11,757.55565810005,38.385828,0.0,4.4191602464,5.819553992,20,5,7.782,757.88374210005,37.073492,0.3131716,4.8716865076,0.0,0.0,0.0,10.9,1.3,-2.0,0,0,1024,1024,1024,1024,0,0,0,0,0,0,0,89,3.888,3.89,0,0,0,0,4.818,68.54,757.55565810005,36.745408,6,P-GPS,,11.2
155200,2026-01-13 12:22:11,757.55565810005,38.385828,0.0,4.4265421364,5.8322836512,20,5,7.782,757.88374210005,37.073492,0.3131716,4.8716865076,0.0,0.0,0.0,10.8,1.7,-1.4,0,0,1024,1024,1024,1024,0,0,0,0,0,0,0,89,3.888,3.89,0,0,0,0,4.818,68.54,757.55565810005,36.745408,6,P-GPS,,11.2
155300,2026-01-13 12:22:11,757.55565810005,38.385828,0.0,4.4551510612,5.8629266968,20,5,7.782,757.88374210005,37.073492,0.3131716,4.8716865076,0.0,0.0,0.0,10.7,2.1,-1.9,0,0,1024,1024,1024,1024,0,0,0,0,0,0,0,89,3.885,3.887,0,0,0,0,4.818,68.54,757.55565810005,36.745408,6,P-GPS,,11.2
155400,2026-01-13 12:22:11,757.55565810005,38.385828,0.0,4.4459319008,5.87352381,20,5,7.782,757.88374210005,37.073492,0.3131716,4.8716865076,0.0,0.0,0.0,10.6,2.1,-2.3,0,0,1024,1024,1024,1024,0,0,0,0,0,0,0,89,3.885,3.887,0,0,0,0,4.818,68.54,757.55565810005,36.745408,6,P-GPS,,11.2
155500,2026-01-13 12:22:12,757.55565810005,38.385828,0.0,4.4364174648,5.8839568812,20,5,7.782,757.88374210005,37.073492,0.3131716,4.8716865076,0.0,0.0,0.0,10.6,1.7,-2.4,0,0,1024,1024,1024,1024,0,0,0,0,0,0,0,89,3.885,3.887,0,0,0,0,4.818,68.54,757.55565810005,36.745408,6,P-GPS,,11.2
155600,2026-01-13 12:22:12,757.55565810005,38.385828,0.0,4.4405513232,5.8881891648,20,5,7.782,757.88374210005,37.073492,0.3131716,4.8716865076,0.0,0.0,0.0,10.7,1.3,-2.3,0,0,1024,1024,1024,1024,0,0,0,0,0,0,0,89,3.885,3.887,0,0,0,0,4.818,68.54,757.55565810005,36.745408,6,P-GPS,,11.2
155700,2026-01-13 12:22:12,757.55565810005,38.385828,0.0,4.409613002,5.9298558328,20,5,7.782,757.88374210005,37.073492,0.3131716,4.8716865076,0.0,0.0,0.0,10.7,0.9,-2.3,0,0,1024,1024,1024,1024,0,0,0,0,0,0,0,89,3.885,3.887,0,0,0,0,4.818,68.54,757.55565810005,36.745408,6,P-GPS,,11.2
155800,2026-01-13 12:22:12,757.55565810005,38.385828,0.0,4.429626126,5.95144376,20,5,7.782,757.88374210005,37.073492,0.3131716,4.8716865076,0.0,0.0,0.0,10.7,0.5,-2.5,0,0,1024,1024,1024,1024,0,0,0,0,0,0,0,89,3.885,3.887,0,0,0,0,4.818,68.54,757.55565810005,36.745408,6,P-GPS,,11.2
155900,2026-01-13 12:22:12,757.55565810005,38.385828,0.0,4.4527232396,5.9761812936,20,5,7.782,757.88374210005,37.073492,0.3131716,4.8716865076,0.0,0.0,0.0,10.7,0.3,-2.7,0,0,1024,1024,1024,1024,0,0,0,0,0,0,0,89,3.885,3.887,0,0,0,0,4.818,68.54,757.55565810005,36.745408,6,P-GPS,,11.2
156000,2026-01-13 12:22:12,757.55565810005,38.385828,0.0,4.482119566,6.009350586,20,5,7.782,757.88374210005,37.073492,0.3131716,4.8716865076,0.0,0.0,0.0,10.7,0.3,-2.7,0,0,1024,1024,1024,1024,0,0,0,0,0,0,0,89,3.885,3.887,0,0,0,0,4.818,68.54,757.55565810005,36.745408,6,P-GPS,,11.2
156100,2026-01-13 12:22:12,757.55565810005,38.385828,0.0,4.542487022,6.074639302,20,5,7.782,757.88374210005,37.073492,0.3131716,4.8716865076,0.0,0.0,0.0,10.7,0.3,-2.8,0,0,1024,1024,1024,1024,0,0,0,0,0,0,0,89,3.885,3.887,0,0,0,0,4.818,68.54,757.55565810005,36.745408,6,P-GPS,,11.2
156200,2026-01-13 12:22:12,757.55565810005,38.385828,0.0,4.5639437156,6.098753476,20,5,7.782,757.88374210005,37.073492,0.3131716,4.8716865076,0.0,0.0,0.0,10.7,0.4,-3.0,0,0,1024,1024,1024,1024,0,0,0,0,0,0,0,89,3.885,3.887,0,0,0,0,4.818,68.54,757.55565810005,36.745408,6,P-GPS,,11.2
156300,2026-01-13 12:22:12,757.55565810005,38.385828,0.0,4.5854332176,6.1227692248,20,5,7.782,757.88374210005,37.073492,0.3131716,4.8716865076,0.0,0.0,0.0,10.7,0.1,-2.9,0,0,1024,1024,1024,1024,0,0,0,0,0,0,0,89,3.885,3.887,0,0,0,0,4.818,68.54,757.55565810005,36.745408,6,P-GPS,,11.2
156400,2026-01-13 12:22:12,757.88374210005,38.385828,0.0,4.600393848,6.1393046584,20,5,7.782,757.88374210005,37.073492,0.3131716,4.8716865076,0.0,0.0,0.0,10.7,0.0,-3.0,0,0,1024,1024,1024,1024,0,0,0,0,0,0,0,89,3.885,3.887,0,0,0,0,4.818,68.54,757.88374210005,37.073492,6,P-GPS,,11.3
156500,2026-01-13 12:22:13,757.88374210005,38.385828,0.0,4.6059384676,6.1454726376,20,5,7.779,757.88374210005,37.073492,0.3131716,4.8716865076,0.0,0.0,0.0,10.7,-0.2,-3.5,0,0,1024,1024,1024,1024,0,0,0,0,0,0,0,89,3.886,3.888,0,0,0,0,4.82,68.54,757.88374210005,37.073492,6,P-GPS,,11.3
156600,2026-01-13 12:22:13,757.88374210005,38.385828,0.0,4.615977838,6.1584975724,20,5,7.779,757.88374210005,37.073492,0.3131716,4.8716865076,0.0,0.0,0.0,10.7,-0.2,-3.2,0,0,1024,1024,1024,1024,0,0,0,0,0,0,0,89,3.886,3.888,0,0,0,0,4.82,68.54,757.88374210005,37.073492,6,P-GPS,,11.3
156700,2026-01-13 12:22:13,757.88374210005,38.385828,0.0,4.6221458172,6.1708991476,20,5,7.779,757.88374210005,37.073492,0.3131716,4.8716865076,0.0,0.0,0.0,10.6,-0.2,-3.0,0,0,1024,1024,1024,1024,0,0,0,0,0,0,0,89,3.886,3.888,0,0,0,0,4.82,68.54,757.88374210005,37.073492,6,P-GPS,,11.3
156800,2026-01-13 12:22:13,757.88374210005,38.385828,0.0,4.6249673396,6.1841865496,20,5,7.779,757.88374210005,37.073492,0.3131716,4.8716865076,0.0,0.0,0.0,10.7,-0.2,-3.0,0,0,1024,1024,1024,1024,0,0,0,0,0,0,0,89,3.886,3.888,0,0,0,0,4.82,68.54,757.88374210005,37.073492,6,P-GPS,,11.3
156900,2026-01-13 12:22:13,757.88374210005,38.385828,0.0,4.6243767884,6.19832697,20,5,7.779,757.88374210005,37.073492,0.3131716,4.8716865076,0.0,0.0,0.0,10.8,-0.1,-2.9,0,0,1024,1024,1024,1024,0,0,0,0,0,0,0,89,3.886,3.888,0,0,0,0,4.82,68.54,757.88374210005,37.073492,6,P-GPS,,11.3
157000,2026-01-13 12:22:13,757.55565810005,38.385828,0.0,4.6197179956,6.2167324824,20,5,7.779,757.88374210005,37.073492,0.3131716,4.8716865076,0.0,0.0,0.0,10.9,-0.3,-2.5,0,0,1024,1024,1024,1024,0,0,0,0,0,0,0,89,3.886,3.888,0,0,0,0,4.82,68.54,757.55565810005,36.745408,6,P-GPS,,11.2
157100,2026-01-13 12:22:13,757.55565810005,38.385828,0.0,4.6234253448,6.2371064988,20,5,7.779,757.88374210005,37.073492,0.3131716,4.8716865076,0.0,0.0,0.0,10.9,0.0,-2.5,0,0,1024,1024,1024,1024,0,0,0,0,0,0,0,89,3.886,3.888,0,0,0,0,4.82,68.54,757.55565810005,36.745408,6,P-GPS,,11.2
157200,2026-01-13 12:22:13,757.55565810005,38.385828,0.0,4.6082350556,6.2607941636,20,5,7.779,757.88374210005,37.073492,0.3131716,4.8716865076,0.0,0.0,0.0,10.9,0.7,-2.1,0,0,1024,1024,1024,1024,0,0,0,0,0,0,0,89,3.886,3.888,0,0,0,0,4.82,68.54,757.55565810005,36.745408,6,P-GPS,,11.2
157300,2026-01-13 12:22:13,757.55565810005,38.385828,0.0,4.585137942,6.288714112,20,5,7.779,757.88374210005,37.073492,0.3131716,4.8716865076,0.0,0.0,0.0,11.0,1.5,-2.1,0,0,1024,1024,1024,1024,0,0,0,0,0,0,0,89,3.886,3.888,0,0,0,0,4.82,68.54,757.55565810005,36.745408,6,P-GPS,,11.2
157400,2026-01-13 12:22:13,757.55565810005,38.385828,0.0,4.561679936,6.3125658188,20,5,7.779,757.88374210005,37.073492,0.3131716,4.8716865076,0.0,0.0,0.0,11.0,2.4,-2.0,0,0,1024,1024,1024,1024,0,0,0,0,0,0,0,89,3.886,3.888,0,0,0,0,4.82,68.54,757.55565810005,36.745408,6,P-GPS,,11.2
157500,2026-01-13 12:22:14,757.55565810005,38.385828,0.0,4.5327429272,6.342355846,20,5,7.779,757.88374210005,37.073492,0.3131716,4.8716865076,0.0,0.0,0.0,11.0,1.9,-2.0,0,0,1024,1024,1024,1024,0,0,0,0,0,0,0,89,3.886,3.888,0,0,0,0,4.82,68.54,757.55565810005,36.745408,6,P-GPS,,11.2
157600,2026-01-13 12:22:14,757.55565810005,38.385828,0.0,4.4943570992,6.3814306504,20,5,7.767,757.88374210005,37.073492,0.3131716,4.8716865076,0.0,0.0,0.0,11.0,1.5,-2.0,0,0,1024,1024,1024,1024,0,0,0,0,0,0,0,89,3.883,3.885,0,0,0,0,4.879,68.54,757.55565810005,36.745408,6,P-GPS,,11.2
157700,2026-01-13 12:22:14,757.55565810005,38.385828,0.0,4.451935838,6.4241143788,20,5,7.767,757.88374210005,37.073492,0.3131716,4.8716865076,0.0,0.0,0.0,11.0,1.9,-1.6,0,0,1024,1024,1024,1024,0,0,0,0,0,0,0,89,3.883,3.885,0,0,0,0,4.879,68.54,757.55565810005,36.745408,6,P-GPS,,11.2
157800,2026-01-13 12:22:14,757.22757410005,38.385828,0.0,4.407316414,6.4906170056,20,5,7.767,757.88374210005,37.073492,0.3131716,4.8716865076,0.0,0.0,0.0,10.9,2.0,-1.6,0,0,1024,1024,1024,1024,0,0,0,0,0,0,0,89,3.883,3.885,0,0,0,0,4.879,68.54,757.22757410005,36.417324,6,P-GPS,,11.1
157900,2026-01-13 12:22:14,757.22757410005,38.385828,0.0,4.3866143136,6.5129267176,20,5,7.767,757.88374210005,37.073492,0.3131716,4.8716865076,0.0,0.0,0.0,10.8,2.2,-1.7,0,0,1024,1024,1024,1024,0,0,0,0,0,0,0,89,3.883,3.885,0,0,0,0,4.879,68.54,757.22757410005,36.417324,6,P-GPS,,11.1
158000,2026-01-13 12:22:14,757.22757410005,38.385828,0.0,4.373523762,6.52723118,20,5,7.767,757.88374210005,37.073492,0.3131716,4.8716865076,0.0,0.0,0.0,10.8,2.2,-1.2,0,0,1024,1024,1024,1024,0,0,0,0,0,0,0,89,3.883,3.885,0,0,0,0,4.879,68.54,757.22757410005,36.417324,6,P-GPS,,11.1
158100,2026-01-13 12:22:14,757.22757410005,38.385828,0.0,4.3649279612,6.5392718628,20,5,7.767,757.88374210005,37.073492,0.3131716,4.8716865076,0.0,0.0,0.0,10.9,2.1,-0.6,0,0,1024,1024,1024,1024,0,0,0,0,0,0,0,89,3.883,3.885,0,0,0,0,4.879,68.54,757.22757410005,36.417324,6,P-GPS,,11.1
158200,2026-01-13 12:22:14,757.22757410005,38.385828,0.0,4.4193899052,6.6096786892,20,5,7.767,757.88374210005,37.073492,0.3131716,4.8716865076,0.0,0.0,0.0,10.9,2.3,-0.8,0,0,1024,1024,1024,1024,0,0,0,0,0,0,0,89,3.883,3.885,0,0,0,0,4.879,68.54,757.22757410005,36.417324,6,P-GPS,,11.1
158300,2026-01-13 12:22:14,757.22757410005,38.385828,0.0,4.4410106408,6.6324477188,20,5,7.767,757.88374210005,37.073492,0.3131716,4.8716865076,0.0,0.0,0.0,10.8,2.0,-1.6,0,0,1024,1024,1024,1024,0,0,0,0,0,0,0,89,3.883,3.885,0,0,0,0,4.879,68.54,757.22757410005,36.417324,6,P-GPS,,11.1
158400,2026-01-13 12:22:14,757.22757410005,38.385828,0.0,4.4588584104,6.6513125488,20,5,7.767,757.88374210005,37.073492,0.3131716,4.8716865076,0.0,0.0,0.0,10.7,1.6,-2.3,0,0,1024,1024,1024,1024,0,0,0,0,0,0,0,89,3.883,3.885,0,0,0,0,4.879,68.54,757.22757410005,36.417324,6,P-GPS,,11.1
158500,2026-01-13 12:22:15,757.55565810005,38.385828,0.0,4.4801838704,6.6759516572,20,5,7.767,757.88374210005,37.073492,0.3131716,4.8716865076,0.0,0.0,0.0,10.9,1.4,-2.7,0,0,1024,1024,1024,1024,0,0,0,0,0,0,0,89,3.883,3.885,0,0,0,0,4.879,68.54,757.55565810005,36.745408,6,P-GPS,,11.2
158600,2026-01-13 12:22:15,757.55565810005,38.385828,0.0,4.5086287532,6.7129923408,20,5,7.767,757.88374210005,37.073492,0.3131716,4.8716865076,0.0,0.0,0.0,10.8,2.0,-3.2,0,0,1024,1024,1024,1024,0,0,0,0,0,0,0,89,3.883,3.885,0,0,0,0,4.879,68.54,757.55565810005,36.745408,6,P-GPS,,11.2
158700,2026-01-13 12:22:15,757.55565810005,38.385828,0.0,4.5563977836,6.7746721328,20,5,7.777,757.88374210005,37.073492,0.3131716,4.8716865076,0.0,0.0,0.0,10.7,2.3,-3.7,0,0,1024,1024,1024,1024,0,0,0,0,0,0,0,89,3.888,3.888,0,0,0,0,4.729,68.54,757.55565810005,36.745408,6,P-GPS,,11.2
158800,2026-01-13 12:22:15,757.55565810005,38.385828,0.0,4.5832350548,6.8056760708,20,5,7.777,757.88374210005,37.073492,0.3131716,4.8716865076,0.0,0.0,0.0,10.6,1.9,-3.7,0,0,1024,1024,1024,1024,0,0,0,0,0,0,0,89,3.888,3.888,0,0,0,0,4.729,68.54,757.55565810005,36.745408,6,P-GPS,,11.2
158900,2026-01-13 12:22:15,757.55565810005,38.385828,0.0,4.6121064468,6.8363519248,20,5,7.777,757.88374210005,37.073492,0.3131716,4.8716865076,0.0,0.0,0.0,10.6,1.6,-3.6,0,0,1024,1024,1024,1024,0,0,0,0,0,0,0,89,3.888,3.888,0,0,0,0,4.729,68.54,757.55565810005,36.745408,6,P-GPS,,11.2
159000,2026-01-13 12:22:15,757.55565810005,38.385828,0.0,4.6331366312,6.8627298784,20,5,7.777,757.88374210005,37.073492,0.3131716,4.8716865076,0.0,0.0,0.0,10.7,1.4,-3.4,0,0,1024,1024,1024,1024,0,0,0,0,0,0,0,89,3.888,3.888,0,0,0,0,4.729,68.54,757.55565810005,36.745408,6,P-GPS,,11.2
159100,2026-01-13 12:22:15,757.55565810005,38.385828,0.0,4.6309712768,6.9002298796,20,5,7.777,757.88374210005,37.073492,0.3131716,4.8716865076,0.0,0.0,0.0,10.7,1.6,-3.3,0,0,1024,1024,1024,1024,0,0,0,0,0,0,0,89,3.888,3.888,0,0,0,0,4.729,68.54,757.55565810005,36.745408,6,P-GPS,,11.2
159200,2026-01-13 12:22:15,757.55565810005,38.385828,0.0,4.6577101228,6.9271327676,20,5,7.777,757.88374210005,37.073492,0.3131716,4.8716865076,0.0,0.0,0.0,10.8,1.7,-3.4,0,0,1024,1024,1024,1024,0,0,0,0,0,0,0,89,3.888,3.888,0,0,0,0,4.729,68.54,757.55565810005,36.745408,6,P-GPS,,11.2
159300,2026-01-13 12:22:15,757.55565810005,38.385828,0.0,4.6892061868,6.95866164,20,5,7.777,757.88374210005,37.073492,0.3131716,4.8716865076,0.0,0.0,0.0,10.9,1.2,-3.5,0,0,1024,1024,1024,1024,0,0,0,0,0,0,0,89,3.888,3.888,0,0,0,0,4.729,68.54,757.55565810005,36.745408,6,P-GPS,,11.2
159400,2026-01-13 12:22:15,757.55565810005,38.385828,0.0,4.7050854524,6.9757876248,20,5,7.777,757.88374210005,37.073492,0.3131716,4.8716865076,0.0,0.0,0.0,10.8,1.2,-3.7,0,0,1024,1024,1024,1024,0,0,0,0,0,0,0,89,3.888,3.888,0,0,0,0,4.729,68.54,757.55565810005,36.745408,6,P-GPS,,11.2
159500,2026-01-13 12:22:16,757.55565810005,38.385828,0.0,4.701771804,6.9915356568,20,5,7.777,757.88374210005,37.073492,0.3131716,4.8716865076,0.0,0.0,0.0,10.8,1.4,-3.7,0,0,1024,1024,1024,1024,0,0,0,0,0,0,0,89,3.888,3.888,0,0,0,0,4.729,68.54,757.55565810005,36.745408,6,P-GPS,,11.2
159600,2026-01-13 12:22:16,757.55565810005,38.385828,0.0,4.7066602556,7.0087928752,20,5,7.777,757.88374210005,37.073492,0.3131716,4.8716865076,0.0,0.0,0.0,10.8,1.5,-3.6,0,0,1024,1024,1024,1024,0,0,0,0,0,0,0,89,3.888,3.888,0,0,0,0,4.729,68.54,757.55565810005,36.745408,6,P-GPS,,11.2
159700,2026-01-13 12:22:16,757.55565810005,38.385828,0.0,4.7109909644,7.0279529808,20,5,7.777,757.88374210005,37.073492,0.3131716,4.8716865076,0.0,0.0,0.0,10.8,1.3,-3.7,0,0,1024,1024,1024,1024,0,0,0,0,0,0,0,89,3.888,3.888,0,0,0,0,4.729,68.54,757.55565810005,36.745408,6,P-GPS,,11.2
159800,2026-01-13 12:22:16,757.55565810005,38.385828,0.0,4.7269686552,7.0516078372,20,5,7.772,757.88374210005,37.073492,0.3131716,4.8716865076,0.0,0.0,0.0,10.8,1.3,-4.0,0,0,1024,1024,1024,1024,0,0,0,0,0,0,0,89,3.884,3.884,0,0,0,0,4.813,68.54,757.55565810005,36.745408,6,P-GPS,,11.2
159900,2026-01-13 12:22:16,757.55565810005,38.385828,0.0,4.7395342724,7.1081695188,20,5,7.772,757.88374210005,37.073492,0.3131716,4.8716865076,0.0,0.0,0.0,10.7,1.9,-4.1,0,0,1024,1024,1024,1024,0,0,0,0,0,0,0,89,3.884,3.884,0,0,0,0,4.813,68.54,757.55565810005,36.745408,6,P-GPS,,11.2
160000,2026-01-13 12:22:16,757.55565810005,38.385828,0.0,4.743438472,7.1218506216,20,5,7.772,757.88374210005,37.073492,0.3131716,4.8716865076,0.0,0.0,0.0,10.7,2.0,-4.0,0,0,1024,1024,1024,1024,0,0,0,0,0,0,0,89,3.884,3.884,0,0,0,0,4.813,68.54,757.55565810005,36.745408,6,P-GPS,,11.2
160100,2026-01-13 12:22:16,757.55565810005,38.385828,0.0,4.7435040888,7.1313650576,20,5,7.772,757.88374210005,37.073492,0.3131716,4.8716865076,0.0,0.0,0.0,10.7,2.0,-4.5,0,0,1024,1024,1024,1024,0,0,0,0,0,0,0,89,3.884,3.884,0,0,0,0,4.813,68.54,757.55565810005,36.745408,6,P-GPS,,11.2
160200,2026-01-13 12:22:16,757.55565810005,38.385828,0.0,4.7433072384,7.1465553468,20,5,7.772,757.88374210005,37.073492,0.3131716,4.8716865076,0.0,0.0,0.0,10.7,2.2,-4.5,0,0,1024,1024,1024,1024,0,0,0,0,0,0,0,89,3.884,3.884,0,0,0,0,4.813,68.54,757.55565810005,36.745408,6,P-GPS,,11.2
160300,2026-01-13 12:22:16,757.22757410005,38.385828,0.0,4.7381563196,7.158956922,20,5,7.772,757.88374210005,37.073492,0.3131716,4.8716865076,0.0,0.0,0.0,10.6,2.1,-4.1,0,0,1024,1024,1024,1024,0,0,0,0,0,0,0,89,3.884,3.884,0,0,0,0,4.813,68.54,757.22757410005,36.417324,6,P-GPS,,11.1
160400,2026-01-13 12:22:16,757.22757410005,38.385828,0.0,4.7264765292,7.1739503608,20,5,7.772,757.88374210005,37.073492,0.3131716,4.8716865076,0.0,0.0,0.0,11.0,1.6,-2.7,0,0,1024,1024,1024,1024,0,0,0,0,0,0,0,89,3.884,3.884,0,0,0,0,4.813,68.54,757.22757410005,36.417324,6,P-GPS,,11.1
160500,2026-01-13 12:22:16,757.22757410005,38.385828,0.0,4.7243111748,7.1898952432,20,5,7.772,757.88374210005,37.073492,0.3131716,4.8716865076,0.0,0.0,0.0,11.1,1.5,-2.5,0,0,1024,1024,1024,1024,0,0,0,0,0,0,0,89,3.884,3.884,0,0,0,0,4.813,68.54,757.22757410005,36.417324,6,P-GPS,,11.1
160600,2026-01-13 12:22:17,757.22757410005,38.385828,0.0,4.7087599932,7.2064962936,20,5,7.772,757.88374210005,37.073492,0.3131716,4.8716865076,0.0,0.0,0.0,11.0,2.5,-2.7,0,0,1024,1024,1024,1024,0,0,0,0,0,0,0,89,3.884,3.884,0,0,0,0,4.813,68.54,757.22757410005,36.417324,6,P-GPS,,11.1
160700,2026-01-13 12:22:17,757.22757410005,38.385828,0.0,4.6869752156,7.2283138796,20,5,7.772,757.88374210005,37.073492,0.3131716,4.8716865076,0.0,0.0,0.0,10.9,3.0,-2.6,0,0,1024,1024,1024,1024,0,0,0,0,0,0,0,89,3.884,3.884,0,0,0,0,4.813,68.54,757.22757410005,36.417324,6,P-GPS,,11.1
160800,2026-01-13 12:22:17,757.22757410005,38.385828,0.0,4.670931908,7.2554792348,20,5,7.772,757.88374210005,37.073492,0.3131716,4.8716865076,0.0,0.0,0.0,10.8,3.5,-2.7,0,0,1024,1024,1024,1024,0,0,0,0,0,0,0,89,3.884,3.884,0,0,0,0,4.813,68.54,757.22757410005,36.417324,6,P-GPS,,11.1
160900,2026-01-13 12:22:17,757.22757410005,38.385828,0.0,4.6443242956,7.2822180808,20,5,7.766,757.88374210005,37.073492,0.3131716,4.8716865076,0.0,0.0,0.0,10.9,3.9,-2.8,0,0,1024,1024,1024,1024,0,0,0,0,0,0,0,89,3.883,3.882,0,0,0,0,4.942,68.72,757.22757410005,36.417324,6,P-GPS,,11.1
161000,2026-01-13 12:22:17,757.22757410005,38.385828,0.0,4.6189962108,7.3092850108,20,5,7.766,757.88374210005,37.073492,0.3131716,4.8716865076,0.0,0.0,0.0,10.8,4.3,-2.2,0,0,1024,1024,1024,1024,0,0,0,0,0,0,0,89,3.883,3.882,0,0,0,0,4.942,68.72,757.22757410005,36.417324,6,P-GPS,,11.1
161100,2026-01-13 12:22:17,757.22757410005,38.385828,0.0,4.600721932,7.3323821244,20,5,7.766,757.88374210005,37.073492,0.3131716,4.8716865076,0.0,0.0,0.0,10.8,4.3,-2.3,0,0,1024,1024,1024,1024,0,0,0,0,0,0,0,89,3.883,3.882,0,0,0,0,4.942,68.72,757.22757410005,36.417324,6,P-GPS,,11.1
161200,2026-01-13 12:22:17,757.22757410005,38.385828,0.0,4.5448820352,7.3882548296,20,5,7.766,757.88374210005,37.073492,0.3131716,4.8716865076,0.0,0.0,0.0,10.8,4.1,-2.6,0,0,1024,1024,1024,1024,0,0,0,0,0,0,0,89,3.883,3.882,0,0,0,0,4.942,68.72,757.22757410005,36.417324,6,P-GPS,,11.1
161300,2026-01-13 12:22:17,757.22757410005,38.385828,0.0,4.5335631372,7.4001314704,20,5,7.766,757.88374210005,37.073492,0.3131716,4.8716865076,0.0,0.0,0.0,10.7,3.7,-3.2,0,0,1024,1024,1024,1024,0,0,0,0,0,0,0,89,3.883,3.882,0,0,0,0,4.942,68.72,757.22757410005,36.417324,6,P-GPS,,11.1
161400,2026-01-13 12:22:17,757.22757410005,38.385828,0.0,4.5463256048,7.4129595548,20,5,7.766,757.88374210005,37.073492,0.3131716,4.8716865076,0.0,0.0,0.0,10.7,2.8,-3.4,0,0,1024,1024,1024,1024,0,0,0,0,0,0,0,89,3.883,3.882,0,0,0,0,4.942,68.72,757.22757410005,36.417324,6,P-GPS,,11.1
