time(millisecond),timestamp,altitude_above_seaLevel(feet),height_sonar(feet),speed(mph),distance(feet),mileage(feet),satellites,gpslevel,voltage(v),max_altitude(feet),max_ascent(feet),max_speed(mph),max_distance(feet), xSpeed(mph), ySpeed(mph), zSpeed(mph), compass_heading(degrees), pitch(degrees), roll(degrees),isPhoto,isVideo,rc_elevator,rc_aileron,rc_throttle,rc_rudder,rc_elevator(percent),rc_aileron(percent),rc_throttle(percent),rc_rudder(percent),gimbal_heading(degrees),gimbal_pitch(degrees),gimbal_roll(degrees),battery_percent,voltageCell1,voltageCell2,voltageCell3,voltageCell4,voltageCell5,voltageCell6,current(A),battery_temperature(f),altitude(feet),ascent(feet),flycStateRaw,flycState,message,height_above_takeoff(meters)
0,2026-01-11 17:17:43,720.55413460629,0.328084,0.0,0.0,0.0,9,3,0.0,720.55413460629,0.0,0.0,0.0,0.0,0.0,0.0,353.9,1.1,0.6,0,0,1024,1024,1024,1024,0,0,0,0,0,0,0,98,4.083,4.075,0,0,0,0,0.0,56.3,720.55413460629,0.0,41,Motors_Started,SD card speed low SD card speed low. Normal use may be affected. Replace SD card (Code: 10028). Gimbal stuck. Make sure gimbal cover is removed and manually check whether gimbal can rotate freely (Code: 40002),0.0
100,2026-01-11 17:17:43,720.55413460629,0.328084,0.0,0.0243138459224,0.0243138459224,9,3,0.0,720.55413460629,0.0,0.0,0.0243138459224,0.0,0.0,0.0,353.9,1.1,0.6,0,0,1024,1024,1024,1024,0,0,0,0,0,0,0,98,4.083,4.075,0,0,0,0,0.0,56.3,720.55413460629,0.0,41,Motors_Started,,0.0
200,2026-01-11 17:17:43,720.55413460629,0.328084,0.0,0.044359581472,0.045706038208,9,3,0.0,720.55413460629,0.0,0.0,0.044359581472,0.0,0.0,0.0,353.9,1.1,0.6,0,0,1024,1024,1024,1024,0,0,0,0,0,0,0,98,4.083,4.075,0,0,0,0,0.0,56.3,720.55413460629,0.0,41,Motors_Started,SD card speed low. Normal use may be affected. Replace SD card (Code: 40112),0.0
300,2026-01-11 17:17:43,720.55413460629,0.328084,0.0,0.065933729144,0.068790684616,9,3,0.0,720.55413460629,0.0,0.0,0.065933729144,0.0,0.0,0.0,353.9,1.1,0.6,0,0,1024,1024,1024,1024,0,0,0,0,0,0,0,98,4.083,4.075,0,0,0,0,0.0,56.3,720.55413460629,0.0,41,Motors_Started,,0.0
400,2026-01-11 17:17:43,720.55413460629,0.328084,0.0,0.10350722116,0.10910925546,9,3,0.0,720.55413460629,0.0,0.0,0.10350722116,0.0,0.0,0.0,353.9,1.1,0.6,0,0,1024,1024,1024,1024,0,0,0,0,0,0,0,98,4.083,4.075,0,0,0,0,0.0,56.3,720.55413460629,0.0,41,Motors_Started,,0.0
500,2026-01-11 17:17:43,720.55413460629,0.328084,0.0,0.128433731144,0.135093180176,9,3,0.0,720.55413460629,0.0,0.0,0.128433731144,0.0,0.0,0.0,353.8,1.1,0.6,0,0,1024,1024,1024,1024,0,0,0,0,0,0,0,98,4.083,4.075,0,0,0,0,0.0,56.3,720.55413460629,0.0,41,Motors_Started,,0.0
600,2026-01-11 17:17:44,720.55413460629,0.328084,0.0,0.144485568928,0.152795936648,9,4,0.0,720.55413460629,0.0,0.0,0.144485568928,0.0,0.0,0.0,354.1,1.2,0.6,0,0,1024,1024,1024,1024,0,0,0,0,0,0,0,98,4.083,4.075,0,0,0,0,0.0,56.3,720.55413460629,0.0,41,Motors_Started,,0.0
700,2026-01-11 17:17:44,720.55413460629,0.328084,0.0,0.158906501148,0.168247052628,9,4,0.0,720.55413460629,0.0,0.0,0.158906501148,0.0,0.0,0.0,354.0,1.2,0.6,0,0,1024,1024,1024,1024,0,0,0,0,0,0,0,98,4.083,4.075,0,0,0,0,0.0,56.3,720.55413460629,0.0,41,Motors_Started,,0.0
800,2026-01-11 17:17:44,720.55413460629,0.328084,0.0,0.144669295968,0.19295932376,9,4,0.0,720.55413460629,0.0,0.0,0.158906501148,0.0,0.0,0.0,354.0,1.1,0.6,0,0,1024,1024,1024,1024,0,0,0,0,0,0,0,98,4.083,4.075,0,0,0,0,0.0,56.3,720.55413460629,0.0,41,Motors_Started,,0.0
900,2026-01-11 17:17:44,720.55413460629,0.328084,0.0,0.155326776624,0.20400427162,9,4,0.0,720.55413460629,0.0,0.0,0.158906501148,0.0,0.0,0.0,354.0,1.1,0.6,0,0,1024,1024,1024,1024,0,0,0,0,0,0,0,98,4.083,4.075,0,0,0,0,0.0,56.3,720.55413460629,0.0,41,Motors_Started,Setting new Return-To-Home altitude to 90m (295 ft). Data Recorder File Index is 34. Setting new Maximum Flight Altitude to 90m (295 ft),0.0
1000,2026-01-11 17:17:44,720.55413460629,0.328084,0.0,0.174913391424,0.223835309,9,4,0.0,720.55413460629,0.0,0.0,0.174913391424,0.0,0.0,0.0,354.0,1.1,0.6,0,0,1024,1024,1024,1024,0,0,0,0,0,0,0,98,4.083,4.075,0,0,0,0,0.0,56.3,720.55413460629,0.0,41,Motors_Started,,0.0
1100,2026-01-11 17:17:44,720.55413460629,0.328084,0.0,0.199525268852,0.248631241552,9,4,0.0,720.55413460629,0.0,0.0,0.199525268852,0.0,0.0,0.0,354.0,1.2,0.6,0,0,1024,1024,1024,1024,0,0,0,0,0,0,0,98,4.083,4.075,0,0,0,0,0.0,56.3,720.55413460629,0.0,11,AutoTakeoff,,0.0
1200,2026-01-11 17:17:44,720.55413460629,0.328084,0.0,0.230630256724,0.283660442148,9,4,0.0,720.55413460629,0.0,0.0,0.230630256724,0.0,0.0,0.0,354.0,1.1,0.7,0,0,1024,1024,1024,1024,0,0,0,0,0,0,0,98,4.083,4.075,0,0,0,0,0.0,56.3,720.55413460629,0.0,11,AutoTakeoff,,0.0
1300,2026-01-11 17:17:44,720.55413460629,0.328084,0.0,0.248219824216,0.301306440088,9,4,0.0,720.55413460629,0.0,0.0,0.248219824216,0.0,0.0,0.0,354.0,1.1,0.6,0,0,1024,1024,1024,1024,0,0,0,0,0,0,0,98,4.083,4.075,0,0,0,0,0.0,56.3,720.55413460629,0.0,11,AutoTakeoff,,0.0
1400,2026-01-11 17:17:44,720.55413460629,0.328084,0.0,0.271915034948,0.325016086516,9,4,0.0,720.55413460629,0.0,0.0,0.271915034948,0.0,0.0,0.0,354.0,1.2,0.6,0,0,1024,1024,1024,1024,0,0,0,0,0,0,0,98,4.083,4.075,0,0,0,0,0.0,56.3,720.55413460629,0.0,11,AutoTakeoff,,0.0
1500,2026-01-11 17:17:44,720.55413460629,0.328084,0.0,0.29949640066,0.35260171732,9,4,8.158,720.55413460629,0.0,0.0,0.29949640066,0.0,0.0,0.0,354.1,1.2,0.6,0,0,1024,1024,1024,1024,0,0,0,0,0,0,0,98,4.083,4.075,0,0,0,0,0.911,56.3,720.55413460629,0.0,11,AutoTakeoff,,0.0
1600,2026-01-11 17:17:45,720.55413460629,0.328084,0.0,0.319735574536,0.37284121928,9,4,8.158,720.55413460629,0.0,0.0,0.319735574536,0.0,0.0,0.0,354.4,1.2,0.6,0,0,1024,1024,1024,1024,0,0,0,0,0,0,0,98,4.083,4.075,0,0,0,0,0.911,56.3,720.55413460629,0.0,11,AutoTakeoff,,0.0
1700,2026-01-11 17:17:45,720.55413460629,0.328084,0.0,0.3411089348,0.39423557692,9,4,8.158,720.55413460629,0.0,0.0,0.3411089348,0.0,0.0,0.0,355.7,1.2,0.7,0,0,1024,1024,1024,1024,0,0,0,0,0,0,0,98,4.083,4.075,0,0,0,0,0.911,56.3,720.55413460629,0.0,11,AutoTakeoff,,0.0
1800,2026-01-11 17:17:45,720.55413460629,0.328084,0.0,0.364255261,0.41750001336,9,4,8.158,720.55413460629,0.0,0.0,0.364255261,0.0,0.0,0.0,357.6,1.0,0.5,0,0,1024,1024,1024,1024,0,0,0,0,0,0,0,98,4.083,4.075,0,0,0,0,0.911,56.3,720.55413460629,0.0,11,AutoTakeoff,,0.0
1900,2026-01-11 17:17:45,720.55413460629,0.328084,0.0,0.39684384472,0.45026576244,9,4,8.158,720.55413460629,0.0,0.0,0.39684384472,0.0,0.0,0.0,359.3,0.8,0.4,0,0,1024,1024,1024,1024,0,0,0,0,0,0,0,98,4.083,4.075,0,0,0,0,0.911,56.3,720.55413460629,0.0,11,AutoTakeoff,,0.0
2000,2026-01-11 17:17:45,720.55413460629,0.328084,0.223694,0.44423229768,0.49778872984,9,4,8.158,720.55413460629,0.0,0.223694,0.44423229768,0.0,0.223694,-0.447388,359.6,1.2,0.2,0,0,1024,1024,1024,1024,0,0,0,0,0,0,0,98,4.083,4.075,0,0,0,0,0.911,56.3,720.55413460629,0.0,11,AutoTakeoff,,0.0
2100,2026-01-11 17:17:45,720.55413460629,0.328084,0.223694,0.51087928144,0.56471130416,9,4,8.158,720.55413460629,0.0,0.223694,0.51087928144,0.0,0.223694,-0.894776,359.6,0.8,-0.7,0,0,1024,1024,1024,1024,0,0,0,0,0,0,0,98,4.083,4.075,0,0,0,0,0.911,56.3,720.55413460629,0.0,11,AutoTakeoff,,0.0
2200,2026-01-11 17:17:45,720.55413460629,0.656168,0.223694,0.57389109448,0.63009844536,9,4,8.158,720.55413460629,0.0,0.223694,0.57389109448,0.0,0.223694,-1.11847,359.7,1.4,-1.1,0,0,1024,1024,1024,1024,0,0,0,0,0,0,0,98,4.083,4.075,0,0,0,0,0.911,56.3,720.55413460629,0.0,11,AutoTakeoff,,0.0
2300,2026-01-11 17:17:45,720.88221860629,0.656168,0.223694,0.64180120164,0.7021325684,9,4,8.158,720.88221860629,0.328084,0.223694,0.64180120164,0.0,0.223694,-1.342164,359.7,1.9,-1.3,0,0,1024,1024,1024,1660,0,0,0,96,0,0,0,98,4.083,4.075,0,0,0,0,0.911,56.3,720.88221860629,0.328084,11,AutoTakeoff,,0.1
2400,2026-01-11 17:17:45,720.88221860629,0.984252,0.223694,0.7161089468,0.78071852892,9,4,8.158,720.88221860629,0.328084,0.223694,0.7161089468,0.0,0.223694,-1.565858,359.7,1.7,-1.5,0,0,1024,1024,1024,1684,0,0,0,100,0,0,0,98,4.083,4.075,0,0,0,0,0.911,56.3,720.88221860629,0.328084,11,AutoTakeoff,,0.1
2500,2026-01-11 17:17:45,721.21030260629,1.312336,0.223694,0.83965553868,0.92109583,9,4,8.077,721.21030260629,0.656168,0.223694,0.83965553868,0.0,0.223694,-1.789552,0.5,1.8,-2.0,0,0,1024,1024,1024,1684,0,0,0,100,0,0,0,98,3.997,3.984,0,0,0,0,1.741,56.3,721.21030260629,0.656168,11,AutoTakeoff,,0.2
2600,2026-01-11 17:17:46,721.53838660629,1.312336,0.223694,0.92469491148,1.0067093498,9,4,8.077,721.53838660629,0.984252,0.223694,0.92469491148,0.223694,0.0,-2.013246,11.5,2.1,-2.6,0,0,1024,1024,1024,1024,0,0,0,0,0,0,0,98,3.997,3.984,0,0,0,0,1.741,56.3,721.53838660629,0.984252,11,AutoTakeoff,,0.3
2700,2026-01-11 17:17:46,721.86647060629,1.64042,0.223694,1.01404530804,1.09669622932,9,4,8.077,721.86647060629,1.312336,0.223694,1.01404530804,0.223694,0.0,-2.23694,17.1,3.3,-0.1,0,0,1024,1024,1024,1024,0,0,0,0,0,0,0,98,3.997,3.984,0,0,0,0,1.741,56.3,721.86647060629,1.312336,11,AutoTakeoff,,0.4
2800,2026-01-11 17:17:46,722.52263860629,1.968504,0.3131716,1.08362208192,1.16664701896,9,4,8.077,722.52263860629,1.968504,0.3131716,1.08362208192,0.223694,0.223694,-2.23694,17.1,4.1,-1.8,0,0,1127,1024,1024,1024,16,0,0,0,0,0,0,98,3.997,3.984,0,0,0,0,1.741,56.3,722.52263860629,1.968504,11,AutoTakeoff,,0.6
2900,2026-01-11 17:17:46,722.85072260629,2.296588,0.3131716,1.17581368592,1.29571526456,9,4,8.077,722.85072260629,2.296588,0.3131716,1.17581368592,0.223694,0.223694,-2.23694,17.2,4.7,-2.6,0,0,1684,1024,1024,1024,100,0,0,0,0,0,0,98,3.997,3.984,0,0,0,0,1.741,56.3,722.85072260629,2.296588,11,AutoTakeoff,,0.7
3000,2026-01-11 17:17:46,723.17880660629,2.624672,0.3131716,1.2737369174,1.39519689504,9,4,8.077,723.17880660629,2.624672,0.3131716,1.2737369174,0.223694,0.223694,-2.23694,17.4,0.0,-3.2,0,0,1684,1024,1024,1024,100,0,0,0,0,0,0,98,3.997,3.984,0,0,0,0,1.741,56.3,723.17880660629,2.624672,11,AutoTakeoff,,0.8
3100,2026-01-11 17:17:46,723.50689060629,2.952756,0.7158208,1.39659781372,1.5248031984,9,4,8.077,723.50689060629,2.952756,0.7158208,1.39659781372,0.671082,0.223694,-2.013246,17.9,-10.6,-2.9,0,0,1684,1024,1024,1024,100,0,0,0,0,0,0,98,3.997,3.984,0,0,0,0,1.741,56.3,723.50689060629,2.952756,6,P-GPS,,0.9
3200,2026-01-11 17:17:46,724.16305860629,3.28084,1.2079476,1.54268705724,1.74377630252,9,4,8.077,724.16305860629,3.608924,1.2079476,1.54268705724,1.11847,0.447388,-1.789552,17.8,-12.9,-2.3,0,0,1684,1024,1024,1024,100,0,0,0,0,0,0,98,3.997,3.984,0,0,0,0,1.741,56.3,724.16305860629,3.608924,6,P-GPS,,1.1
3300,2026-01-11 17:17:46,724.49114260629,3.608924,1.901399,1.7680118676,2.07354993512,9,4,8.077,724.49114260629,3.937008,1.901399,1.7680118676,1.789552,0.671082,-1.342164,17.6,-13.3,-2.2,0,0,1684,1024,1024,1024,100,0,0,0,0,0,0,98,3.997,3.984,0,0,0,0,1.741,56.3,724.49114260629,3.937008,6,P-GPS,,1.2
3400,2026-01-11 17:17:46,724.49114260629,3.608924,1.901399,2.17604665756,2.59034129024,9,4,8.077,724.49114260629,3.937008,1.901399,2.17604665756,2.23694,0.894776,-0.671082,17.6,-13.8,-2.4,0,0,1684,1024,1024,1024,100,0,0,0,0,0,0,98,3.997,3.984,0,0,0,0,1.741,56.3,724.49114260629,3.937008,6,P-GPS,,1.2
3500,2026-01-11 17:17:47,724.81922660629,3.937008,3.0422384,2.58302829788,3.07187345788,9,4,7.758,724.81922660629,4.265092,3.0422384,2.58302829788,2.908022,0.894776,-0.447388,17.6,-13.5,-2.6,0,0,1684,1024,1024,1024,100,0,0,0,0,0,0,98,3.882,3.876,0,0,0,0,5.744,56.3,724.81922660629,4.265092,6,P-GPS,Home Point updated. RTH altitude adjusted to 90 m (Code: 120852),1.3
3600,2026-01-11 17:17:47,724.81922660629,3.937008,3.0422384,3.054954166,3.5922245244,9,4,7.758,724.81922660629,4.265092,3.0422384,3.054954166,3.35541,1.11847,0.0,17.5,-13.4,-2.9,0,0,1024,1024,1024,1024,0,0,0,0,0,0,0,98,3.882,3.876,0,0,0,0,5.744,56.3,724.81922660629,4.265092,6,P-GPS,,1.3
3700,2026-01-11 17:17:47,724.81922660629,3.937008,4.026492,3.6360893552,4.2136812372,9,4,7.758,724.81922660629,4.265092,4.026492,3.6360893552,3.802798,1.342164,0.0,17.3,-12.8,-2.7,0,0,1024,1024,1024,1024,0,0,0,0,0,0,0,98,3.882,3.876,0,0,0,0,5.744,56.3,724.81922660629,4.265092,6,P-GPS,,1.3
3800,2026-01-11 17:17:47,724.81922660629,3.937008,4.4515106,4.3683728432,4.9841537028,9,4,7.758,724.81922660629,4.265092,4.4515106,4.3683728432,4.250186,1.342164,0.0,17.2,-10.1,-2.9,0,0,1024,1024,1024,1024,0,0,0,0,0,0,0,98,3.882,3.876,0,0,0,0,5.744,56.3,724.81922660629,4.265092,6,P-GPS,,1.3
3900,2026-01-11 17:17:47,725.14731060629,3.937008,4.9436374,5.114665518,5.7583007092,9,4,7.758,725.14731060629,4.593176,4.9436374,5.114665518,4.697574,1.565858,0.0,15.9,10.3,-2.3,0,0,364,1024,1024,1024,-100,0,0,0,0,0,0,98,3.882,3.876,0,0,0,0,5.744,56.3,725.14731060629,4.593176,6,P-GPS,,1.4
4000,2026-01-11 17:17:47,725.14731060629,3.937008,4.4515106,5.8951117372,6.5548886612,9,4,7.758,725.14731060629,4.593176,4.9436374,5.8951117372,4.250186,1.342164,0.0,15.7,19.1,-1.4,0,0,364,1071,1024,1024,-100,7,0,0,0,0,0,98,3.882,3.876,0,0,0,0,5.744,56.3,725.14731060629,4.593176,6,P-GPS,,1.4
4100,2026-01-11 17:17:47,725.14731060629,6.233596,3.8251674,6.6698821032,7.3393046968,9,4,7.758,725.14731060629,4.593176,4.9436374,6.6698821032,3.579104,1.342164,0.0,15.5,19.9,-1.6,0,0,364,1065,1024,1024,-100,6,0,0,0,0,0,98,3.882,3.876,0,0,0,0,5.744,56.3,725.14731060629,4.593176,6,P-GPS,,1.4
4200,2026-01-11 17:17:47,725.14731060629,6.233596,2.908022,7.623195782,8.2983598456,9,4,7.758,725.14731060629,4.593176,4.9436374,7.623195782,2.684328,1.11847,0.0,15.5,19.7,-1.4,0,0,364,1024,1024,1024,-100,0,0,0,0,0,0,98,3.882,3.876,0,0,0,0,5.744,56.3,725.14731060629,4.593176,6,P-GPS,,1.4
4300,2026-01-11 17:17:47,725.14731060629,6.233596,2.3040482,8.1824805768,8.8578742992,9,4,7.758,725.14731060629,4.593176,4.9436374,8.1824805768,2.013246,1.11847,0.0,15.0,19.5,-1.1,0,0,364,1024,1024,1024,-100,0,0,0,0,0,0,98,3.882,3.876,0,0,0,0,5.744,56.3,725.14731060629,4.593176,6,P-GPS,,1.4
4400,2026-01-11 17:17:47,725.14731060629,6.56168,1.6105968,8.6370409588,9.3155186708,9,4,7.758,725.14731060629,4.593176,4.9436374,8.6370409588,1.342164,0.894776,0.0,14.7,19.2,-1.8,0,0,364,1024,1024,1024,-100,0,0,0,0,0,0,98,3.882,3.876,0,0,0,0,5.744,56.3,725.14731060629,4.593176,6,P-GPS,,1.4
4500,2026-01-11 17:17:47,725.14731060629,6.56168,0.9395148,9.028543596,9.7175856128,9,4,7.846,725.14731060629,4.593176,4.9436374,9.028543596,0.671082,0.671082,0.0,14.3,18.6,-2.0,0,0,364,1024,1024,1024,-100,0,0,0,0,0,0,98,3.885,3.894,0,0,0,0,4.323,56.3,725.14731060629,4.593176,6,P-GPS,,1.4
4600,2026-01-11 17:17:48,725.14731060629,6.56168,0.4921268,8.8883861112,10.0356302424,9,4,7.846,725.14731060629,4.593176,4.9436374,9.028543596,0.223694,0.447388,0.0,14.0,18.3,-2.7,0,0,364,1024,1024,1024,-100,0,0,0,0,0,0,98,3.885,3.894,0,0,0,0,4.323,56.3,725.14731060629,4.593176,6,P-GPS,,1.4
4700,2026-01-11 17:17:48,725.14731060629,6.56168,0.4921268,8.8573493648,10.1663060996,9,4,7.846,725.14731060629,4.593176,4.9436374,9.028543596,-0.223694,0.447388,0.0,14.2,18.4,-2.6,0,0,1024,1024,1246,1024,0,0,34,0,0,0,0,98,3.885,3.894,0,0,0,0,4.323,56.3,725.14731060629,4.593176,6,P-GPS,,1.4
4800,2026-01-11 17:17:48,725.47539460629,6.56168,0.7158208,8.7238191768,10.3675856336,9,4,7.846,725.47539460629,4.92126,4.9436374,9.028543596,-0.671082,0.223694,0.0,14.4,17.9,-2.5,0,0,1024,1024,1246,1024,0,0,34,0,0,0,0,98,3.885,3.894,0,0,0,0,4.323,56.3,725.47539460629,4.92126,6,P-GPS,,1.5
4900,2026-01-11 17:17:48,725.47539460629,6.56168,1.11847,8.5143703512,10.6466866924,9,4,7.846,725.47539460629,4.92126,4.9436374,9.028543596,-1.11847,0.0,0.0,13.1,18.1,-2.7,0,0,1024,1024,1684,1024,0,0,100,0,0,0,0,98,3.885,3.894,0,0,0,0,4.323,56.3,725.47539460629,4.92126,6,P-GPS,,1.5
5000,2026-01-11 17:17:48,725.47539460629,6.56168,1.565858,8.2645343852,10.9441604552,9,4,7.846,725.47539460629,4.92126,4.9436374,9.028543596,-1.565858,0.0,0.0,12.7,15.2,-4.4,0,0,1024,1024,1684,1024,0,0,100,0,0,0,0,98,3.885,3.894,0,0,0,0,4.323,56.3,725.47539460629,4.92126,6,P-GPS,,1.5
5100,2026-01-11 17:17:48,725.47539460629,6.56168,1.6329662,7.5211288496,11.69127334,9,4,7.846,725.47539460629,4.92126,4.9436374,9.028543596,-1.565858,-0.447388,-0.671082,12.7,2.9,-4.1,0,0,1024,1024,1684,1024,0,0,100,0,0,0,0,98,3.885,3.894,0,0,0,0,4.323,56.3,725.47539460629,4.92126,6,P-GPS,,1.5
5200,2026-01-11 17:17:48,725.80347860629,6.56168,1.6329662,7.2226708348,12.012303534,9,4,7.846,725.80347860629,5.249344,4.9436374,9.028543596,-1.342164,-0.447388,-1.342164,12.6,-1.6,-2.6,0,0,1024,1024,1684,1024,0,0,100,0,0,0,0,98,3.885,3.894,0,0,0,0,4.323,56.3,725.80347860629,5.249344,6,P-GPS,,1.6
5300,2026-01-11 17:17:48,726.13156260629,6.889764,0.9171454,6.9468178076,12.3078087928,9,4,7.846,726.13156260629,5.577428,4.9436374,9.028543596,-0.894776,-0.223694,-2.013246,12.6,-1.9,-2.1,0,0,1024,1024,1684,1024,0,0,100,0,0,0,0,98,3.885,3.894,0,0,0,0,4.323,56.3,726.13156260629,5.577428,6,P-GPS,,1.7
5400,2026-01-11 17:17:48,726.45964660629,7.217848,0.9171454,6.7640750196,12.5007221848,9,4,7.846,726.45964660629,5.905512,4.9436374,9.028543596,-0.671082,-0.223694,-2.908022,12.6,0.0,-2.3,0,0,1024,1024,1684,1024,0,0,100,0,0,0,0,98,3.885,3.894,0,0,0,0,4.323,56.3,726.45964660629,5.905512,6,P-GPS,,1.8
5500,2026-01-11 17:17:48,727.11581460629,7.545932,0.3131716,6.5616143832,12.7054794092,9,4,7.827,727.11581460629,6.56168,4.9436374,9.028543596,-0.223694,-0.223694,-3.35541,12.8,1.4,-1.9,0,0,1024,1024,1684,1024,0,0,100,0,0,0,0,98,3.916,3.911,0,0,0,0,5.202,56.3,727.11581460629,6.56168,6,P-GPS,,2.0
5600,2026-01-11 17:17:49,727.44389860629,8.2021,0.3131716,6.4416996812,12.8282156336,9,4,7.827,727.44389860629,6.889764,4.9436374,9.028543596,-0.223694,-0.223694,-3.802798,12.8,2.1,-1.0,0,0,1024,1024,1684,1024,0,0,100,0,0,0,0,98,3.916,3.911,0,0,0,0,5.202,56.3,727.44389860629,6.889764,6,P-GPS,,2.1
5700,2026-01-11 17:17:49,728.10006660629,8.858268,0.0,6.3275592576,12.9533468712,9,4,7.827,728.10006660629,7.545932,4.9436374,9.028543596,0.0,0.0,-4.026492,13.0,2.5,-0.6,0,0,1024,1024,1684,1024,0,0,100,0,0,0,0,98,3.916,3.911,0,0,0,0,5.202,56.3,728.10006660629,7.545932,6,P-GPS,,2.3
5800,2026-01-11 17:17:49,728.75623460629,9.186352,0.0,6.3232285488,13.0243442488,9,4,7.827,728.75623460629,8.2021,4.9436374,9.028543596,0.0,0.0,-4.250186,13.1,2.6,-1.2,0,0,1024,1024,1684,1024,0,0,100,0,0,0,0,98,3.916,3.911,0,0,0,0,5.202,56.3,728.75623460629,8.2021,6,P-GPS,,2.5
5900,2026-01-11 17:17:49,729.41240260629,9.84252,0.0,6.5699805252,13.4383862568,9,4,7.827,729.41240260629,8.858268,4.9436374,9.028543596,0.0,0.0,-4.250186,13.4,3.1,-1.4,0,0,1024,1024,1684,1024,0,0,100,0,0,0,0,98,3.916,3.911,0,0,0,0,5.202,56.3,729.41240260629,8.858268,6,P-GPS,,2.7
6000,2026-01-11 17:17:49,730.06857060629,10.170604,0.0,6.6424870892,13.515912506,9,4,7.827,730.06857060629,9.514436,4.9436374,9.028543596,0.0,0.0,-4.250186,13.6,3.1,-1.9,0,0,1024,1024,1684,1024,0,0,100,0,0,0,0,98,3.916,3.911,0,0,0,0,5.202,56.3,730.06857060629,9.514436,6,P-GPS,,2.9
6100,2026-01-11 17:17:49,730.72473860629,10.826772,0.0,6.7273296116,13.6014111964,9,4,7.827,730.72473860629,10.170604,4.9436374,9.028543596,0.0,0.0,-4.250186,13.6,2.9,-1.8,0,0,1024,1024,1684,1024,0,0,100,0,0,0,0,98,3.916,3.911,0,0,0,0,5.202,56.3,730.72473860629,10.170604,6,P-GPS,,3.1
6200,2026-01-11 17:17:49,731.38090660629,11.48294,0.0,6.7996721336,13.7263127752,9,4,7.827,731.38090660629,10.826772,4.9436374,9.028543596,0.0,0.0,-4.250186,13.6,3.4,-3.0,0,0,1024,1024,1684,1024,0,0,100,0,0,0,0,98,3.916,3.911,0,0,0,0,5.202,56.3,731.38090660629,10.826772,6,P-GPS,,3.3
6300,2026-01-11 17:17:49,732.03707460629,11.811024,0.0,7.095308626,14.2343508492,9,4,7.827,732.03707460629,11.48294,4.9436374,9.028543596,0.0,0.0,-4.250186,13.9,3.8,-2.7,0,0,1024,1024,1684,1024,0,0,100,0,0,0,0,98,3.916,3.911,0,0,0,0,5.202,56.3,732.03707460629,11.48294,6,P-GPS,,3.5
6400,2026-01-11 17:17:49,732.69324260629,12.467192,0.0,7.1806760828,14.3351054456,9,4,7.827,732.69324260629,12.139108,4.9436374,9.028543596,0.0,0.0,-4.250186,14.0,4.0,-3.0,0,0,1024,1024,1684,1024,0,0,100,0,0,0,0,98,3.916,3.911,0,0,0,0,5.202,56.3,732.69324260629,12.139108,6,P-GPS,,3.7
6500,2026-01-11 17:17:49,733.34941060629,13.12336,0.0,7.2692587628,14.4248036112,9,4,7.731,733.34941060629,12.795276,4.9436374,9.028543596,0.0,0.0,-4.250186,14.2,4.3,-2.6,0,0,1024,1024,1684,1024,0,0,100,0,0,0,0,98,3.872,3.867,0,0,0,0,6.08,56.3,733.34941060629,12.795276,6,P-GPS,,3.9
6600,2026-01-11 17:17:50,734.00557860629,13.779528,0.0,7.36876664,14.535269494,9,4,7.731,734.00557860629,13.451444,4.9436374,9.028543596,0.0,0.0,-4.250186,14.5,4.0,-3.3,0,0,1024,1024,1684,1024,0,0,100,0,0,0,0,98,3.872,3.867,0,0,0,0,6.08,56.3,734.00557860629,13.451444,6,P-GPS,,4.1
6700,2026-01-11 17:17:50,734.66174660629,14.107612,0.0,7.479166906,14.6602038812,9,4,7.731,734.66174660629,14.107612,4.9436374,9.028543596,0.0,0.0,-4.250186,14.8,3.8,-3.6,0,0,1024,1024,1684,1024,0,0,100,0,0,0,0,98,3.872,3.867,0,0,0,0,6.08,56.3,734.66174660629,14.107612,6,P-GPS,,4.3
6800,2026-01-11 17:17:50,735.31791460629,14.76378,0.0,7.6705711116,14.8807091376,9,4,7.731,735.31791460629,14.76378,4.9436374,9.028543596,0.0,0.0,-4.250186,14.8,4.7,-3.6,0,0,1024,1024,1684,1024,0,0,100,0,0,0,0,98,3.872,3.867,0,0,0,0,6.08,56.3,735.31791460629,14.76378,6,P-GPS,,4.5
6900,2026-01-11 17:17:50,735.97408260629,15.419948,0.0,7.7071524776,14.9257878792,9,4,7.731,735.97408260629,15.419948,4.9436374,9.028543596,0.0,0.0,-4.250186,14.8,5.1,-3.1,0,0,1024,1024,1684,1024,0,0,100,0,0,0,0,98,3.872,3.867,0,0,0,0,6.08,56.3,735.97408260629,15.419948,6,P-GPS,,4.7
7000,2026-01-11 17:17:50,736.63025060629,16.076116,0.0,7.7612207208,14.9817262012,9,4,7.731,736.63025060629,16.076116,4.9436374,9.028543596,0.0,0.0,-4.250186,15.0,4.8,-3.2,0,0,1024,1024,1684,1024,0,0,100,0,0,0,0,98,3.872,3.867,0,0,0,0,6.08,56.3,736.63025060629,16.076116,6,P-GPS,,4.9
7100,2026-01-11 17:17:50,737.28641860629,17.060368,0.223694,7.8283467072,15.04921308,9,4,7.731,737.28641860629,16.732284,4.9436374,9.028543596,0.0,-0.223694,-4.47388,15.5,4.3,-2.2,0,0,1024,1024,1684,1024,0,0,100,0,0,0,0,98,3.872,3.867,0,0,0,0,6.08,56.3,737.28641860629,16.732284,6,P-GPS,,5.1
7200,2026-01-11 17:17:50,738.27067060629,17.716536,0.447388,7.5870409252,15.336122538,9,4,7.731,738.27067060629,17.716536,4.9436374,9.028543596,0.0,-0.447388,-4.47388,15.7,3.9,0.9,0,0,1024,1024,1684,1024,0,0,100,0,0,0,0,98,3.872,3.867,0,0,0,0,6.08,56.3,738.27067060629,17.716536,6,P-GPS,,5.4
7300,2026-01-11 17:17:50,738.92683860629,18.372704,0.0,7.5654201896,15.4005582356,10,4,7.731,738.92683860629,18.372704,4.9436374,9.028543596,0.0,0.0,-4.47388,15.4,5.5,0.1,0,0,1024,1024,1684,1024,0,0,100,0,0,0,0,98,3.872,3.867,0,0,0,0,6.08,56.3,738.92683860629,18.372704,6,P-GPS,,5.6
7400,2026-01-11 17:17:50,739.58300660629,19.356956,0.0,7.5698165152,15.4221461628,10,4,7.747,739.58300660629,19.028872,4.9436374,9.028543596,0.0,0.0,-4.250186,14.9,6.2,-1.6,0,0,1024,1024,1684,1024,0,0,100,0,0,0,0,98,3.875,3.871,0,0,0,0,5.56,56.3,739.58300660629,19.028872,6,P-GPS,,5.8
7500,2026-01-11 17:17:50,740.23917460629,20.013124,0.0,7.5769687464,15.4293312024,10,4,7.747,740.23917460629,19.68504,4.9436374,9.028543596,0.0,0.0,-4.47388,14.7,5.6,-2.4,0,0,1024,1024,1684,1024,0,0,100,0,0,0,0,98,3.875,3.871,0,0,0,0,5.56,56.3,740.23917460629,19.68504,6,P-GPS,,6.0
7600,2026-01-11 17:17:51,740.89534260629,20.997376,0.0,7.6544293788,15.6135503684,10,4,7.747,740.89534260629,20.341208,4.9436374,9.028543596,0.0,0.0,-4.47388,14.7,4.3,-3.2,0,0,1024,1024,1684,1024,0,0,100,0,0,0,0,98,3.875,3.871,0,0,0,0,5.56,56.3,740.89534260629,20.341208,6,P-GPS,,6.2
7700,2026-01-11 17:17:51,741.87959460629,21.653544,0.0,7.6793637628,15.6833010268,10,4,7.747,741.87959460629,21.32546,4.9436374,9.028543596,0.0,0.0,-4.47388,15.2,3.3,-4.7,0,0,1024,1024,1684,1024,0,0,100,0,0,0,0,98,3.875,3.871,0,0,0,0,5.56,56.3,741.87959460629,21.32546,6,P-GPS,,6.5
7800,2026-01-11 17:17:51,742.53576260629,22.637796,0.0,7.720472688,15.7480976168,10,4,7.747,742.53576260629,21.981628,4.9436374,9.028543596,0.0,0.0,-4.47388,15.4,3.0,-4.6,0,0,1024,1024,1684,1024,0,0,100,0,0,0,0,98,3.875,3.871,0,0,0,0,5.56,56.3,742.53576260629,21.981628,6,P-GPS,,6.7
7900,2026-01-11 17:17:51,743.19193060629,23.293964,0.223694,7.7687994612,15.8109257028,10,4,7.747,743.19193060629,22.637796,4.9436374,9.028543596,-0.223694,0.0,-4.47388,15.4,3.0,-4.2,0,0,1024,1024,1684,1024,0,0,100,0,0,0,0,98,3.875,3.871,0,0,0,0,5.56,56.3,743.19193060629,22.637796,6,P-GPS,,6.9
8000,2026-01-11 17:17:51,743.84809860629,23.950132,0.0,7.860728598,15.9766409312,10,4,7.747,743.84809860629,23.293964,4.9436374,9.028543596,0.0,0.0,-4.47388,15.4,2.8,-5.5,0,0,1024,1024,1684,1024,0,0,100,0,0,0,0,98,3.875,3.871,0,0,0,0,5.56,56.3,743.84809860629,23.293964,6,P-GPS,,7.1
8100,2026-01-11 17:17:51,744.83235060629,23.950132,0.0,7.8756236116,16.0392393584,10,4,7.747,744.83235060629,24.278216,4.9436374,9.028543596,0.0,0.0,-4.47388,15.7,2.3,-6.0,0,0,1024,1024,1684,1024,0,0,100,0,0,0,0,98,3.875,3.871,0,0,0,0,5.56,56.3,744.83235060629,24.278216,6,P-GPS,,7.4
8200,2026-01-11 17:17:51,745.48851860629,29.52756,0.0,7.896817838,16.0717852912,10,4,7.747,745.48851860629,24.934384,4.9436374,9.028543596,0.0,0.0,-4.47388,15.6,3.8,-5.4,0,0,1024,1024,1684,1024,0,0,100,0,0,0,0,98,3.875,3.871,0,0,0,0,5.56,56.3,745.48851860629,24.934384,6,P-GPS,,7.6
8300,2026-01-11 17:17:51,746.14468660629,29.855644,0.223694,7.9161419856,16.0911094388,10,4,7.747,746.14468660629,25.590552,4.9436374,9.028543596,0.0,-0.223694,-4.47388,15.7,4.0,-4.4,0,0,1024,1024,1684,1024,0,0,100,0,0,0,0,98,3.875,3.871,0,0,0,0,5.56,56.3,746.14468660629,25.590552,6,P-GPS,,7.8
8400,2026-01-11 17:17:51,746.80085460629,31.16798,0.223694,7.9126971036,16.140748548,10,4,7.747,746.80085460629,26.24672,4.9436374,9.028543596,0.0,-0.223694,-4.250186,15.8,3.9,-3.2,0,0,1024,1024,1684,1024,0,0,100,0,0,0,0,98,3.875,3.871,0,0,0,0,5.56,56.3,746.80085460629,26.24672,6,P-GPS,,8.0
8500,2026-01-11 17:17:51,747.45702260629,31.496064,0.223694,7.899278468,16.2668312292,10,4,7.747,747.45702260629,26.902888,4.9436374,9.028543596,0.0,-0.223694,-4.47388,15.9,5.6,-2.4,0,0,1024,1024,1684,1024,0,0,100,0,0,0,0,98,3.846,3.843,0,0,0,0,5.56,56.3,747.45702260629,26.902888,6,P-GPS,,8.2
8600,2026-01-11 17:17:51,748.11319060629,32.152232,0.223694,7.875984504,16.3388128588,10,4,7.747,748.11319060629,27.559056,4.9436374,9.028543596,0.0,-0.223694,-4.250186,15.8,5.9,-2.3,0,0,1024,1024,1684,1024,0,0,100,0,0,0,0,98,3.846,3.843,0,0,0,0,5.56,56.3,748.11319060629,27.559056,6,P-GPS,,8.4
8700,2026-01-11 17:17:52,748.76935860629,32.8084,0.223694,7.8391078624,16.413550394,10,4,7.747,748.76935860629,28.215224,4.9436374,9.028543596,0.0,-0.223694,-4.250186,16.1,4.3,-2.2,0,0,1024,1024,1684,1024,0,0,100,0,0,0,0,98,3.846,3.843,0,0,0,0,5.56,56.3,748.76935860629,28.215224,6,P-GPS,,8.6
8800,2026-01-11 17:17:52,749.42552660629,33.464568,0.223694,7.8003283336,16.483104202,10,4,7.747,749.42552660629,28.871392,4.9436374,9.028543596,0.0,-0.223694,-4.250186,16.2,4.3,-2.0,0,0,1024,1024,1684,1024,0,0,100,0,0,0,0,98,3.846,3.843,0,0,0,0,5.56,56.3,749.42552660629,28.871392,6,P-GPS,,8.8
8900,2026-01-11 17:17:52,750.08169460629,34.120736,0.223694,7.7308401424,16.6152892456,10,4,7.747,750.08169460629,29.52756,4.9436374,9.028543596,0.0,-0.223694,-4.250186,16.2,4.3,-2.1,0,0,1024,1024,1684,1024,0,0,100,0,0,0,0,98,3.846,3.843,0,0,0,0,5.56,56.3,750.08169460629,29.52756,6,P-GPS,,9.0
9000,2026-01-11 17:17:52,750.73786260629,34.776904,0.223694,7.7134516904,16.6424546008,10,4,7.747,750.73786260629,30.183728,4.9436374,9.028543596,0.0,-0.223694,-4.250186,16.3,4.5,-2.3,0,0,1024,1024,1684,1024,0,0,100,0,0,0,0,98,3.846,3.843,0,0,0,0,5.56,56.3,750.73786260629,30.183728,6,P-GPS,,9.2
9100,2026-01-11 17:17:52,751.39403060629,35.433072,0.223694,7.7012469656,16.657316806,10,4,7.747,751.39403060629,30.839896,4.9436374,9.028543596,0.0,-0.223694,-4.250186,16.2,4.6,-2.0,0,0,1024,1024,1024,1024,0,0,0,0,0,0,0,98,3.846,3.843,0,0,0,0,5.56,56.3,751.39403060629,30.839896,6,P-GPS,,9.4
9200,2026-01-11 17:17:52,752.05019860629,36.08924,0.223694,7.7006564144,16.6580057824,10,4,7.747,752.05019860629,31.496064,4.9436374,9.028543596,0.0,-0.223694,-4.250186,16.3,4.0,-2.2,0,0,1024,1024,1024,1024,0,0,0,0,0,0,0,98,3.846,3.843,0,0,0,0,5.56,56.3,752.05019860629,31.496064,6,P-GPS,,9.6
9300,2026-01-11 17:17:52,752.70636660629,36.745408,0.223694,7.7932089108,16.8002301964,10,4,7.747,752.70636660629,32.152232,4.9436374,9.028543596,0.0,-0.223694,-4.026492,16.3,3.8,-2.1,0,0,1024,1024,1024,1024,0,0,0,0,0,0,0,98,3.846,3.843,0,0,0,0,5.56,56.3,752.70636660629,32.152232,6,P-GPS,,9.8
9400,2026-01-11 17:17:52,753.36253460629,37.401576,0.223694,7.7875002492,16.8143706168,10,4,7.747,753.36253460629,32.8084,4.9436374,9.028543596,0.0,-0.223694,-3.579104,16.3,4.4,-2.2,0,0,1024,1024,1024,1024,0,0,0,0,0,0,0,98,3.846,3.843,0,0,0,0,5.56,56.3,753.36253460629,32.8084,6,P-GPS,,10.0
9500,2026-01-11 17:17:52,753.69061860629,37.72966,0.223694,7.7770999864,16.83645067,10,4,7.747,753.69061860629,33.136484,4.9436374,9.028543596,0.0,-0.223694,-2.684328,16.3,4.6,-1.9,0,0,1024,1024,1024,1024,0,0,0,0,0,0,0,98,3.846,3.843,0,0,0,0,5.56,56.3,753.69061860629,33.136484,6,P-GPS,,10.1
9600,2026-01-11 17:17:53,754.01870260629,38.057744,0.223694,7.7704070728,16.8510832164,10,4,7.807,754.01870260629,33.464568,4.9436374,9.028543596,0.0,-0.223694,-2.013246,16.3,4.7,-1.8,0,0,1024,1024,1024,1024,0,0,0,0,0,0,0,98,3.906,3.901,0,0,0,0,5.173,56.3,754.01870260629,33.464568,6,P-GPS,,10.2
9700,2026-01-11 17:17:53,754.34678660629,38.057744,0.223694,7.7823493304,16.8856960784,10,4,7.807,754.34678660629,33.792652,4.9436374,9.028543596,0.0,-0.223694,-1.342164,16.4,4.8,-1.1,0,0,1024,1024,1024,1024,0,0,0,0,0,0,0,98,3.906,3.901,0,0,0,0,5.173,56.3,754.34678660629,33.792652,6,P-GPS,,10.3
9800,2026-01-11 17:17:53,754.34678660629,38.057744,0.223694,7.771325708,16.913222326,10,4,7.807,754.34678660629,33.792652,4.9436374,9.028543596,0.0,-0.223694,-0.671082,16.3,4.2,-1.3,0,0,1024,1024,1024,1024,0,0,0,0,0,0,0,98,3.906,3.901,0,0,0,0,5.173,56.3,754.34678660629,33.792652,6,P-GPS,,10.3
9900,2026-01-11 17:17:53,754.67487060629,38.057744,0.223694,7.7579070724,16.947835188,10,4,7.807,754.67487060629,34.120736,4.9436374,9.028543596,0.0,-0.223694,-0.447388,16.4,3.6,-1.6,0,0,1024,1024,1024,1024,0,0,0,0,0,0,0,98,3.906,3.901,0,0,0,0,5.173,56.3,754.67487060629,34.120736,6,P-GPS,,10.4
10000,2026-01-11 17:17:53,754.67487060629,38.057744,0.223694,7.7239503784,16.9963588116,10,4,7.807,754.67487060629,34.120736,4.9436374,9.028543596,0.0,-0.223694,-0.223694,16.5,3.5,-1.2,0,0,1024,1024,1024,1024,0,0,0,0,0,0,0,98,3.906,3.901,0,0,0,0,5.173,56.3,754.67487060629,34.120736,6,P-GPS,,10.4
10100,2026-01-11 17:17:53,754.67487060629,38.057744,0.223694,7.6792653376,17.0538719368,10,4,7.807,754.67487060629,34.120736,4.9436374,9.028543596,0.0,-0.223694,0.0,16.6,3.3,-1.0,0,0,1024,1024,1024,1024,0,0,0,0,0,0,0,98,3.906,3.901,0,0,0,0,5.173,56.3,754.67487060629,34.120736,6,P-GPS,,10.4
10200,2026-01-11 17:17:53,754.67487060629,38.057744,0.223694,7.6612863344,17.1188981856,10,4,7.807,754.67487060629,34.120736,4.9436374,9.028543596,0.0,-0.223694,-0.223694,16.6,3.5,-1.3,0,0,1024,1024,1024,1024,0,0,0,0,0,0,0,98,3.906,3.901,0,0,0,0,5.173,56.3,754.67487060629,34.120736,6,P-GPS,,10.4
10300,2026-01-11 17:17:53,754.67487060629,38.057744,0.223694,7.7007220312,17.1616803392,10,4,7.807,754.67487060629,34.120736,4.9436374,9.028543596,0.0,-0.223694,0.0,16.8,3.7,-0.5,0,0,1024,1024,1024,1024,0,0,0,0,0,0,0,98,3.906,3.901,0,0,0,0,5.173,56.3,754.67487060629,34.120736,6,P-GPS,,10.4
10400,2026-01-11 17:17:53,754.67487060629,38.057744,0.223694,7.7346131084,17.2001974008,10,4,7.807,754.67487060629,34.120736,4.9436374,9.028543596,0.0,-0.223694,0.0,16.8,3.7,-1.0,0,0,1024,1024,1024,1024,0,0,0,0,0,0,0,98,3.906,3.901,0,0,0,0,5.173,56.3,754.67487060629,34.120736,6,P-GPS,,10.4
10500,2026-01-11 17:17:53,754.67487060629,38.057744,0.223694,7.7639766264,17.238189528,10,4,7.807,754.67487060629,34.120736,4.9436374,9.028543596,0.0,-0.223694,0.0,16.7,3.4,-1.8,0,0,1024,1024,1024,1024,0,0,0,0,0,0,0,98,3.906,3.901,0,0,0,0,5.173,56.3,754.67487060629,34.120736,6,P-GPS,,10.4
10600,2026-01-11 17:17:54,754.67487060629,38.057744,0.0,7.8871721684,17.37942969,10,4,7.807,754.67487060629,34.120736,4.9436374,9.028543596,0.0,0.0,0.0,16.7,4.0,-1.5,0,0,1024,1024,1024,1024,0,0,0,0,0,0,0,98,3.906,3.901,0,0,0,0,5.173,56.3,754.67487060629,34.120736,6,P-GPS,,10.4
10700,2026-01-11 17:17:54,755.00295460629,38.057744,0.0,7.8683729552,17.403379822,10,4,7.807,755.00295460629,34.44882,4.9436374,9.028543596,0.0,0.0,0.0,16.8,3.7,-1.4,0,0,1024,1024,1024,1024,0,0,0,0,0,0,0,98,3.906,3.901,0,0,0,0,5.173,56.3,755.00295460629,34.44882,6,P-GPS,,10.5
10800,2026-01-11 17:17:54,755.00295460629,38.057744,0.0,7.8386157364,17.447999246,10,4,7.807,755.00295460629,34.44882,4.9436374,9.028543596,0.0,0.0,0.0,16.7,3.2,-1.7,0,0,1024,1024,1024,1024,0,0,0,0,0,0,0,98,3.906,3.901,0,0,0,0,5.173,56.3,755.00295460629,34.44882,6,P-GPS,,10.5
10900,2026-01-11 17:17:54,755.00295460629,38.057744,0.0,7.8012797772,17.5061357308,10,4,7.807,755.00295460629,34.44882,4.9436374,9.028543596,0.0,0.0,0.0,16.7,2.6,-2.1,0,0,1024,1024,1024,1024,0,0,0,0,0,0,0,98,3.906,3.901,0,0,0,0,5.173,56.3,755.00295460629,34.44882,6,P-GPS,,10.5
11000,2026-01-11 17:17:54,755.00295460629,38.057744,0.0,7.6616800352,17.6658798304,10,4,7.807,755.00295460629,34.44882,4.9436374,9.028543596,0.0,0.0,0.0,16.7,2.3,-2.5,0,0,1024,1024,1024,1024,0,0,0,0,0,0,0,98,3.906,3.901,0,0,0,0,5.173,56.3,755.00295460629,34.44882,6,P-GPS,,10.5
11100,2026-01-11 17:17:54,755.00295460629,38.057744,0.0,7.5978676972,17.7429139536,10,4,7.807,755.00295460629,34.44882,4.9436374,9.028543596,0.0,0.0,0.0,16.8,2.3,-2.3,0,0,1024,1024,1024,1024,0,0,0,0,0,0,0,98,3.906,3.901,0,0,0,0,5.173,56.3,755.00295460629,34.44882,6,P-GPS,,10.5
11200,2026-01-11 17:17:54,755.00295460629,38.057744,0.0,7.5350724196,17.8216541136,10,4,7.807,755.00295460629,34.44882,4.9436374,9.028543596,0.0,0.0,0.0,16.9,2.1,-2.8,0,0,1024,1024,1024,1024,0,0,0,0,0,0,0,98,3.906,3.901,0,0,0,0,5.173,56.3,755.00295460629,34.44882,6,P-GPS,,10.5
11300,2026-01-11 17:17:54,755.00295460629,38.057744,0.223694,7.4707023388,17.9024940112,10,4,7.807,755.00295460629,34.44882,4.9436374,9.028543596,0.0,-0.223694,0.0,16.8,2.0,-2.8,0,0,1024,1024,1024,1024,0,0,0,0,0,0,0,98,3.906,3.901,0,0,0,0,5.173,56.3,755.00295460629,34.44882,6,P-GPS,,10.5
11400,2026-01-11 17:17:54,755.00295460629,38.057744,0.223694,7.3489503664,18.0662407356,10,4,7.807,755.00295460629,34.44882,4.9436374,9.028543596,0.0,-0.223694,0.0,16.8,2.2,-2.6,0,0,1024,1024,1024,1024,0,0,0,0,0,0,0,98,3.906,3.901,0,0,0,0,5.173,56.3,755.00295460629,34.44882,6,P-GPS,,10.5
11500,2026-01-11 17:17:54,755.00295460629,38.057744,0.223694,7.293635404,18.1443247276,10,4,7.792,755.00295460629,34.44882,4.9436374,9.028543596,0.0,-0.223694,0.0,16.8,1.9,-2.1,0,0,1024,1024,1024,1024,0,0,0,0,0,0,0,98,3.898,3.894,0,0,0,0,4.504,56.48,755.00295460629,34.44882,6,P-GPS,,10.5
11600,2026-01-11 17:17:55,755.00295460629,38.057744,0.223694,7.2536419644,18.1980648868,10,4,7.792,755.00295460629,34.44882,4.9436374,9.028543596,0.0,-0.223694,0.0,16.8,1.8,-1.7,0,0,1024,1024,1024,1024,0,0,0,0,0,0,0,98,3.898,3.894,0,0,0,0,4.504,56.48,755.00295460629,34.44882,6,P-GPS,,10.5
11700,2026-01-11 17:17:55,755.00295460629,38.057744,0.223694,7.217191832,18.2461620012,10,4,7.792,755.00295460629,34.44882,4.9436374,9.028543596,0.0,-0.223694,0.0,16.8,2.0,-1.9,0,0,1024,1024,1024,1024,0,0,0,0,0,0,0,98,3.898,3.894,0,0,0,0,4.504,56.48,755.00295460629,34.44882,6,P-GPS,,10.5
11800,2026-01-11 17:17:55,754.67487060629,38.057744,0.223694,7.1899936684,18.2934060972,10,4,7.792,755.00295460629,34.44882,4.9436374,9.028543596,0.0,-0.223694,0.0,16.8,2.0,-1.9,0,0,1024,1024,1024,1024,0,0,0,0,0,0,0,98,3.898,3.894,0,0,0,0,4.504,56.48,754.67487060629,34.120736,6,P-GPS,,10.4
11900,2026-01-11 17:17:55,754.67487060629,38.057744,0.223694,7.2094490496,18.3685373332,10,4,7.792,755.00295460629,34.44882,4.9436374,9.028543596,0.0,-0.223694,0.0,16.8,1.6,-1.6,0,0,1024,1024,1024,1024,0,0,0,0,0,0,0,98,3.898,3.894,0,0,0,0,4.504,56.48,754.67487060629,34.120736,6,P-GPS,,10.4
12000,2026-01-11 17:17:55,754.67487060629,38.057744,0.0,7.1989175532,18.417323424,10,4,7.792,755.00295460629,34.44882,4.9436374,9.028543596,0.0,0.0,0.0,16.8,1.4,-1.9,0,0,1024,1024,1024,1024,0,0,0,0,0,0,0,98,3.898,3.894,0,0,0,0,4.504,56.48,754.67487060629,34.120736,6,P-GPS,,10.4
12100,2026-01-11 17:17:55,754.67487060629,38.057744,0.0,7.1931760832,18.466864108,10,4,7.792,755.00295460629,34.44882,4.9436374,9.028543596,0.0,0.0,0.223694,16.8,1.6,-2.3,0,0,1024,1024,1024,1024,0,0,0,0,0,0,0,98,3.898,3.894,0,0,0,0,4.504,56.48,754.67487060629,34.120736,6,P-GPS,,10.4
12200,2026-01-11 17:17:55,754.34678660629,38.057744,0.0,7.2133860576,18.5056764452,10,4,7.792,755.00295460629,34.44882,4.9436374,9.028543596,0.0,0.0,0.223694,16.7,1.8,-3.0,0,0,1024,1024,1024,1024,0,0,0,0,0,0,0,98,3.898,3.894,0,0,0,0,4.504,56.48,754.34678660629,33.792652,6,P-GPS,,10.3
12300,2026-01-11 17:17:55,754.34678660629,38.057744,0.0,7.3630579784,18.6579074212,10,4,7.792,755.00295460629,34.44882,4.9436374,9.028543596,0.0,0.0,0.223694,16.8,2.1,-3.4,0,0,1024,1024,1024,1024,0,0,0,0,0,0,0,98,3.898,3.894,0,0,0,0,4.504,56.48,754.34678660629,33.792652,6,P-GPS,,10.3
12400,2026-01-11 17:17:55,754.34678660629,38.057744,0.0,7.3878283204,18.692093774,10,4,7.792,755.00295460629,34.44882,4.9436374,9.028543596,0.0,0.0,0.0,16.7,2.8,-3.8,0,0,1024,1024,1024,1024,0,0,0,0,0,0,0,98,3.898,3.894,0,0,0,0,4.504,56.48,754.34678660629,33.792652,6,P-GPS,,10.3
12500,2026-01-11 17:17:55,754.34678660629,38.057744,0.0,7.4034779272,18.7183733024,10,4,7.794,755.00295460629,34.44882,4.9436374,9.028543596,0.0,0.0,0.0,16.9,2.3,-3.4,0,0,1024,1024,1024,1024,0,0,0,0,0,0,0,98,3.899,3.894,0,0,0,0,4.405,56.48,754.34678660629,33.792652,6,P-GPS,,10.3
12600,2026-01-11 17:17:56,754.34678660629,38.057744,0.223694,7.4041012868,18.7198496804,10,4,7.794,755.00295460629,34.44882,4.9436374,9.028543596,0.0,-0.223694,0.0,17.0,2.3,-2.8,0,0,1024,1024,1024,1024,0,0,0,0,0,0,0,98,3.899,3.894,0,0,0,0,4.405,56.48,754.34678660629,33.792652,6,P-GPS,,10.3
12700,2026-01-11 17:17:56,754.01870260629,38.057744,0.223694,7.3989831764,18.7526580804,10,4,7.794,755.00295460629,34.44882,4.9436374,9.028543596,0.0,-0.223694,0.0,17.1,2.1,-2.5,0,0,1024,1024,1024,1024,0,0,0,0,0,0,0,98,3.899,3.894,0,0,0,0,4.405,56.48,754.01870260629,33.464568,6,P-GPS,,10.2
12800,2026-01-11 17:17:56,754.01870260629,38.057744,0.223694,7.3922902628,18.7595806528,10,4,7.794,755.00295460629,34.44882,4.9436374,9.028543596,0.0,-0.223694,0.0,17.1,1.7,-2.8,0,0,1024,1024,1024,1024,0,0,0,0,0,0,0,98,3.899,3.894,0,0,0,0,4.405,56.48,754.01870260629,33.464568,6,P-GPS,,10.2
12900,2026-01-11 17:17:56,754.01870260629,38.057744,0.223694,7.3883204464,18.7649940388,10,4,7.794,755.00295460629,34.44882,4.9436374,9.028543596,0.0,-0.223694,0.0,16.9,1.5,-2.8,0,0,1024,1024,1024,1024,0,0,0,0,0,0,0,98,3.899,3.894,0,0,0,0,4.405,56.48,754.01870260629,33.464568,6,P-GPS,,10.2
13000,2026-01-11 17:17:56,754.01870260629,38.057744,0.223694,7.3710960364,18.8037735676,10,4,7.794,755.00295460629,34.44882,4.9436374,9.028543596,0.0,-0.223694,0.0,16.8,2.1,-2.5,0,0,1024,1024,1024,1024,0,0,0,0,0,0,0,98,3.899,3.894,0,0,0,0,4.405,56.48,754.01870260629,33.464568,6,P-GPS,,10.2
13100,2026-01-11 17:17:56,754.01870260629,38.057744,0.0,7.3309057464,18.9127958808,10,4,7.794,755.00295460629,34.44882,4.9436374,9.028543596,0.0,0.0,0.0,17.0,2.3,-2.0,0,0,1024,1024,1024,1024,0,0,0,0,0,0,0,98,3.899,3.894,0,0,0,0,4.405,56.48,754.01870260629,33.464568,6,P-GPS,,10.2
13200,2026-01-11 17:17:56,754.01870260629,38.057744,0.0,7.3326774,18.947835252,10,4,7.794,755.00295460629,34.44882,4.9436374,9.028543596,0.0,0.0,0.0,17.0,3.5,-2.7,0,0,1024,1024,1024,1024,0,0,0,0,0,0,0,98,3.899,3.894,0,0,0,0,4.405,56.48,754.01870260629,33.464568,6,P-GPS,,10.2
13300,2026-01-11 17:17:56,754.01870260629,38.057744,0.223694,7.3401249068,18.9792656992,10,4,7.794,755.00295460629,34.44882,4.9436374,9.028543596,0.0,-0.223694,0.0,17.0,4.1,-2.7,0,0,1024,1024,1024,1024,0,0,0,0,0,0,0,98,3.899,3.894,0,0,0,0,4.405,56.48,754.01870260629,33.464568,6,P-GPS,,10.2
13400,2026-01-11 17:17:56,754.01870260629,38.057744,0.223694,7.3255251688,19.0189638632,10,4,7.794,755.00295460629,34.44882,4.9436374,9.028543596,0.0,-0.223694,0.0,17.3,2.9,-2.7,0,0,1024,1024,1024,1024,0,0,0,0,0,0,0,98,3.899,3.894,0,0,0,0,4.405,56.48,754.01870260629,33.464568,6,P-GPS,,10.2
13500,2026-01-11 17:17:56,754.01870260629,38.057744,0.0,7.3050527272,19.0701121588,10,4,7.781,755.00295460629,34.44882,4.9436374,9.028543596,0.0,0.0,0.0,17.2,2.6,-2.4,0,0,1024,1024,1024,1024,0,0,0,0,0,0,0,98,3.894,3.888,0,0,0,0,4.704,56.48,754.01870260629,33.464568,6,P-GPS,,10.2
13600,2026-01-11 17:17:57,754.01870260629,38.057744,0.0,7.2663716236,19.1500006128,10,4,7.781,755.00295460629,34.44882,4.9436374,9.028543596,0.0,0.0,0.0,17.0,2.5,-2.2,0,0,1024,1024,1024,1024,0,0,0,0,0,0,0,98,3.894,3.888,0,0,0,0,4.704,56.48,754.01870260629,33.464568,6,P-GPS,,10.2
13700,2026-01-11 17:17:57,754.01870260629,38.057744,0.0,7.2825461648,19.182415312,10,4,7.781,755.00295460629,34.44882,4.9436374,9.028543596,0.0,0.0,0.0,16.9,2.6,-1.9,0,0,1024,1024,1024,1024,0,0,0,0,0,0,0,98,3.894,3.888,0,0,0,0,4.704,56.48,754.01870260629,33.464568,6,P-GPS,,10.2
13800,2026-01-11 17:17:57,754.01870260629,38.057744,0.0,7.3229333052,19.2263457596,10,4,7.781,755.00295460629,34.44882,4.9436374,9.028543596,0.0,0.0,0.0,16.8,3.4,-2.4,0,0,1024,1024,1024,1024,0,0,0,0,0,0,0,98,3.894,3.888,0,0,0,0,4.704,56.48,754.01870260629,33.464568,6,P-GPS,,10.2
13900,2026-01-11 17:17:57,754.01870260629,38.057744,0.0,7.3739175588,19.2777893308,11,4,7.781,755.00295460629,34.44882,4.9436374,9.028543596,0.0,0.0,0.0,16.6,4.8,-2.4,0,0,1024,1024,1024,1024,0,0,0,0,0,0,0,98,3.894,3.888,0,0,0,0,4.704,56.48,754.01870260629,33.464568,6,P-GPS,,10.2
14000,2026-01-11 17:17:57,754.01870260629,38.057744,0.0,7.54921284,19.4585636148,11,4,7.781,755.00295460629,34.44882,4.9436374,9.028543596,0.0,0.0,0.0,16.4,6.2,-3.7,0,0,1024,1024,1024,1024,0,0,0,0,0,0,0,98,3.894,3.888,0,0,0,0,4.704,56.48,754.01870260629,33.464568,6,P-GPS,,10.2
14100,2026-01-11 17:17:57,754.34678660629,38.057744,0.0,7.5864831824,19.4961620412,11,4,7.781,755.00295460629,34.44882,4.9436374,9.028543596,0.0,0.0,0.0,16.5,5.0,-4.1,0,0,1024,1024,1024,1024,0,0,0,0,0,0,0,98,3.894,3.888,0,0,0,0,4.704,56.48,754.34678660629,33.792652,6,P-GPS,,10.3
14200,2026-01-11 17:17:57,754.34678660629,38.057744,0.0,7.623195782,19.5338917012,11,4,7.781,755.00295460629,34.44882,4.9436374,9.028543596,0.0,0.0,0.0,16.6,4.8,-4.6,0,0,1024,1024,1024,1024,0,0,0,0,0,0,0,98,3.894,3.888,0,0,0,0,4.704,56.48,754.34678660629,33.792652,6,P-GPS,,10.3
14300,2026-01-11 17:17:57,754.34678660629,38.057744,0.0,7.6534451268,19.5655846156,11,4,7.781,755.00295460629,34.44882,4.9436374,9.028543596,0.0,0.0,0.0,16.6,4.2,-4.4,0,0,1024,1024,1024,1024,0,0,0,0,0,0,0,98,3.894,3.888,0,0,0,0,4.704,56.48,754.34678660629,33.792652,6,P-GPS,,10.3
14400,2026-01-11 17:17:57,754.34678660629,38.057744,0.223694,7.7694884376,19.6874022048,11,4,7.781,755.00295460629,34.44882,4.9436374,9.028543596,0.0,-0.223694,0.0,16.3,3.1,-3.8,0,0,1024,1024,1024,1024,0,0,0,0,0,0,0,98,3.894,3.888,0,0,0,0,4.704,56.48,754.34678660629,33.792652,6,P-GPS,,10.3
14500,2026-01-11 17:17:57,754.34678660629,38.057744,0.3131716,7.791995,19.7223759592,11,4,7.791,755.00295460629,34.44882,4.9436374,9.028543596,-0.223694,-0.223694,0.0,16.7,1.2,-2.9,0,0,1024,1024,1024,1024,0,0,0,0,0,0,0,98,3.899,3.892,0,0,0,0,4.528,56.48,754.34678660629,33.792652,6,P-GPS,,10.3
14600,2026-01-11 17:17:58,754.34678660629,38.057744,0.0,7.8018703284,19.75311743,11,4,7.791,755.00295460629,34.44882,4.9436374,9.028543596,0.0,0.0,0.0,16.7,0.1,-4.1,0,0,1024,1024,1024,1024,0,0,0,0,0,0,0,98,3.899,3.892,0,0,0,0,4.528,56.48,754.34678660629,33.792652,6,P-GPS,,10.3
14700,2026-01-11 17:17:58,754.34678660629,38.057744,0.223694,7.812336208,19.779528192,11,4,7.791,755.00295460629,34.44882,4.9436374,9.028543596,0.0,-0.223694,0.0,16.5,1.5,-4.3,0,0,1024,1024,1024,1024,0,0,0,0,0,0,0,98,3.899,3.892,0,0,0,0,4.528,56.48,754.34678660629,33.792652,6,P-GPS,,10.3
14800,2026-01-11 17:17:58,754.34678660629,38.057744,0.223694,7.8076774152,19.79904919,11,4,7.791,755.00295460629,34.44882,4.9436374,9.028543596,0.0,-0.223694,0.0,16.6,1.3,-4.0,0,0,1024,1024,1024,1024,0,0,0,0,0,0,0,98,3.899,3.892,0,0,0,0,4.528,56.48,754.34678660629,33.792652,6,P-GPS,,10.3
14900,2026-01-11 17:17:58,754.34678660629,38.057744,0.223694,7.8093178352,19.80725129,11,4,7.791,755.00295460629,34.44882,4.9436374,9.028543596,0.0,-0.223694,0.0,16.9,-0.2,-3.0,0,0,1024,1024,1024,1024,0,0,0,0,0,0,0,98,3.899,3.892,0,0,0,0,4.528,56.48,754.34678660629,33.792652,6,P-GPS,,10.3
15000,2026-01-11 17:17:58,754.34678660629,38.057744,0.223694,7.7985238716,19.8245741252,11,4,7.791,755.00295460629,34.44882,4.9436374,9.028543596,0.0,-0.223694,0.0,17.1,0.7,-2.6,0,0,1024,1024,1024,1024,0,0,0,0,0,0,0,98,3.899,3.892,0,0,0,0,4.528,56.48,754.34678660629,33.792652,6,P-GPS,,10.3
15100,2026-01-11 17:17:58,754.34678660629,38.057744,0.223694,7.7888453936,19.8462604776,11,4,7.791,755.00295460629,34.44882,4.9436374,9.028543596,0.0,-0.223694,0.0,17.2,-0.2,-2.9,0,0,1024,1024,1024,1024,0,0,0,0,0,0,0,98,3.899,3.892,0,0,0,0,4.528,56.48,754.34678660629,33.792652,6,P-GPS,,10.3
15200,2026-01-11 17:17:58,754.01870260629,38.057744,0.223694,7.8065291212,19.886647618,11,4,7.791,755.00295460629,34.44882,4.9436374,9.028543596,0.0,-0.223694,0.0,17.1,1.8,-2.6,0,0,1024,1024,1024,1024,0,0,0,0,0,0,0,98,3.899,3.892,0,0,0,0,4.528,56.48,754.01870260629,33.464568,6,P-GPS,,10.2
15300,2026-01-11 17:17:58,754.01870260629,38.057744,0.223694,7.8060041868,20.0003615324,11,4,7.791,755.00295460629,34.44882,4.9436374,9.028543596,0.0,-0.223694,0.0,17.2,0.2,-3.8,0,0,1024,1024,1024,1024,0,0,0,0,0,0,0,98,3.899,3.892,0,0,0,0,4.528,56.48,754.01870260629,33.464568,6,P-GPS,,10.2
15400,2026-01-11 17:17:58,754.01870260629,38.057744,0.223694,7.8437994636,20.0668969676,11,4,7.791,755.00295460629,34.44882,4.9436374,9.028543596,0.223694,0.0,0.0,17.3,2.4,-3.7,0,0,1024,1024,1024,1024,0,0,0,0,0,0,0,98,3.899,3.892,0,0,0,0,4.528,56.48,754.01870260629,33.464568,6,P-GPS,,10.2
15500,2026-01-11 17:17:58,754.01870260629,38.057744,0.223694,7.8994097016,20.1559061568,11,4,7.8,755.00295460629,34.44882,4.9436374,9.028543596,0.223694,0.0,0.0,17.2,4.1,-3.3,0,0,1024,1024,1024,1024,0,0,0,0,0,0,0,98,3.891,3.893,0,0,0,0,4.57,56.48,754.01870260629,33.464568,6,P-GPS,,10.2
15600,2026-01-11 17:17:59,754.01870260629,38.057744,0.447388,7.98802519,20.2682421184,11,4,7.8,755.00295460629,34.44882,4.9436374,9.028543596,0.447388,0.0,0.0,17.0,6.2,-3.9,0,0,1024,1024,1024,1024,0,0,0,0,0,0,0,98,3.891,3.893,0,0,0,0,4.57,56.48,754.01870260629,33.464568,6,P-GPS,,10.2
15700,2026-01-11 17:17:59,753.69061860629,38.057744,0.223694,8.1442587908,20.4748038048,11,4,7.8,755.00295460629,34.44882,4.9436374,9.028543596,0.223694,0.0,0.0,17.0,7.0,-3.8,0,0,1024,1024,1024,1024,0,0,0,0,0,0,0,98,3.891,3.893,0,0,0,0,4.57,56.48,753.69061860629,33.136484,6,P-GPS,,10.1
15800,2026-01-11 17:17:59,753.69061860629,38.057744,0.223694,8.2090553808,20.5558405528,11,4,7.8,755.00295460629,34.44882,4.9436374,9.028543596,0.223694,0.0,0.0,17.1,7.4,-3.5,0,0,1024,1024,1024,1024,0,0,0,0,0,0,0,98,3.891,3.893,0,0,0,0,4.57,56.48,753.69061860629,33.136484,6,P-GPS,,10.1
15900,2026-01-11 17:17:59,753.69061860629,38.057744,0.223694,8.2582679808,20.6207027596,11,4,7.8,755.00295460629,34.44882,4.9436374,9.028543596,0.223694,0.0,0.0,17.0,7.5,-3.3,0,0,1024,1024,1024,1024,0,0,0,0,0,0,0,98,3.891,3.893,0,0,0,0,4.57,56.48,753.69061860629,33.136484,6,P-GPS,,10.1
16000,2026-01-11 17:17:59,753.69061860629,38.057744,0.223694,8.3153217884,20.7025597176,11,4,7.8,755.00295460629,34.44882,4.9436374,9.028543596,0.223694,0.0,0.0,17.0,8.1,-3.2,0,0,1024,1024,1024,1024,0,0,0,0,0,0,0,98,3.891,3.893,0,0,0,0,4.57,56.48,753.69061860629,33.136484,6,P-GPS,,10.1
16100,2026-01-11 17:17:59,753.36253460629,38.057744,0.223694,8.3591210024,20.793307752,11,4,7.8,755.00295460629,34.44882,4.9436374,9.028543596,0.223694,0.0,0.0,16.9,8.3,-2.6,0,0,1024,1024,1024,1024,0,0,0,0,0,0,0,98,3.891,3.893,0,0,0,0,4.57,56.48,753.36253460629,32.8084,6,P-GPS,,10.0
16200,2026-01-11 17:17:59,753.36253460629,38.057744,0.3131716,8.4113847836,20.875328752,11,4,7.8,755.00295460629,34.44882,4.9436374,9.028543596,0.223694,-0.223694,0.0,16.8,8.5,-3.0,0,0,1024,1024,1024,1024,0,0,0,0,0,0,0,98,3.891,3.893,0,0,0,0,4.57,56.48,753.36253460629,32.8084,6,P-GPS,,10.0
16300,2026-01-11 17:17:59,753.36253460629,38.057744,0.3131716,8.4520343912,20.9538064448,11,4,7.8,755.00295460629,34.44882,4.9436374,9.028543596,0.223694,-0.223694,0.0,16.8,8.5,-2.7,0,0,1024,1024,1024,1024,0,0,0,0,0,0,0,98,3.891,3.893,0,0,0,0,4.57,56.48,753.36253460629,32.8084,6,P-GPS,,10.0
16400,2026-01-11 17:17:59,753.03445060629,38.057744,0.4921268,8.4754595888,21.0302172084,11,4,7.771,755.00295460629,34.44882,4.9436374,9.028543596,0.223694,-0.447388,0.0,16.8,8.7,-1.6,0,0,1024,1024,1024,1024,0,0,0,0,0,0,0,98,3.888,3.884,0,0,0,0,4.517,56.48,753.03445060629,32.480316,6,P-GPS,,9.9
16500,2026-01-11 17:17:59,753.03445060629,38.057744,0.447388,8.4895343924,21.132054482,11,4,7.771,755.00295460629,34.44882,4.9436374,9.028543596,0.0,-0.447388,0.0,16.8,8.4,-0.3,0,0,1024,1024,1024,1024,0,0,0,0,0,0,0,98,3.888,3.884,0,0,0,0,4.517,56.48,753.03445060629,32.480316,6,P-GPS,,9.9
16600,2026-01-11 17:18:00,752.70636660629,38.057744,0.447388,8.4849412164,21.1982946416,11,4,7.771,755.00295460629,34.44882,4.9436374,9.028543596,0.0,-0.447388,0.0,16.9,7.9,0.9,0,0,1024,1024,1024,1024,0,0,0,0,0,0,0,98,3.888,3.884,0,0,0,0,4.517,56.48,752.70636660629,32.152232,6,P-GPS,,9.8
16700,2026-01-11 17:18:00,752.70636660629,38.057744,0.447388,8.4731630008,21.2554796828,11,4,7.771,755.00295460629,34.44882,4.9436374,9.028543596,0.0,-0.447388,0.0,17.1,6.8,1.2,0,0,1024,1024,1024,1024,0,0,0,0,0,0,0,98,3.888,3.884,0,0,0,0,4.517,56.48,752.70636660629,32.152232,6,P-GPS,,9.8
16800,2026-01-11 17:18:00,752.70636660629,38.057744,0.447388,8.452428092,21.3145019944,11,4,7.771,755.00295460629,34.44882,4.9436374,9.028543596,0.0,-0.447388,-0.223694,16.9,6.5,1.1,0,0,1024,1024,1024,1024,0,0,0,0,0,0,0,98,3.888,3.884,0,0,0,0,4.517,56.48,752.70636660629,32.152232,6,P-GPS,,9.8
16900,2026-01-11 17:18:00,752.70636660629,38.057744,0.223694,8.430774548,21.3711621012,11,4,7.771,755.00295460629,34.44882,4.9436374,9.028543596,0.0,-0.223694,-0.223694,16.9,5.7,0.8,0,0,1024,1024,1024,1024,0,0,0,0,0,0,0,98,3.888,3.884,0,0,0,0,4.517,56.48,752.70636660629,32.152232,6,P-GPS,,9.8
17000,2026-01-11 17:18:00,752.70636660629,38.057744,0.223694,8.3762141788,21.449967878,11,4,7.771,755.00295460629,34.44882,4.9436374,9.028543596,0.0,-0.223694,-0.223694,16.9,6.2,0.7,0,0,1024,1024,1024,1024,0,0,0,0,0,0,0,98,3.888,3.884,0,0,0,0,4.517,56.48,752.70636660629,32.152232,6,P-GPS,,9.8
17100,2026-01-11 17:18:00,752.70636660629,38.057744,0.0,8.3615160156,21.4882552808,11,4,7.771,755.00295460629,34.44882,4.9436374,9.028543596,0.0,0.0,-0.447388,17.0,6.2,0.4,0,0,1024,1024,1024,1024,0,0,0,0,0,0,0,98,3.888,3.884,0,0,0,0,4.517,56.48,752.70636660629,32.152232,6,P-GPS,,9.8
17200,2026-01-11 17:18:00,752.70636660629,38.057744,0.0,8.3555776952,21.504593864,11,4,7.771,755.00295460629,34.44882,4.9436374,9.028543596,0.0,0.0,-0.447388,17.1,6.1,-0.6,0,0,1024,1024,1024,1024,0,0,0,0,0,0,0,98,3.888,3.884,0,0,0,0,4.517,56.48,752.70636660629,32.152232,6,P-GPS,,9.8
17300,2026-01-11 17:18:00,753.03445060629,38.057744,0.0,8.3565291388,21.5066936016,11,4,7.771,755.00295460629,34.44882,4.9436374,9.028543596,0.0,0.0,-0.447388,17.1,5.7,-1.3,0,0,1024,1024,1024,1024,0,0,0,0,0,0,0,98,3.888,3.884,0,0,0,0,4.517,56.48,753.03445060629,32.480316,6,P-GPS,,9.9
17400,2026-01-11 17:18:00,753.03445060629,38.057744,0.0,8.3307745448,21.5413064636,11,4,7.771,755.00295460629,34.44882,4.9436374,9.028543596,0.0,0.0,-0.447388,17.1,6.4,-2.3,0,0,1024,1024,1024,1024,0,0,0,0,0,0,0,98,3.888,3.884,0,0,0,0,4.517,56.48,753.03445060629,32.480316,6,P-GPS,,9.9
17500,2026-01-11 17:18:00,753.03445060629,38.057744,0.0,8.3446196896,21.5589245744,11,4,7.771,755.00295460629,34.44882,4.9436374,9.028543596,0.0,0.0,-0.447388,17.0,6.7,-2.7,0,0,1024,1024,1024,1024,0,0,0,0,0,0,0,98,3.878,3.874,0,0,0,0,4.517,56.48,753.03445060629,32.480316,6,P-GPS,,9.9
17600,2026-01-11 17:18:01,753.36253460629,38.057744,0.0,8.3823165412,21.6063655208,11,4,7.771,755.00295460629,34.44882,4.9436374,9.028543596,0.0,0.0,-0.447388,16.9,6.8,-3.1,0,0,1024,1024,1024,1024,0,0,0,0,0,0,0,98,3.878,3.874,0,0,0,0,4.517,56.48,753.36253460629,32.8084,6,P-GPS,,10.0
17700,2026-01-11 17:18:01,753.36253460629,38.057744,0.0,8.4358270416,21.6708340268,11,4,7.771,755.00295460629,34.44882,4.9436374,9.028543596,0.0,0.0,-0.447388,17.0,7.3,-3.1,0,0,1024,1024,1024,1024,0,0,0,0,0,0,0,98,3.878,3.874,0,0,0,0,4.517,56.48,753.36253460629,32.8084,6,P-GPS,,10.0
17800,2026-01-11 17:18:01,753.69061860629,38.057744,0.0,8.504265364,21.8075138212,11,4,7.771,755.00295460629,34.44882,4.9436374,9.028543596,0.0,0.0,-0.447388,17.0,8.1,-3.4,0,0,1024,1024,1024,1024,0,0,0,0,0,0,0,98,3.878,3.874,0,0,0,0,4.517,56.48,753.69061860629,33.136484,6,P-GPS,,10.1
17900,2026-01-11 17:18:01,753.69061860629,38.057744,0.0,8.5285763884,21.8491804892,11,4,7.771,755.00295460629,34.44882,4.9436374,9.028543596,0.0,0.0,-0.447388,17.0,8.0,-3.8,0,0,1024,1024,1024,1024,0,0,0,0,0,0,0,98,3.878,3.874,0,0,0,0,4.517,56.48,753.69061860629,33.136484,6,P-GPS,,10.1
18000,2026-01-11 17:18:01,753.69061860629,38.057744,0.0,8.534449092,21.8583668412,11,4,7.771,755.00295460629,34.44882,4.9436374,9.028543596,0.0,0.0,-0.223694,17.0,8.1,-3.4,0,0,1024,1024,1024,1024,0,0,0,0,0,0,0,98,3.878,3.874,0,0,0,0,4.517,56.48,753.69061860629,33.136484,6,P-GPS,,10.1
18100,2026-01-11 17:18:01,754.01870260629,38.057744,0.0,8.5316931864,21.863681802,11,4,7.771,755.00295460629,34.44882,4.9436374,9.028543596,0.0,0.0,-0.223694,16.8,8.3,-3.9,0,0,1024,1024,1024,1024,0,0,0,0,0,0,0,98,3.878,3.874,0,0,0,0,4.517,56.48,754.01870260629,33.464568,6,P-GPS,,10.2
18200,2026-01-11 17:18:01,754.01870260629,38.057744,0.0,8.5446525044,21.94389834,11,4,7.771,755.00295460629,34.44882,4.9436374,9.028543596,0.0,0.0,0.0,16.8,8.3,-4.5,0,0,1024,1024,1024,1024,0,0,0,0,0,0,0,98,3.878,3.874,0,0,0,0,4.517,56.48,754.01870260629,33.464568,6,P-GPS,,10.2
18300,2026-01-11 17:18:01,754.01870260629,38.057744,0.0,8.5676183844,21.9728681572,11,4,7.771,755.00295460629,34.44882,4.9436374,9.028543596,0.0,0.0,0.0,16.7,9.0,-3.5,0,0,1024,1024,1024,1024,0,0,0,0,0,0,0,98,3.878,3.874,0,0,0,0,4.517,56.48,754.01870260629,33.464568,6,P-GPS,,10.2
18400,2026-01-11 17:18:01,754.01870260629,38.057744,0.0,8.5728021116,21.9780518844,11,4,7.771,755.00295460629,34.44882,4.9436374,9.028543596,0.0,0.0,0.0,16.8,7.5,-3.1,0,0,1024,1024,1024,1024,0,0,0,0,0,0,0,98,3.878,3.874,0,0,0,0,4.517,56.48,754.01870260629,33.464568,6,P-GPS,,10.2
18500,2026-01-11 17:18:01,754.01870260629,38.057744,0.0,8.5697509304,21.9893051656,11,4,7.771,755.00295460629,34.44882,4.9436374,9.028543596,0.0,0.0,-0.223694,16.9,7.0,-3.4,0,0,1024,1024,1024,1024,0,0,0,0,0,0,0,98,3.878,3.874,0,0,0,0,4.517,56.48,754.01870260629,33.464568,6,P-GPS,,10.2
18600,2026-01-11 17:18:02,754.34678660629,38.057744,0.0,8.5671918752,21.9919954544,11,4,7.771,755.00295460629,34.44882,4.9436374,9.028543596,0.0,0.0,0.0,16.8,8.0,-4.0,0,0,1024,1024,1024,1024,0,0,0,0,0,0,0,98,3.878,3.874,0,0,0,0,4.517,56.48,754.34678660629,33.792652,6,P-GPS,,10.3
18700,2026-01-11 17:18:02,754.34678660629,38.057744,0.0,8.5294294068,22.0378287892,11,4,7.729,755.00295460629,34.44882,4.9436374,9.028543596,0.0,0.0,0.0,16.9,6.8,-3.6,0,0,1024,1024,1024,1024,0,0,0,0,0,0,0,98,3.863,3.865,0,0,0,0,4.614,56.48,754.34678660629,33.792652,6,P-GPS,,10.3
18800,2026-01-11 17:18:02,754.34678660629,38.057744,0.0,8.494422844,22.0793642236,11,4,7.729,755.00295460629,34.44882,4.9436374,9.028543596,0.0,0.0,0.0,16.9,7.2,-3.3,0,0,1024,1024,1024,1024,0,0,0,0,0,0,0,98,3.863,3.865,0,0,0,0,4.614,56.48,754.34678660629,33.792652,6,P-GPS,,10.3
18900,2026-01-11 17:18:02,754.34678660629,38.057744,0.0,8.4459976456,22.13582748,11,4,7.729,755.00295460629,34.44882,4.9436374,9.028543596,0.0,0.0,0.0,16.9,6.5,-3.2,0,0,1024,1024,1024,1024,0,0,0,0,0,0,0,98,3.863,3.865,0,0,0,0,4.614,56.48,754.34678660629,33.792652,6,P-GPS,,10.3
19000,2026-01-11 17:18:02,754.34678660629,38.057744,0.0,8.4189307156,22.1729665888,11,4,7.729,755.00295460629,34.44882,4.9436374,9.028543596,0.0,0.0,0.0,16.9,7.0,-2.7,0,0,1024,1024,1024,1024,0,0,0,0,0,0,0,98,3.863,3.865,0,0,0,0,4.614,56.48,754.34678660629,33.792652,6,P-GPS,,10.3
19100,2026-01-11 17:18:02,754.34678660629,38.057744,0.0,8.3381892432,22.2759521564,11,4,7.729,755.00295460629,34.44882,4.9436374,9.028543596,0.0,0.0,0.0,17.0,7.5,-2.8,0,0,1024,1024,1024,1024,0,0,0,0,0,0,0,98,3.863,3.865,0,0,0,0,4.614,56.48,754.34678660629,33.792652,6,P-GPS,,10.3
19200,2026-01-11 17:18:02,754.34678660629,38.057744,0.0,8.3363191644,22.2920938892,11,4,7.729,755.00295460629,34.44882,4.9436374,9.028543596,0.0,0.0,0.0,16.9,7.8,-3.3,0,0,1024,1024,1024,1024,0,0,0,0,0,0,0,98,3.863,3.865,0,0,0,0,4.614,56.48,754.34678660629,33.792652,6,P-GPS,,10.3
19300,2026-01-11 17:18:02,754.34678660629,38.057744,0.0,8.336286356,22.30807158,11,4,7.729,755.00295460629,34.44882,4.9436374,9.028543596,0.0,0.0,0.0,16.9,7.7,-3.0,0,0,1024,1024,1024,1024,0,0,0,0,0,0,0,98,3.863,3.865,0,0,0,0,4.614,56.48,754.34678660629,33.792652,6,P-GPS,,10.3
19400,2026-01-11 17:18:02,754.34678660629,38.057744,0.0,8.3450461988,22.317750058,11,4,7.729,755.00295460629,34.44882,4.9436374,9.028543596,0.0,0.0,0.0,16.9,7.6,-3.0,0,0,1024,1024,1024,1024,0,0,0,0,0,0,0,98,3.863,3.865,0,0,0,0,4.614,56.48,754.34678660629,33.792652,6,P-GPS,,10.3
19500,2026-01-11 17:18:02,754.01870260629,38.057744,0.0,8.3960304524,22.3820217136,12,4,7.729,755.00295460629,34.44882,4.9436374,9.028543596,0.0,-0.223694,0.0,16.9,7.3,-2.8,0,0,1024,1024,1024,1024,0,0,0,0,0,0,0,98,3.863,3.865,0,0,0,0,4.614,56.48,754.01870260629,33.464568,6,P-GPS,,10.2
19600,2026-01-11 17:18:02,754.01870260629,38.057744,0.223694,8.398458274,22.3865820812,12,4,7.729,755.00295460629,34.44882,4.9436374,9.028543596,0.0,-0.223694,0.0,16.9,7.2,-2.7,0,0,1024,1024,1024,1024,0,0,0,0,0,0,0,98,3.863,3.865,0,0,0,0,4.614,56.48,754.01870260629,33.464568,6,P-GPS,,10.2
19700,2026-01-11 17:18:03,754.01870260629,38.057744,0.223694,8.3993769092,22.3979009792,12,4,7.729,755.00295460629,34.44882,4.9436374,9.028543596,0.0,-0.223694,0.0,17.0,6.9,-2.4,0,0,1024,1024,1024,1024,0,0,0,0,0,0,0,98,3.863,3.865,0,0,0,0,4.614,56.48,754.01870260629,33.464568,6,P-GPS,,10.2
19800,2026-01-11 17:18:03,754.01870260629,38.057744,0.223694,8.399606568,22.415026964,12,4,7.74,755.00295460629,34.44882,4.9436374,9.028543596,0.0,-0.223694,0.0,17.0,7.2,-1.6,0,0,1024,1024,1024,1024,0,0,0,0,0,0,0,97,3.873,3.867,0,0,0,0,4.844,56.66,754.01870260629,33.464568,6,P-GPS,,10.2
19900,2026-01-11 17:18:03,754.01870260629,38.057744,0.223694,8.4266406896,22.4685374644,12,4,7.74,755.00295460629,34.44882,4.9436374,9.028543596,0.0,-0.223694,0.0,17.0,7.3,-1.8,0,0,1024,1024,1024,1024,0,0,0,0,0,0,0,97,3.873,3.867,0,0,0,0,4.844,56.66,754.01870260629,33.464568,6,P-GPS,,10.2
20000,2026-01-11 17:18:03,754.01870260629,38.057744,0.223694,8.4061354396,22.4894364152,12,4,7.74,755.00295460629,34.44882,4.9436374,9.028543596,0.0,0.0,0.0,17.0,7.0,-1.8,0,0,1024,1024,1024,1024,0,0,0,0,0,0,0,97,3.873,3.867,0,0,0,0,4.844,56.66,754.01870260629,33.464568,6,P-GPS,,10.2
20100,2026-01-11 17:18:03,754.01870260629,38.057744,0.223694,8.3743441,22.521982348,12,4,7.74,755.00295460629,34.44882,4.9436374,9.028543596,-0.223694,0.0,0.0,16.9,7.0,-1.8,0,0,1024,1024,1024,1024,0,0,0,0,0,0,0,97,3.873,3.867,0,0,0,0,4.844,56.66,754.01870260629,33.464568,6,P-GPS,,10.2
20200,2026-01-11 17:18:03,754.01870260629,38.057744,0.223694,8.349245674,22.5485899604,12,4,7.74,755.00295460629,34.44882,4.9436374,9.028543596,-0.223694,0.0,0.0,16.9,7.6,-3.0,0,0,1024,1024,1024,1024,0,0,0,0,0,0,0,97,3.873,3.867,0,0,0,0,4.844,56.66,754.01870260629,33.464568,6,P-GPS,,10.2
20300,2026-01-11 17:18:03,754.01870260629,38.057744,0.223694,8.322834912,22.5763458668,12,4,7.74,755.00295460629,34.44882,4.9436374,9.028543596,-0.223694,0.0,0.0,17.0,5.8,-2.7,0,0,1024,1024,1024,1024,0,0,0,0,0,0,0,97,3.873,3.867,0,0,0,0,4.844,56.66,754.01870260629,33.464568,6,P-GPS,,10.2
20400,2026-01-11 17:18:03,754.34678660629,38.057744,0.0,8.2492456708,22.6499679164,12,4,7.74,755.00295460629,34.44882,4.9436374,9.028543596,0.0,0.0,0.0,16.9,6.7,-1.8,0,0,1024,1024,1024,1024,0,0,0,0,0,0,0,97,3.873,3.867,0,0,0,0,4.844,56.66,754.34678660629,33.792652,6,P-GPS,,10.3
