time(millisecond),timestamp,altitude_above_seaLevel(feet),height_sonar(feet),speed(mph),distance(feet),mileage(feet),satellites,gpslevel,voltage(v),max_altitude(feet),max_ascent(feet),max_speed(mph),max_distance(feet), xSpeed(mph), ySpeed(mph), zSpeed(mph), compass_heading(degrees), pitch(degrees), roll(degrees),isPhoto,isVideo,rc_elevator,rc_aileron,rc_throttle,rc_rudder,rc_elevator(percent),rc_aileron(percent),rc_throttle(percent),rc_rudder(percent),gimbal_heading(degrees),gimbal_pitch(degrees),gimbal_roll(degrees),battery_percent,voltageCell1,voltageCell2,voltageCell3,voltageCell4,voltageCell5,voltageCell6,current(A),battery_temperature(f),altitude(feet),ascent(feet),flycStateRaw,flycState,message,height_above_takeoff(meters)
150000,2026-01-11 15:32:29,720.62677404431,0.328084,0.0,0.0,0.0,17,5,0.0,720.62677404431,0.0,0.0,0.0,0.0,0.0,0.0,19.6,1.1,0.4,0,0,1024,1024,1024,1024,0,0,0,0,0,0,0,88,3.982,3.982,0,0,0,0,0.0,61.88,720.62677404431,0.0,41,Motors_Started,SD card speed low SD card speed low. Normal use may be affected. Replace SD card (Code: 10028). Gimbal stuck. Make sure gimbal cover is removed and manually check whether gimbal can rotate freely (Code: 40002),0.0
150100,2026-01-11 15:32:29,720.62677404431,0.328084,0.0,0.0142413390384,0.0142413390384,17,5,0.0,720.62677404431,0.0,0.0,0.0142413390384,0.0,0.0,0.0,19.6,1.1,0.4,0,0,1024,1024,1024,1024,0,0,0,0,0,0,0,88,3.982,3.982,0,0,0,0,0.0,61.88,720.62677404431,0.0,41,Motors_Started,Setting new Return-To-Home altitude to 90m (295 ft). Data Recorder File Index is 33. Setting new Maximum Flight Altitude to 90m (295 ft),0.0
150200,2026-01-11 15:32:29,720.62677404431,0.328084,0.0,1.26348757324,0.0289467857032,17,5,0.0,720.62677404431,0.0,0.0,1.26348757324,0.0,0.0,0.0,19.6,1.1,0.4,0,0,1024,1024,1024,1024,0,0,0,0,0,0,0,88,3.982,3.982,0,0,0,0,0.0,61.88,720.62677404431,0.0,41,Motors_Started,,0.0
150300,2026-01-11 15:32:29,720.62677404431,0.328084,0.0,1.24830712656,0.044335303256,17,5,7.964,720.62677404431,0.0,0.0,1.26348757324,0.0,0.0,0.0,19.5,1.1,0.4,0,0,1024,1024,1024,1024,0,0,0,0,0,0,0,88,3.982,3.982,0,0,0,0,0.685,61.88,720.62677404431,0.0,41,Motors_Started,,0.0
150400,2026-01-11 15:32:29,720.62677404431,0.328084,0.0,1.21389767664,0.078824149504,17,5,7.964,720.62677404431,0.0,0.0,1.26348757324,0.0,0.0,0.0,19.7,1.2,0.3,0,0,1024,1024,1024,1024,0,0,0,0,0,0,0,88,3.982,3.982,0,0,0,0,0.685,61.88,720.62677404431,0.0,41,Motors_Started,,0.0
150500,2026-01-11 15:32:29,720.62677404431,0.328084,0.0,1.19882549768,0.094159779916,17,5,7.964,720.62677404431,0.0,0.0,1.26348757324,0.0,0.0,0.0,19.6,1.2,0.4,0,0,1024,1024,1024,1024,0,0,0,0,0,0,0,88,3.982,3.982,0,0,0,0,0.685,61.88,720.62677404431,0.0,41,Motors_Started,,0.0
150600,2026-01-11 15:32:30,720.62677404431,0.328084,0.0,1.20476381808,0.101929465204,17,5,7.964,720.62677404431,0.0,0.0,1.26348757324,0.0,0.0,0.0,19.5,1.1,0.4,0,0,1024,1024,1024,1024,0,0,0,0,0,0,0,88,3.982,3.982,0,0,0,0,0.685,61.88,720.62677404431,0.0,41,Motors_Started,,0.0
150700,2026-01-11 15:32:30,720.62677404431,0.328084,0.0,1.21690948776,0.116163717628,17,5,7.964,720.62677404431,0.0,0.0,1.26348757324,0.0,0.0,0.0,19.5,1.1,0.4,0,0,1024,1024,1024,1024,0,0,0,0,0,0,0,88,3.982,3.982,0,0,0,0,0.685,61.88,720.62677404431,0.0,41,Motors_Started,,0.0
150800,2026-01-11 15:32:30,720.62677404431,0.328084,0.0,1.22304137772,0.1241961982,17,5,7.964,720.62677404431,0.0,0.0,1.26348757324,0.0,0.0,0.0,19.6,1.1,0.4,0,0,1024,1024,1024,1024,0,0,0,0,0,0,0,88,3.982,3.982,0,0,0,0,0.685,61.88,720.62677404431,0.0,41,Motors_Started,,0.0
150900,2026-01-11 15:32:30,720.62677404431,0.328084,0.0,1.20535108844,0.142982944208,17,5,7.964,720.62677404431,0.0,0.0,1.26348757324,0.0,0.0,0.0,19.6,1.2,0.4,0,0,1024,1024,1024,1024,0,0,0,0,0,0,0,88,3.982,3.982,0,0,0,0,0.685,61.88,720.62677404431,0.0,41,Motors_Started,,0.0
151000,2026-01-11 15:32:30,720.62677404431,0.328084,0.0,1.19806762364,0.150881238424,17,5,7.964,720.62677404431,0.0,0.0,1.26348757324,0.0,0.0,0.0,19.6,1.1,0.4,0,0,1024,1024,1024,1024,0,0,0,0,0,0,0,88,3.982,3.982,0,0,0,0,0.685,61.88,720.62677404431,0.0,41,Motors_Started,,0.0
151100,2026-01-11 15:32:30,720.62677404431,0.328084,0.0,1.19351381772,0.155670608656,17,5,7.964,720.62677404431,0.0,0.0,1.26348757324,0.0,0.0,0.0,19.6,1.2,0.4,0,0,1024,1024,1024,1024,0,0,0,0,0,0,0,88,3.982,3.982,0,0,0,0,0.685,61.88,720.62677404431,0.0,11,AutoTakeoff,,0.0
151200,2026-01-11 15:32:30,720.62677404431,0.328084,0.0,1.18420935548,0.16571850924,17,5,7.964,720.62677404431,0.0,0.0,1.26348757324,0.0,0.0,0.0,19.6,1.1,0.4,0,0,1024,1024,1024,1024,0,0,0,0,0,0,0,88,3.982,3.982,0,0,0,0,0.685,61.88,720.62677404431,0.0,11,AutoTakeoff,,0.0
151300,2026-01-11 15:32:30,720.62677404431,0.328084,0.0,1.17113848892,0.181727039936,17,5,7.964,720.62677404431,0.0,0.0,1.26348757324,0.0,0.0,0.0,19.6,1.1,0.4,0,0,1024,1024,1024,1024,0,0,0,0,0,0,0,88,3.982,3.982,0,0,0,0,0.685,61.88,720.62677404431,0.0,11,AutoTakeoff,,0.0
151400,2026-01-11 15:32:30,720.62677404431,0.328084,0.0,1.17349741288,0.197172906572,17,5,7.911,720.62677404431,0.0,0.0,1.26348757324,0.0,0.0,0.0,19.8,1.1,0.4,0,0,1024,1024,1024,1024,0,0,0,0,0,0,0,88,3.956,3.955,0,0,0,0,1.544,61.88,720.62677404431,0.0,11,AutoTakeoff,,0.0
151500,2026-01-11 15:32:30,720.62677404431,0.328084,0.0,1.17996066768,0.217550531896,17,5,7.911,720.62677404431,0.0,0.0,1.26348757324,0.0,0.0,0.0,19.9,1.1,0.3,0,0,1024,1024,1024,1024,0,0,0,0,0,0,0,88,3.956,3.955,0,0,0,0,1.544,61.88,720.62677404431,0.0,11,AutoTakeoff,,0.0
151600,2026-01-11 15:32:31,720.62677404431,0.328084,0.0,1.17528875152,0.232608603244,17,5,7.911,720.62677404431,0.0,0.0,1.26348757324,0.0,0.0,0.0,20.1,1.1,0.3,0,0,1024,1024,1024,1024,0,0,0,0,0,0,0,88,3.956,3.955,0,0,0,0,1.544,61.88,720.62677404431,0.0,11,AutoTakeoff,,0.0
151700,2026-01-11 15:32:31,720.62677404431,0.328084,0.0,1.175442951,0.269671268472,17,5,7.911,720.62677404431,0.0,0.0,1.26348757324,0.0,0.0,0.0,21.2,0.8,0.0,0,0,1024,1024,1024,1024,0,0,0,0,0,0,0,88,3.956,3.955,0,0,0,0,1.544,61.88,720.62677404431,0.0,11,AutoTakeoff,,0.0
151800,2026-01-11 15:32:31,720.62677404431,0.328084,0.223694,1.145587307,0.305353356228,17,5,7.911,720.62677404431,0.0,0.223694,1.26348757324,0.0,0.223694,0.0,22.9,0.0,-0.5,0,0,1024,1024,1024,1024,0,0,0,0,0,0,0,88,3.956,3.955,0,0,0,0,1.544,61.88,720.62677404431,0.0,11,AutoTakeoff,,0.0
151900,2026-01-11 15:32:31,720.62677404431,0.328084,0.223694,1.0982447858,0.36002953908,17,5,7.911,720.62677404431,0.0,0.223694,1.26348757324,0.0,0.223694,-0.223694,24.0,0.8,-1.4,0,0,1024,1024,1024,1024,0,0,0,0,0,0,0,88,3.956,3.955,0,0,0,0,1.544,61.88,720.62677404431,0.0,11,AutoTakeoff,,0.0
152000,2026-01-11 15:32:31,720.95485804431,0.328084,0.447388,1.05558402328,0.41911418664,17,5,7.911,720.95485804431,0.328084,0.447388,1.26348757324,0.0,0.447388,-0.671082,24.0,1.6,-1.0,0,0,1024,1024,1024,1024,0,0,0,0,0,0,0,88,3.956,3.955,0,0,0,0,1.544,61.88,720.95485804431,0.328084,11,AutoTakeoff,,0.1
152100,2026-01-11 15:32:31,720.95485804431,0.656168,0.447388,1.0161909774,0.49349082944,17,5,7.911,720.95485804431,0.328084,0.447388,1.26348757324,0.0,0.447388,-0.894776,23.8,2.4,-2.2,0,0,1024,1024,1024,1024,0,0,0,0,0,0,0,88,3.956,3.955,0,0,0,0,1.544,61.88,720.95485804431,0.328084,11,AutoTakeoff,,0.1
152200,2026-01-11 15:32:31,720.95485804431,0.656168,0.447388,0.95794294404,0.57933728888,17,5,7.911,720.95485804431,0.328084,0.447388,1.26348757324,0.0,0.447388,-1.342164,23.9,2.0,-1.9,0,0,1024,1024,1677,1024,0,0,99,0,0,0,0,88,3.956,3.955,0,0,0,0,1.544,61.88,720.95485804431,0.328084,11,AutoTakeoff,Home Point updated. RTH altitude adjusted to 90 m (Code: 120852),0.1
152300,2026-01-11 15:32:31,721.28294204431,0.984252,0.447388,0.89869425448,0.6801345362,17,5,7.911,721.28294204431,0.656168,0.447388,1.26348757324,0.0,0.447388,-1.565858,23.9,1.7,-2.7,0,0,1024,1024,1684,1024,0,0,100,0,0,0,0,88,3.956,3.955,0,0,0,0,1.544,61.88,721.28294204431,0.656168,11,AutoTakeoff,,0.2
152400,2026-01-11 15:32:31,721.61102604431,0.984252,0.7158208,0.84775593264,0.8041502882,17,5,7.911,721.61102604431,0.984252,0.7158208,1.26348757324,-0.223694,0.671082,-1.789552,23.9,1.2,-4.3,0,0,1024,1024,1684,1024,0,0,100,0,0,0,0,88,3.956,3.955,0,0,0,0,1.544,61.88,721.61102604431,0.984252,11,AutoTakeoff,,0.3
152500,2026-01-11 15:32:31,721.93911004431,1.312336,0.4921268,0.78332679672,1.00755908736,16,5,7.911,721.93911004431,1.312336,0.7158208,1.26348757324,-0.223694,0.447388,-2.23694,24.0,0.9,-5.0,0,0,1024,1024,1684,1024,0,0,100,0,0,0,0,88,3.956,3.955,0,0,0,0,1.544,61.88,721.93911004431,1.312336,11,AutoTakeoff,,0.4
152600,2026-01-11 15:32:32,722.59527804431,1.64042,0.4921268,0.76837928968,1.11065948436,16,5,7.674,722.59527804431,1.968504,0.7158208,1.26348757324,-0.223694,0.447388,-2.460634,24.1,0.6,-5.3,0,0,1024,1024,1684,1024,0,0,100,0,0,0,0,88,3.832,3.842,0,0,0,0,5.015,61.88,722.59527804431,1.968504,11,AutoTakeoff,,0.6
152700,2026-01-11 15:32:32,722.92336204431,1.968504,0.447388,0.75465225512,1.20188980224,17,5,7.674,722.92336204431,2.296588,0.7158208,1.26348757324,0.0,0.447388,-3.131716,24.1,1.2,-5.0,0,0,1024,1024,1684,1024,0,0,100,0,0,0,0,88,3.832,3.842,0,0,0,0,5.015,61.88,722.92336204431,2.296588,11,AutoTakeoff,,0.7
152800,2026-01-11 15:32:32,723.57953004431,2.624672,0.447388,0.75347115272,1.27996395172,17,5,7.674,723.57953004431,2.952756,0.7158208,1.26348757324,0.0,0.447388,-3.802798,24.1,1.2,-5.1,0,0,1024,1024,1684,1024,0,0,100,0,0,0,0,88,3.832,3.842,0,0,0,0,5.015,61.88,723.57953004431,2.952756,11,AutoTakeoff,,0.9
152900,2026-01-11 15:32:32,724.23569804431,2.952756,0.223694,0.75799871192,1.354904899,17,5,7.674,724.23569804431,3.608924,0.7158208,1.26348757324,0.0,0.223694,-4.026492,24.3,1.0,-5.1,0,0,1024,1024,1684,1024,0,0,100,0,0,0,0,88,3.832,3.842,0,0,0,0,5.015,61.88,724.23569804431,3.608924,6,P-GPS,,1.1
153000,2026-01-11 15:32:32,724.89186604431,3.608924,0.223694,0.69559057344,1.4259514892,17,5,7.674,724.89186604431,4.265092,0.7158208,1.26348757324,0.0,0.223694,-4.250186,24.2,1.8,-4.8,0,0,1024,1024,1684,1024,0,0,100,0,0,0,0,88,3.832,3.842,0,0,0,0,5.015,61.88,724.89186604431,4.265092,6,P-GPS,,1.3
153100,2026-01-11 15:32:32,725.54803404431,4.265092,0.3131716,0.67576445732,1.5124836442,17,5,7.674,725.54803404431,4.92126,0.7158208,1.26348757324,0.223694,0.223694,-4.47388,24.3,2.0,-4.1,0,0,1024,1024,1684,1024,0,0,100,0,0,0,0,88,3.832,3.842,0,0,0,0,5.015,61.88,725.54803404431,4.92126,6,P-GPS,,1.5
153200,2026-01-11 15:32:32,726.53228604431,4.92126,0.3131716,0.6408628814,1.57092196628,17,5,7.674,726.53228604431,5.905512,0.7158208,1.26348757324,0.223694,0.223694,-4.47388,24.3,2.6,-3.7,0,0,1024,1024,1684,1024,0,0,100,0,0,0,0,88,3.832,3.842,0,0,0,0,5.015,61.88,726.53228604431,5.905512,6,P-GPS,,1.8
153300,2026-01-11 15:32:32,727.18845404431,5.577428,0.3131716,0.60061681712,1.63467853,17,5,7.674,727.18845404431,6.56168,0.7158208,1.26348757324,0.223694,0.223694,-4.47388,24.3,3.8,-3.4,0,0,1024,1024,1684,1024,0,0,100,0,0,0,0,88,3.832,3.842,0,0,0,0,5.015,61.88,727.18845404431,6.56168,6,P-GPS,,2.0
153400,2026-01-11 15:32:32,727.84462204431,6.233596,0.3131716,0.54264109348,1.69451777076,17,5,7.674,727.84462204431,7.217848,0.7158208,1.26348757324,0.223694,0.223694,-4.47388,24.0,4.5,-4.0,0,0,1024,1024,1684,1024,0,0,100,0,0,0,0,88,3.832,3.842,0,0,0,0,5.015,61.88,727.84462204431,7.217848,6,P-GPS,,2.2
153500,2026-01-11 15:32:32,728.82887404431,6.889764,0.3131716,0.55446852168,1.77677827208,17,5,7.674,728.82887404431,8.2021,0.7158208,1.26348757324,0.223694,0.223694,-4.250186,23.9,5.0,-4.5,0,0,1024,1024,1684,1024,0,0,100,0,0,0,0,88,3.832,3.842,0,0,0,0,5.015,61.88,728.82887404431,8.2021,6,P-GPS,,2.5
153600,2026-01-11 15:32:33,729.48504204431,7.545932,0.3131716,0.49346458272,1.88732617588,17,5,7.674,729.48504204431,8.858268,0.7158208,1.26348757324,0.223694,0.223694,-4.250186,23.9,5.5,-3.8,0,0,1024,1024,1684,1024,0,0,100,0,0,0,0,88,3.832,3.842,0,0,0,0,5.015,61.88,729.48504204431,8.858268,6,P-GPS,,2.7
153700,2026-01-11 15:32:33,730.14121004431,7.874016,0.3131716,0.43552822916,2.01483930332,17,5,7.669,730.14121004431,9.514436,0.7158208,1.26348757324,0.223694,0.223694,-4.250186,23.8,5.9,-5.6,0,0,1024,1024,1684,1024,0,0,100,0,0,0,0,88,3.833,3.835,0,0,0,0,6.313,61.88,730.14121004431,9.514436,6,P-GPS,,2.9
153800,2026-01-11 15:32:33,730.79737804431,8.530184,0.223694,0.38267061592,2.2763124088,17,5,7.669,730.79737804431,10.170604,0.7158208,1.26348757324,0.0,0.223694,-4.026492,23.8,6.2,-4.5,0,0,1024,1024,1684,1024,0,0,100,0,0,0,0,88,3.833,3.835,0,0,0,0,6.313,61.88,730.79737804431,10.170604,6,P-GPS,,3.1
153900,2026-01-11 15:32:33,731.45354604431,9.186352,0.0,0.46179791504,2.3631398394,17,5,7.669,731.45354604431,10.826772,0.7158208,1.26348757324,0.0,0.0,-4.026492,23.9,5.9,-3.5,0,0,1024,1024,1684,1024,0,0,100,0,0,0,0,88,3.833,3.835,0,0,0,0,6.313,61.88,731.45354604431,10.826772,6,P-GPS,,3.3
154000,2026-01-11 15:32:33,732.10971404431,9.84252,0.0,0.53194555508,2.43652238768,17,5,7.669,732.10971404431,11.48294,0.7158208,1.26348757324,0.0,0.0,-4.250186,23.9,4.3,-4.1,0,0,1024,1024,1684,1024,0,0,100,0,0,0,0,88,3.833,3.835,0,0,0,0,6.313,61.88,732.10971404431,11.48294,6,P-GPS,,3.5
154100,2026-01-11 15:32:33,732.76588204431,10.170604,0.0,0.60312009804,2.51838590736,17,5,7.669,732.76588204431,12.139108,0.7158208,1.26348757324,0.0,0.0,-4.250186,23.9,3.5,-3.9,0,0,1024,1024,1684,1024,0,0,100,0,0,0,0,88,3.833,3.835,0,0,0,0,6.313,61.88,732.76588204431,12.139108,6,P-GPS,,3.7
154200,2026-01-11 15:32:33,733.42205004431,10.826772,0.0,0.79039372608,2.808891166,17,5,7.669,733.42205004431,12.795276,0.7158208,1.26348757324,0.0,0.0,-4.47388,24.1,3.0,-5.3,0,0,1024,1024,1684,1024,0,0,100,0,0,0,0,88,3.833,3.835,0,0,0,0,6.313,61.88,733.42205004431,12.795276,6,P-GPS,,3.9
154300,2026-01-11 15:32:33,734.07821804431,11.48294,0.0,0.8891568526,2.92274287568,17,5,7.669,734.07821804431,13.451444,0.7158208,1.26348757324,0.0,0.0,-4.250186,24.2,2.3,-4.7,0,0,1024,1024,1684,1024,0,0,100,0,0,0,0,88,3.833,3.835,0,0,0,0,6.313,61.88,734.07821804431,13.451444,6,P-GPS,,4.1
154400,2026-01-11 15:32:33,734.73438604431,12.139108,0.0,0.94879268128,2.99744432164,17,5,7.669,734.73438604431,14.107612,0.7158208,1.26348757324,0.0,0.0,-4.250186,24.1,3.1,-4.2,0,0,1024,1024,1684,1024,0,0,100,0,0,0,0,88,3.833,3.835,0,0,0,0,6.313,61.88,734.73438604431,14.107612,6,P-GPS,,4.3
154500,2026-01-11 15:32:33,735.39055404431,12.795276,0.0,0.99610895576,3.05882883804,17,5,7.669,735.39055404431,14.76378,0.7158208,1.26348757324,0.0,0.0,-4.47388,24.0,3.2,-4.3,0,0,1024,1024,1684,1024,0,0,100,0,0,0,0,88,3.833,3.835,0,0,0,0,6.313,61.88,735.39055404431,14.76378,6,P-GPS,,4.5
154600,2026-01-11 15:32:34,736.04672204431,13.451444,0.0,1.06716866932,3.140748132,17,5,7.669,736.04672204431,15.419948,0.7158208,1.26348757324,0.0,0.0,-4.47388,24.0,3.3,-4.4,0,0,1024,1024,1684,1024,0,0,100,0,0,0,0,88,3.833,3.835,0,0,0,0,6.313,61.88,736.04672204431,15.419948,6,P-GPS,,4.7
154700,2026-01-11 15:32:34,736.70289004431,14.107612,0.0,1.22134846428,3.3566602124,17,5,7.669,736.70289004431,16.076116,0.7158208,1.26348757324,0.0,0.0,-4.47388,23.9,3.3,-4.5,0,0,1024,1024,1684,1024,0,0,100,0,0,0,0,88,3.833,3.835,0,0,0,0,6.313,61.88,736.70289004431,16.076116,6,P-GPS,,4.9
154800,2026-01-11 15:32:34,737.35905804431,14.76378,0.0,1.18631237392,3.3921917096,17,5,7.644,737.35905804431,16.732284,0.7158208,1.26348757324,0.0,0.0,-4.47388,23.9,2.8,-3.5,0,0,1024,1024,1684,1024,0,0,100,0,0,0,0,88,3.818,3.824,0,0,0,0,6.211,61.88,737.35905804431,16.732284,6,P-GPS,,5.1
154900,2026-01-11 15:32:34,738.01522604431,15.419948,0.0,1.10840882812,3.470144468,17,5,7.644,738.01522604431,17.388452,0.7158208,1.26348757324,0.0,0.0,-4.47388,23.8,3.7,-3.6,0,0,1024,1024,1684,1024,0,0,100,0,0,0,0,88,3.818,3.824,0,0,0,0,6.211,61.88,738.01522604431,17.388452,6,P-GPS,,5.3
155000,2026-01-11 15:32:34,738.67139404431,16.076116,0.0,1.04613848492,3.5366142864,17,5,7.644,738.67139404431,18.04462,0.7158208,1.26348757324,0.0,0.0,-4.47388,23.9,4.6,-3.5,0,0,1024,1024,1684,1024,0,0,100,0,0,0,0,88,3.818,3.824,0,0,0,0,6.211,61.88,738.67139404431,18.04462,6,P-GPS,,5.5
155100,2026-01-11 15:32:34,739.32756204431,17.060368,0.0,0.79604989424,3.8129266312,17,5,7.644,739.32756204431,18.700788,0.7158208,1.26348757324,0.0,0.0,-4.47388,23.8,5.0,-3.8,0,0,1024,1024,1684,1024,0,0,100,0,0,0,0,88,3.818,3.824,0,0,0,0,6.211,61.88,739.32756204431,18.700788,6,P-GPS,,5.7
155200,2026-01-11 15:32:34,739.98373004431,17.716536,0.0,0.76739503768,3.844488312,17,5,7.644,739.98373004431,19.356956,0.7158208,1.26348757324,0.0,0.0,-4.47388,23.8,4.1,-3.1,0,0,1024,1024,1684,1024,0,0,100,0,0,0,0,88,3.818,3.824,0,0,0,0,6.211,61.88,739.98373004431,19.356956,6,P-GPS,,5.9
155300,2026-01-11 15:32:34,740.63989804431,18.372704,0.0,0.74082351452,3.8846457936,17,5,7.644,740.63989804431,20.013124,0.7158208,1.26348757324,0.0,0.0,-4.47388,24.1,3.8,-1.8,0,0,1024,1024,1684,1024,0,0,100,0,0,0,0,88,3.818,3.824,0,0,0,0,6.211,61.88,740.63989804431,20.013124,6,P-GPS,,6.1
155400,2026-01-11 15:32:34,741.29606604431,19.028872,0.0,0.71494096776,3.9125329336,17,5,7.644,741.29606604431,20.669292,0.7158208,1.26348757324,0.0,0.0,-4.47388,24.2,3.8,-2.0,0,0,1024,1024,1684,1024,0,0,100,0,0,0,0,88,3.818,3.824,0,0,0,0,6.211,61.88,741.29606604431,20.669292,6,P-GPS,,6.3
155500,2026-01-11 15:32:35,741.95223404431,20.013124,0.0,0.76904858104,3.972112988,17,5,7.644,741.95223404431,21.32546,0.7158208,1.26348757324,0.0,0.0,-4.47388,23.8,4.5,-3.2,0,0,1024,1024,1684,1024,0,0,100,0,0,0,0,88,3.818,3.824,0,0,0,0,6.211,61.88,741.95223404431,21.32546,6,P-GPS,,6.5
155600,2026-01-11 15:32:35,742.60840204431,20.669292,0.0,0.75353348868,4.0069883172,17,5,7.644,742.60840204431,21.981628,0.7158208,1.26348757324,0.0,0.0,-4.250186,23.8,4.5,-2.5,0,0,1024,1024,1684,1024,0,0,100,0,0,0,0,88,3.818,3.824,0,0,0,0,6.211,61.88,742.60840204431,21.981628,6,P-GPS,,6.7
155700,2026-01-11 15:32:35,743.26457004431,21.653544,0.223694,0.73750330444,4.057742912,17,5,7.644,743.26457004431,22.637796,0.7158208,1.26348757324,0.0,-0.223694,-4.47388,24.1,3.9,-2.0,0,0,1024,1024,1684,1024,0,0,100,0,0,0,0,88,3.818,3.824,0,0,0,0,6.211,61.88,743.26457004431,22.637796,6,P-GPS,,6.9
155800,2026-01-11 15:32:35,743.92073804431,22.309712,0.0,0.7310039604,4.1102035436,17,5,7.644,743.92073804431,23.293964,0.7158208,1.26348757324,0.0,0.0,-4.47388,24.1,3.9,-1.8,0,0,1024,1024,1684,1024,0,0,100,0,0,0,0,88,3.837,3.839,0,0,0,0,6.211,61.88,743.92073804431,23.293964,6,P-GPS,,7.1
155900,2026-01-11 15:32:35,744.24882204431,23.293964,0.0,0.80291341152,4.233759978,17,5,7.644,744.24882204431,23.622048,0.7158208,1.26348757324,0.0,-0.223694,-4.47388,24.1,3.9,-2.1,0,0,1024,1024,1684,1024,0,0,100,0,0,0,0,88,3.837,3.839,0,0,0,0,6.211,61.88,744.24882204431,23.622048,6,P-GPS,,7.2
156000,2026-01-11 15:32:35,744.90499004431,23.950132,0.0,0.80689963212,4.2902560428,17,5,7.644,744.90499004431,24.278216,0.7158208,1.26348757324,0.0,0.0,-4.47388,24.0,3.3,-2.2,0,0,1024,1024,1684,1024,0,0,100,0,0,0,0,88,3.837,3.839,0,0,0,0,6.211,61.88,744.90499004431,24.278216,6,P-GPS,,7.4
156100,2026-01-11 15:32:35,745.56115804431,24.6063,0.0,0.8151575064,4.3500001392,17,5,7.644,745.56115804431,24.934384,0.7158208,1.26348757324,0.0,0.0,-4.250186,23.8,3.6,-2.5,0,0,1024,1024,1684,1024,0,0,100,0,0,0,0,87,3.837,3.839,0,0,0,0,6.211,61.88,745.56115804431,24.934384,6,P-GPS,,7.6
156200,2026-01-11 15:32:35,746.21732604431,25.262468,0.0,0.80119425136,4.382546072,17,5,7.644,746.21732604431,25.590552,0.7158208,1.26348757324,0.0,0.0,-4.250186,23.8,4.0,-2.4,0,0,1024,1024,1684,1024,0,0,100,0,0,0,0,87,3.837,3.839,0,0,0,0,6.211,61.88,746.21732604431,25.590552,6,P-GPS,,7.8
156300,2026-01-11 15:32:35,747.20157804431,25.590552,0.223694,0.77984910632,4.4172573592,17,5,7.644,747.20157804431,26.574804,0.7158208,1.26348757324,0.0,-0.223694,-4.250186,23.7,3.6,-2.0,0,0,1024,1024,1684,1024,0,0,100,0,0,0,0,87,3.837,3.839,0,0,0,0,6.211,61.88,747.20157804431,26.574804,6,P-GPS,,8.1
156400,2026-01-11 15:32:35,747.85774604431,29.52756,0.223694,0.72523952452,4.4834975188,17,5,7.644,747.85774604431,27.230972,0.7158208,1.26348757324,0.0,-0.223694,-4.250186,23.7,3.3,-1.3,0,0,1024,1024,1684,1024,0,0,100,0,0,0,0,87,3.837,3.839,0,0,0,0,6.211,61.88,747.85774604431,27.230972,6,P-GPS,,8.3
156500,2026-01-11 15:32:35,748.51391404431,30.183728,0.223694,0.71176839548,4.557578886,17,5,7.644,748.51391404431,27.88714,0.7158208,1.26348757324,0.0,-0.223694,-4.250186,23.7,3.5,-0.9,0,0,1024,1024,1684,1024,0,0,100,0,0,0,0,87,3.837,3.839,0,0,0,0,6.211,61.88,748.51391404431,27.88714,6,P-GPS,,8.5
156600,2026-01-11 15:32:36,749.17008204431,30.839896,0.0,0.70491800156,4.6127954232,17,5,7.644,749.17008204431,28.543308,0.7158208,1.26348757324,0.0,0.0,-4.47388,23.9,3.2,-1.3,0,0,1024,1024,1684,1024,0,0,100,0,0,0,0,87,3.837,3.839,0,0,0,0,6.211,61.88,749.17008204431,28.543308,6,P-GPS,,8.7
156700,2026-01-11 15:32:36,749.82625004431,31.824148,0.0,0.70044949748,4.6616799392,17,5,7.644,749.82625004431,29.199476,0.7158208,1.26348757324,0.0,0.0,-4.250186,24.0,3.3,-1.2,0,0,1024,1024,1684,1024,0,0,100,0,0,0,0,87,3.837,3.839,0,0,0,0,6.211,61.88,749.82625004431,29.199476,6,P-GPS,,8.9
156800,2026-01-11 15:32:36,750.48241804431,32.480316,0.0,0.68407810588,4.7026904392,17,5,7.644,750.48241804431,29.855644,0.7158208,1.26348757324,0.0,0.0,-4.250186,24.0,3.9,-1.5,0,0,1024,1024,1684,1024,0,0,100,0,0,0,0,87,3.837,3.839,0,0,0,0,6.211,61.88,750.48241804431,29.855644,6,P-GPS,,9.1
156900,2026-01-11 15:32:36,751.13858604431,33.136484,0.0,0.6964731194,4.7351707552,17,5,7.674,751.13858604431,30.511812,0.7158208,1.26348757324,0.0,0.0,-4.250186,23.9,4.4,-1.3,0,0,1024,1024,1684,1024,0,0,100,0,0,0,0,87,3.829,3.833,0,0,0,0,5.588,61.88,751.13858604431,30.511812,6,P-GPS,,9.3
157000,2026-01-11 15:32:36,751.79475404431,33.464568,0.0,0.68943899844,4.768864982,17,5,7.674,751.79475404431,31.16798,0.7158208,1.26348757324,0.0,0.0,-4.250186,23.9,4.4,-1.7,0,0,1024,1024,1684,1024,0,0,100,0,0,0,0,87,3.829,3.833,0,0,0,0,5.588,61.88,751.79475404431,31.16798,6,P-GPS,,9.5
157100,2026-01-11 15:32:36,752.45092204431,34.120736,0.0,0.6842355862,4.8085303376,17,5,7.674,752.45092204431,31.824148,0.7158208,1.26348757324,0.0,0.0,-4.250186,23.7,4.1,-1.7,0,0,1024,1024,1684,1024,0,0,100,0,0,0,0,87,3.829,3.833,0,0,0,0,5.588,61.88,752.45092204431,31.824148,6,P-GPS,,9.7
157200,2026-01-11 15:32:36,753.10709004431,34.776904,0.0,0.66490159608,4.8504594728,17,5,7.674,753.10709004431,32.480316,0.7158208,1.26348757324,0.0,0.0,-4.250186,23.6,3.9,-1.5,0,0,1024,1024,1024,1024,0,0,0,0,0,0,0,87,3.829,3.833,0,0,0,0,5.588,61.88,753.10709004431,32.480316,6,P-GPS,,9.9
157300,2026-01-11 15:32:36,753.76325804431,35.104988,0.223694,0.7069718074,4.9024607868,17,5,7.674,753.76325804431,33.136484,0.7158208,1.26348757324,-0.223694,0.0,-4.250186,23.7,3.0,-1.6,0,0,1024,1024,1024,1024,0,0,0,0,0,0,0,87,3.829,3.833,0,0,0,0,5.588,61.88,753.76325804431,33.136484,6,P-GPS,,10.1
157400,2026-01-11 15:32:36,754.74751004431,35.433072,0.223694,0.77924543176,4.9786090832,17,5,7.674,754.74751004431,34.120736,0.7158208,1.26348757324,-0.223694,0.0,-4.250186,23.8,1.6,-2.1,0,0,1024,1024,1024,1024,0,0,0,0,0,0,0,87,3.829,3.833,0,0,0,0,5.588,61.88,754.74751004431,34.120736,6,P-GPS,,10.4
157500,2026-01-11 15:32:37,755.40367804431,36.08924,0.0,0.86101380708,5.0619096108,17,5,7.674,755.40367804431,34.776904,0.7158208,1.26348757324,0.0,0.0,-3.802798,23.7,2.2,-2.1,0,0,1024,1024,1024,1024,0,0,0,0,0,0,0,87,3.829,3.833,0,0,0,0,5.588,61.88,755.40367804431,34.776904,6,P-GPS,,10.6
157600,2026-01-11 15:32:37,756.05984604431,36.417324,0.0,0.95860895456,5.17880594,17,5,7.674,756.05984604431,35.433072,0.7158208,1.26348757324,0.0,0.0,-3.131716,23.7,1.7,-2.1,0,0,1024,1024,1024,1024,0,0,0,0,0,0,0,87,3.829,3.833,0,0,0,0,5.588,61.88,756.05984604431,35.433072,6,P-GPS,,10.8
157700,2026-01-11 15:32:37,756.38793004431,37.073492,0.0,0.99948822096,5.220800692,17,5,7.674,756.38793004431,35.761156,0.7158208,1.26348757324,0.0,0.0,-2.460634,23.6,1.8,-2.7,0,0,1024,1024,1024,1024,0,0,0,0,0,0,0,87,3.829,3.833,0,0,0,0,5.588,61.88,756.38793004431,35.761156,6,P-GPS,,10.9
157800,2026-01-11 15:32:37,757.04409804431,37.073492,0.0,1.03314963936,5.2620080424,17,5,7.674,757.04409804431,36.417324,0.7158208,1.26348757324,0.0,0.0,-1.565858,23.3,2.9,-4.1,0,0,1024,1024,1024,1024,0,0,0,0,0,0,0,87,3.829,3.833,0,0,0,0,5.588,61.88,757.04409804431,36.417324,6,P-GPS,,11.1
157900,2026-01-11 15:32:37,757.37218204431,37.401576,0.0,1.07322509996,5.3165356032,17,5,7.674,757.37218204431,36.745408,0.7158208,1.26348757324,0.0,0.0,-0.894776,23.3,3.1,-4.4,0,0,1024,1024,1024,1024,0,0,0,0,0,0,0,87,3.829,3.833,0,0,0,0,5.588,61.88,757.37218204431,36.745408,6,P-GPS,,11.2
158000,2026-01-11 15:32:37,757.70026604431,37.401576,0.3131716,1.14158140136,5.3969818,17,5,7.674,757.70026604431,37.073492,0.7158208,1.26348757324,-0.223694,0.223694,-0.447388,23.3,2.6,-4.4,0,0,1024,1024,1024,1024,0,0,0,0,0,0,0,87,3.829,3.833,0,0,0,0,5.588,61.88,757.70026604431,37.073492,6,P-GPS,,11.3
158100,2026-01-11 15:32:37,757.70026604431,37.72966,0.223694,1.2581365232,5.5437009648,17,5,7.804,757.70026604431,37.073492,0.7158208,1.26348757324,-0.223694,0.0,-0.223694,23.3,3.0,-4.7,0,0,1024,1024,1024,1024,0,0,0,0,0,0,0,87,3.9,3.904,0,0,0,0,4.185,62.06,757.70026604431,37.073492,6,P-GPS,,11.3
158200,2026-01-11 15:32:37,758.02835004431,37.72966,0.223694,1.30034124896,5.5908138272,17,5,7.804,758.02835004431,37.401576,0.7158208,1.30034124896,-0.223694,0.0,0.0,23.4,2.9,-4.8,0,0,1024,1024,1024,1024,0,0,0,0,0,0,0,87,3.9,3.904,0,0,0,0,4.185,62.06,758.02835004431,37.401576,6,P-GPS,,11.4
158300,2026-01-11 15:32:37,758.02835004431,37.72966,0.223694,1.33588586952,5.629429314,17,5,7.804,758.02835004431,37.401576,0.7158208,1.33588586952,-0.223694,0.0,0.0,23.5,1.7,-5.1,0,0,1024,1024,1024,1024,0,0,0,0,0,0,0,87,3.9,3.904,0,0,0,0,4.185,62.06,758.02835004431,37.401576,6,P-GPS,,11.4
158400,2026-01-11 15:32:37,758.35643404431,37.72966,0.223694,1.3764108052,5.686351888,17,5,7.804,758.35643404431,37.72966,0.7158208,1.3764108052,-0.223694,0.0,0.0,23.6,0.9,-5.9,0,0,1024,1024,1024,1024,0,0,0,0,0,0,0,87,3.9,3.904,0,0,0,0,4.185,62.06,758.35643404431,37.72966,6,P-GPS,,11.5
158500,2026-01-11 15:32:37,758.35643404431,37.72966,0.223694,1.32548560672,5.7906497916,17,5,7.804,758.35643404431,37.72966,0.7158208,1.3764108052,-0.223694,0.0,0.0,23.5,1.7,-5.9,0,0,1024,1024,1024,1024,0,0,0,0,0,0,0,87,3.9,3.904,0,0,0,0,4.185,62.06,758.35643404431,37.72966,6,P-GPS,,11.5
158600,2026-01-11 15:32:38,758.35643404431,37.72966,0.223694,1.34727366516,5.8141077976,17,5,7.804,758.35643404431,37.72966,0.7158208,1.3764108052,-0.223694,0.0,0.0,23.7,0.5,-5.8,0,0,1024,1024,1024,1024,0,0,0,0,0,0,0,87,3.9,3.904,0,0,0,0,4.185,62.06,758.35643404431,37.72966,6,P-GPS,,11.5
158700,2026-01-11 15:32:38,758.35643404431,37.72966,0.0,1.3572671038,5.8473427068,17,5,7.804,758.35643404431,37.72966,0.7158208,1.3764108052,0.0,0.0,0.0,23.7,0.5,-5.2,0,0,1024,1024,1024,1024,0,0,0,0,0,0,0,87,3.9,3.904,0,0,0,0,4.185,62.06,758.35643404431,37.72966,6,P-GPS,,11.5
158800,2026-01-11 15:32:38,758.68451804431,37.72966,0.0,1.38893377148,5.9183400844,17,5,7.804,758.68451804431,38.057744,0.7158208,1.38893377148,0.0,0.0,0.0,23.7,0.8,-4.4,0,0,1024,1024,1024,1024,0,0,0,0,0,0,0,87,3.9,3.904,0,0,0,0,4.185,62.06,758.68451804431,38.057744,6,P-GPS,,11.6
158900,2026-01-11 15:32:38,758.68451804431,37.72966,0.223694,1.42299217152,6.10318261,17,5,7.804,758.68451804431,38.057744,0.7158208,1.42299217152,0.0,-0.223694,0.0,23.9,0.0,-2.7,0,0,1024,1024,1024,1024,0,0,0,0,0,0,0,87,3.9,3.904,0,0,0,0,4.185,62.06,758.68451804431,38.057744,6,P-GPS,,11.6
159000,2026-01-11 15:32:38,758.68451804431,37.72966,0.223694,1.44850398336,6.1821524288,17,5,7.804,758.68451804431,38.057744,0.7158208,1.44850398336,0.0,-0.223694,0.0,24.0,0.0,-2.3,0,0,1024,1024,1024,1024,0,0,0,0,0,0,0,87,3.9,3.904,0,0,0,0,4.185,62.06,758.68451804431,38.057744,6,P-GPS,,11.6
159100,2026-01-11 15:32:38,758.68451804431,37.72966,0.0,1.46394689724,6.257546132,17,5,7.804,758.68451804431,38.057744,0.7158208,1.46394689724,0.0,0.0,0.0,24.2,-0.6,-2.3,0,0,1024,1024,1024,1024,0,0,0,0,0,0,0,87,3.9,3.904,0,0,0,0,4.185,62.06,758.68451804431,38.057744,6,P-GPS,,11.6
159200,2026-01-11 15:32:38,758.35643404431,37.72966,0.0,1.47390752748,6.3106629316,17,5,7.704,758.68451804431,38.057744,0.7158208,1.47390752748,0.0,0.0,0.0,24.1,-0.7,-2.1,0,0,1024,1024,1024,1024,0,0,0,0,0,0,0,87,3.849,3.857,0,0,0,0,4.721,62.06,758.35643404431,37.72966,6,P-GPS,,11.5
159300,2026-01-11 15:32:38,758.35643404431,37.72966,0.0,1.4856135646,6.390420152,17,5,7.704,758.68451804431,38.057744,0.7158208,1.4856135646,0.0,0.0,0.0,23.9,0.5,-2.0,0,0,1024,1024,1024,1024,0,0,0,0,0,0,0,87,3.849,3.857,0,0,0,0,4.721,62.06,758.35643404431,37.72966,6,P-GPS,,11.5
159400,2026-01-11 15:32:38,758.35643404431,37.72966,0.0,1.47857944364,6.4384188412,17,5,7.704,758.68451804431,38.057744,0.7158208,1.4856135646,0.0,0.0,0.0,24.0,1.5,-1.9,0,0,1024,1024,1024,1024,0,0,0,0,0,0,0,87,3.849,3.857,0,0,0,0,4.721,62.06,758.35643404431,37.72966,6,P-GPS,,11.5
159500,2026-01-11 15:32:38,758.35643404431,37.72966,0.0,1.4657644826,6.4857613624,17,5,7.704,758.68451804431,38.057744,0.7158208,1.4856135646,0.0,0.0,0.0,24.1,2.0,-2.2,0,0,1024,1024,1024,1024,0,0,0,0,0,0,0,87,3.849,3.857,0,0,0,0,4.721,62.06,758.35643404431,37.72966,6,P-GPS,,11.5
159600,2026-01-11 15:32:39,758.35643404431,37.72966,0.0,1.43330385164,6.5395015216,17,5,7.704,758.68451804431,38.057744,0.7158208,1.4856135646,0.0,0.0,0.0,24.1,2.7,-2.6,0,0,1024,1024,1024,1024,0,0,0,0,0,0,0,87,3.849,3.857,0,0,0,0,4.721,62.06,758.35643404431,37.72966,6,P-GPS,,11.5
159700,2026-01-11 15:32:39,758.35643404431,37.72966,0.0,1.3903215668,6.6016078228,17,5,7.704,758.68451804431,38.057744,0.7158208,1.4856135646,0.0,0.0,0.0,24.0,3.4,-2.6,0,0,1024,1024,1024,1024,0,0,0,0,0,0,0,87,3.849,3.857,0,0,0,0,4.721,62.06,758.35643404431,37.72966,6,P-GPS,,11.5
159800,2026-01-11 15:32:39,758.35643404431,37.72966,0.0,1.34915358648,6.6926511328,17,5,7.704,758.68451804431,38.057744,0.7158208,1.4856135646,0.0,0.0,0.0,24.0,3.4,-2.3,0,0,1024,1024,1024,1024,0,0,0,0,0,0,0,87,3.849,3.857,0,0,0,0,4.721,62.06,758.35643404431,37.72966,6,P-GPS,,11.5
159900,2026-01-11 15:32:39,758.35643404431,37.72966,0.0,1.2999836374,6.7661419488,17,5,7.704,758.68451804431,38.057744,0.7158208,1.4856135646,0.0,0.0,0.0,24.0,3.4,-2.5,0,0,1024,1024,1024,1024,0,0,0,0,0,0,0,87,3.849,3.857,0,0,0,0,4.721,62.06,758.35643404431,37.72966,6,P-GPS,,11.5
160000,2026-01-11 15:32:39,758.35643404431,37.72966,0.0,1.26020017156,6.8321196412,17,5,7.704,758.68451804431,38.057744,0.7158208,1.4856135646,0.0,0.0,0.0,23.9,3.4,-2.6,0,0,1024,1024,1024,1024,0,0,0,0,0,0,0,87,3.849,3.857,0,0,0,0,4.721,62.06,758.35643404431,37.72966,6,P-GPS,,11.5
160100,2026-01-11 15:32:39,758.35643404431,37.72966,0.0,1.22433730952,6.8983269924,17,5,7.704,758.68451804431,38.057744,0.7158208,1.4856135646,0.0,0.0,0.0,23.9,3.1,-2.2,0,0,1024,1024,1024,1024,0,0,0,0,0,0,0,87,3.849,3.857,0,0,0,0,4.721,62.06,758.35643404431,37.72966,6,P-GPS,,11.5
160200,2026-01-11 15:32:39,758.02835004431,37.72966,0.0,1.2102034508,7.0297574428,17,5,7.704,758.68451804431,38.057744,0.7158208,1.4856135646,0.0,0.0,0.0,23.9,2.8,-1.7,0,0,1024,1024,1024,1024,0,0,0,0,0,0,0,87,3.849,3.857,0,0,0,0,4.721,62.06,758.02835004431,37.401576,6,P-GPS,,11.4
160300,2026-01-11 15:32:39,758.02835004431,37.72966,0.0,1.20352366056,7.0897640064,17,5,7.715,758.68451804431,38.057744,0.7158208,1.4856135646,0.0,0.0,0.0,24.0,2.8,-1.7,0,0,1024,1024,1024,1024,0,0,0,0,0,0,0,87,3.857,3.858,0,0,0,0,4.519,62.06,758.02835004431,37.401576,6,P-GPS,,11.4
160400,2026-01-11 15:32:39,758.02835004431,37.72966,0.0,1.21421263728,7.1511157144,17,5,7.715,758.68451804431,38.057744,0.7158208,1.4856135646,0.0,0.0,0.0,23.9,2.8,-1.7,0,0,1024,1024,1024,1024,0,0,0,0,0,0,0,87,3.857,3.858,0,0,0,0,4.519,62.06,758.02835004431,37.401576,6,P-GPS,,11.4
160500,2026-01-11 15:32:39,758.02835004431,37.72966,0.0,1.23154859584,7.2120737216,17,5,7.715,758.68451804431,38.057744,0.7158208,1.4856135646,0.0,0.0,0.0,23.8,2.7,-2.2,0,0,1024,1024,1024,1024,0,0,0,0,0,0,0,87,3.857,3.858,0,0,0,0,4.519,62.06,758.02835004431,37.401576,6,P-GPS,,11.4
160600,2026-01-11 15:32:40,758.02835004431,37.72966,0.0,1.30742458252,7.3245737252,17,5,7.715,758.68451804431,38.057744,0.7158208,1.4856135646,0.0,0.0,0.0,23.8,2.3,-2.0,0,0,1024,1024,1024,1024,0,0,0,0,0,0,0,87,3.857,3.858,0,0,0,0,4.519,62.06,758.02835004431,37.401576,6,P-GPS,,11.4
160700,2026-01-11 15:32:40,758.02835004431,37.72966,0.0,1.3131234016,7.3781498424,17,5,7.715,758.68451804431,38.057744,0.7158208,1.4856135646,0.0,0.0,0.0,23.9,2.2,-1.8,0,0,1024,1024,1024,1024,0,0,0,0,0,0,0,87,3.857,3.858,0,0,0,0,4.519,62.06,758.02835004431,37.401576,6,P-GPS,,11.4
160800,2026-01-11 15:32:40,758.02835004431,37.72966,0.0,1.30971460884,7.4308401328,17,5,7.715,758.68451804431,38.057744,0.7158208,1.4856135646,0.0,0.0,0.0,23.9,2.4,-2.0,0,0,1024,1024,1024,1024,0,0,0,0,0,0,0,87,3.857,3.858,0,0,0,0,4.519,62.06,758.02835004431,37.401576,6,P-GPS,,11.4
160900,2026-01-11 15:32:40,758.02835004431,37.72966,0.0,1.30156172144,7.4856301608,17,5,7.715,758.68451804431,38.057744,0.7158208,1.4856135646,0.0,0.0,0.0,23.7,2.8,-1.7,0,0,1024,1024,1024,1024,0,0,0,0,0,0,0,87,3.857,3.858,0,0,0,0,4.519,62.06,758.02835004431,37.401576,6,P-GPS,,11.4
161000,2026-01-11 15:32:40,758.02835004431,37.72966,0.0,1.28860896512,7.5304792436,17,5,7.715,758.68451804431,38.057744,0.7158208,1.4856135646,0.0,0.0,0.0,23.6,4.5,-2.2,0,0,1024,1024,1024,1024,0,0,0,0,0,0,0,87,3.857,3.858,0,0,0,0,4.519,62.06,758.02835004431,37.401576,6,P-GPS,,11.4
161100,2026-01-11 15:32:40,758.02835004431,37.72966,0.0,1.28096788876,7.5474739948,17,5,7.715,758.68451804431,38.057744,0.7158208,1.4856135646,0.0,0.0,0.0,23.5,3.3,-2.7,0,0,1024,1024,1024,1024,0,0,0,0,0,0,0,87,3.857,3.858,0,0,0,0,4.519,62.06,758.02835004431,37.401576,6,P-GPS,,11.4
161200,2026-01-11 15:32:40,758.02835004431,37.72966,0.0,1.26218507976,7.5690947304,17,5,7.715,758.68451804431,38.057744,0.7158208,1.4856135646,0.0,0.0,0.0,23.5,2.0,-3.4,0,0,1024,1024,1024,1024,0,0,0,0,0,0,0,87,3.857,3.858,0,0,0,0,4.519,62.06,758.02835004431,37.401576,6,P-GPS,,11.4
161300,2026-01-11 15:32:40,758.35643404431,37.72966,0.0,1.24106631268,7.5979989308,17,5,7.715,758.68451804431,38.057744,0.7158208,1.4856135646,-0.223694,0.0,0.0,23.6,0.8,-4.2,0,0,1024,1024,1024,1024,0,0,0,0,0,0,0,87,3.857,3.858,0,0,0,0,4.519,62.06,758.35643404431,37.72966,6,P-GPS,,11.5
161400,2026-01-11 15:32:40,758.35643404431,37.72966,0.0,1.22521001296,7.6221787216,17,5,7.71,758.68451804431,38.057744,0.7158208,1.4856135646,0.0,0.0,0.0,23.7,0.4,-4.2,0,0,1024,1024,1024,1024,0,0,0,0,0,0,0,87,3.848,3.851,0,0,0,0,4.653,62.06,758.35643404431,37.72966,6,P-GPS,,11.5
161500,2026-01-11 15:32:40,758.35643404431,37.72966,0.0,1.16184715004,7.7097443412,17,5,7.71,758.68451804431,38.057744,0.7158208,1.4856135646,0.0,0.0,0.0,23.8,0.3,-4.0,0,0,1024,1024,1024,1024,0,0,0,0,0,0,0,87,3.848,3.851,0,0,0,0,4.653,62.06,758.35643404431,37.72966,6,P-GPS,,11.5
161600,2026-01-11 15:32:41,758.35643404431,37.72966,0.0,1.14382877676,7.7279201948,17,5,7.71,758.68451804431,38.057744,0.7158208,1.4856135646,0.0,0.0,0.0,23.8,0.6,-3.9,0,0,1024,1024,1024,1024,0,0,0,0,0,0,0,87,3.848,3.851,0,0,0,0,4.653,62.06,758.35643404431,37.72966,6,P-GPS,,11.5
161700,2026-01-11 15:32:41,758.35643404431,37.72966,0.0,1.11926512768,7.7528873872,17,5,7.71,758.68451804431,38.057744,0.7158208,1.4856135646,0.0,0.0,0.0,23.5,1.3,-3.6,0,0,1024,1024,1024,1024,0,0,0,0,0,0,0,87,3.848,3.851,0,0,0,0,4.653,62.06,758.35643404431,37.72966,6,P-GPS,,11.5
161800,2026-01-11 15:32:41,758.35643404431,37.72966,0.223694,1.08964570416,7.7827102228,17,5,7.71,758.68451804431,38.057744,0.7158208,1.4856135646,0.0,0.223694,0.0,23.6,1.3,-3.5,0,0,1024,1024,1024,1024,0,0,0,0,0,0,0,87,3.848,3.851,0,0,0,0,4.653,62.06,758.35643404431,37.72966,6,P-GPS,,11.5
161900,2026-01-11 15:32:41,758.35643404431,37.72966,0.223694,1.04230318296,7.8493768916,17,5,7.71,758.68451804431,38.057744,0.7158208,1.4856135646,0.0,0.223694,0.0,23.6,3.1,-4.1,0,0,1024,1024,1024,1024,0,0,0,0,0,0,0,87,3.848,3.851,0,0,0,0,4.653,62.06,758.35643404431,37.72966,6,P-GPS,,11.5
162000,2026-01-11 15:32:41,758.35643404431,37.72966,0.223694,1.00571853612,7.8873690188,17,5,7.71,758.68451804431,38.057744,0.7158208,1.4856135646,0.0,0.223694,0.0,23.4,3.5,-4.3,0,0,1024,1024,1024,1024,0,0,0,0,0,0,0,87,3.848,3.851,0,0,0,0,4.653,62.06,758.35643404431,37.72966,6,P-GPS,,11.5
162100,2026-01-11 15:32:41,758.35643404431,37.72966,0.223694,0.97434058236,7.9201446104,17,5,7.71,758.68451804431,38.057744,0.7158208,1.4856135646,0.0,0.223694,0.0,23.6,1.4,-5.2,0,0,1024,1024,1024,1024,0,0,0,0,0,0,0,87,3.848,3.851,0,0,0,0,4.653,62.06,758.35643404431,37.72966,6,P-GPS,,11.5
162200,2026-01-11 15:32:41,758.68451804431,37.72966,0.223694,0.93287076476,7.9621721708,17,5,7.71,758.68451804431,38.057744,0.7158208,1.4856135646,0.0,0.223694,0.0,23.3,1.4,-5.9,0,0,1024,1024,1024,1024,0,0,0,0,0,0,0,87,3.848,3.851,0,0,0,0,4.653,62.06,758.68451804431,38.057744,6,P-GPS,,11.6
162300,2026-01-11 15:32:41,758.68451804431,37.72966,0.0,0.83564307136,8.0594162684,17,5,7.71,758.68451804431,38.057744,0.7158208,1.4856135646,0.0,0.0,0.0,23.3,1.4,-5.7,0,0,1024,1024,1024,1024,0,0,0,0,0,0,0,87,3.848,3.851,0,0,0,0,4.653,62.06,758.68451804431,38.057744,6,P-GPS,,11.6
162400,2026-01-11 15:32:41,758.68451804431,37.72966,0.0,0.811843858,8.0853349044,17,5,7.71,758.68451804431,38.057744,0.7158208,1.4856135646,0.0,0.0,0.0,23.3,1.8,-6.0,0,0,1024,1024,1024,1024,0,0,0,0,0,0,0,87,3.848,3.851,0,0,0,0,4.653,62.06,758.68451804431,38.057744,6,P-GPS,,11.6
162500,2026-01-11 15:32:41,759.01260204431,37.72966,0.0,0.79874018304,8.1019031464,17,5,7.7,759.01260204431,38.385828,0.7158208,1.4856135646,0.0,0.0,0.0,23.6,1.6,-5.9,0,0,1024,1024,1024,1024,0,0,0,0,0,0,0,87,3.849,3.852,0,0,0,0,4.642,62.06,759.01260204431,38.385828,6,P-GPS,,11.7
162600,2026-01-11 15:32:42,759.01260204431,37.72966,0.0,0.78735894908,8.1143047216,17,5,7.7,759.01260204431,38.385828,0.7158208,1.4856135646,0.0,0.0,0.0,23.8,0.4,-5.5,0,0,1024,1024,1024,1024,0,0,0,0,0,0,0,87,3.849,3.852,0,0,0,0,4.642,62.06,759.01260204431,38.385828,6,P-GPS,,11.7
162700,2026-01-11 15:32:42,759.01260204431,37.72966,0.0,0.76290684856,8.1427824128,17,5,7.7,759.01260204431,38.385828,0.7158208,1.4856135646,0.0,0.0,0.0,23.6,0.1,-5.5,0,0,1024,1024,1024,1024,0,0,0,0,0,0,0,87,3.849,3.852,0,0,0,0,4.642,62.06,759.01260204431,38.385828,6,P-GPS,,11.7
162800,2026-01-11 15:32:42,759.01260204431,37.72966,0.0,0.75650264888,8.1518375312,17,5,7.7,759.01260204431,38.385828,0.7158208,1.4856135646,0.0,0.0,0.0,23.6,0.3,-4.9,0,0,1024,1024,1024,1024,0,0,0,0,0,0,0,87,3.849,3.852,0,0,0,0,4.642,62.06,759.01260204431,38.385828,6,P-GPS,,11.7
162900,2026-01-11 15:32:42,759.01260204431,37.72966,0.0,0.75085960408,8.162237794,17,5,7.7,759.01260204431,38.385828,0.7158208,1.4856135646,0.0,0.0,0.0,23.5,1.0,-5.2,0,0,1024,1024,1024,1024,0,0,0,0,0,0,0,87,3.849,3.852,0,0,0,0,4.642,62.06,759.01260204431,38.385828,6,P-GPS,,11.7
163000,2026-01-11 15:32:42,759.01260204431,37.72966,0.0,0.76157810836,8.178477952,17,5,7.7,759.01260204431,38.385828,0.7158208,1.4856135646,0.0,0.0,0.0,23.6,0.8,-5.3,0,0,1024,1024,1024,1024,0,0,0,0,0,0,0,87,3.849,3.852,0,0,0,0,4.642,62.06,759.01260204431,38.385828,6,P-GPS,,11.7
163100,2026-01-11 15:32:42,759.01260204431,37.72966,0.0,0.77794949996,8.199475328,17,5,7.7,759.01260204431,38.385828,0.7158208,1.4856135646,0.0,0.0,0.0,23.6,0.6,-5.3,0,0,1024,1024,1024,1024,0,0,0,0,0,0,0,87,3.849,3.852,0,0,0,0,4.642,62.06,759.01260204431,38.385828,6,P-GPS,,11.7
163200,2026-01-11 15:32:42,759.01260204431,37.72966,0.0,0.82430448832,8.2477364844,17,5,7.7,759.01260204431,38.385828,0.7158208,1.4856135646,0.0,0.0,0.0,23.6,0.6,-5.4,0,0,1024,1024,1024,1024,0,0,0,0,0,0,0,87,3.849,3.852,0,0,0,0,4.642,62.06,759.01260204431,38.385828,6,P-GPS,,11.7
163300,2026-01-11 15:32:42,759.01260204431,37.72966,0.0,0.82956367484,8.263779792,17,5,7.7,759.01260204431,38.385828,0.7158208,1.4856135646,0.0,0.0,0.0,23.6,0.4,-5.5,0,0,1024,1024,1024,1024,0,0,0,0,0,0,0,87,3.849,3.852,0,0,0,0,4.642,62.06,759.01260204431,38.385828,6,P-GPS,,11.7
163400,2026-01-11 15:32:42,759.01260204431,37.72966,0.0,0.8202428084,8.2879923912,17,5,7.7,759.01260204431,38.385828,0.7158208,1.4856135646,0.0,0.0,0.0,23.6,1.1,-5.6,0,0,1024,1024,1024,1024,0,0,0,0,0,0,0,87,3.849,3.852,0,0,0,0,4.642,62.06,759.01260204431,38.385828,6,P-GPS,,11.7
163500,2026-01-11 15:32:42,758.68451804431,37.72966,0.0,0.8063156426,8.3191931796,17,5,7.7,759.01260204431,38.385828,0.7158208,1.4856135646,0.0,0.0,0.0,23.6,1.6,-5.7,0,0,1024,1024,1024,1024,0,0,0,0,0,0,0,87,3.849,3.852,0,0,0,0,4.642,62.06,758.68451804431,38.057744,6,P-GPS,,11.6
163600,2026-01-11 15:32:43,758.68451804431,37.72966,0.0,0.78439306972,8.3437338628,17,5,7.695,759.01260204431,38.385828,0.7158208,1.4856135646,0.0,0.0,0.0,23.6,2.3,-5.8,0,0,1024,1024,1024,1024,0,0,0,0,0,0,0,87,3.846,3.85,0,0,0,0,4.782,62.06,758.68451804431,38.057744,6,P-GPS,,11.6
163700,2026-01-11 15:32:43,758.68451804431,37.72966,0.0,0.77880908004,8.3617456744,17,5,7.695,759.01260204431,38.385828,0.7158208,1.4856135646,0.0,0.0,0.0,23.7,2.3,-5.8,0,0,1024,1024,1024,1024,0,0,0,0,0,0,0,87,3.846,3.85,0,0,0,0,4.782,62.06,758.68451804431,38.057744,6,P-GPS,,11.6
163800,2026-01-11 15:32:43,758.68451804431,37.72966,0.0,0.7785597362,8.3860895072,17,5,7.695,759.01260204431,38.385828,0.7158208,1.4856135646,0.0,0.0,0.0,23.9,1.3,-5.5,0,0,1024,1024,1024,1024,0,0,0,0,0,0,0,87,3.846,3.85,0,0,0,0,4.782,62.06,758.68451804431,38.057744,6,P-GPS,,11.6
163900,2026-01-11 15:32:43,758.68451804431,37.72966,0.0,0.78212272844,8.4185370148,17,5,7.695,759.01260204431,38.385828,0.7158208,1.4856135646,0.0,0.0,0.0,23.8,1.5,-4.8,0,0,1024,1024,1024,1024,0,0,0,0,0,0,0,87,3.846,3.85,0,0,0,0,4.782,62.06,758.68451804431,38.057744,6,P-GPS,,11.6
164000,2026-01-11 15:32:43,758.35643404431,37.72966,0.0,0.75491472232,8.4518703492,17,5,7.695,759.01260204431,38.385828,0.7158208,1.4856135646,0.0,0.0,0.0,23.6,1.9,-5.0,0,0,1024,1024,1024,1024,0,0,0,0,0,0,0,87,3.846,3.85,0,0,0,0,4.782,62.06,758.35643404431,37.72966,6,P-GPS,,11.5
164100,2026-01-11 15:32:43,758.35643404431,37.72966,0.0,0.76436682236,8.4734582764,17,5,7.695,759.01260204431,38.385828,0.7158208,1.4856135646,0.0,0.0,0.0,23.8,1.1,-4.8,0,0,1024,1024,1024,1024,0,0,0,0,0,0,0,87,3.846,3.85,0,0,0,0,4.782,62.06,758.35643404431,37.72966,6,P-GPS,,11.5
164200,2026-01-11 15:32:43,758.35643404431,37.72966,0.0,0.77570868624,8.4875986968,17,5,7.695,759.01260204431,38.385828,0.7158208,1.4856135646,0.0,0.0,0.0,23.9,0.1,-4.6,0,0,1024,1024,1024,1024,0,0,0,0,0,0,0,87,3.846,3.85,0,0,0,0,4.782,62.06,758.35643404431,37.72966,6,P-GPS,,11.5
164300,2026-01-11 15:32:43,758.35643404431,37.72966,0.0,0.78784779424,8.502788986,17,5,7.695,759.01260204431,38.385828,0.7158208,1.4856135646,0.0,0.0,0.0,23.9,-0.1,-4.4,0,0,1024,1024,1024,1024,0,0,0,0,0,0,0,87,3.846,3.85,0,0,0,0,4.782,62.06,758.35643404431,37.72966,6,P-GPS,,11.5
164400,2026-01-11 15:32:43,758.35643404431,37.72966,0.0,0.79710960556,8.5144031596,17,5,7.695,759.01260204431,38.385828,0.7158208,1.4856135646,0.0,0.0,0.0,23.8,0.5,-4.2,0,0,1024,1024,1024,1024,0,0,0,0,0,0,0,87,3.846,3.85,0,0,0,0,4.782,62.06,758.35643404431,37.72966,6,P-GPS,,11.5
164500,2026-01-11 15:32:43,758.02835004431,37.72966,0.0,0.82436682428,8.5457351816,17,5,7.695,759.01260204431,38.385828,0.7158208,1.4856135646,0.0,0.0,0.0,23.8,0.1,-4.0,0,0,1024,1024,1024,1024,0,0,0,0,0,0,0,87,3.846,3.85,0,0,0,0,4.782,62.06,758.02835004431,37.401576,6,P-GPS,,11.4
164600,2026-01-11 15:32:44,758.02835004431,37.72966,0.0,0.85229333436,8.573819172,17,5,7.695,759.01260204431,38.385828,0.7158208,1.4856135646,0.0,0.0,0.0,23.8,0.0,-3.9,0,0,1024,1024,1024,1024,0,0,0,0,0,0,0,87,3.846,3.85,0,0,0,0,4.782,62.06,758.02835004431,37.401576,6,P-GPS,,11.4
164700,2026-01-11 15:32:44,758.02835004431,37.72966,0.0,0.88242128808,8.6039700916,17,5,7.687,759.01260204431,38.385828,0.7158208,1.4856135646,0.0,0.0,0.0,23.8,0.1,-3.8,0,0,1024,1024,1024,1024,0,0,0,0,0,0,0,87,3.846,3.846,0,0,0,0,4.866,62.06,758.02835004431,37.401576,6,P-GPS,,11.4
164800,2026-01-11 15:32:44,758.02835004431,37.72966,0.0,0.8995079028,8.625820486,17,5,7.687,759.01260204431,38.385828,0.7158208,1.4856135646,0.0,0.0,0.0,24.0,-0.3,-3.8,0,0,1024,1024,1024,1024,0,0,0,0,0,0,0,87,3.846,3.846,0,0,0,0,4.866,62.06,758.02835004431,37.401576,6,P-GPS,,11.4
164900,2026-01-11 15:32:44,757.70026604431,37.72966,0.0,0.89338257452,8.643208938,17,5,7.687,759.01260204431,38.385828,0.7158208,1.4856135646,0.0,0.0,0.0,24.0,-0.6,-3.7,0,0,1024,1024,1024,1024,0,0,0,0,0,0,0,87,3.846,3.846,0,0,0,0,4.866,62.06,757.70026604431,37.073492,6,P-GPS,,11.3
165000,2026-01-11 15:32:44,757.70026604431,37.72966,0.0,0.90698493716,8.6816275744,17,5,7.687,759.01260204431,38.385828,0.7158208,1.4856135646,0.0,0.0,0.0,24.0,-0.4,-3.6,0,0,1024,1024,1024,1024,0,0,0,0,0,0,0,87,3.846,3.846,0,0,0,0,4.866,62.06,757.70026604431,37.073492,6,P-GPS,,11.3
165100,2026-01-11 15:32:44,757.70026604431,37.72966,0.0,0.92066275912,8.7314307256,17,5,7.687,759.01260204431,38.385828,0.7158208,1.4856135646,0.0,0.0,0.0,23.9,0.0,-3.5,0,0,1024,1024,1024,1024,0,0,0,0,0,0,0,87,3.846,3.846,0,0,0,0,4.866,62.06,757.70026604431,37.073492,6,P-GPS,,11.3
165200,2026-01-11 15:32:44,757.37218204431,37.72966,0.0,0.93335304824,8.7869753468,17,5,7.687,759.01260204431,38.385828,0.7158208,1.4856135646,0.0,0.0,0.0,23.9,0.7,-3.2,0,0,1024,1024,1024,1024,0,0,0,0,0,0,0,87,3.846,3.846,0,0,0,0,4.866,62.06,757.37218204431,36.745408,6,P-GPS,,11.2
165300,2026-01-11 15:32:44,757.37218204431,37.72966,0.0,0.95312010924,8.8791997592,17,5,7.687,759.01260204431,38.385828,0.7158208,1.4856135646,0.0,0.0,0.0,23.9,1.2,-3.1,0,0,1024,1024,1024,1024,0,0,0,0,0,0,0,87,3.846,3.846,0,0,0,0,4.866,62.06,757.37218204431,36.745408,6,P-GPS,,11.2
165400,2026-01-11 15:32:44,757.37218204431,37.72966,0.0,0.9667159102,8.9244753512,17,5,7.687,759.01260204431,38.385828,0.7158208,1.4856135646,0.0,0.0,0.0,24.0,1.6,-3.3,0,0,1024,1024,1024,1024,0,0,0,0,0,0,0,87,3.846,3.846,0,0,0,0,4.866,62.06,757.37218204431,36.745408,6,P-GPS,,11.2
165500,2026-01-11 15:32:44,757.04409804431,37.72966,0.0,0.97879924392,8.9703743028,17,5,7.687,759.01260204431,38.385828,0.7158208,1.4856135646,0.223694,0.0,0.0,24.2,2.0,-3.3,0,0,1024,1024,1024,1024,0,0,0,0,0,0,0,87,3.846,3.846,0,0,0,0,4.866,62.06,757.04409804431,36.417324,6,P-GPS,,11.1
165600,2026-01-11 15:32:45,757.04409804431,37.72966,0.223694,0.99594163292,9.0286420212,17,5,7.687,759.01260204431,38.385828,0.7158208,1.4856135646,0.223694,0.0,0.0,24.1,2.6,-3.5,0,0,1024,1024,1024,1024,0,0,0,0,0,0,0,87,3.846,3.846,0,0,0,0,4.866,62.06,757.04409804431,36.417324,6,P-GPS,,11.1
165700,2026-01-11 15:32:45,757.04409804431,37.72966,0.223694,1.03786748728,9.0851708944,17,5,7.687,759.01260204431,38.385828,0.7158208,1.4856135646,0.223694,0.0,0.0,24.0,3.2,-3.3,0,0,1024,1024,1024,1024,0,0,0,0,0,0,0,87,3.846,3.846,0,0,0,0,4.866,62.06,757.04409804431,36.417324,6,P-GPS,,11.1
165800,2026-01-11 15:32:45,757.04409804431,37.72966,0.223694,1.06931105784,9.1418638096,17,5,7.698,759.01260204431,38.385828,0.7158208,1.4856135646,0.223694,0.0,0.0,24.0,3.6,-2.8,0,0,1024,1024,1024,1024,0,0,0,0,0,0,0,87,3.845,3.853,0,0,0,0,4.794,62.06,757.04409804431,36.417324,6,P-GPS,,11.1
165900,2026-01-11 15:32:45,756.71601404431,37.72966,0.223694,1.10320869672,9.1948493756,17,5,7.698,759.01260204431,38.385828,0.7158208,1.4856135646,0.223694,0.0,0.0,23.9,3.8,-2.7,0,0,1024,1024,1024,1024,0,0,0,0,0,0,0,87,3.845,3.853,0,0,0,0,4.794,62.06,756.71601404431,36.08924,6,P-GPS,,11.0
166000,2026-01-11 15:32:45,756.71601404431,37.72966,0.0,1.12507221448,9.2524937344,17,5,7.698,759.01260204431,38.385828,0.7158208,1.4856135646,0.0,0.0,0.0,23.9,3.7,-2.7,0,0,1024,1024,1024,1024,0,0,0,0,0,0,0,87,3.845,3.853,0,0,0,0,4.794,62.06,756.71601404431,36.08924,6,P-GPS,,11.0
166100,2026-01-11 15:32:45,756.71601404431,37.72966,0.0,1.1484416378,9.3272968864,16,5,7.698,759.01260204431,38.385828,0.7158208,1.4856135646,0.0,0.0,0.0,23.9,3.5,-2.9,0,0,1024,1024,1024,1024,0,0,0,0,0,0,0,87,3.845,3.853,0,0,0,0,4.794,62.06,756.71601404431,36.08924,6,P-GPS,,11.0
166200,2026-01-11 15:32:45,756.71601404431,37.72966,0.0,1.14590226764,9.3492128976,16,5,7.698,759.01260204431,38.385828,0.7158208,1.4856135646,0.0,0.0,0.0,23.9,3.0,-3.5,0,0,1024,1024,1024,1024,0,0,0,0,0,0,0,87,3.845,3.853,0,0,0,0,4.794,62.06,756.71601404431,36.08924,6,P-GPS,,11.0
166300,2026-01-11 15:32:45,756.71601404431,37.72966,0.0,1.13628940644,9.3653546304,16,5,7.698,759.01260204431,38.385828,0.7158208,1.4856135646,0.0,0.0,0.0,24.0,2.8,-3.6,0,0,1024,1024,1024,1024,0,0,0,0,0,0,0,87,3.845,3.853,0,0,0,0,4.794,62.06,756.71601404431,36.08924,6,P-GPS,,11.0
166400,2026-01-11 15:32:45,756.71601404431,37.72966,0.0,1.12727365812,9.3842850772,16,5,7.698,759.01260204431,38.385828,0.7158208,1.4856135646,0.0,0.0,0.0,24.0,3.0,-3.9,0,0,1024,1024,1024,1024,0,0,0,0,0,0,0,87,3.845,3.853,0,0,0,0,4.794,62.06,756.71601404431,36.08924,6,P-GPS,,11.0
166500,2026-01-11 15:32:45,756.71601404431,37.72966,0.0,1.12120410412,9.4049871776,16,5,7.698,759.01260204431,38.385828,0.7158208,1.4856135646,0.0,0.0,0.0,24.0,3.1,-3.9,0,0,1024,1024,1024,1024,0,0,0,0,0,0,0,87,3.845,3.853,0,0,0,0,4.794,62.06,756.71601404431,36.08924,6,P-GPS,,11.0
166600,2026-01-11 15:32:46,756.71601404431,37.72966,0.0,1.08064964088,9.4457352104,16,5,7.698,759.01260204431,38.385828,0.7158208,1.4856135646,0.0,0.0,0.0,24.1,3.6,-3.5,0,0,1024,1024,1024,1024,0,0,0,0,0,0,0,87,3.845,3.853,0,0,0,0,4.794,62.06,756.71601404431,36.08924,6,P-GPS,,11.0
166700,2026-01-11 15:32:46,756.71601404431,37.72966,0.0,1.08611880116,9.4643703816,16,5,7.698,759.01260204431,38.385828,0.7158208,1.4856135646,0.0,0.0,0.0,24.1,3.7,-3.4,0,0,1024,1024,1024,1024,0,0,0,0,0,0,0,87,3.845,3.853,0,0,0,0,4.794,62.06,756.71601404431,36.08924,6,P-GPS,,11.0
166800,2026-01-11 15:32:46,756.38793004431,37.72966,0.0,1.08857286948,9.4786420356,16,5,7.698,759.01260204431,38.385828,0.7158208,1.4856135646,0.0,0.0,0.0,24.1,3.8,-3.2,0,0,1024,1024,1024,1024,0,0,0,0,0,0,0,87,3.852,3.858,0,0,0,0,4.794,62.06,756.38793004431,35.761156,6,P-GPS,,10.9
166900,2026-01-11 15:32:46,756.38793004431,37.72966,0.0,1.0908136832,9.490485868,16,5,7.698,759.01260204431,38.385828,0.7158208,1.4856135646,0.0,0.0,0.0,24.0,3.9,-2.8,0,0,1024,1024,1024,1024,0,0,0,0,0,0,0,87,3.852,3.858,0,0,0,0,4.794,62.06,756.38793004431,35.761156,6,P-GPS,,10.9
167000,2026-01-11 15:32:46,756.38793004431,37.72966,0.0,1.07363192412,9.5083336376,16,5,7.698,759.01260204431,38.385828,0.7158208,1.4856135646,0.0,0.0,0.0,24.1,3.6,-3.1,0,0,1024,1024,1024,1024,0,0,0,0,0,0,0,87,3.852,3.858,0,0,0,0,4.794,62.06,756.38793004431,35.761156,6,P-GPS,,10.9
167100,2026-01-11 15:32:46,756.38793004431,37.72966,0.0,1.0738025278,9.5162732704,16,5,7.698,759.01260204431,38.385828,0.7158208,1.4856135646,0.0,0.0,0.0,24.0,3.6,-3.4,0,0,1024,1024,1024,1024,0,0,0,0,0,0,0,87,3.852,3.858,0,0,0,0,4.794,62.06,756.38793004431,35.761156,6,P-GPS,,10.9
167200,2026-01-11 15:32:46,756.38793004431,37.72966,0.0,1.08067916844,9.52345831,16,5,7.698,759.01260204431,38.385828,0.7158208,1.4856135646,0.0,0.0,0.0,24.0,3.7,-3.4,0,0,1024,1024,1024,1024,0,0,0,0,0,0,0,87,3.852,3.858,0,0,0,0,4.794,62.06,756.38793004431,35.761156,6,P-GPS,,10.9
167300,2026-01-11 15:32:46,756.38793004431,37.72966,0.0,1.09073822388,9.5335632972,17,5,7.698,759.01260204431,38.385828,0.7158208,1.4856135646,0.0,0.0,0.0,24.0,3.9,-3.1,0,0,1024,1024,1024,1024,0,0,0,0,0,0,0,87,3.852,3.858,0,0,0,0,4.794,62.06,756.38793004431,35.761156,6,P-GPS,,10.9
167400,2026-01-11 15:32:46,756.38793004431,37.72966,0.0,1.11803153184,9.5608926944,17,5,7.698,759.01260204431,38.385828,0.7158208,1.4856135646,0.0,0.0,0.0,24.0,3.9,-3.3,0,0,1024,1024,1024,1024,0,0,0,0,0,0,0,87,3.852,3.858,0,0,0,0,4.794,62.06,756.38793004431,35.761156,6,P-GPS,,10.9
167500,2026-01-11 15:32:46,756.38793004431,37.72966,0.0,1.12720804132,9.5701118548,17,5,7.698,759.01260204431,38.385828,0.7158208,1.4856135646,0.0,0.0,0.0,24.0,4.0,-3.1,0,0,1024,1024,1024,1024,0,0,0,0,0,0,0,87,3.852,3.858,0,0,0,0,4.794,62.06,756.38793004431,35.761156,6,P-GPS,,10.9
167600,2026-01-11 15:32:47,756.38793004431,37.72966,0.0,1.13263126984,9.5778874456,17,5,7.698,759.01260204431,38.385828,0.7158208,1.4856135646,0.0,0.0,0.0,23.8,4.3,-3.4,0,0,1024,1024,1024,1024,0,0,0,0,0,0,0,87,3.852,3.858,0,0,0,0,4.794,62.06,756.38793004431,35.761156,6,P-GPS,,10.9
167700,2026-01-11 15:32:47,756.38793004431,37.72966,0.0,1.13293638796,9.581037052,17,5,7.698,759.01260204431,38.385828,0.7158208,1.4856135646,0.0,0.0,0.0,23.8,3.7,-3.5,0,0,1024,1024,1024,1024,0,0,0,0,0,0,0,87,3.852,3.858,0,0,0,0,4.794,62.06,756.38793004431,35.761156,6,P-GPS,,10.9
167800,2026-01-11 15:32:47,756.38793004431,37.72966,0.0,1.13645672928,9.6222772108,17,5,7.698,759.01260204431,38.385828,0.7158208,1.4856135646,0.0,0.0,0.0,23.7,3.6,-4.0,0,0,1024,1024,1024,1024,0,0,0,0,0,0,0,87,3.852,3.858,0,0,0,0,4.794,62.06,756.38793004431,35.761156,6,P-GPS,,10.9
167900,2026-01-11 15:32:47,756.38793004431,37.72966,0.0,1.12534124336,9.6385501772,17,5,7.71,759.01260204431,38.385828,0.7158208,1.4856135646,0.0,0.0,0.0,23.7,3.8,-4.6,0,0,1024,1024,1024,1024,0,0,0,0,0,0,0,87,3.844,3.848,0,0,0,0,4.602,62.24,756.38793004431,35.761156,6,P-GPS,,10.9
168000,2026-01-11 15:32:47,756.38793004431,37.72966,0.0,1.11151250276,9.659449128,17,5,7.71,759.01260204431,38.385828,0.7158208,1.4856135646,0.0,0.0,0.0,23.7,3.7,-5.1,0,0,1024,1024,1024,1024,0,0,0,0,0,0,0,87,3.844,3.848,0,0,0,0,4.602,62.24,756.38793004431,35.761156,6,P-GPS,,10.9
168100,2026-01-11 15:32:47,756.38793004431,37.72966,0.0,1.0972605338,9.6821525408,17,5,7.71,759.01260204431,38.385828,0.7158208,1.4856135646,0.0,0.0,0.0,23.7,3.7,-5.7,0,0,1024,1024,1024,1024,0,0,0,0,0,0,0,87,3.844,3.848,0,0,0,0,4.602,62.24,756.38793004431,35.761156,6,P-GPS,,10.9
168200,2026-01-11 15:32:47,756.38793004431,37.72966,0.0,1.07492457508,9.709317896,17,5,7.71,759.01260204431,38.385828,0.7158208,1.4856135646,0.0,0.0,0.0,23.5,4.2,-5.6,0,0,1024,1024,1024,1024,0,0,0,0,0,0,0,87,3.844,3.848,0,0,0,0,4.602,62.24,756.38793004431,35.761156,6,P-GPS,,10.9
168300,2026-01-11 15:32:47,756.71601404431,37.72966,0.0,1.03424215908,9.7629268216,17,5,7.71,759.01260204431,38.385828,0.7158208,1.4856135646,0.0,0.0,0.0,23.6,3.6,-5.7,0,0,1024,1024,1024,1024,0,0,0,0,0,0,0,87,3.844,3.848,0,0,0,0,4.602,62.24,756.71601404431,36.08924,6,P-GPS,,11.0
168400,2026-01-11 15:32:47,756.71601404431,37.72966,0.0,1.00056761732,9.7966866652,17,5,7.71,759.01260204431,38.385828,0.7158208,1.4856135646,0.0,0.0,0.0,23.5,3.7,-5.9,0,0,1024,1024,1024,1024,0,0,0,0,0,0,0,87,3.844,3.848,0,0,0,0,4.602,62.24,756.71601404431,36.08924,6,P-GPS,,11.0
168500,2026-01-11 15:32:48,756.71601404431,37.72966,0.0,0.96193244548,9.8354005772,17,5,7.71,759.01260204431,38.385828,0.7158208,1.4856135646,0.0,0.0,0.0,23.4,3.6,-5.6,0,0,1024,1024,1024,1024,0,0,0,0,0,0,0,87,3.844,3.848,0,0,0,0,4.602,62.24,756.71601404431,36.08924,6,P-GPS,,11.0
168600,2026-01-11 15:32:48,756.71601404431,37.72966,0.0,0.93309714272,9.8643047776,17,5,7.71,759.01260204431,38.385828,0.7158208,1.4856135646,0.0,0.0,0.0,23.4,3.2,-5.9,0,0,1024,1024,1024,1024,0,0,0,0,0,0,0,87,3.844,3.848,0,0,0,0,4.602,62.24,756.71601404431,36.08924,6,P-GPS,,11.0
168700,2026-01-11 15:32:48,756.71601404431,37.72966,0.223694,0.8702264058,9.9277234148,17,5,7.71,759.01260204431,38.385828,0.7158208,1.4856135646,-0.223694,0.0,0.0,23.6,2.1,-6.1,0,0,1024,1024,1024,1024,0,0,0,0,0,0,0,87,3.844,3.848,0,0,0,0,4.602,62.24,756.71601404431,36.08924,6,P-GPS,,11.0
168800,2026-01-11 15:32:48,756.71601404431,37.72966,0.223694,0.84882876732,9.9579727596,17,5,7.71,759.01260204431,38.385828,0.7158208,1.4856135646,0.0,0.0,0.0,23.7,1.7,-6.6,0,0,1024,1024,1024,1024,0,0,0,0,0,0,0,87,3.844,3.848,0,0,0,0,4.602,62.24,756.71601404431,36.08924,6,P-GPS,,11.0
168900,2026-01-11 15:32:48,756.71601404431,37.72966,0.0,0.8340387406,9.9821525504,17,5,7.71,759.01260204431,38.385828,0.7158208,1.4856135646,0.0,0.0,0.0,23.7,2.3,-6.5,0,0,1024,1024,1024,1024,0,0,0,0,0,0,0,87,3.844,3.848,0,0,0,0,4.602,62.24,756.71601404431,36.08924,6,P-GPS,,11.0
169000,2026-01-11 15:32:48,756.71601404431,37.72966,0.0,0.82617128628,9.9969819472,17,5,7.71,759.01260204431,38.385828,0.7158208,1.4856135646,0.0,0.0,0.0,23.6,2.9,-6.3,0,0,1024,1024,1024,1024,0,0,0,0,0,0,0,87,3.844,3.848,0,0,0,0,4.602,62.24,756.71601404431,36.08924,6,P-GPS,,11.0
169100,2026-01-11 15:32:48,756.71601404431,37.72966,0.0,0.83154202136,10.0431761744,17,5,7.681,759.01260204431,38.385828,0.7158208,1.4856135646,0.0,0.0,0.0,23.6,3.1,-6.1,0,0,1024,1024,1024,1024,0,0,0,0,0,0,0,87,3.838,3.843,0,0,0,0,4.945,62.42,756.71601404431,36.08924,6,P-GPS,,11.0
169200,2026-01-11 15:32:48,756.71601404431,37.72966,0.0,0.83626643096,10.048064626,17,5,7.681,759.01260204431,38.385828,0.7158208,1.4856135646,0.0,0.0,0.0,23.8,2.8,-5.7,0,0,1024,1024,1024,1024,0,0,0,0,0,0,0,87,3.838,3.843,0,0,0,0,4.945,62.42,756.71601404431,36.08924,6,P-GPS,,11.0
169300,2026-01-11 15:32:48,756.71601404431,37.72966,0.0,0.84562994832,10.0585961224,17,5,7.681,759.01260204431,38.385828,0.7158208,1.4856135646,0.0,0.0,0.0,23.8,3.0,-5.5,0,0,1024,1024,1024,1024,0,0,0,0,0,0,0,87,3.838,3.843,0,0,0,0,4.945,62.42,756.71601404431,36.08924,6,P-GPS,,11.0
169400,2026-01-11 15:32:48,756.71601404431,37.72966,0.0,0.8640256182,10.0784780128,17,5,7.681,759.01260204431,38.385828,0.7158208,1.4856135646,0.0,0.0,0.0,23.8,3.5,-5.8,0,0,1024,1024,1024,1024,0,0,0,0,0,0,0,87,3.838,3.843,0,0,0,0,4.945,62.42,756.71601404431,36.08924,6,P-GPS,,11.0
169500,2026-01-11 15:32:48,756.71601404431,37.72966,0.0,0.90890094772,10.127624996,17,5,7.681,759.01260204431,38.385828,0.7158208,1.4856135646,0.0,0.0,0.0,23.8,3.9,-5.6,0,0,1024,1024,1024,1024,0,0,0,0,0,0,0,87,3.838,3.843,0,0,0,0,4.945,62.42,756.71601404431,36.08924,6,P-GPS,,11.0
169600,2026-01-11 15:32:49,756.71601404431,37.72966,0.0,0.93135501668,10.1502299836,17,5,7.681,759.01260204431,38.385828,0.7158208,1.4856135646,0.0,0.0,0.0,23.8,3.6,-5.1,0,0,1024,1024,1024,1024,0,0,0,0,0,0,0,87,3.838,3.843,0,0,0,0,4.945,62.42,756.71601404431,36.08924,6,P-GPS,,11.0
169700,2026-01-11 15:32:49,756.71601404431,37.72966,0.0,0.9562500306,10.17634547,17,5,7.681,759.01260204431,38.385828,0.7158208,1.4856135646,0.0,0.0,0.0,23.8,3.8,-4.8,0,0,1024,1024,1024,1024,0,0,0,0,0,0,0,87,3.838,3.843,0,0,0,0,4.945,62.42,756.71601404431,36.08924,6,P-GPS,,11.0
169800,2026-01-11 15:32:49,756.71601404431,37.72966,0.0,0.99410764336,10.2145016392,17,5,7.681,759.01260204431,38.385828,0.7158208,1.4856135646,0.0,0.0,0.0,23.9,4.0,-4.6,0,0,1024,1024,1024,1024,0,0,0,0,0,0,0,87,3.838,3.843,0,0,0,0,4.945,62.42,756.71601404431,36.08924,6,P-GPS,,11.0
169900,2026-01-11 15:32:49,756.38793004431,37.72966,0.0,1.04041669996,10.2615816932,17,5,7.681,759.01260204431,38.385828,0.7158208,1.4856135646,0.0,0.0,0.0,23.9,3.9,-4.2,0,0,1024,1024,1024,1024,0,0,0,0,0,0,0,87,3.838,3.843,0,0,0,0,4.945,62.42,756.38793004431,35.761156,6,P-GPS,,10.9
170000,2026-01-11 15:32:49,756.38793004431,37.72966,0.0,1.09475725288,10.3160764456,17,5,7.681,759.01260204431,38.385828,0.7158208,1.4856135646,0.0,0.0,0.0,24.0,4.0,-4.0,0,0,1024,1024,1024,1024,0,0,0,0,0,0,0,87,3.838,3.843,0,0,0,0,4.945,62.42,756.38793004431,35.761156,6,P-GPS,,10.9
170100,2026-01-11 15:32:49,756.38793004431,37.72966,0.0,1.14210633576,10.3638782844,17,5,7.681,759.01260204431,38.385828,0.7158208,1.4856135646,0.0,0.0,0.0,24.0,3.8,-3.9,0,0,1024,1024,1024,1024,0,0,0,0,0,0,0,87,3.838,3.843,0,0,0,0,4.945,62.42,756.38793004431,35.761156,6,P-GPS,,10.9
170200,2026-01-11 15:32:49,756.38793004431,37.72966,0.0,1.18888127164,10.4106630628,17,5,7.683,759.01260204431,38.385828,0.7158208,1.4856135646,0.0,0.0,0.0,24.0,3.7,-3.5,0,0,1024,1024,1024,1024,0,0,0,0,0,0,0,87,3.841,3.845,0,0,0,0,4.968,62.42,756.38793004431,35.761156,6,P-GPS,,10.9
170300,2026-01-11 15:32:49,756.05984604431,37.72966,0.0,1.23669951464,10.4584649016,17,5,7.683,759.01260204431,38.385828,0.7158208,1.4856135646,0.0,0.0,0.0,23.9,3.8,-3.3,0,0,1024,1024,1024,1024,0,0,0,0,0,0,0,87,3.841,3.845,0,0,0,0,4.968,62.42,756.05984604431,35.433072,6,P-GPS,,10.8
170400,2026-01-11 15:32:49,756.05984604431,37.72966,0.0,1.30549216776,10.5313979748,17,5,7.683,759.01260204431,38.385828,0.7158208,1.4856135646,0.0,0.0,0.0,24.0,3.6,-3.3,0,0,1024,1024,1024,1024,0,0,0,0,0,0,0,87,3.841,3.845,0,0,0,0,4.968,62.42,756.05984604431,35.433072,6,P-GPS,,10.8
170500,2026-01-11 15:32:49,756.05984604431,37.72966,0.0,1.35400594884,10.5803152992,17,5,7.683,759.01260204431,38.385828,0.7158208,1.4856135646,0.0,0.0,0.0,24.0,3.7,-3.4,0,0,1024,1024,1024,1024,0,0,0,0,0,0,0,87,3.841,3.845,0,0,0,0,4.968,62.42,756.05984604431,35.433072,6,P-GPS,,10.8
