time(millisecond),timestamp,height_above_ground_at_drone_location(feet),ground_elevation_at_drone_location(feet),altitude_above_seaLevel(feet),height_sonar(feet),speed(mph),distance(feet),mileage(feet),satellites,gpslevel,voltage(v),max_altitude(feet),max_ascent(feet),max_speed(mph),max_distance(feet), xSpeed(mph), ySpeed(mph), zSpeed(mph), compass_heading(degrees), pitch(degrees), roll(degrees),isPhoto,isVideo,rc_elevator,rc_aileron,rc_throttle,rc_rudder,rc_elevator(percent),rc_aileron(percent),rc_throttle(percent),rc_rudder(percent),gimbal_heading(degrees),gimbal_pitch(degrees),gimbal_roll(degrees),battery_percent,voltageCell1,voltageCell2,voltageCell3,voltageCell4,voltageCell5,voltageCell6,current(A),battery_temperature(f),altitude(feet),ascent(feet),flycStateRaw,flycState,message,height_above_takeoff(meters)
0,2026-01-06 16:37:25,Available with any HD 360 subscription,Available with any HD 360 subscription,721.21124387928,0.328084,0.0,0.0,0.0,12,4,0.0,721.21124387928,0.0,0.0,0.0,0.0,0.0,0.0,337.0,1.7,0.8,0,0,1024,1024,1024,1024,0,0,0,0,0,0,0,78,3.938,3.933,0,0,0,0,0.0,63.32,721.21124387928,0.0,41,Motors_Started,SD card speed low SD card speed low. Normal use may be affected. Replace SD card (Code: 10028). Gimbal stuck. Make sure gimbal cover is removed and manually check whether gimbal can rotate freely (Code: 40002). Home Point updated. RTH altitude adjusted to 1640 ft (Cod,0.0
100,2026-01-06 16:37:25,,,721.21124387928,0.328084,0.0,0.92928480664,0.92928480664,12,4,0.0,721.21124387928,0.0,0.0,0.92928480664,0.0,0.0,0.0,337.0,1.7,0.8,0,0,1024,1024,1024,1024,0,0,0,0,0,0,0,78,3.938,3.933,0,0,0,0,0.0,63.32,721.21124387928,0.0,41,Motors_Started,,0.0
200,2026-01-06 16:37:25,,,721.21124387928,0.328084,0.0,1.1287237894,1.12875331696,12,4,0.0,721.21124387928,0.0,0.0,1.1287237894,0.0,0.0,0.0,336.9,1.7,0.8,0,0,1024,1024,1024,1024,0,0,0,0,0,0,0,78,3.938,3.933,0,0,0,0,0.0,63.32,721.21124387928,0.0,41,Motors_Started,Setting new Return-To-Home altitude to 500m (1640 ft). Data Recorder File Index is 25. Setting new Maximum Flight Altitude to 500m (1640 ft) Home Point updated. RTH altitude adjusted to 1640 ft (Code: 120852),0.0
300,2026-01-06 16:37:25,,,721.21124387928,0.328084,0.0,1.292404897,1.29263127496,12,4,0.0,721.21124387928,0.0,0.0,1.292404897,0.0,0.0,0.0,336.9,1.7,0.8,0,0,1024,1024,1024,1024,0,0,0,0,0,0,0,78,3.938,3.933,0,0,0,0,0.0,63.32,721.21124387928,0.0,41,Motors_Started,,0.0
400,2026-01-06 16:37:25,,,721.21124387928,0.328084,0.0,1.38545280024,1.38874348276,12,4,0.0,721.21124387928,0.0,0.0,1.38545280024,0.0,0.0,0.0,337.0,1.7,0.8,0,0,1024,1024,1024,1024,0,0,0,0,0,0,0,78,3.938,3.933,0,0,0,0,0.0,63.32,721.21124387928,0.0,41,Motors_Started,,0.0
500,2026-01-06 16:37:25,,,721.21124387928,0.328084,0.0,1.30405844068,1.54691934084,12,4,0.0,721.21124387928,0.0,0.0,1.38545280024,0.0,0.0,0.0,337.0,1.8,0.8,0,0,1024,1024,1024,1024,0,0,0,0,0,0,0,78,3.938,3.933,0,0,0,0,0.0,63.32,721.21124387928,0.0,41,Motors_Started,,0.0
600,2026-01-06 16:37:26,,,721.21124387928,0.328084,0.0,1.31597117072,1.5907808908,12,4,0.0,721.21124387928,0.0,0.0,1.38545280024,0.0,0.0,0.0,337.0,1.8,0.9,0,0,1024,1024,1024,1024,0,0,0,0,0,0,0,78,3.938,3.933,0,0,0,0,0.0,63.32,721.21124387928,0.0,41,Motors_Started,,0.0
700,2026-01-06 16:37:26,,,721.21124387928,0.328084,0.0,1.3062172334,1.64266409456,13,4,0.0,721.21124387928,0.0,0.0,1.38545280024,0.0,0.0,0.0,337.0,1.7,0.9,0,0,1024,1024,1024,1024,0,0,0,0,0,0,0,78,3.938,3.933,0,0,0,0,0.0,63.32,721.21124387928,0.0,41,Motors_Started,,0.0
800,2026-01-06 16:37:26,,,721.21124387928,0.328084,0.0,1.2836942668,1.6893209202,13,4,0.0,721.21124387928,0.0,0.0,1.38545280024,0.0,0.0,0.0,337.0,1.7,0.8,0,0,1024,1024,1024,1024,0,0,0,0,0,0,0,78,3.938,3.933,0,0,0,0,0.0,63.32,721.21124387928,0.0,41,Motors_Started,,0.0
900,2026-01-06 16:37:26,,,721.21124387928,0.328084,0.0,0.93648953128,2.09423891216,13,4,0.0,721.21124387928,0.0,0.0,1.38545280024,0.0,0.0,0.0,337.0,1.8,0.8,0,0,1024,1024,1024,1024,0,0,0,0,0,0,0,78,3.938,3.933,0,0,0,0,0.0,63.32,721.21124387928,0.0,41,Motors_Started,,0.0
1000,2026-01-06 16:37:26,,,721.21124387928,0.328084,0.0,0.90694228624,2.1431759216,13,4,0.0,721.21124387928,0.0,0.0,1.38545280024,0.0,0.0,0.0,337.1,1.8,0.8,0,0,1024,1024,1024,1024,0,0,0,0,0,0,0,78,3.938,3.933,0,0,0,0,0.0,63.32,721.21124387928,0.0,41,Motors_Started,,0.0
1100,2026-01-06 16:37:26,,,721.21124387928,0.328084,0.0,0.87448821696,2.19555781304,13,4,0.0,721.21124387928,0.0,0.0,1.38545280024,0.0,0.0,0.0,337.1,1.7,0.8,0,0,1024,1024,1024,1024,0,0,0,0,0,0,0,78,3.938,3.933,0,0,0,0,0.0,63.32,721.21124387928,0.0,11,AutoTakeoff,,0.0
1200,2026-01-06 16:37:26,,,721.21124387928,0.328084,0.0,0.8463254864,2.24265427124,13,4,0.0,721.21124387928,0.0,0.0,1.38545280024,0.0,0.0,0.0,337.2,1.8,0.8,0,0,1024,1024,1024,1024,0,0,0,0,0,0,0,78,3.938,3.933,0,0,0,0,0.0,63.32,721.21124387928,0.0,11,AutoTakeoff,,0.0
1300,2026-01-06 16:37:26,,,721.21124387928,0.328084,0.0,0.8226050132,2.28648629364,13,4,7.871,721.21124387928,0.0,0.0,1.38545280024,0.0,0.0,0.0,337.3,1.8,0.8,0,0,1024,1024,1024,1024,0,0,0,0,0,0,0,78,3.938,3.933,0,0,0,0,0.937,63.32,721.21124387928,0.0,11,AutoTakeoff,,0.0
1400,2026-01-06 16:37:26,,,721.21124387928,0.328084,0.0,0.64904529636,2.515091944,13,4,7.871,721.21124387928,0.0,0.0,1.38545280024,0.0,0.0,0.0,337.3,1.7,0.8,0,0,1024,1024,1024,1024,0,0,0,0,0,0,0,78,3.938,3.933,0,0,0,0,0.937,63.32,721.21124387928,0.0,11,AutoTakeoff,,0.0
1500,2026-01-06 16:37:27,,,721.21124387928,0.328084,0.0,0.63543637204,2.56088918956,13,4,7.871,721.21124387928,0.0,0.0,1.38545280024,0.0,0.0,0.0,337.3,1.7,0.8,0,0,1024,1024,1024,1024,0,0,0,0,0,0,0,78,3.938,3.933,0,0,0,0,0.937,63.32,721.21124387928,0.0,11,AutoTakeoff,,0.0
1600,2026-01-06 16:37:27,,,721.21124387928,0.328084,0.0,0.62608925888,2.603674624,13,4,7.871,721.21124387928,0.0,0.0,1.38545280024,0.0,0.0,0.0,338.1,1.7,0.8,0,0,1024,1024,1024,1024,0,0,0,0,0,0,0,78,3.938,3.933,0,0,0,0,0.937,63.32,721.21124387928,0.0,11,AutoTakeoff,,0.0
1700,2026-01-06 16:37:27,,,721.21124387928,0.328084,0.0,0.61956038728,2.64971137088,13,4,7.871,721.21124387928,0.0,0.0,1.38545280024,0.0,0.0,0.0,338.5,1.8,0.7,0,0,1024,1024,1024,1024,0,0,0,0,0,0,0,78,3.938,3.933,0,0,0,0,0.937,63.32,721.21124387928,0.0,11,AutoTakeoff,,0.0
1800,2026-01-06 16:37:27,,,721.21124387928,0.328084,0.0,0.57854004476,2.79192266152,13,4,7.871,721.21124387928,0.0,0.0,1.38545280024,0.0,0.0,0.0,340.0,1.8,0.6,0,0,1024,1024,1024,1024,0,0,0,0,0,0,0,78,3.938,3.933,0,0,0,0,0.937,63.32,721.21124387928,0.0,11,AutoTakeoff,,0.0
1900,2026-01-06 16:37:27,,,721.21124387928,0.328084,0.223694,0.58395343076,2.86596465864,13,4,7.871,721.21124387928,0.0,0.223694,1.38545280024,0.0,0.223694,0.0,341.9,1.3,0.0,0,0,1024,1024,1024,1024,0,0,0,0,0,0,0,78,3.938,3.933,0,0,0,0,0.937,63.32,721.21124387928,0.0,11,AutoTakeoff,,0.0
2000,2026-01-06 16:37:27,,,721.21124387928,0.328084,0.223694,0.598343195,2.94667332264,13,4,7.871,721.21124387928,0.0,0.223694,1.38545280024,0.0,0.223694,-0.223694,342.4,2.1,-0.5,0,0,1024,1024,1024,1024,0,0,0,0,0,0,0,78,3.938,3.933,0,0,0,0,0.937,63.32,721.21124387928,0.0,11,AutoTakeoff,,0.0
2100,2026-01-06 16:37:27,,,721.21124387928,0.328084,0.223694,0.62595802528,3.03780521532,13,4,7.871,721.21124387928,0.0,0.223694,1.38545280024,0.0,0.223694,-0.671082,342.2,1.5,-2.1,0,0,1024,1024,1024,1024,0,0,0,0,0,0,0,78,3.938,3.933,0,0,0,0,0.937,63.32,721.21124387928,0.0,11,AutoTakeoff,,0.0
2200,2026-01-06 16:37:27,,,721.21124387928,0.656168,0.0,0.68790684616,3.16742792288,13,4,7.871,721.21124387928,0.0,0.223694,1.38545280024,0.0,0.0,-0.894776,342.4,1.4,-1.7,0,0,1024,1024,1024,1024,0,0,0,0,0,0,0,78,3.938,3.933,0,0,0,0,0.937,63.32,721.21124387928,0.0,11,AutoTakeoff,,0.0
2300,2026-01-06 16:37:27,,,721.53932787928,0.656168,0.0,0.74152889512,3.25184721692,13,4,7.822,721.53932787928,0.328084,0.223694,1.38545280024,0.0,0.0,-1.11847,342.5,0.9,-1.0,0,0,1024,1024,1024,1024,0,0,0,0,0,0,0,78,3.884,3.875,0,0,0,0,1.72,63.32,721.53932787928,0.328084,11,AutoTakeoff,Home Point updated. RTH altitude adjusted to 1640 ft (Code: 120852),0.1
2400,2026-01-06 16:37:27,,,721.53932787928,0.656168,0.0,0.80366472388,3.3312337024,13,4,7.822,721.53932787928,0.328084,0.223694,1.38545280024,0.0,0.0,-1.565858,342.5,0.6,-0.9,0,0,1024,1024,1024,1024,0,0,0,0,0,0,0,78,3.884,3.875,0,0,0,0,1.72,63.32,721.53932787928,0.328084,11,AutoTakeoff,,0.1
2500,2026-01-06 16:37:27,,,721.86741187928,0.984252,0.0,0.8741634138,3.4135827864,13,4,7.822,721.86741187928,0.656168,0.223694,1.38545280024,0.0,0.0,-1.789552,342.5,0.4,-1.0,0,0,1024,1024,1024,1024,0,0,0,0,0,0,0,78,3.884,3.875,0,0,0,0,1.72,63.32,721.86741187928,0.656168,11,AutoTakeoff,,0.2
2600,2026-01-06 16:37:28,,,722.19549587928,1.312336,0.0,1.1556594858,3.6978019556,13,4,7.822,722.19549587928,0.984252,0.223694,1.38545280024,0.0,0.0,-1.789552,342.6,-0.1,-0.8,0,0,1024,1024,1024,1024,0,0,0,0,0,0,0,78,3.884,3.875,0,0,0,0,1.72,63.32,722.19549587928,0.984252,11,AutoTakeoff,,0.3
2700,2026-01-06 16:37:28,,,722.52357987928,1.64042,0.0,1.29677497588,3.8455381808,13,4,7.822,722.52357987928,1.312336,0.223694,1.38545280024,0.0,0.0,-2.013246,342.7,0.2,0.0,0,0,1024,1024,1024,1024,0,0,0,0,0,0,0,78,3.884,3.875,0,0,0,0,1.72,63.32,722.52357987928,1.312336,11,AutoTakeoff,,0.4
2800,2026-01-06 16:37:28,,,722.85166387928,1.64042,0.0,1.38296920436,3.9359581312,13,4,7.822,722.85166387928,1.64042,0.223694,1.38545280024,0.0,0.0,-2.23694,342.6,0.2,-0.4,0,0,1024,1024,1024,1024,0,0,0,0,0,0,0,78,3.884,3.875,0,0,0,0,1.72,63.32,722.85166387928,1.64042,11,AutoTakeoff,,0.5
2900,2026-01-06 16:37:28,,,723.17974787928,1.968504,0.0,1.4405840356,4.022473882,13,4,7.822,723.17974787928,1.968504,0.223694,1.4405840356,0.0,0.0,-2.23694,342.6,0.7,-1.4,0,0,1024,1024,1024,1024,0,0,0,0,0,0,0,78,3.884,3.875,0,0,0,0,1.72,63.32,723.17974787928,1.968504,11,AutoTakeoff,,0.6
3000,2026-01-06 16:37:28,,,723.50783187928,2.296588,0.0,1.48367130732,4.090715354,13,4,7.822,723.50783187928,2.296588,0.223694,1.48367130732,0.0,0.0,-2.23694,342.6,0.4,-1.7,0,0,1024,1024,1024,1024,0,0,0,0,0,0,0,78,3.884,3.875,0,0,0,0,1.72,63.32,723.50783187928,2.296588,11,AutoTakeoff,,0.7
3100,2026-01-06 16:37:28,,,724.16399987928,2.952756,0.0,1.52670280476,4.4271983044,13,4,7.822,724.16399987928,2.952756,0.223694,1.52670280476,0.0,0.0,-2.23694,342.5,0.3,-2.2,0,0,1024,1024,1024,1024,0,0,0,0,0,0,0,78,3.884,3.875,0,0,0,0,1.72,63.32,724.16399987928,2.952756,6,P-GPS,,0.9
3200,2026-01-06 16:37:28,,,724.49208387928,3.28084,0.0,1.60412406708,4.5565290172,13,4,7.822,724.49208387928,3.28084,0.223694,1.60412406708,0.0,0.0,-2.013246,342.5,0.0,-2.0,0,0,1024,1024,1024,1024,0,0,0,0,0,0,0,78,3.884,3.875,0,0,0,0,1.72,63.32,724.49208387928,3.28084,6,P-GPS,,1.0
3300,2026-01-06 16:37:28,,,724.82016787928,3.28084,0.0,1.71421921496,4.7346458208,12,4,7.58,724.82016787928,3.608924,0.223694,1.71421921496,0.0,0.0,-1.565858,342.4,0.5,-2.0,0,0,1024,1024,1024,1024,0,0,0,0,0,0,0,78,3.791,3.789,0,0,0,0,5.778,63.32,724.82016787928,3.608924,6,P-GPS,,1.1
3400,2026-01-06 16:37:28,,,724.82016787928,3.608924,0.0,1.79113194708,4.8635828328,12,4,7.58,724.82016787928,3.608924,0.223694,1.79113194708,0.0,0.0,-1.11847,342.5,0.2,-1.4,0,0,1024,1024,1024,1024,0,0,0,0,0,0,0,78,3.791,3.789,0,0,0,0,5.778,63.32,724.82016787928,3.608924,6,P-GPS,,1.1
3500,2026-01-06 16:37:28,,,725.14825187928,3.608924,0.0,1.99959323984,5.2881891456,12,4,7.58,725.14825187928,3.937008,0.223694,1.99959323984,0.0,0.0,-0.671082,342.6,0.0,-0.9,0,0,1024,1024,1024,1024,0,0,0,0,0,0,0,78,3.791,3.789,0,0,0,0,5.778,63.32,725.14825187928,3.937008,6,P-GPS,,1.2
3600,2026-01-06 16:37:29,,,725.47633587928,3.937008,0.0,2.01965557644,5.3172245796,12,4,7.58,725.47633587928,4.265092,0.223694,2.01965557644,0.0,0.0,-0.223694,342.4,-0.6,-1.4,0,0,1024,1024,1024,1024,0,0,0,0,0,0,0,78,3.791,3.789,0,0,0,0,5.778,63.32,725.47633587928,4.265092,6,P-GPS,,1.3
3700,2026-01-06 16:37:29,,,725.47633587928,3.937008,0.223694,2.00718838444,5.3327101444,13,4,7.58,725.47633587928,4.265092,0.223694,2.01965557644,0.223694,0.0,0.0,342.4,0.0,-2.0,0,0,1024,1024,1024,1024,0,0,0,0,0,0,0,78,3.791,3.789,0,0,0,0,5.778,63.32,725.47633587928,4.265092,6,P-GPS,,1.3
3800,2026-01-06 16:37:29,,,725.47633587928,3.937008,0.3131716,1.99137801648,5.3677167072,13,4,7.58,725.47633587928,4.265092,0.3131716,2.01965557644,0.223694,0.223694,0.0,342.3,1.0,-2.8,0,0,1024,1024,1024,1024,0,0,0,0,0,0,0,78,3.791,3.789,0,0,0,0,5.778,63.32,725.47633587928,4.265092,6,P-GPS,,1.3
3900,2026-01-06 16:37:29,,,725.80441987928,3.937008,0.4921268,1.84010176492,5.60695556,13,4,7.58,725.80441987928,4.593176,0.4921268,2.01965557644,0.447388,0.223694,0.0,342.3,1.4,-3.3,0,0,1024,1024,1024,1024,0,0,0,0,0,0,0,78,3.791,3.789,0,0,0,0,5.778,63.32,725.80441987928,4.593176,6,P-GPS,,1.4
4000,2026-01-06 16:37:29,,,725.80441987928,3.937008,0.3131716,1.83697840524,5.771161602,13,4,7.58,725.80441987928,4.593176,0.4921268,2.01965557644,0.223694,0.223694,0.0,342.3,1.8,-3.9,0,0,1024,1024,1024,1024,0,0,0,0,0,0,0,78,3.791,3.789,0,0,0,0,5.778,63.32,725.80441987928,4.593176,6,P-GPS,,1.4
4100,2026-01-06 16:37:29,,,725.80441987928,3.937008,0.3131716,1.8678970414,6.0108925808,13,4,7.58,725.80441987928,4.593176,0.4921268,2.01965557644,0.223694,0.223694,0.0,342.4,1.6,-4.1,0,0,1024,1024,1024,1024,0,0,0,0,0,0,0,78,3.791,3.789,0,0,0,0,5.778,63.32,725.80441987928,4.593176,6,P-GPS,,1.4
4200,2026-01-06 16:37:29,,,725.80441987928,3.937008,0.223694,1.9889928458,6.215387338,13,4,7.58,725.80441987928,4.593176,0.4921268,2.01965557644,0.223694,0.0,0.0,342.4,1.6,-4.1,0,0,1024,1024,1024,1024,0,0,0,0,0,0,0,78,3.791,3.789,0,0,0,0,5.778,63.32,725.80441987928,4.593176,6,P-GPS,,1.4
4300,2026-01-06 16:37:29,,,726.13250387928,3.937008,0.223694,2.44879272928,6.890912294,13,4,7.616,726.13250387928,4.92126,0.4921268,2.44879272928,0.223694,0.0,0.0,342.3,1.7,-4.5,0,0,1024,1024,1024,1024,0,0,0,0,0,0,0,78,3.81,3.808,0,0,0,0,4.391,63.32,726.13250387928,4.92126,6,P-GPS,,1.5
4400,2026-01-06 16:37:29,,,726.13250387928,3.937008,0.0,2.62081045132,7.0655185988,13,4,7.616,726.13250387928,4.92126,0.4921268,2.62081045132,0.0,0.0,0.0,342.3,1.7,-4.3,0,0,1024,1024,1024,1024,0,0,0,0,0,0,0,78,3.81,3.808,0,0,0,0,4.391,63.32,726.13250387928,4.92126,6,P-GPS,,1.5
4500,2026-01-06 16:37:29,,,726.13250387928,3.937008,0.0,2.78801190024,7.2327102052,13,4,7.616,726.13250387928,4.92126,0.4921268,2.78801190024,0.0,0.0,0.0,342.3,1.3,-3.9,0,0,1024,1024,1024,1024,0,0,0,0,0,0,0,78,3.81,3.808,0,0,0,0,4.391,63.32,726.13250387928,4.92126,6,P-GPS,,1.5
4600,2026-01-06 16:37:30,,,726.13250387928,3.937008,0.0,2.94306439864,7.3915356696,13,4,7.616,726.13250387928,4.92126,0.4921268,2.94306439864,0.0,0.0,0.0,342.3,1.2,-3.8,0,0,1024,1024,1024,1024,0,0,0,0,0,0,0,78,3.81,3.808,0,0,0,0,4.391,63.32,726.13250387928,4.92126,6,P-GPS,,1.5
4700,2026-01-06 16:37:30,,,726.13250387928,3.937008,0.0,3.10428487624,7.5621065412,13,4,7.616,726.13250387928,4.92126,0.4921268,3.10428487624,0.0,0.0,0.0,342.3,0.7,-3.5,0,0,1024,1024,1024,1024,0,0,0,0,0,0,0,78,3.81,3.808,0,0,0,0,4.391,63.32,726.13250387928,4.92126,6,P-GPS,,1.5
4800,2026-01-06 16:37:30,,,726.13250387928,3.937008,0.0,3.3531169052,7.865157732,13,4,7.616,726.13250387928,4.92126,0.4921268,3.3531169052,0.0,0.0,0.0,342.3,0.7,-3.5,0,0,1024,1024,1024,1024,0,0,0,0,0,0,0,78,3.81,3.808,0,0,0,0,4.391,63.32,726.13250387928,4.92126,6,P-GPS,,1.5
4900,2026-01-06 16:37:30,,,726.13250387928,3.937008,0.0,3.5280184856,8.0400593124,13,4,7.616,726.13250387928,4.92126,0.4921268,3.5280184856,0.0,0.0,0.0,342.5,0.3,-3.3,0,0,1024,1024,1024,1024,0,0,0,0,0,0,0,78,3.81,3.808,0,0,0,0,4.391,63.32,726.13250387928,4.92126,6,P-GPS,,1.5
5000,2026-01-06 16:37:30,,,726.13250387928,3.937008,0.0,3.6842520864,8.1987207348,13,4,7.616,726.13250387928,4.92126,0.4921268,3.6842520864,0.0,0.0,0.0,342.7,-0.2,-3.3,0,0,1024,1024,1024,1024,0,0,0,0,0,0,0,78,3.81,3.808,0,0,0,0,4.391,63.32,726.13250387928,4.92126,6,P-GPS,,1.5
5100,2026-01-06 16:37:30,,,726.13250387928,3.937008,0.0,3.8337927736,8.3551839944,13,4,7.616,726.13250387928,4.92126,0.4921268,3.8337927736,0.0,0.0,0.0,342.7,0.6,-3.0,0,0,1024,1024,1684,1024,0,0,100,0,0,0,0,78,3.81,3.808,0,0,0,0,4.391,63.32,726.13250387928,4.92126,6,P-GPS,,1.5
5200,2026-01-06 16:37:30,,,726.13250387928,3.937008,0.0,4.0096457976,8.6737863668,13,4,7.616,726.13250387928,4.92126,0.4921268,4.0096457976,0.0,0.0,0.0,342.6,1.1,-3.2,0,0,1024,1024,1684,1024,0,0,100,0,0,0,0,78,3.81,3.808,0,0,0,0,4.391,63.32,726.13250387928,4.92126,6,P-GPS,,1.5
5300,2026-01-06 16:37:30,,,726.13250387928,3.937008,0.0,4.1558072196,8.8360895216,13,4,7.595,726.13250387928,4.92126,0.4921268,4.1558072196,0.0,0.0,0.0,342.5,2.2,-3.3,0,0,1024,1024,1684,1024,0,0,100,0,0,0,0,78,3.799,3.797,0,0,0,0,5.083,63.32,726.13250387928,4.92126,6,P-GPS,,1.5
5400,2026-01-06 16:37:30,,,726.13250387928,3.937008,0.0,4.2780185096,8.975229946,13,4,7.595,726.13250387928,4.92126,0.4921268,4.2780185096,0.0,0.0,-0.447388,342.4,3.4,-2.9,0,0,1024,1024,1684,1024,0,0,100,0,0,0,0,78,3.799,3.797,0,0,0,0,5.083,63.32,726.13250387928,4.92126,6,P-GPS,,1.5
5500,2026-01-06 16:37:30,,,726.46058787928,4.265092,0.0,4.4045605084,9.115485856,12,4,7.595,726.46058787928,5.249344,0.4921268,4.4045605084,0.0,0.0,-1.11847,342.5,2.8,-2.7,0,0,1024,1024,1684,1024,0,0,100,0,0,0,0,78,3.799,3.797,0,0,0,0,5.083,63.32,726.46058787928,5.249344,6,P-GPS,,1.6
5600,2026-01-06 16:37:31,,,726.46058787928,4.265092,0.0,4.4760828204,9.3429464932,12,4,7.595,726.46058787928,5.249344,0.4921268,4.4760828204,0.0,0.0,-1.789552,342.6,2.7,-2.8,0,0,1024,1024,1024,1024,0,0,0,0,0,0,0,78,3.799,3.797,0,0,0,0,5.083,63.32,726.46058787928,5.249344,6,P-GPS,,1.6
5700,2026-01-06 16:37:31,,,727.11675587928,4.593176,0.0,4.6211287568,9.5031499104,13,5,7.595,727.11675587928,5.905512,0.4921268,4.6211287568,0.0,0.0,-2.684328,342.4,2.3,-2.7,0,0,1024,1024,747,1024,0,0,-42,0,0,0,0,78,3.799,3.797,0,0,0,0,5.083,63.32,727.11675587928,5.905512,6,P-GPS,,1.8
5800,2026-01-06 16:37:31,,,727.44483987928,5.249344,0.0,4.7793308616,9.6731958476,13,5,7.595,727.44483987928,6.233596,0.4921268,4.7793308616,0.0,0.0,-3.131716,342.4,1.1,-2.8,0,0,1024,1024,364,1024,0,0,-100,0,0,0,0,78,3.799,3.797,0,0,0,0,5.083,63.32,727.44483987928,6.233596,6,P-GPS,,1.9
5900,2026-01-06 16:37:31,,,727.77292387928,5.577428,0.0,4.9585631508,9.8643047776,13,5,7.595,727.77292387928,6.56168,0.4921268,4.9585631508,0.0,0.0,-3.131716,342.4,0.0,-3.1,0,0,1024,1024,364,1024,0,0,-100,0,0,0,0,78,3.799,3.797,0,0,0,0,5.083,63.32,727.77292387928,6.56168,6,P-GPS,,2.0
6000,2026-01-06 16:37:31,,,728.42909187928,5.905512,0.0,5.1905841556,10.1166669904,13,5,7.595,728.42909187928,7.217848,0.4921268,5.1905841556,0.0,0.0,-2.460634,342.3,0.1,-2.3,0,0,1024,1024,364,1024,0,0,-100,0,0,0,0,78,3.799,3.797,0,0,0,0,5.083,63.32,728.42909187928,7.217848,6,P-GPS,,2.2
6100,2026-01-06 16:37:31,,,728.75717587928,6.233596,0.0,5.3821524032,10.3121394376,13,5,7.595,728.75717587928,7.545932,0.4921268,5.3821524032,0.0,0.0,-1.789552,342.2,0.0,-2.5,0,0,1024,1024,364,1024,0,0,-100,0,0,0,0,78,3.799,3.797,0,0,0,0,5.083,63.32,728.75717587928,7.545932,6,P-GPS,,2.3
6200,2026-01-06 16:37:31,,,728.75717587928,6.56168,0.0,5.52575477,10.462434718,13,5,7.595,728.75717587928,7.545932,0.4921268,5.52575477,0.0,0.0,-1.11847,342.2,-0.1,-2.9,0,0,1024,1024,364,1024,0,0,-100,0,0,0,0,78,3.799,3.797,0,0,0,0,5.083,63.32,728.75717587928,7.545932,6,P-GPS,,2.3
6300,2026-01-06 16:37:31,,,728.75717587928,6.56168,0.0,5.65370753,10.621555458,13,5,7.595,728.75717587928,7.545932,0.4921268,5.65370753,0.0,0.0,-0.223694,342.2,0.2,-3.3,0,0,1024,1024,364,1024,0,0,-100,0,0,0,0,78,3.845,3.843,0,0,0,0,5.083,63.32,728.75717587928,7.545932,6,P-GPS,,2.3
6400,2026-01-06 16:37:31,,,729.08525987928,6.56168,0.0,5.7500658008,10.7510830212,13,5,7.595,729.08525987928,7.874016,0.4921268,5.7500658008,0.0,0.0,0.447388,342.2,1.2,-3.3,0,0,1024,1024,364,1024,0,0,-100,0,0,0,0,78,3.845,3.843,0,0,0,0,5.083,63.32,729.08525987928,7.874016,6,P-GPS,,2.4
6500,2026-01-06 16:37:32,,,728.75717587928,6.233596,0.0,5.6674214412,11.2060699124,13,5,7.595,729.08525987928,7.874016,0.4921268,5.7500658008,0.0,0.0,1.11847,342.2,2.5,-3.4,0,0,1024,1024,935,1024,0,0,-13,0,0,0,0,78,3.845,3.843,0,0,0,0,5.083,63.32,728.75717587928,7.545932,6,P-GPS,,2.3
6600,2026-01-06 16:37:32,,,728.75717587928,6.233596,0.0,5.7758532032,11.3588586312,13,5,7.595,729.08525987928,7.874016,0.4921268,5.7758532032,0.0,0.0,1.342164,342.2,0.1,-3.2,0,0,1399,1024,1024,1024,57,0,0,0,0,0,0,78,3.845,3.843,0,0,0,0,5.083,63.32,728.75717587928,7.545932,6,P-GPS,,2.3
6700,2026-01-06 16:37:32,,,728.75717587928,5.905512,0.0,5.9013125248,11.538386196,13,5,7.595,729.08525987928,7.874016,0.4921268,5.9013125248,0.0,0.0,1.565858,342.4,0.0,-3.0,0,0,1684,1024,1024,1024,100,0,0,0,0,0,0,78,3.845,3.843,0,0,0,0,5.083,63.32,728.75717587928,7.545932,6,P-GPS,,2.3
6800,2026-01-06 16:37:32,,,728.75717587928,5.577428,0.0,6.0594490128,11.7275594304,13,5,7.595,729.08525987928,7.874016,0.4921268,6.0594490128,0.0,0.0,1.342164,342.6,0.0,-2.9,0,0,1684,1024,1024,1024,100,0,0,0,0,0,0,78,3.845,3.843,0,0,0,0,5.083,63.32,728.75717587928,7.545932,6,P-GPS,,2.3
6900,2026-01-06 16:37:32,,,728.42909187928,5.577428,0.0,6.280676054,12.1292326716,12,5,7.595,729.08525987928,7.874016,0.4921268,6.280676054,0.0,0.0,0.894776,343.1,-7.8,-2.8,0,0,1684,1024,1024,1024,100,0,0,0,0,0,0,78,3.845,3.843,0,0,0,0,5.083,63.32,728.42909187928,7.217848,6,P-GPS,,2.2
7000,2026-01-06 16:37:32,,,728.42909187928,5.577428,0.223694,6.4228020428,12.2864833328,12,5,7.595,729.08525987928,7.874016,0.4921268,6.4228020428,0.223694,0.0,0.447388,343.3,-13.4,-3.9,0,0,1684,1024,1024,1024,100,0,0,0,0,0,0,78,3.845,3.843,0,0,0,0,5.083,63.32,728.42909187928,7.217848,6,P-GPS,,2.2
7100,2026-01-06 16:37:32,,,728.42909187928,5.577428,0.9171454,6.4898624124,12.3753940968,13,5,7.595,729.08525987928,7.874016,0.9171454,6.4898624124,0.894776,-0.223694,0.0,343.4,-15.7,-4.0,0,0,1684,1024,1024,1024,100,0,0,0,0,0,0,78,3.845,3.843,0,0,0,0,5.083,63.32,728.42909187928,7.217848,6,P-GPS,,2.2
7200,2026-01-06 16:37:32,,,728.42909187928,5.905512,1.6329662,6.4109582104,12.4559387188,13,5,7.595,729.08525987928,7.874016,1.6329662,6.4898624124,1.565858,-0.447388,0.0,343.0,-15.3,-3.3,0,0,1684,1024,1024,1024,100,0,0,0,0,0,0,78,3.845,3.843,0,0,0,0,5.083,63.32,728.42909187928,7.217848,6,P-GPS,,2.2
7300,2026-01-06 16:37:32,,,728.42909187928,5.905512,2.125093,6.1951117468,12.6742786208,13,5,7.595,729.08525987928,7.874016,2.125093,6.4898624124,2.013246,-0.671082,0.0,342.7,-15.2,-3.0,0,0,1684,1024,1024,1024,100,0,0,0,0,0,0,78,3.845,3.843,0,0,0,0,5.083,63.32,728.42909187928,7.217848,6,P-GPS,,2.2
7400,2026-01-06 16:37:32,,,728.42909187928,5.905512,2.8185444,5.9088584568,12.964567344,13,5,7.595,729.08525987928,7.874016,2.8185444,6.4898624124,2.684328,-0.894776,0.0,342.7,-15.0,-2.4,0,0,1684,1024,1024,1024,100,0,0,0,0,0,0,78,3.845,3.843,0,0,0,0,5.083,63.32,728.42909187928,7.217848,6,P-GPS,,2.2
7500,2026-01-06 16:37:32,,,728.42909187928,5.577428,3.2659324,5.5271655312,13.3550857292,13,5,7.566,729.08525987928,7.874016,3.2659324,6.4898624124,3.131716,-0.894776,0.0,342.7,-14.6,-2.0,0,0,1684,1024,1024,1024,100,0,0,0,0,0,0,78,3.78,3.785,0,0,0,0,5.426,63.32,728.42909187928,7.217848,6,P-GPS,,2.2
7600,2026-01-06 16:37:33,,,728.42909187928,5.577428,3.914645,5.0295605284,13.8831369272,13,5,7.566,729.08525987928,7.874016,3.914645,6.4898624124,3.802798,-0.894776,0.0,342.9,-14.9,-1.6,0,0,1684,1024,1024,1024,100,0,0,0,0,0,0,78,3.78,3.785,0,0,0,0,5.426,63.32,728.42909187928,7.217848,6,P-GPS,,2.2
7700,2026-01-06 16:37:33,,,728.42909187928,5.905512,4.250186,4.3263124744,15.0702432644,13,5,7.566,729.08525987928,7.874016,4.250186,6.4898624124,4.250186,0.0,0.0,1.7,-15.0,-2.1,0,0,1684,1024,1024,1024,100,0,0,0,0,0,0,78,3.78,3.785,0,0,0,0,5.426,63.32,728.42909187928,7.217848,6,P-GPS,,2.2
7800,2026-01-06 16:37:33,,,728.42909187928,5.905512,4.921268,3.81069566,15.8509519508,13,5,7.566,729.08525987928,7.874016,4.921268,6.4898624124,4.921268,0.0,0.0,2.0,-15.1,-2.6,0,0,1684,1024,1024,1024,100,0,0,0,0,0,0,78,3.78,3.785,0,0,0,0,5.426,63.32,728.42909187928,7.217848,6,P-GPS,,2.2
7900,2026-01-06 16:37:33,,,728.42909187928,6.233596,5.368656,3.3471457764,16.7660110352,13,5,7.566,729.08525987928,7.874016,5.368656,6.4898624124,5.368656,0.223694,0.0,3.5,-15.5,-2.7,0,0,1684,1024,1024,1024,100,0,0,0,0,0,0,78,3.78,3.785,0,0,0,0,5.426,63.32,728.42909187928,7.217848,6,P-GPS,,2.2
8000,2026-01-06 16:37:33,,,728.42909187928,6.233596,5.816044,3.15907490424,17.6825136892,13,5,7.566,729.08525987928,7.874016,5.816044,6.4898624124,5.816044,0.223694,0.0,3.5,-15.4,-3.0,0,0,1684,1024,1024,1024,100,0,0,0,0,0,0,78,3.78,3.785,0,0,0,0,5.426,63.32,728.42909187928,7.217848,6,P-GPS,,2.2
8100,2026-01-06 16:37:33,,,728.42909187928,6.233596,5.816044,3.2871064044,18.6928811756,13,5,7.566,729.08525987928,7.874016,5.816044,6.4898624124,6.263432,0.223694,0.0,3.8,-15.4,-3.0,0,0,1684,1024,1024,1024,100,0,0,0,0,0,0,78,3.78,3.785,0,0,0,0,5.426,63.32,728.42909187928,7.217848,6,P-GPS,,2.2
8200,2026-01-06 16:37:33,,,728.75717587928,6.233596,6.71082,4.1574148312,20.1899284676,13,5,7.566,729.08525987928,7.874016,6.71082,6.4898624124,6.71082,0.223694,0.0,3.8,-15.0,-3.0,0,0,1564,1024,1024,1024,82,0,0,0,0,0,0,78,3.78,3.785,0,0,0,0,5.426,63.32,728.75717587928,7.545932,6,P-GPS,,2.3
8300,2026-01-06 16:37:33,,,728.75717587928,7.545932,7.158208,4.8294292884,21.312172598,13,5,7.566,729.08525987928,7.874016,7.158208,6.4898624124,7.158208,0.223694,0.0,3.9,-14.9,-3.2,0,0,1024,1024,1024,1024,0,0,0,0,0,0,0,78,3.78,3.785,0,0,0,0,5.426,63.32,728.75717587928,7.545932,6,P-GPS,,2.3
8400,2026-01-06 16:37:33,,,728.75717587928,7.545932,7.4042714,5.6314306264,22.4131896936,13,5,7.566,729.08525987928,7.874016,7.4042714,6.4898624124,7.381902,0.447388,0.0,3.8,-14.9,-2.7,0,0,1024,1024,1024,1024,0,0,0,0,0,0,0,78,3.78,3.785,0,0,0,0,5.426,63.32,728.75717587928,7.545932,6,P-GPS,,2.3
8500,2026-01-06 16:37:33,,,728.75717587928,7.545932,7.8516594,6.6055120224,23.61220548,13,5,7.566,729.08525987928,7.874016,7.8516594,6.6055120224,7.82929,0.447388,0.0,3.7,-8.2,-2.8,0,0,1024,1024,943,1024,0,0,-12,0,0,0,0,78,3.78,3.785,0,0,0,0,5.426,63.32,728.75717587928,7.545932,6,P-GPS,,2.3
8600,2026-01-06 16:37:34,,,729.08525987928,7.874016,7.605596,7.5155514216,24.6699154876,13,5,7.548,729.08525987928,7.874016,7.8516594,7.5155514216,7.605596,0.223694,0.0,3.0,14.6,-2.4,0,0,1024,1024,364,1024,0,0,-100,0,0,0,0,78,3.776,3.771,0,0,0,0,5.405,63.32,729.08525987928,7.874016,6,P-GPS,,2.4
8700,2026-01-06 16:37:34,,,729.08525987928,7.874016,6.934514,8.4952102456,25.7667002996,13,5,7.548,729.08525987928,7.874016,7.8516594,8.4952102456,6.934514,0.223694,0.0,2.9,20.4,-1.7,0,0,1024,1024,364,1024,0,0,-100,0,0,0,0,78,3.776,3.771,0,0,0,0,5.405,63.32,729.08525987928,7.874016,6,P-GPS,,2.4
8800,2026-01-06 16:37:34,,,729.08525987928,7.874016,5.816044,9.3625002996,26.7074155528,13,5,7.548,729.08525987928,7.874016,7.8516594,9.3625002996,5.816044,0.223694,0.0,3.1,21.2,-1.6,0,0,924,1024,1024,1024,-15,0,0,0,0,0,0,78,3.776,3.771,0,0,0,0,5.405,63.32,729.08525987928,7.874016,6,P-GPS,,2.4
8900,2026-01-06 16:37:34,,,729.08525987928,7.874016,5.1673314,10.18536778,27.5808407776,12,5,7.548,729.08525987928,7.874016,7.8516594,10.18536778,5.144962,0.447388,0.223694,3.3,19.0,-1.9,0,0,924,1024,1024,1024,-15,0,0,0,0,0,0,78,3.776,3.771,0,0,0,0,5.405,63.32,729.08525987928,7.874016,6,P-GPS,,2.4
9000,2026-01-06 16:37:34,,,729.08525987928,7.874016,4.2725554,10.88500691,28.2875009052,12,5,7.548,729.08525987928,7.874016,7.8516594,10.88500691,4.250186,0.447388,0.894776,3.3,19.4,-1.7,0,0,364,1024,1024,1024,-100,0,0,0,0,0,0,78,3.776,3.771,0,0,0,0,5.405,63.32,729.08525987928,7.874016,6,P-GPS,,2.4
9100,2026-01-06 16:37:34,,,729.08525987928,7.545932,3.6014734,11.5312339648,28.9491807164,13,5,7.548,729.08525987928,7.874016,7.8516594,11.5312339648,3.579104,0.447388,1.11847,2.9,20.4,-1.2,0,0,367,1024,1024,1024,-100,0,0,0,0,0,0,78,3.776,3.771,0,0,0,0,5.405,63.32,729.08525987928,7.874016,6,P-GPS,,2.4
9200,2026-01-06 16:37:34,,,729.08525987928,7.545932,2.5053728,11.8852694092,29.3036098616,13,5,7.548,729.08525987928,7.874016,7.8516594,11.8852694092,2.460634,0.447388,0.671082,2.7,18.5,-2.3,0,0,441,1024,1024,1024,-88,0,0,0,0,0,0,78,3.776,3.771,0,0,0,0,5.405,63.32,729.08525987928,7.874016,6,P-GPS,,2.4
9300,2026-01-06 16:37:34,,,729.08525987928,7.545932,1.6329662,12.0475069472,29.4812017308,13,5,7.548,729.08525987928,7.874016,7.8516594,12.0475069472,1.565858,0.447388,0.447388,2.7,17.5,-3.3,0,0,364,1024,1024,1024,-100,0,0,0,0,0,0,78,3.776,3.771,0,0,0,0,5.405,63.32,729.08525987928,7.874016,6,P-GPS,,2.4
9400,2026-01-06 16:37:34,,,729.08525987928,7.217848,1.006623,11.4691932804,30.1593513588,13,5,7.548,729.08525987928,7.874016,7.8516594,12.0475069472,0.894776,0.447388,0.223694,3.1,16.7,-3.6,0,0,364,1024,1024,1024,-100,0,0,0,0,0,0,78,3.776,3.771,0,0,0,0,5.405,63.32,729.08525987928,7.874016,6,P-GPS,,2.4
9500,2026-01-06 16:37:34,,,728.75717587928,7.217848,0.3131716,11.4154531212,30.3032161928,13,5,7.548,729.08525987928,7.874016,7.8516594,12.0475069472,0.223694,0.223694,0.0,3.1,16.0,-3.4,0,0,364,1024,1024,1024,-100,0,0,0,0,0,0,78,3.776,3.771,0,0,0,0,5.405,63.32,728.75717587928,7.545932,6,P-GPS,,2.3
9600,2026-01-06 16:37:35,,,728.75717587928,7.217848,0.3131716,11.2849084976,30.4970154116,13,5,7.548,729.08525987928,7.874016,7.8516594,12.0475069472,-0.223694,0.223694,0.0,3.2,16.0,-2.9,0,0,364,1024,1024,1024,-100,0,0,0,0,0,0,78,3.776,3.771,0,0,0,0,5.405,63.32,728.75717587928,7.545932,6,P-GPS,,2.3
9700,2026-01-06 16:37:35,,,728.75717587928,7.545932,0.7158208,11.0806762076,30.7661755252,13,5,7.528,729.08525987928,7.874016,7.8516594,12.0475069472,-0.671082,0.223694,0.0,3.2,16.4,-3.0,0,0,364,1024,1024,1024,-100,0,0,0,0,0,0,78,3.764,3.764,0,0,0,0,5.328,63.32,728.75717587928,7.545932,6,P-GPS,,2.3
9800,2026-01-06 16:37:35,,,728.42909187928,7.545932,1.1408394,10.8406171448,31.1073500768,13,5,7.528,729.08525987928,7.874016,7.8516594,12.0475069472,-1.11847,0.223694,0.0,3.3,16.7,-3.2,0,0,364,1024,1024,1024,-100,0,0,0,0,0,0,78,3.764,3.764,0,0,0,0,5.328,63.32,728.42909187928,7.217848,6,P-GPS,,2.2
9900,2026-01-06 16:37:35,,,728.42909187928,7.545932,1.5882274,10.386155188,31.7404537716,13,5,7.528,729.08525987928,7.874016,7.8516594,12.0475069472,-1.565858,0.223694,0.0,3.1,17.6,-4.0,0,0,364,1024,1024,1024,-100,0,0,0,0,0,0,78,3.764,3.764,0,0,0,0,5.328,63.32,728.42909187928,7.217848,6,P-GPS,,2.2
10000,2026-01-06 16:37:35,,,728.42909187928,7.545932,2.23694,10.095308722,32.1743448616,13,5,7.528,729.08525987928,7.874016,7.8516594,12.0475069472,-2.23694,0.0,0.0,3.0,18.3,-3.8,0,0,364,1024,1024,1024,-100,0,0,0,0,0,0,78,3.764,3.764,0,0,0,0,5.328,63.32,728.42909187928,7.217848,6,P-GPS,,2.2
10100,2026-01-06 16:37:35,,,728.10100787928,7.545932,2.23694,9.7538060864,32.6734918592,13,5,7.528,729.08525987928,7.874016,7.8516594,12.0475069472,-2.684328,0.0,0.0,3.5,18.6,-3.1,0,0,1024,1024,1024,1024,0,0,0,0,0,0,0,78,3.764,3.764,0,0,0,0,5.328,63.32,728.10100787928,6.889764,6,P-GPS,,2.1
10200,2026-01-06 16:37:35,,,728.10100787928,7.545932,3.35541,9.3751971504,33.212599488,13,5,7.528,729.08525987928,7.874016,7.8516594,12.0475069472,-3.35541,0.0,0.0,3.7,18.6,-2.7,0,0,1024,1024,1024,1024,0,0,0,0,0,0,0,78,3.764,3.764,0,0,0,0,5.328,63.32,728.10100787928,6.889764,6,P-GPS,,2.1
10300,2026-01-06 16:37:35,,,728.10100787928,7.545932,3.802798,9.1027561968,33.652232048,13,5,7.528,729.08525987928,7.874016,7.8516594,12.0475069472,-3.802798,0.0,0.0,3.5,18.0,-3.5,0,0,1024,1024,1024,1024,0,0,0,0,0,0,0,78,3.764,3.764,0,0,0,0,5.328,63.32,728.10100787928,6.889764,6,P-GPS,,2.1
10400,2026-01-06 16:37:35,,,727.77292387928,7.545932,4.026492,8.6343178616,34.326772752,13,5,7.528,729.08525987928,7.874016,7.8516594,12.0475069472,-4.026492,0.0,0.0,4.5,-1.1,-4.0,0,0,1024,1024,1024,1024,0,0,0,0,0,0,0,78,3.764,3.764,0,0,0,0,5.328,63.32,727.77292387928,6.56168,6,P-GPS,,2.0
10500,2026-01-06 16:37:35,,,727.77292387928,7.545932,3.579104,8.1707351696,35.026904008,13,5,7.528,729.08525987928,7.874016,7.8516594,12.0475069472,-3.579104,0.0,0.0,4.8,-12.5,-3.6,0,0,1024,1684,1024,1024,0,100,0,0,0,0,0,78,3.764,3.764,0,0,0,0,5.328,63.32,727.77292387928,6.56168,6,P-GPS,,2.0
10600,2026-01-06 16:37:36,,,728.10100787928,7.545932,2.908022,7.81003962,35.616470956,13,5,7.528,729.08525987928,7.874016,7.8516594,12.0475069472,-2.908022,0.0,0.0,4.6,-14.0,-3.3,0,0,1024,1684,1024,1024,0,100,0,0,0,0,0,78,3.764,3.764,0,0,0,0,5.328,63.32,728.10100787928,6.889764,6,P-GPS,,2.1
10700,2026-01-06 16:37:36,,,728.10100787928,7.545932,2.23694,7.526575044,36.057415852,13,5,7.528,729.08525987928,7.874016,7.8516594,12.0475069472,-2.23694,0.0,0.0,4.2,-10.3,-1.8,0,0,1024,1684,1024,1024,0,100,0,0,0,0,0,78,3.764,3.764,0,0,0,0,5.328,63.32,728.10100787928,6.889764,6,P-GPS,,2.1
10800,2026-01-06 16:37:36,,,728.10100787928,7.874016,1.8119214,7.3413388176,36.487205892,13,5,7.563,729.08525987928,7.874016,7.8516594,12.0475069472,-1.789552,0.223694,0.0,4.2,-6.1,7.8,0,0,1024,1684,1024,1024,0,100,0,0,0,0,0,78,3.784,3.779,0,0,0,0,5.348,63.5,728.10100787928,6.889764,6,P-GPS,,2.1
10900,2026-01-06 16:37:36,,,728.10100787928,7.874016,1.4987498,7.2469818592,36.913715092,13,5,7.563,729.08525987928,7.874016,7.8516594,12.0475069472,-1.342164,0.671082,0.0,4.3,-2.4,13.4,0,0,1024,1684,1024,1024,0,100,0,0,0,0,0,78,3.784,3.779,0,0,0,0,5.348,63.5,728.10100787928,6.889764,6,P-GPS,Lighting environment too dark. Visual positioning inaccurate. Fly with caution (Code: 720128),2.1
11000,2026-01-06 16:37:36,,,728.10100787928,7.874016,1.7448132,7.299704958,37.264108804,13,5,7.563,729.08525987928,7.874016,7.8516594,12.0475069472,-1.11847,1.342164,0.0,4.7,-0.3,14.7,0,0,1024,1024,1024,1024,0,0,0,0,0,0,0,78,3.784,3.779,0,0,0,0,5.348,63.5,728.10100787928,6.889764,6,P-GPS,,2.1
11100,2026-01-06 16:37:36,,,727.77292387928,7.874016,2.3040482,7.6516406648,37.65748152,13,5,7.563,729.08525987928,7.874016,7.8516594,12.0475069472,-1.11847,2.013246,0.0,4.1,1.1,13.6,0,0,1024,1024,1024,1024,0,0,0,0,0,0,0,78,3.784,3.779,0,0,0,0,5.348,63.5,727.77292387928,6.56168,6,P-GPS,,2.0
11200,2026-01-06 16:37:36,,,727.77292387928,7.874016,2.7066974,7.9589241392,38.066274184,13,5,7.563,729.08525987928,7.874016,7.8516594,12.0475069472,-1.11847,2.460634,0.0,3.2,1.2,-1.9,0,0,1024,1024,1024,1024,0,0,0,0,0,0,0,78,3.784,3.779,0,0,0,0,5.348,63.5,727.77292387928,6.56168,6,P-GPS,,2.0
11300,2026-01-06 16:37:36,,,727.77292387928,7.874016,2.4158952,8.3288060408,38.499345064,13,5,7.563,729.08525987928,7.874016,7.8516594,12.0475069472,-0.894776,2.23694,0.0,3.2,-1.0,-10.7,0,0,1024,506,1024,1024,0,-78,0,0,0,0,0,78,3.784,3.779,0,0,0,0,5.348,63.5,727.77292387928,6.56168,6,P-GPS,,2.0
11400,2026-01-06 16:37:36,,,727.44483987928,7.545932,1.9908766,8.6415029012,38.854660036,13,5,7.563,729.08525987928,7.874016,7.8516594,12.0475069472,-0.894776,1.789552,0.0,3.2,-1.5,-12.3,0,0,1024,364,1024,1024,0,-100,0,0,0,0,0,78,3.784,3.779,0,0,0,0,5.348,63.5,727.44483987928,6.233596,6,P-GPS,,1.9
11500,2026-01-06 16:37:37,,,727.44483987928,7.545932,1.4987498,8.913878238,39.158137736,13,5,7.563,729.08525987928,7.874016,7.8516594,12.0475069472,-0.671082,1.342164,0.0,3.3,-0.7,-12.2,0,0,1024,364,1024,1024,0,-100,0,0,0,0,0,78,3.784,3.779,0,0,0,0,5.348,63.5,727.44483987928,6.233596,6,P-GPS,,1.9
11600,2026-01-06 16:37:37,,,727.44483987928,7.545932,1.006623,9.2960632896,39.654856912,13,5,7.563,729.08525987928,7.874016,7.8516594,12.0475069472,-0.447388,0.894776,0.0,3.1,0.2,-17.8,0,0,1024,463,1024,1024,0,-85,0,0,0,0,0,78,3.784,3.779,0,0,0,0,5.348,63.5,727.44483987928,6.233596,6,P-GPS,,1.9
11700,2026-01-06 16:37:37,,,727.11675587928,7.874016,0.223694,9.4279202492,39.816930408,13,5,7.563,729.08525987928,7.874016,7.8516594,12.0475069472,-0.223694,0.0,0.0,3.0,0.8,-19.4,0,0,1024,1018,1024,1024,0,-1,0,0,0,0,0,78,3.784,3.779,0,0,0,0,5.348,63.5,727.11675587928,5.905512,6,P-GPS,,1.8
11800,2026-01-06 16:37:37,,,727.11675587928,7.874016,0.223694,9.4112207736,39.868111512,13,5,7.563,729.08525987928,7.874016,7.8516594,12.0475069472,0.0,-0.447388,0.0,3.2,1.5,-18.9,0,0,1024,1024,1024,1024,0,0,0,0,0,0,0,78,3.784,3.779,0,0,0,0,5.348,63.5,727.11675587928,5.905512,6,P-GPS,,1.8
11900,2026-01-06 16:37:37,,,727.11675587928,7.874016,1.11847,9.2698165696,40.0098438,13,5,7.555,729.08525987928,7.874016,7.8516594,12.0475069472,0.0,-1.11847,0.0,3.1,2.2,-17.3,0,0,1024,1024,1024,1024,0,0,0,0,0,0,0,78,3.781,3.774,0,0,0,0,5.077,63.5,727.11675587928,5.905512,6,P-GPS,,1.8
12000,2026-01-06 16:37:37,,,727.11675587928,7.874016,1.565858,8.664862482,40.621064292,13,5,7.555,729.08525987928,7.874016,7.8516594,12.0475069472,0.0,-1.565858,0.0,3.5,2.5,-3.9,0,0,1024,1024,1024,1024,0,0,0,0,0,0,0,78,3.781,3.774,0,0,0,0,5.077,63.5,727.11675587928,5.905512,6,P-GPS,,1.8
12100,2026-01-06 16:37:37,,,727.11675587928,7.545932,1.565858,8.3662404252,40.931431756,13,5,7.555,729.08525987928,7.874016,7.8516594,12.0475069472,0.0,-1.565858,0.0,3.7,1.0,3.4,0,0,1024,1024,1024,1024,0,0,0,0,0,0,0,78,3.781,3.774,0,0,0,0,5.077,63.5,727.11675587928,5.905512,6,P-GPS,,1.8
12200,2026-01-06 16:37:37,,,727.11675587928,7.545932,1.342164,8.0665356912,41.245408144,13,5,7.555,729.08525987928,7.874016,7.8516594,12.0475069472,0.0,-1.342164,0.0,3.9,1.0,5.1,0,0,1024,1024,1024,1024,0,0,0,0,0,0,0,78,3.781,3.774,0,0,0,0,5.077,63.5,727.11675587928,5.905512,6,P-GPS,,1.8
12300,2026-01-06 16:37:37,,,726.78867187928,7.545932,0.894776,7.7748690152,41.552822852,13,5,7.555,729.08525987928,7.874016,7.8516594,12.0475069472,0.0,-0.894776,0.0,3.6,1.6,4.0,0,0,1024,1024,1024,1024,0,0,0,0,0,0,0,78,3.781,3.774,0,0,0,0,5.077,63.5,726.78867187928,5.577428,6,P-GPS,,1.7
12400,2026-01-06 16:37:37,,,726.78867187928,7.545932,0.671082,7.2334647984,42.13910896,13,5,7.555,729.08525987928,7.874016,7.8516594,12.0475069472,0.0,-0.671082,0.0,3.3,2.0,3.0,0,0,1024,1024,1024,1024,0,0,0,0,0,0,0,78,3.781,3.774,0,0,0,0,5.077,63.5,726.78867187928,5.577428,6,P-GPS,,1.7
12500,2026-01-06 16:37:37,,,726.78867187928,7.545932,0.447388,7.0400592804,42.35400398,13,5,7.555,729.08525987928,7.874016,7.8516594,12.0475069472,0.0,-0.447388,0.0,3.3,1.9,1.8,0,0,1024,1024,388,1024,0,0,-96,0,0,0,0,78,3.781,3.774,0,0,0,0,5.077,63.5,726.78867187928,5.577428,6,P-GPS,,1.7
12600,2026-01-06 16:37:38,,,726.78867187928,7.545932,0.223694,6.936351928,42.4622717,13,5,7.555,729.08525987928,7.874016,7.8516594,12.0475069472,0.0,-0.223694,0.0,3.3,2.2,0.6,0,0,1024,1024,675,1024,0,0,-53,0,0,0,0,78,3.781,3.774,0,0,0,0,5.077,63.5,726.78867187928,5.577428,6,P-GPS,,1.7
12700,2026-01-06 16:37:38,,,726.78867187928,7.217848,0.223694,6.8829070444,42.51640556,13,5,7.555,729.08525987928,7.874016,7.8516594,12.0475069472,0.0,-0.223694,0.0,3.4,1.8,0.2,0,0,1024,1024,1024,1024,0,0,0,0,0,0,0,78,3.781,3.774,0,0,0,0,5.077,63.5,726.78867187928,5.577428,6,P-GPS,,1.7
12800,2026-01-06 16:37:38,,,726.78867187928,7.217848,0.0,7.1215225376,42.850066988,13,5,7.555,729.08525987928,7.874016,7.8516594,12.0475069472,0.0,0.0,0.223694,3.4,1.4,-0.4,0,0,917,1024,1024,1024,-16,0,0,0,0,0,0,78,3.781,3.774,0,0,0,0,5.077,63.5,726.78867187928,5.577428,6,P-GPS,,1.7
12900,2026-01-06 16:37:38,,,726.78867187928,7.217848,0.0,7.1401577088,42.892717908,13,5,7.555,729.08525987928,7.874016,7.8516594,12.0475069472,0.0,0.0,0.447388,3.4,1.5,-0.8,0,0,917,1024,1024,1024,-16,0,0,0,0,0,0,78,3.781,3.774,0,0,0,0,5.077,63.5,726.78867187928,5.577428,6,P-GPS,,1.7
13000,2026-01-06 16:37:38,,,726.78867187928,7.217848,0.0,7.1779201772,42.94291476,13,5,7.555,729.08525987928,7.874016,7.8516594,12.0475069472,0.0,0.0,0.671082,3.4,2.1,-1.0,0,0,376,1024,1024,1024,-98,0,0,0,0,0,0,78,3.781,3.774,0,0,0,0,5.077,63.5,726.78867187928,5.577428,6,P-GPS,,1.7
13100,2026-01-06 16:37:38,,,726.46058787928,7.217848,0.0,7.2263453756,43.000001376,13,5,7.566,729.08525987928,7.874016,7.8516594,12.0475069472,0.0,0.0,0.447388,3.3,3.2,-1.0,0,0,364,1024,1024,1024,-100,0,0,0,0,0,0,78,3.831,3.8,0,0,0,0,4.838,63.5,726.46058787928,5.249344,6,P-GPS,,1.6
13200,2026-01-06 16:37:38,,,726.46058787928,6.889764,0.0,7.2479661112,43.0446208,13,5,7.566,729.08525987928,7.874016,7.8516594,12.0475069472,0.0,0.0,0.223694,3.0,12.5,-1.4,0,0,364,1024,1024,1024,-100,0,0,0,0,0,0,78,3.831,3.8,0,0,0,0,4.838,63.5,726.46058787928,5.249344,6,P-GPS,,1.6
13300,2026-01-06 16:37:38,,,726.46058787928,6.889764,0.447388,7.334809946,43.220473824,13,5,7.566,729.08525987928,7.874016,7.8516594,12.0475069472,-0.447388,0.0,0.0,3.0,16.9,-1.4,0,0,1024,1024,1024,1024,0,0,0,0,0,0,0,78,3.831,3.8,0,0,0,0,4.838,63.5,726.46058787928,5.249344,6,P-GPS,,1.6
13400,2026-01-06 16:37:38,,,726.46058787928,7.217848,0.894776,7.2856957712,43.409778292,13,5,7.566,729.08525987928,7.874016,7.8516594,12.0475069472,-0.894776,0.0,0.0,3.0,18.8,-2.1,0,0,1024,1024,1024,1024,0,0,0,0,0,0,0,78,3.831,3.8,0,0,0,0,4.838,63.5,726.46058787928,5.249344,6,P-GPS,,1.6
13500,2026-01-06 16:37:38,,,726.46058787928,7.217848,1.565858,7.20062359,43.717849168,13,5,7.566,729.08525987928,7.874016,7.8516594,12.0475069472,-1.565858,0.0,0.0,3.5,13.0,-2.0,0,0,1024,1024,1024,1024,0,0,0,0,0,0,0,78,3.831,3.8,0,0,0,0,4.838,63.5,726.46058787928,5.249344,6,P-GPS,,1.6
13600,2026-01-06 16:37:39,,,726.13250387928,7.217848,1.789552,7.09645692,44.037402984,13,5,7.566,729.08525987928,7.874016,7.8516594,12.0475069472,-1.789552,0.0,0.0,3.9,-0.8,-2.0,0,0,1024,1024,694,1024,0,0,-50,0,0,0,0,78,3.831,3.8,0,0,0,0,4.838,63.5,726.13250387928,4.92126,6,P-GPS,,1.5
13700,2026-01-06 16:37:39,,,726.13250387928,7.217848,1.565858,6.93323513,44.417324256,13,5,7.566,729.08525987928,7.874016,7.8516594,12.0475069472,-1.565858,0.0,0.0,3.9,-5.4,-2.1,0,0,1024,1024,894,1024,0,0,-20,0,0,0,0,78,3.831,3.8,0,0,0,0,4.838,63.5,726.13250387928,4.92126,6,P-GPS,,1.5
13800,2026-01-06 16:37:39,,,726.46058787928,7.217848,1.342164,6.8464897204,44.707022428,13,5,7.566,729.08525987928,7.874016,7.8516594,12.0475069472,-1.342164,0.0,0.0,3.8,-6.3,-2.0,0,0,1024,1024,1024,1024,0,0,0,0,0,0,0,78,3.831,3.8,0,0,0,0,4.838,63.5,726.46058787928,5.249344,6,P-GPS,,1.6
13900,2026-01-06 16:37:39,,,726.13250387928,7.217848,1.11847,6.771817802,44.989502752,13,5,7.566,729.08525987928,7.874016,7.8516594,12.0475069472,-1.11847,0.0,0.447388,3.7,-5.6,-2.4,0,0,1024,1024,1024,1024,0,0,0,0,0,0,0,78,3.831,3.8,0,0,0,0,4.838,63.5,726.13250387928,4.92126,6,P-GPS,,1.5
14000,2026-01-06 16:37:39,,,726.13250387928,6.889764,0.671082,6.7067915532,45.235893836,13,5,7.566,729.08525987928,7.874016,7.8516594,12.0475069472,-0.671082,0.0,0.894776,3.6,-4.7,-2.3,0,0,1024,1024,1024,1024,0,0,0,0,0,0,0,78,3.831,3.8,0,0,0,0,4.838,63.5,726.13250387928,4.92126,6,P-GPS,,1.5
14100,2026-01-06 16:37:39,,,726.13250387928,6.889764,0.447388,6.5359910228,45.635500148,13,5,7.566,729.08525987928,7.874016,7.8516594,12.0475069472,-0.447388,0.0,0.447388,3.3,-2.7,-1.8,0,0,1024,1024,1024,1024,0,0,0,0,0,0,0,78,3.831,3.8,0,0,0,0,4.838,63.5,726.13250387928,4.92126,6,P-GPS,,1.5
14200,2026-01-06 16:37:39,,,726.13250387928,6.889764,0.223694,6.5073492896,45.76115632,13,5,7.614,729.08525987928,7.874016,7.8516594,12.0475069472,-0.223694,0.0,0.447388,3.4,-0.8,-1.5,0,0,1024,1024,895,1024,0,0,-20,0,0,0,0,78,3.807,3.807,0,0,0,0,4.813,63.5,726.13250387928,4.92126,6,P-GPS,,1.5
14300,2026-01-06 16:37:39,,,725.80441987928,6.889764,0.0,6.4942915464,45.833990968,13,5,7.614,729.08525987928,7.874016,7.8516594,12.0475069472,0.0,0.0,0.223694,3.4,0.2,-1.6,0,0,1024,1024,550,1024,0,0,-72,0,0,0,0,78,3.807,3.807,0,0,0,0,4.813,63.5,725.80441987928,4.593176,6,P-GPS,,1.4
14400,2026-01-06 16:37:39,,,725.80441987928,6.56168,0.0,6.4556432512,45.881235064,13,5,7.614,729.08525987928,7.874016,7.8516594,12.0475069472,0.0,0.0,0.0,3.4,0.5,-1.8,0,0,1024,1024,982,1024,0,0,-6,0,0,0,0,78,3.807,3.807,0,0,0,0,4.813,63.5,725.80441987928,4.593176,6,P-GPS,,1.4
14500,2026-01-06 16:37:39,,,725.80441987928,6.56168,0.0,6.3639109648,46.10892536,13,5,7.614,729.08525987928,7.874016,7.8516594,12.0475069472,0.0,0.0,0.223694,3.4,0.4,-1.4,0,0,1024,1024,1024,1024,0,0,0,0,0,0,0,78,3.807,3.807,0,0,0,0,4.813,63.5,725.80441987928,4.593176,6,P-GPS,,1.4
14600,2026-01-06 16:37:40,,,725.80441987928,6.56168,0.0,6.349901778,46.13025082,13,5,7.614,729.08525987928,7.874016,7.8516594,12.0475069472,0.0,0.0,0.894776,3.4,0.7,-1.2,0,0,1024,1024,1024,1024,0,0,0,0,0,0,0,78,3.807,3.807,0,0,0,0,4.813,63.5,725.80441987928,4.593176,6,P-GPS,,1.4
14700,2026-01-06 16:37:40,,,725.47633587928,6.233596,0.0,6.3640421984,46.160106464,13,5,7.614,729.08525987928,7.874016,7.8516594,12.0475069472,0.0,0.0,1.11847,3.4,1.0,-1.3,0,0,1024,1024,1024,1024,0,0,0,0,0,0,0,78,3.807,3.807,0,0,0,0,4.813,63.5,725.47633587928,4.265092,6,P-GPS,,1.3
14800,2026-01-06 16:37:40,,,725.47633587928,6.233596,0.0,6.3788715952,46.174870244,13,5,7.614,729.08525987928,7.874016,7.8516594,12.0475069472,0.0,0.0,0.671082,3.3,1.1,-1.0,0,0,1024,1024,1024,1024,0,0,0,0,0,0,0,78,3.807,3.807,0,0,0,0,4.813,63.5,725.47633587928,4.265092,6,P-GPS,,1.3
14900,2026-01-06 16:37:40,,,725.14825187928,6.233596,0.0,6.3933400996,46.19750804,13,5,7.614,729.08525987928,7.874016,7.8516594,12.0475069472,0.0,0.0,0.447388,3.3,0.9,-1.0,0,0,1024,1024,1024,1024,0,0,0,0,0,0,0,78,3.807,3.807,0,0,0,0,4.813,63.5,725.14825187928,3.937008,6,P-GPS,,1.2
15000,2026-01-06 16:37:40,,,725.14825187928,6.233596,0.0,6.5327101828,46.344489672,13,5,7.614,729.08525987928,7.874016,7.8516594,12.0475069472,0.0,0.0,0.223694,3.3,1.5,-1.0,0,0,1024,1024,409,1024,0,0,-93,0,0,0,0,78,3.807,3.807,0,0,0,0,4.813,63.5,725.14825187928,3.937008,6,P-GPS,,1.2
15100,2026-01-06 16:37:40,,,725.14825187928,6.233596,0.0,6.571686562,46.406497548,13,5,7.614,729.08525987928,7.874016,7.8516594,12.0475069472,0.0,0.0,0.0,3.3,1.6,-1.2,0,0,1024,1024,604,1024,0,0,-64,0,0,0,0,78,3.807,3.807,0,0,0,0,4.813,63.5,725.14825187928,3.937008,6,P-GPS,,1.2
15200,2026-01-06 16:37:40,,,725.14825187928,6.233596,0.0,6.5797902368,46.45505398,13,5,7.614,729.08525987928,7.874016,7.8516594,12.0475069472,0.0,0.0,0.0,3.3,1.1,-1.0,0,0,1024,1024,1024,1024,0,0,0,0,0,0,0,78,3.807,3.807,0,0,0,0,4.813,63.5,725.14825187928,3.937008,6,P-GPS,,1.2
15300,2026-01-06 16:37:40,,,724.82016787928,5.905512,0.0,6.5695868244,46.504922748,13,5,7.614,729.08525987928,7.874016,7.8516594,12.0475069472,0.0,0.0,0.671082,3.3,1.8,-1.0,0,0,1024,1024,1024,1024,0,0,0,0,0,0,0,78,3.791,3.81,0,0,0,0,4.813,63.5,724.82016787928,3.608924,6,P-GPS,,1.1
15400,2026-01-06 16:37:40,,,724.82016787928,5.905512,0.0,6.461778422,46.620408316,13,5,7.614,729.08525987928,7.874016,7.8516594,12.0475069472,0.0,0.0,0.894776,3.3,2.0,-0.9,0,0,1024,1024,1024,1024,0,0,0,0,0,0,0,78,3.791,3.81,0,0,0,0,4.813,63.5,724.82016787928,3.608924,6,P-GPS,,1.1
15500,2026-01-06 16:37:40,,,724.49208387928,5.905512,0.0,6.4064306512,46.678479184,13,5,7.614,729.08525987928,7.874016,7.8516594,12.0475069472,0.0,0.0,0.447388,3.4,1.3,-0.8,0,0,1024,1024,1024,1024,0,0,0,0,0,0,0,78,3.791,3.81,0,0,0,0,4.813,63.5,724.49208387928,3.28084,6,P-GPS,,1.0
15600,2026-01-06 16:37:41,,,724.49208387928,5.577428,0.0,6.3529857676,46.732941128,13,5,7.614,729.08525987928,7.874016,7.8516594,12.0475069472,0.0,0.0,0.223694,3.4,1.7,-1.1,0,0,1024,1024,1024,1024,0,0,0,0,0,0,0,78,3.791,3.81,0,0,0,0,4.813,63.5,724.49208387928,3.28084,6,P-GPS,,1.0
15700,2026-01-06 16:37:41,,,724.49208387928,5.577428,0.0,6.2994424588,46.78641882,13,5,7.614,729.08525987928,7.874016,7.8516594,12.0475069472,0.0,0.0,0.223694,3.4,2.1,-1.4,0,0,1024,1024,1024,1024,0,0,0,0,0,0,0,78,3.791,3.81,0,0,0,0,4.813,63.5,724.49208387928,3.28084,6,P-GPS,,1.0
15800,2026-01-06 16:37:41,,,724.49208387928,5.577428,0.0,6.2366471812,46.849082864,13,5,7.614,729.08525987928,7.874016,7.8516594,12.0475069472,0.0,0.0,0.0,3.3,2.3,-1.4,0,0,1024,1024,1024,1024,0,0,0,0,0,0,0,78,3.791,3.81,0,0,0,0,4.813,63.5,724.49208387928,3.28084,6,P-GPS,,1.0
15900,2026-01-06 16:37:41,,,724.16399987928,5.577428,0.0,6.2269687032,46.86843982,13,5,7.614,729.08525987928,7.874016,7.8516594,12.0475069472,0.0,0.0,0.0,3.3,2.4,-1.2,0,0,1024,1024,1024,1024,0,0,0,0,0,0,0,78,3.791,3.81,0,0,0,0,4.813,63.5,724.16399987928,2.952756,6,P-GPS,,0.9
16000,2026-01-06 16:37:41,,,724.16399987928,5.577428,0.0,6.2044293324,46.891077616,13,5,7.614,729.08525987928,7.874016,7.8516594,12.0475069472,0.0,0.0,0.0,3.4,2.2,-1.1,0,0,1024,1024,1024,1024,0,0,0,0,0,0,0,78,3.791,3.81,0,0,0,0,4.813,63.5,724.16399987928,2.952756,6,P-GPS,,0.9
16100,2026-01-06 16:37:41,,,724.16399987928,5.577428,0.0,6.1719818248,46.926838772,13,5,7.614,729.08525987928,7.874016,7.8516594,12.0475069472,0.0,0.0,0.0,3.4,2.3,-1.2,0,0,1024,1024,1087,1024,0,0,10,0,0,0,0,78,3.791,3.81,0,0,0,0,4.813,63.5,724.16399987928,2.952756,6,P-GPS,,0.9
16200,2026-01-06 16:37:41,,,724.16399987928,5.577428,0.0,6.1416340548,47.04232434,13,5,7.614,729.08525987928,7.874016,7.8516594,12.0475069472,0.0,0.0,0.0,3.4,2.2,-1.1,0,0,1024,1024,1115,1024,0,0,14,0,0,0,0,78,3.791,3.81,0,0,0,0,4.813,63.5,724.16399987928,2.952756,6,P-GPS,,0.9
16300,2026-01-06 16:37:41,,,724.16399987928,5.577428,0.0,6.1260172564,47.070867648,13,5,7.614,729.08525987928,7.874016,7.8516594,12.0475069472,0.0,0.0,0.0,3.4,2.6,-1.2,0,0,1024,1024,1112,1024,0,0,13,0,0,0,0,78,3.791,3.81,0,0,0,0,4.813,63.5,724.16399987928,2.952756,6,P-GPS,,0.9
16400,2026-01-06 16:37:41,,,724.16399987928,5.577428,0.0,6.1322508524,47.081366336,13,5,7.537,729.08525987928,7.874016,7.8516594,12.0475069472,0.0,0.0,0.0,3.4,2.9,-1.1,0,0,1024,1024,1056,1024,0,0,5,0,0,0,0,78,3.78,3.779,0,0,0,0,4.827,63.5,724.16399987928,2.952756,6,P-GPS,,0.9
16500,2026-01-06 16:37:42,,,724.16399987928,5.577428,0.0,6.1511812992,47.101051376,13,5,7.537,729.08525987928,7.874016,7.8516594,12.0475069472,0.0,0.0,0.0,3.3,2.3,-1.0,0,0,1024,1024,1024,1024,0,0,0,0,0,0,0,78,3.78,3.779,0,0,0,0,4.827,63.5,724.16399987928,2.952756,6,P-GPS,,0.9
16600,2026-01-06 16:37:42,,,724.16399987928,5.577428,0.0,6.1677167328,47.129594684,13,5,7.537,729.08525987928,7.874016,7.8516594,12.0475069472,0.0,0.0,0.0,3.3,2.0,-1.1,0,0,1024,1024,1024,1024,0,0,0,0,0,0,0,78,3.78,3.779,0,0,0,0,4.827,63.5,724.16399987928,2.952756,6,P-GPS,,0.9
16700,2026-01-06 16:37:42,,,724.16399987928,5.905512,0.0,6.2699477072,47.257875528,13,5,7.537,729.08525987928,7.874016,7.8516594,12.0475069472,0.0,0.0,0.0,3.2,2.2,-1.4,0,0,1024,1024,1024,1024,0,0,0,0,0,0,0,78,3.78,3.779,0,0,0,0,4.827,63.5,724.16399987928,2.952756,6,P-GPS,,0.9
16800,2026-01-06 16:37:42,,,724.16399987928,5.905512,0.0,6.2945540072,47.305775792,13,5,7.537,729.08525987928,7.874016,7.8516594,12.0475069472,0.0,0.0,0.0,3.2,2.2,-1.4,0,0,1024,1024,898,1024,0,0,-19,0,0,0,0,78,3.78,3.779,0,0,0,0,4.827,63.5,724.16399987928,2.952756,6,P-GPS,,0.9
16900,2026-01-06 16:37:42,,,724.16399987928,5.905512,0.0,6.3248361604,47.36220624,13,5,7.537,729.08525987928,7.874016,7.8516594,12.0475069472,0.0,0.0,0.0,3.4,2.2,-1.1,0,0,1024,1024,626,1024,0,0,-60,0,0,0,0,78,3.78,3.779,0,0,0,0,4.827,63.5,724.16399987928,2.952756,6,P-GPS,,0.9
17000,2026-01-06 16:37:42,,,724.16399987928,5.905512,0.0,6.3301511212,47.416668184,13,5,7.537,729.08525987928,7.874016,7.8516594,12.0475069472,0.0,0.0,0.0,3.4,1.9,-1.0,0,0,1024,1024,636,1024,0,0,-59,0,0,0,0,78,3.78,3.779,0,0,0,0,4.827,63.5,724.16399987928,2.952756,6,P-GPS,,0.9
17100,2026-01-06 16:37:42,,,724.16399987928,5.905512,0.0,6.3369096516,47.541340104,13,5,7.537,729.08525987928,7.874016,7.8516594,12.0475069472,0.0,0.0,0.223694,3.5,1.6,-0.3,0,0,1024,1024,843,1024,0,0,-27,0,0,0,0,78,3.78,3.779,0,0,0,0,4.827,63.5,724.16399987928,2.952756,6,P-GPS,,0.9
17200,2026-01-06 16:37:42,,,724.16399987928,5.577428,0.0,6.310203614,47.590552704,13,5,7.537,729.08525987928,7.874016,7.8516594,12.0475069472,0.0,0.0,0.671082,3.5,1.9,-0.4,0,0,1024,1024,1024,1024,0,0,0,0,0,0,0,78,3.78,3.779,0,0,0,0,4.827,63.5,724.16399987928,2.952756,6,P-GPS,,0.9
17300,2026-01-06 16:37:42,,,723.83591587928,5.577428,0.0,6.274114374,47.640749556,13,5,7.537,729.08525987928,7.874016,7.8516594,12.0475069472,0.0,0.0,0.894776,3.5,1.9,-0.5,0,0,1024,1024,1024,1024,0,0,0,0,0,0,0,78,3.78,3.779,0,0,0,0,4.827,63.5,723.83591587928,2.624672,6,P-GPS,,0.8
17400,2026-01-06 16:37:42,,,723.83591587928,5.249344,0.0,6.2462928508,47.678151132,13,5,7.537,729.08525987928,7.874016,7.8516594,12.0475069472,0.0,0.0,0.894776,3.6,1.7,-0.5,0,0,1024,1024,1024,1024,0,0,0,0,0,0,0,78,3.78,3.779,0,0,0,0,4.827,63.5,723.83591587928,2.624672,6,P-GPS,,0.8
17500,2026-01-06 16:37:42,,,723.50783187928,5.249344,0.0,6.1384844484,47.787731188,13,5,7.608,729.08525987928,7.874016,7.8516594,12.0475069472,0.0,0.0,0.447388,3.7,1.2,-0.2,0,0,1024,1024,1024,1024,0,0,0,0,0,0,0,78,3.732,3.729,0,0,0,0,4.646,63.5,723.50783187928,2.296588,6,P-GPS,,0.7
17600,2026-01-06 16:37:43,,,723.50783187928,5.249344,0.0,6.1087272296,47.820211504,13,5,7.608,729.08525987928,7.874016,7.8516594,12.0475069472,0.0,0.0,0.223694,3.6,1.5,-1.0,0,0,1024,1024,1024,1024,0,0,0,0,0,0,0,78,3.732,3.729,0,0,0,0,4.646,63.5,723.50783187928,2.296588,6,P-GPS,,0.7
17700,2026-01-06 16:37:43,,,723.50783187928,5.249344,0.0,6.0712600368,47.8592535,13,5,7.608,729.08525987928,7.874016,7.8516594,12.0475069472,0.0,0.0,0.0,3.5,1.6,-1.5,0,0,1024,1024,1024,1024,0,0,0,0,0,0,0,78,3.732,3.729,0,0,0,0,4.646,63.5,723.50783187928,2.296588,6,P-GPS,,0.7
17800,2026-01-06 16:37:43,,,723.50783187928,5.249344,0.0,6.0353020304,47.900592084,13,5,7.608,729.08525987928,7.874016,7.8516594,12.0475069472,0.0,0.0,0.0,3.5,1.3,-1.1,0,0,1024,1024,1024,1024,0,0,0,0,0,0,0,78,3.732,3.729,0,0,0,0,4.646,63.5,723.50783187928,2.296588,6,P-GPS,,0.7
17900,2026-01-06 16:37:43,,,723.50783187928,5.249344,0.0,5.9396983528,47.996392612,13,5,7.608,729.08525987928,7.874016,7.8516594,12.0475069472,0.0,0.0,0.0,3.5,1.5,-1.1,0,0,1024,1024,1024,1024,0,0,0,0,0,0,0,78,3.732,3.729,0,0,0,0,4.646,63.5,723.50783187928,2.296588,6,P-GPS,,0.7
18000,2026-01-06 16:37:43,,,723.50783187928,5.249344,0.0,5.9109581944,48.02985718,13,5,7.608,729.08525987928,7.874016,7.8516594,12.0475069472,0.0,0.0,0.0,3.5,1.4,-0.8,0,0,1024,1024,1024,1024,0,0,0,0,0,0,0,78,3.732,3.729,0,0,0,0,4.646,63.5,723.50783187928,2.296588,6,P-GPS,,0.7
18100,2026-01-06 16:37:43,,,723.50783187928,5.249344,0.0,5.8865159364,48.057088152,13,5,7.608,729.08525987928,7.874016,7.8516594,12.0475069472,0.0,0.0,0.0,3.4,1.4,-0.7,0,0,1024,1024,1024,1024,0,0,0,0,0,0,0,78,3.732,3.729,0,0,0,0,4.646,63.5,723.50783187928,2.296588,6,P-GPS,,0.7
18200,2026-01-06 16:37:43,,,723.50783187928,5.249344,0.0,5.87434402,48.090880804,13,5,7.608,729.08525987928,7.874016,7.8516594,12.0475069472,0.0,0.0,0.0,3.4,1.3,-0.7,0,0,1024,1024,1024,1024,0,0,0,0,0,0,0,78,3.732,3.729,0,0,0,0,4.646,63.5,723.50783187928,2.296588,6,P-GPS,,0.7
18300,2026-01-06 16:37:43,,,723.50783187928,5.249344,0.0,5.8676839148,48.136156396,13,5,7.608,729.08525987928,7.874016,7.8516594,12.0475069472,0.0,0.0,0.0,3.4,1.4,-0.6,0,0,1024,1024,1024,1024,0,0,0,0,0,0,0,78,3.732,3.729,0,0,0,0,4.646,63.5,723.50783187928,2.296588,6,P-GPS,,0.7
18400,2026-01-06 16:37:43,,,723.50783187928,5.249344,0.0,5.9164043888,48.22342674,13,5,7.608,729.08525987928,7.874016,7.8516594,12.0475069472,0.0,0.0,0.0,3.4,1.4,-0.6,0,0,1024,1024,1024,1024,0,0,0,0,0,0,0,78,3.732,3.729,0,0,0,0,4.646,63.5,723.50783187928,2.296588,6,P-GPS,,0.7
18500,2026-01-06 16:37:43,,,723.50783187928,5.249344,0.0,5.9205382472,48.262140652,13,5,7.608,729.08525987928,7.874016,7.8516594,12.0475069472,0.0,0.0,0.0,3.3,1.6,-0.5,0,0,1024,1024,1024,1024,0,0,0,0,0,0,0,78,3.732,3.729,0,0,0,0,4.646,63.5,723.50783187928,2.296588,6,P-GPS,,0.7
18600,2026-01-06 16:37:44,,,723.50783187928,5.249344,0.0,5.9374673816,48.311353252,13,5,7.608,729.08525987928,7.874016,7.8516594,12.0475069472,0.0,0.0,0.0,3.3,1.5,-0.4,0,0,1024,1024,1024,1024,0,0,0,0,0,0,0,78,3.732,3.729,0,0,0,0,4.646,63.5,723.50783187928,2.296588,6,P-GPS,,0.7
18700,2026-01-06 16:37:44,,,723.50783187928,5.249344,0.0,5.9631235504,48.370080288,13,5,7.551,729.08525987928,7.874016,7.8516594,12.0475069472,0.0,0.0,0.0,3.3,1.6,-0.3,0,0,1024,1024,1024,1024,0,0,0,0,0,0,0,77,3.776,3.774,0,0,0,0,4.838,63.68,723.50783187928,2.296588,6,P-GPS,,0.7
18800,2026-01-06 16:37:44,,,723.50783187928,5.249344,0.0,6.0677823464,48.520998928,13,5,7.551,729.08525987928,7.874016,7.8516594,12.0475069472,0.0,0.0,0.0,3.3,1.6,-0.3,0,0,1024,1024,1024,1024,0,0,0,0,0,0,0,77,3.776,3.774,0,0,0,0,4.838,63.68,723.50783187928,2.296588,6,P-GPS,,0.7
18900,2026-01-06 16:37:44,,,723.50783187928,5.249344,0.0,6.0723099056,48.562337512,13,5,7.551,729.08525987928,7.874016,7.8516594,12.0475069472,0.0,0.0,0.0,3.3,1.5,-0.3,0,0,1024,1024,1024,1024,0,0,0,0,0,0,0,77,3.776,3.774,0,0,0,0,4.838,63.68,723.50783187928,2.296588,6,P-GPS,,0.7
19000,2026-01-06 16:37:44,,,723.50783187928,5.249344,0.0,6.0876314284,48.600395256,13,5,7.551,729.08525987928,7.874016,7.8516594,12.0475069472,0.0,0.0,0.0,3.3,1.5,-0.2,0,0,1024,1024,1024,1024,0,0,0,0,0,0,0,77,3.776,3.774,0,0,0,0,4.838,63.68,723.50783187928,2.296588,6,P-GPS,,0.7
19100,2026-01-06 16:37:44,,,723.50783187928,5.249344,0.0,6.1114503268,48.641405756,13,5,7.551,729.08525987928,7.874016,7.8516594,12.0475069472,0.0,0.0,0.0,3.3,1.7,-0.3,0,0,1024,1024,1024,1024,0,0,0,0,0,0,0,77,3.776,3.774,0,0,0,0,4.838,63.68,723.50783187928,2.296588,6,P-GPS,,0.7
19200,2026-01-06 16:37:44,,,723.50783187928,5.249344,0.0,6.1531169948,48.691602608,13,5,7.551,729.08525987928,7.874016,7.8516594,12.0475069472,0.0,0.0,0.0,3.4,1.7,-0.3,0,0,1024,1024,1024,1024,0,0,0,0,0,0,0,77,3.776,3.774,0,0,0,0,4.838,63.68,723.50783187928,2.296588,6,P-GPS,,0.7
19300,2026-01-06 16:37:44,,,723.50783187928,5.249344,0.0,6.1707351056,48.729004184,13,5,7.551,729.08525987928,7.874016,7.8516594,12.0475069472,0.0,0.0,0.0,3.4,1.7,-0.3,0,0,1024,1024,1024,1024,0,0,0,0,0,0,0,77,3.776,3.774,0,0,0,0,4.838,63.68,723.50783187928,2.296588,6,P-GPS,,0.7
19400,2026-01-06 16:37:44,,,723.50783187928,5.249344,0.0,6.1846786756,48.764109172,13,5,7.551,729.08525987928,7.874016,7.8516594,12.0475069472,0.0,0.0,0.0,3.3,1.7,-0.4,0,0,1024,1024,1024,1024,0,0,0,0,0,0,0,77,3.776,3.774,0,0,0,0,4.838,63.68,723.50783187928,2.296588,6,P-GPS,,0.7
19500,2026-01-06 16:37:44,,,723.50783187928,5.249344,0.0,6.1988847128,48.802166916,13,5,7.551,729.08525987928,7.874016,7.8516594,12.0475069472,0.0,0.0,0.0,3.3,1.7,-0.5,0,0,1024,1024,1024,1024,0,0,0,0,0,0,0,77,3.776,3.774,0,0,0,0,4.838,63.68,723.50783187928,2.296588,6,P-GPS,,0.7
19600,2026-01-06 16:37:45,,,723.50783187928,5.249344,0.0,6.2102364192,48.839568492,13,5,7.551,729.08525987928,7.874016,7.8516594,12.0475069472,0.0,0.0,0.0,3.3,1.7,-0.4,0,0,1024,1024,1024,1024,0,0,0,0,0,0,0,77,3.776,3.774,0,0,0,0,4.838,63.68,723.50783187928,2.296588,6,P-GPS,,0.7
19700,2026-01-06 16:37:45,,,723.50783187928,5.249344,0.0,6.235072378,48.882547496,13,5,7.551,729.08525987928,7.874016,7.8516594,12.0475069472,0.0,0.0,0.0,3.3,1.7,-0.5,0,0,1024,1024,1024,1024,0,0,0,0,0,0,0,77,3.776,3.774,0,0,0,0,4.838,63.68,723.50783187928,2.296588,6,P-GPS,,0.7
19800,2026-01-06 16:37:45,,,723.50783187928,5.249344,0.0,6.2612206728,48.925854584,13,5,7.548,729.08525987928,7.874016,7.8516594,12.0475069472,0.0,0.0,0.0,3.4,1.7,-0.6,0,0,1024,1024,1024,1024,0,0,0,0,0,0,0,77,3.775,3.772,0,0,0,0,4.759,63.68,723.50783187928,2.296588,6,P-GPS,,0.7
19900,2026-01-06 16:37:45,,,723.50783187928,5.249344,0.0,6.2904529572,48.97309868,13,5,7.548,729.08525987928,7.874016,7.8516594,12.0475069472,0.0,0.0,0.0,3.4,1.7,-0.7,0,0,1024,1024,1024,1024,0,0,0,0,0,0,0,77,3.775,3.772,0,0,0,0,4.759,63.68,723.50783187928,2.296588,6,P-GPS,,0.7
20000,2026-01-06 16:37:45,,,723.50783187928,5.249344,0.0,6.3173230368,49.017061936,13,5,7.548,729.08525987928,7.874016,7.8516594,12.0475069472,0.0,0.0,0.0,3.3,1.6,-0.7,0,0,1024,1024,1024,1024,0,0,0,0,0,0,0,77,3.775,3.772,0,0,0,0,4.759,63.68,723.50783187928,2.296588,6,P-GPS,,0.7
20100,2026-01-06 16:37:45,,,723.50783187928,5.249344,0.0,6.3523295996,49.074476636,13,5,7.548,729.08525987928,7.874016,7.8516594,12.0475069472,0.0,0.0,0.0,3.3,1.5,-0.9,0,0,1024,1024,1024,1024,0,0,0,0,0,0,0,77,3.775,3.772,0,0,0,0,4.759,63.68,723.50783187928,2.296588,6,P-GPS,,0.7
20200,2026-01-06 16:37:45,,,723.50783187928,5.249344,0.0,6.3762141148,49.116471388,13,5,7.548,729.08525987928,7.874016,7.8516594,12.0475069472,0.0,0.0,0.0,3.4,1.4,-0.9,0,0,1024,1024,1024,1024,0,0,0,0,0,0,0,77,3.775,3.772,0,0,0,0,4.759,63.68,723.50783187928,2.296588,6,P-GPS,,0.7
20300,2026-01-06 16:37:45,,,723.50783187928,5.249344,0.0,6.39927842,49.158794224,13,5,7.548,729.08525987928,7.874016,7.8516594,12.0475069472,0.0,0.0,0.0,3.4,1.5,-0.9,0,0,1024,1024,1024,1024,0,0,0,0,0,0,0,77,3.775,3.772,0,0,0,0,4.759,63.68,723.50783187928,2.296588,6,P-GPS,,0.7
20400,2026-01-06 16:37:45,,,723.50783187928,5.249344,0.0,6.4179135912,49.195539632,13,5,7.548,729.08525987928,7.874016,7.8516594,12.0475069472,0.0,0.0,0.0,3.4,1.4,-0.9,0,0,1024,1024,1024,1024,0,0,0,0,0,0,0,77,3.775,3.772,0,0,0,0,4.759,63.68,723.50783187928,2.296588,6,P-GPS,,0.7
