time(millisecond),timestamp,height_above_ground_at_drone_location(feet),ground_elevation_at_drone_location(feet),altitude_above_seaLevel(feet),height_sonar(feet),speed(mph),distance(feet),mileage(feet),satellites,gpslevel,voltage(v),max_altitude(feet),max_ascent(feet),max_speed(mph),max_distance(feet), xSpeed(mph), ySpeed(mph), zSpeed(mph), compass_heading(degrees), pitch(degrees), roll(degrees),isPhoto,isVideo,rc_elevator,rc_aileron,rc_throttle,rc_rudder,rc_elevator(percent),rc_aileron(percent),rc_throttle(percent),rc_rudder(percent),gimbal_heading(degrees),gimbal_pitch(degrees),gimbal_roll(degrees),battery_percent,voltageCell1,voltageCell2,voltageCell3,voltageCell4,voltageCell5,voltageCell6,current(A),battery_temperature(f),altitude(feet),ascent(feet),flycStateRaw,flycState,message,height_above_takeoff(meters)
197200,2026-01-06 16:41:22,Available with any HD 360 subscription,Available with any HD 360 subscription,721.21124387928,0.328084,0.0,0.0,0.0,14,5,0.0,721.21124387928,0.0,0.0,0.0,0.0,0.0,0.0,16.6,1.9,-0.2,0,0,1024,1024,1024,1024,0,0,0,0,0,0,0,67,3.827,3.826,0,0,0,0,0.0,70.7,721.21124387928,0.0,41,Motors_Started,SD card speed low SD card speed low. Normal use may be affected. Replace SD card (Code: 10028). Gimbal stuck. Make sure gimbal cover is removed and manually check whether gimbal can rotate freely (Code: 40002),0.0
197300,2026-01-06 16:41:23,,,721.21124387928,0.328084,0.0,0.05403215396,0.05403215396,14,5,0.0,721.21124387928,0.0,0.0,0.05403215396,0.0,0.0,0.0,16.6,1.9,-0.2,0,0,1024,1024,1024,1024,0,0,0,0,0,0,0,67,3.827,3.826,0,0,0,0,0.0,70.7,721.21124387928,0.0,41,Motors_Started,,0.0
197400,2026-01-06 16:41:23,,,721.21124387928,0.328084,0.0,0.084929792744,0.085120081464,14,5,0.0,721.21124387928,0.0,0.0,0.084929792744,0.0,0.0,0.0,16.6,1.9,-0.2,0,0,1024,1024,1024,1024,0,0,0,0,0,0,0,67,3.827,3.826,0,0,0,0,0.0,70.7,721.21124387928,0.0,41,Motors_Started,,0.0
197500,2026-01-06 16:41:23,,,721.21124387928,0.328084,0.0,0.128047248192,0.132689308708,14,5,0.0,721.21124387928,0.0,0.0,0.128047248192,0.0,0.0,0.0,16.6,1.9,-0.2,0,0,1024,1024,1024,1024,0,0,0,0,0,0,0,67,3.827,3.826,0,0,0,0,0.0,70.7,721.21124387928,0.0,41,Motors_Started,,0.0
197600,2026-01-06 16:41:23,,,721.21124387928,0.328084,0.0,0.123070541996,0.147814637276,14,5,7.653,721.21124387928,0.0,0.0,0.128047248192,0.0,0.0,0.0,16.6,1.9,-0.2,0,0,1024,1024,1024,1024,0,0,0,0,0,0,0,67,3.827,3.826,0,0,0,0,0.723,70.7,721.21124387928,0.0,41,Motors_Started,,0.0
197700,2026-01-06 16:41:23,,,721.21124387928,0.328084,0.0,0.11961614556,0.161378286004,14,5,7.653,721.21124387928,0.0,0.0,0.128047248192,0.0,0.0,0.0,16.5,1.9,-0.2,0,0,1024,1024,1024,1024,0,0,0,0,0,0,0,67,3.827,3.826,0,0,0,0,0.723,70.7,721.21124387928,0.0,41,Motors_Started,,0.0
197800,2026-01-06 16:41:23,,,721.21124387928,0.328084,0.0,0.12565125074,0.168755910912,14,5,7.653,721.21124387928,0.0,0.0,0.128047248192,0.0,0.0,0.0,16.9,2.0,-0.3,0,0,1024,1024,1024,1024,0,0,0,0,0,0,0,67,3.827,3.826,0,0,0,0,0.723,70.7,721.21124387928,0.0,41,Motors_Started,,0.0
197900,2026-01-06 16:41:23,,,721.21124387928,0.328084,0.0,0.078023624544,0.249225401676,14,5,7.653,721.21124387928,0.0,0.0,0.128047248192,0.0,0.0,0.0,16.8,1.9,-0.3,0,0,1024,1024,1024,1024,0,0,0,0,0,0,0,67,3.827,3.826,0,0,0,0,0.723,70.7,721.21124387928,0.0,41,Motors_Started,,0.0
198000,2026-01-06 16:41:23,,,721.21124387928,0.328084,0.0,0.089042653768,0.263002961172,14,5,7.653,721.21124387928,0.0,0.0,0.128047248192,0.0,0.0,0.0,16.9,1.9,-0.2,0,0,1024,1024,1024,1024,0,0,0,0,0,0,0,67,3.827,3.826,0,0,0,0,0.723,70.7,721.21124387928,0.0,41,Motors_Started,Setting new Return-To-Home altitude to 500m (1640 ft). Data Recorder File Index is 25. Setting new Maximum Flight Altitude to 500m (1640 ft),0.0
198100,2026-01-06 16:41:23,,,721.21124387928,0.328084,0.0,14.9231632072,0.276342856612,14,5,7.653,721.21124387928,0.0,0.0,14.9231632072,0.0,0.0,0.0,16.9,1.9,-0.3,0,0,1024,1024,1024,1024,0,0,0,0,0,0,0,67,3.827,3.826,0,0,0,0,0.723,70.7,721.21124387928,0.0,41,Motors_Started,,0.0
198200,2026-01-06 16:41:23,,,721.21124387928,0.328084,0.0,14.9374020528,0.299134852092,14,5,7.653,721.21124387928,0.0,0.0,14.9374020528,0.0,0.0,0.0,16.9,1.9,-0.3,0,0,1024,1024,1024,1024,0,0,0,0,0,0,0,67,3.827,3.826,0,0,0,0,0.723,70.7,721.21124387928,0.0,41,Motors_Started,SD card speed low. Normal use may be affected. Replace SD card (Code: 10028),0.0
198300,2026-01-06 16:41:23,,,721.21124387928,0.328084,0.0,14.9533141268,0.325522976296,14,5,7.653,721.21124387928,0.0,0.0,14.9533141268,0.0,0.0,0.0,16.9,1.9,-0.3,0,0,1024,1024,1024,1024,0,0,0,0,0,0,0,67,3.827,3.826,0,0,0,0,0.723,70.7,721.21124387928,0.0,11,AutoTakeoff,,0.0
198400,2026-01-06 16:41:24,,,721.21124387928,0.328084,0.0,14.9561028408,0.33528872464,14,5,7.653,721.21124387928,0.0,0.0,14.9561028408,0.0,0.0,0.0,16.9,1.9,-0.3,0,0,1024,1024,1024,1024,0,0,0,0,0,0,0,67,3.827,3.826,0,0,0,0,0.723,70.7,721.21124387928,0.0,11,AutoTakeoff,,0.0
198500,2026-01-06 16:41:24,,,721.21124387928,0.328084,0.0,14.9593508724,0.34536090344,13,5,7.653,721.21124387928,0.0,0.0,14.9593508724,0.0,0.0,0.0,16.9,1.9,-0.3,0,0,1024,1024,1024,1024,0,0,0,0,0,0,0,67,3.827,3.826,0,0,0,0,0.723,70.7,721.21124387928,0.0,11,AutoTakeoff,,0.0
198600,2026-01-06 16:41:24,,,721.21124387928,0.328084,0.0,14.9743771196,0.36042980156,13,5,7.653,721.21124387928,0.0,0.0,14.9743771196,0.0,0.0,0.0,17.0,1.9,-0.3,0,0,1024,1024,1024,1024,0,0,0,0,0,0,0,67,3.827,3.826,0,0,0,0,0.723,70.7,721.21124387928,0.0,11,AutoTakeoff,,0.0
198700,2026-01-06 16:41:24,,,721.21124387928,0.328084,0.0,14.9493771188,0.46576773144,13,5,7.582,721.21124387928,0.0,0.0,14.9743771196,0.0,0.0,0.0,17.0,1.9,-0.3,0,0,1024,1024,1024,1024,0,0,0,0,0,0,0,66,3.791,3.791,0,0,0,0,1.935,70.7,721.21124387928,0.0,11,AutoTakeoff,,0.0
198800,2026-01-06 16:41:24,,,721.21124387928,0.328084,0.0,14.9399939164,0.50128610528,13,5,7.582,721.21124387928,0.0,0.0,14.9743771196,0.0,0.0,0.0,17.1,1.9,-0.3,0,0,1024,1024,1024,1024,0,0,0,0,0,0,0,66,3.791,3.791,0,0,0,0,1.935,70.7,721.21124387928,0.0,11,AutoTakeoff,,0.0
198900,2026-01-06 16:41:24,,,721.21124387928,0.328084,0.0,14.9299873544,0.537565634,14,5,7.582,721.21124387928,0.0,0.0,14.9743771196,0.0,0.0,0.0,17.5,1.8,-0.4,0,0,1024,1024,1024,1024,0,0,0,0,0,0,0,66,3.791,3.791,0,0,0,0,1.935,70.7,721.21124387928,0.0,11,AutoTakeoff,,0.0
199000,2026-01-06 16:41:24,,,721.21124387928,0.328084,0.0,14.9131894536,0.5861712786,14,5,7.582,721.21124387928,0.0,0.0,14.9743771196,0.0,0.0,0.0,18.3,1.8,-0.5,0,0,1024,1024,1024,1024,0,0,0,0,0,0,0,66,3.791,3.791,0,0,0,0,1.935,70.7,721.21124387928,0.0,11,AutoTakeoff,,0.0
199100,2026-01-06 16:41:24,,,721.21124387928,0.328084,0.0,14.8994099256,0.63302823548,14,5,7.582,721.21124387928,0.0,0.0,14.9743771196,0.0,0.0,0.0,19.7,1.7,-1.0,0,0,1024,1024,1024,1024,0,0,0,0,0,0,0,66,3.791,3.791,0,0,0,0,1.935,70.7,721.21124387928,0.0,11,AutoTakeoff,,0.0
199200,2026-01-06 16:41:24,,,721.21124387928,0.328084,0.0,14.8793968016,0.74601708424,14,5,7.582,721.21124387928,0.0,0.0,14.9743771196,0.0,0.0,0.0,21.3,1.4,-1.1,0,0,1024,1024,1024,1024,0,0,0,0,0,0,0,66,3.791,3.791,0,0,0,0,1.935,70.7,721.21124387928,0.0,11,AutoTakeoff,,0.0
199300,2026-01-06 16:41:25,,,721.21124387928,0.328084,0.0,14.8829073004,0.78406826656,13,5,7.582,721.21124387928,0.0,0.0,14.9743771196,0.0,0.0,-0.223694,22.2,1.2,-0.8,0,0,1024,1024,1024,1024,0,0,0,0,0,0,0,66,3.791,3.791,0,0,0,0,1.935,70.7,721.21124387928,0.0,11,AutoTakeoff,,0.0
199400,2026-01-06 16:41:25,,,721.21124387928,0.328084,0.0,14.9034453588,0.80474412024,13,5,7.582,721.21124387928,0.0,0.0,14.9743771196,0.0,0.0,-0.671082,22.2,1.3,-1.0,0,0,1024,1024,1024,1024,0,0,0,0,0,0,0,66,3.791,3.791,0,0,0,0,1.935,70.7,721.21124387928,0.0,11,AutoTakeoff,,0.0
199500,2026-01-06 16:41:25,,,721.53932787928,0.656168,0.0,14.9236881416,0.82517063008,14,5,7.582,721.53932787928,0.328084,0.0,14.9743771196,0.0,0.0,-1.11847,22.2,1.1,0.0,0,0,1024,1024,1024,1024,0,0,0,0,0,0,0,66,3.791,3.791,0,0,0,0,1.935,70.7,721.53932787928,0.328084,11,AutoTakeoff,,0.1
199600,2026-01-06 16:41:25,,,721.53932787928,0.656168,0.0,15.0147970684,0.92257548884,14,5,7.582,721.53932787928,0.328084,0.0,15.0147970684,0.0,0.0,-1.342164,22.3,1.4,0.4,0,0,1024,1024,1024,1024,0,0,0,0,0,0,0,66,3.791,3.791,0,0,0,0,1.935,70.7,721.53932787928,0.328084,11,AutoTakeoff,,0.1
199700,2026-01-06 16:41:25,,,721.86741187928,0.984252,0.0,15.0408797464,0.96169950584,14,5,7.582,721.86741187928,0.656168,0.0,15.0408797464,0.0,0.0,-1.565858,22.3,1.5,-0.1,0,0,1024,1024,1024,1024,0,0,0,0,0,0,0,66,3.791,3.791,0,0,0,0,1.935,70.7,721.86741187928,0.656168,11,AutoTakeoff,,0.2
199800,2026-01-06 16:41:25,,,721.86741187928,0.984252,0.0,15.07956085,1.00774609524,14,5,7.582,721.86741187928,0.656168,0.0,15.07956085,0.0,0.0,-1.789552,22.2,1.5,-0.6,0,0,1024,1024,1024,1024,0,0,0,0,0,0,0,66,3.791,3.791,0,0,0,0,1.935,70.7,721.86741187928,0.656168,11,AutoTakeoff,,0.2
199900,2026-01-06 16:41:25,,,722.19549587928,1.312336,0.0,15.1141080952,1.05028546668,14,5,7.368,722.19549587928,0.984252,0.0,15.1141080952,0.0,0.0,-2.013246,22.2,2.0,-1.0,0,0,1024,1024,1024,1024,0,0,0,0,0,0,0,66,3.679,3.677,0,0,0,0,5.404,70.7,722.19549587928,0.984252,11,AutoTakeoff,,0.3
200000,2026-01-06 16:41:25,,,722.52357987928,1.64042,0.0,15.2216540304,1.17405843652,14,5,7.368,722.52357987928,1.312336,0.0,15.2216540304,0.0,0.0,-2.23694,22.1,1.9,-1.2,0,0,1024,1024,1024,1024,0,0,0,0,0,0,0,66,3.679,3.677,0,0,0,0,5.404,70.7,722.52357987928,1.312336,11,AutoTakeoff,,0.4
200100,2026-01-06 16:41:25,,,722.85166387928,1.968504,0.0,15.2473430076,1.20343507788,15,5,7.368,722.85166387928,1.64042,0.0,15.2473430076,0.0,0.0,-2.23694,22.1,2.2,-1.1,0,0,1024,1024,1024,1024,0,0,0,0,0,0,0,66,3.679,3.677,0,0,0,0,5.404,70.7,722.85166387928,1.64042,11,AutoTakeoff,Home Point updated. RTH altitude adjusted to 500 m (Code: 120852),0.5
200200,2026-01-06 16:41:25,,,723.17974787928,2.296588,0.0,15.2625332968,1.24147313684,15,5,7.368,723.17974787928,1.968504,0.0,15.2625332968,0.0,0.0,-2.23694,22.1,2.4,-1.5,0,0,1024,1024,1024,1024,0,0,0,0,0,0,0,66,3.679,3.677,0,0,0,0,5.404,70.7,723.17974787928,1.968504,11,AutoTakeoff,,0.6
200300,2026-01-06 16:41:26,,,723.50783187928,2.624672,0.0,15.272474242,1.27571526392,14,5,7.368,723.50783187928,2.296588,0.0,15.272474242,0.0,0.0,-2.23694,22.0,2.7,-1.3,0,0,1024,1024,1024,1024,0,0,0,0,0,0,0,66,3.679,3.677,0,0,0,0,5.404,70.7,723.50783187928,2.296588,11,AutoTakeoff,,0.7
200400,2026-01-06 16:41:26,,,723.83591587928,2.952756,0.0,15.1443902484,1.40655516312,14,5,7.368,723.83591587928,2.624672,0.0,15.272474242,0.0,0.0,-2.013246,22.1,1.8,-0.9,0,0,1024,1024,1024,1024,0,0,0,0,0,0,0,66,3.679,3.677,0,0,0,0,5.404,70.7,723.83591587928,2.624672,6,P-GPS,,0.8
200500,2026-01-06 16:41:26,,,724.16399987928,3.28084,0.0,15.0982288296,1.4631398106,14,5,7.368,724.16399987928,2.952756,0.0,15.272474242,0.0,0.0,-2.013246,22.0,1.7,-1.1,0,0,1024,1024,1024,1024,0,0,0,0,0,0,0,66,3.679,3.677,0,0,0,0,5.404,70.7,724.16399987928,2.952756,6,P-GPS,,0.9
200600,2026-01-06 16:41:26,,,724.49208387928,3.28084,0.0,15.0827104564,1.51426514032,14,5,7.368,724.49208387928,3.28084,0.0,15.272474242,0.0,0.0,-1.565858,22.0,1.7,-1.3,0,0,1024,1024,1024,1024,0,0,0,0,0,0,0,66,3.679,3.677,0,0,0,0,5.404,70.7,724.49208387928,3.28084,6,P-GPS,,1.0
200700,2026-01-06 16:41:26,,,724.82016787928,3.608924,0.223694,15.0639112432,1.57076448596,14,5,7.368,724.82016787928,3.608924,0.223694,15.272474242,0.0,0.223694,-1.11847,22.1,2.5,-1.9,0,0,1024,1024,1024,1024,0,0,0,0,0,0,0,66,3.679,3.677,0,0,0,0,5.404,70.7,724.82016787928,3.608924,6,P-GPS,,1.1
200800,2026-01-06 16:41:26,,,724.82016787928,3.608924,0.223694,15.0166999556,1.6598261686,14,5,7.368,724.82016787928,3.608924,0.223694,15.272474242,0.0,0.223694,-0.671082,22.2,2.2,-2.1,0,0,1024,1024,1024,1024,0,0,0,0,0,0,0,66,3.679,3.677,0,0,0,0,5.404,70.7,724.82016787928,3.608924,6,P-GPS,,1.1
200900,2026-01-06 16:41:26,,,725.14825187928,3.937008,0.223694,14.9221461468,1.82111554384,15,5,7.368,725.14825187928,3.937008,0.223694,15.272474242,0.0,0.223694,-0.223694,22.1,2.4,-3.1,0,0,1024,1024,1024,1024,0,0,0,0,0,0,0,66,3.679,3.677,0,0,0,0,5.404,70.7,725.14825187928,3.937008,6,P-GPS,,1.2
201000,2026-01-06 16:41:26,,,725.14825187928,3.937008,0.223694,14.9451448352,1.96502959044,15,5,7.449,725.14825187928,3.937008,0.223694,15.272474242,0.0,0.223694,0.0,22.1,2.6,-3.2,0,0,1024,1024,1024,1024,0,0,0,0,0,0,0,66,3.726,3.723,0,0,0,0,4.844,70.7,725.14825187928,3.937008,6,P-GPS,,1.2
201100,2026-01-06 16:41:26,,,725.14825187928,3.937008,0.223694,14.9648298752,2.0975394372,15,5,7.449,725.14825187928,3.937008,0.223694,15.272474242,0.0,0.223694,0.0,22.0,2.8,-3.9,0,0,1024,1024,1024,1024,0,0,0,0,0,0,0,66,3.726,3.723,0,0,0,0,4.844,70.7,725.14825187928,3.937008,6,P-GPS,,1.2
201200,2026-01-06 16:41:26,,,725.14825187928,3.937008,0.223694,14.9619755444,2.2082677872,15,5,7.449,725.14825187928,3.937008,0.223694,15.272474242,0.0,0.223694,0.0,22.1,2.4,-3.9,0,0,1024,1024,1024,1024,0,0,0,0,0,0,0,66,3.726,3.723,0,0,0,0,4.844,70.7,725.14825187928,3.937008,6,P-GPS,,1.2
201300,2026-01-06 16:41:26,,,725.14825187928,3.937008,0.0,15.0534453636,2.48926845236,15,5,7.449,725.14825187928,3.937008,0.223694,15.272474242,0.0,0.0,0.0,22.0,2.7,-4.1,0,0,1024,1024,1024,1024,0,0,0,0,0,0,0,66,3.726,3.723,0,0,0,0,4.844,70.7,725.14825187928,3.937008,6,P-GPS,,1.2
201400,2026-01-06 16:41:27,,,725.14825187928,3.937008,0.0,14.9941933932,2.5598590058,15,5,7.449,725.14825187928,3.937008,0.223694,15.272474242,0.0,0.0,0.0,22.0,2.7,-3.8,0,0,1024,1024,1024,1024,0,0,0,0,0,0,0,66,3.726,3.723,0,0,0,0,4.844,70.7,725.14825187928,3.937008,6,P-GPS,,1.2
201500,2026-01-06 16:41:27,,,725.14825187928,3.937008,0.223694,14.9283797428,2.6297408978,15,5,7.449,725.14825187928,3.937008,0.223694,15.272474242,0.223694,0.0,0.0,22.1,2.9,-3.2,0,0,1024,1024,1024,1024,0,0,0,0,0,0,0,66,3.726,3.723,0,0,0,0,4.844,70.7,725.14825187928,3.937008,6,P-GPS,,1.2
201600,2026-01-06 16:41:27,,,725.47633587928,3.937008,0.223694,14.8408141232,2.71843512636,15,5,7.449,725.47633587928,4.265092,0.223694,15.272474242,0.223694,0.0,0.0,22.1,2.9,-3.0,0,0,1024,1024,1024,1024,0,0,0,0,0,0,0,66,3.726,3.723,0,0,0,0,4.844,70.7,725.47633587928,4.265092,6,P-GPS,,1.3
201700,2026-01-06 16:41:27,,,725.47633587928,3.937008,0.223694,14.6385175288,2.98247384872,15,5,7.449,725.47633587928,4.265092,0.223694,15.272474242,0.223694,0.0,0.0,22.0,3.6,-2.8,0,0,1024,1024,1024,1024,0,0,0,0,0,0,0,66,3.726,3.723,0,0,0,0,4.844,70.7,725.47633587928,4.265092,6,P-GPS,,1.3
201800,2026-01-06 16:41:27,,,725.47633587928,3.937008,0.0,14.547408602,3.09075469208,15,5,7.449,725.47633587928,4.265092,0.223694,15.272474242,0.0,0.0,0.0,22.0,3.6,-2.8,0,0,1024,1024,1024,1024,0,0,0,0,0,0,0,66,3.726,3.723,0,0,0,0,4.844,70.7,725.47633587928,4.265092,6,P-GPS,,1.3
201900,2026-01-06 16:41:27,,,725.47633587928,3.937008,0.0,14.4658141112,3.19253947224,15,5,7.449,725.47633587928,4.265092,0.223694,15.272474242,0.0,0.0,0.0,21.8,3.9,-3.2,0,0,1024,1024,1024,1024,0,0,0,0,0,0,0,66,3.726,3.723,0,0,0,0,4.844,70.7,725.47633587928,4.265092,6,P-GPS,,1.3
202000,2026-01-06 16:41:27,,,725.47633587928,3.937008,0.0,14.3995083348,3.2814633596,15,5,7.449,725.47633587928,4.265092,0.223694,15.272474242,0.0,0.0,0.0,21.8,3.3,-3.3,0,0,1024,1024,1024,1024,0,0,0,0,0,0,0,66,3.726,3.723,0,0,0,0,4.844,70.7,725.47633587928,4.265092,6,P-GPS,,1.3
202100,2026-01-06 16:41:27,,,725.80441987928,3.937008,0.0,14.3305122696,3.527559168,15,5,7.396,725.80441987928,4.593176,0.223694,15.272474242,0.0,0.0,0.0,21.8,3.4,-2.8,0,0,1024,1024,1024,1024,0,0,0,0,0,0,0,66,3.692,3.689,0,0,0,0,5.322,70.7,725.80441987928,4.593176,6,P-GPS,,1.4
202200,2026-01-06 16:41:27,,,725.80441987928,3.937008,0.0,14.3072183056,3.578248146,15,5,7.396,725.80441987928,4.593176,0.223694,15.272474242,0.0,0.0,0.0,21.8,2.8,-2.1,0,0,1024,1024,1024,1024,0,0,0,0,0,0,0,66,3.692,3.689,0,0,0,0,5.322,70.7,725.80441987928,4.593176,6,P-GPS,,1.4
202300,2026-01-06 16:41:28,,,725.80441987928,3.937008,0.0,14.2881566252,3.625656284,15,5,7.396,725.80441987928,4.593176,0.223694,15.272474242,0.0,0.0,0.0,22.0,2.5,-2.2,0,0,1024,1024,1110,1024,0,0,13,0,0,0,0,66,3.692,3.689,0,0,0,0,5.322,70.7,725.80441987928,4.593176,6,P-GPS,,1.4
202400,2026-01-06 16:41:28,,,725.80441987928,3.937008,0.0,14.2644689604,3.6561352876,15,5,7.396,725.80441987928,4.593176,0.223694,15.272474242,0.0,0.0,0.0,22.0,2.3,-2.1,0,0,1024,1024,1110,1024,0,0,13,0,0,0,0,66,3.692,3.689,0,0,0,0,5.322,70.7,725.80441987928,4.593176,6,P-GPS,,1.4
202500,2026-01-06 16:41:28,,,725.80441987928,4.265092,0.0,14.2432091172,3.6807087792,15,5,7.396,725.80441987928,4.593176,0.223694,15.272474242,0.0,0.0,0.0,22.1,2.4,-2.2,0,0,1024,1024,1243,1024,0,0,33,0,0,0,0,66,3.692,3.689,0,0,0,0,5.322,70.7,725.80441987928,4.593176,6,P-GPS,,1.4
202600,2026-01-06 16:41:28,,,725.80441987928,4.265092,0.0,14.2035437616,3.7881890976,15,5,7.396,725.80441987928,4.593176,0.223694,15.272474242,0.0,0.0,0.0,22.1,3.1,-1.7,0,0,1024,1024,1243,1024,0,0,33,0,0,0,0,66,3.692,3.689,0,0,0,0,5.322,70.7,725.80441987928,4.593176,6,P-GPS,,1.4
202700,2026-01-06 16:41:28,,,725.80441987928,4.265092,0.0,14.1705385112,3.822834768,15,5,7.396,725.80441987928,4.593176,0.223694,15.272474242,0.0,0.0,-0.223694,22.0,3.3,-1.4,0,0,1024,1024,1244,1024,0,0,33,0,0,0,0,66,3.692,3.689,0,0,0,0,5.322,70.7,725.80441987928,4.593176,6,P-GPS,Lighting environment too dark. Visual positioning inaccurate. Fly with caution (Code: 720128),1.4
202800,2026-01-06 16:41:28,,,725.80441987928,4.593176,0.0,14.172736674,3.8659121972,15,5,7.396,725.80441987928,4.593176,0.223694,15.272474242,0.0,0.0,-0.447388,22.1,3.2,-1.9,0,0,1024,1024,1242,1024,0,0,33,0,0,0,0,66,3.692,3.689,0,0,0,0,5.322,70.7,725.80441987928,4.593176,6,P-GPS,,1.4
202900,2026-01-06 16:41:28,,,726.13250387928,4.593176,0.0,14.1810700076,3.9155513064,15,5,7.396,726.13250387928,4.92126,0.223694,15.272474242,0.0,0.0,-0.671082,22.1,3.5,-2.6,0,0,1024,1024,1024,1024,0,0,0,0,0,0,0,66,3.692,3.689,0,0,0,0,5.322,70.7,726.13250387928,4.92126,6,P-GPS,,1.5
203000,2026-01-06 16:41:28,,,726.13250387928,4.92126,0.0,14.2814309032,4.1779200812,15,5,7.396,726.13250387928,4.92126,0.223694,15.272474242,0.0,0.0,-0.894776,22.1,3.7,-2.9,0,0,1024,1024,1024,1024,0,0,0,0,0,0,0,66,3.692,3.689,0,0,0,0,5.322,70.7,726.13250387928,4.92126,6,P-GPS,,1.5
203100,2026-01-06 16:41:28,,,726.13250387928,4.92126,0.0,14.3026907464,4.2538059104,15,5,7.396,726.13250387928,4.92126,0.223694,15.272474242,0.0,0.0,-0.671082,21.9,4.6,-3.2,0,0,1024,1024,1024,1024,0,0,0,0,0,0,0,66,3.692,3.689,0,0,0,0,5.322,70.7,726.13250387928,4.92126,6,P-GPS,,1.5
203200,2026-01-06 16:41:28,,,726.46058787928,5.249344,0.0,14.337434842,4.348425336,15,5,7.396,726.46058787928,5.249344,0.223694,15.272474242,0.0,0.0,-0.447388,21.7,4.6,-3.9,0,0,1024,1024,1024,1024,0,0,0,0,0,0,0,66,3.692,3.689,0,0,0,0,5.322,70.7,726.46058787928,5.249344,6,P-GPS,,1.6
203300,2026-01-06 16:41:28,,,726.46058787928,5.249344,0.0,14.3777563656,4.4348426616,15,5,7.404,726.46058787928,5.249344,0.223694,15.272474242,0.0,0.0,0.0,21.8,3.6,-3.8,0,0,1024,1024,1024,1024,0,0,0,0,0,0,0,66,3.693,3.711,0,0,0,0,5.439,70.7,726.46058787928,5.249344,6,P-GPS,,1.6
203400,2026-01-06 16:41:29,,,726.46058787928,5.249344,0.0,14.4622051872,4.6390093348,15,5,7.404,726.46058787928,5.249344,0.223694,15.272474242,0.0,0.0,0.0,22.0,2.3,-3.2,0,0,1024,1024,1024,1024,0,0,0,0,0,0,0,66,3.693,3.711,0,0,0,0,5.439,70.7,726.46058787928,5.249344,6,P-GPS,,1.6
203500,2026-01-06 16:41:29,,,726.46058787928,5.249344,0.0,14.4992458708,4.7080382084,15,5,7.404,726.46058787928,5.249344,0.223694,15.272474242,0.0,0.0,0.0,22.2,2.0,-3.4,0,0,1024,1024,1024,1024,0,0,0,0,0,0,0,66,3.693,3.711,0,0,0,0,5.439,70.7,726.46058787928,5.249344,6,P-GPS,,1.6
203600,2026-01-06 16:41:29,,,726.46058787928,5.249344,0.0,14.5338915412,4.7558400472,15,5,7.404,726.46058787928,5.249344,0.223694,15.272474242,0.0,0.0,0.0,22.2,2.0,-3.3,0,0,1024,1024,1024,1024,0,0,0,0,0,0,0,66,3.693,3.711,0,0,0,0,5.439,70.7,726.46058787928,5.249344,6,P-GPS,,1.6
203700,2026-01-06 16:41:29,,,726.46058787928,4.92126,0.0,14.5614834056,4.7978019908,15,5,7.404,726.46058787928,5.249344,0.223694,15.272474242,0.0,0.0,0.0,22.1,2.5,-3.8,0,0,1024,1024,1024,1024,0,0,0,0,0,0,0,66,3.693,3.711,0,0,0,0,5.439,70.7,726.46058787928,5.249344,6,P-GPS,,1.6
203800,2026-01-06 16:41:29,,,726.46058787928,4.92126,0.0,14.5436684444,4.8910434636,15,5,7.404,726.46058787928,5.249344,0.223694,15.272474242,0.0,0.0,0.0,22.0,4.9,-3.7,0,0,1024,1024,1024,1024,0,0,0,0,0,0,0,66,3.693,3.711,0,0,0,0,5.439,70.7,726.46058787928,5.249344,6,P-GPS,,1.6
203900,2026-01-06 16:41:29,,,726.46058787928,5.249344,0.0,14.551017526,4.8984909704,15,5,7.404,726.46058787928,5.249344,0.223694,15.272474242,0.0,0.0,0.0,21.8,5.4,-4.0,0,0,1024,1024,1024,1024,0,0,0,0,0,0,0,66,3.693,3.711,0,0,0,0,5.439,70.7,726.46058787928,5.249344,6,P-GPS,,1.6
204000,2026-01-06 16:41:29,,,726.46058787928,5.249344,0.0,14.550197316,4.909284934,15,5,7.404,726.46058787928,5.249344,0.223694,15.272474242,0.0,0.0,0.0,21.6,4.6,-4.2,0,0,1024,1024,1024,1024,0,0,0,0,0,0,0,66,3.693,3.711,0,0,0,0,5.439,70.7,726.46058787928,5.249344,6,P-GPS,,1.6
204100,2026-01-06 16:41:29,,,726.46058787928,5.249344,0.0,14.557743248,4.9291668244,15,5,7.404,726.46058787928,5.249344,0.223694,15.272474242,0.0,0.0,0.0,21.8,3.1,-4.1,0,0,1024,1024,1024,1024,0,0,0,0,0,0,0,66,3.693,3.711,0,0,0,0,5.439,70.7,726.46058787928,5.249344,6,P-GPS,,1.6
204200,2026-01-06 16:41:29,,,726.46058787928,4.92126,0.0,14.6005254016,4.9729004216,15,5,7.404,726.46058787928,5.249344,0.223694,15.272474242,0.0,0.0,0.0,21.9,2.6,-4.2,0,0,1024,1024,1024,1024,0,0,0,0,0,0,0,66,3.693,3.711,0,0,0,0,5.439,70.7,726.46058787928,5.249344,6,P-GPS,,1.6
204300,2026-01-06 16:41:29,,,726.46058787928,4.92126,0.0,14.6180122788,4.99179806,15,5,7.404,726.46058787928,5.249344,0.223694,15.272474242,0.0,0.0,0.0,22.0,2.1,-4.1,0,0,1024,1024,1024,1024,0,0,0,0,0,0,0,66,3.693,3.711,0,0,0,0,5.439,70.7,726.46058787928,5.249344,6,P-GPS,,1.6
204400,2026-01-06 16:41:30,,,726.46058787928,4.92126,0.0,14.6878941708,5.0627626292,15,5,7.374,726.46058787928,5.249344,0.223694,15.272474242,0.0,0.0,0.0,22.0,2.6,-4.1,0,0,1024,1024,1024,1024,0,0,0,0,0,0,0,66,3.685,3.684,0,0,0,0,5.287,70.7,726.46058787928,5.249344,6,P-GPS,,1.6
204500,2026-01-06 16:41:30,,,726.46058787928,4.92126,0.0,14.7487209444,5.1255250984,15,5,7.374,726.46058787928,5.249344,0.223694,15.272474242,0.0,0.0,0.0,22.1,2.9,-3.6,0,0,1024,1024,1508,1024,0,0,73,0,0,0,0,66,3.685,3.684,0,0,0,0,5.287,70.7,726.46058787928,5.249344,6,P-GPS,,1.6
204600,2026-01-06 16:41:30,,,726.46058787928,4.92126,0.0,14.787238006,5.17716552,15,5,7.374,726.46058787928,5.249344,0.223694,15.272474242,0.0,0.0,0.0,22.1,3.5,-3.1,0,0,1024,1024,1625,1024,0,0,91,0,0,0,0,66,3.685,3.684,0,0,0,0,5.287,70.7,726.46058787928,5.249344,6,P-GPS,,1.6
204700,2026-01-06 16:41:30,,,726.46058787928,4.92126,0.0,14.9092524456,5.3373033204,15,5,7.374,726.46058787928,5.249344,0.223694,15.272474242,0.0,0.0,-0.447388,22.2,4.0,-2.4,0,0,1024,1024,1586,1024,0,0,85,0,0,0,0,66,3.685,3.684,0,0,0,0,5.287,70.7,726.46058787928,5.249344,6,P-GPS,,1.6
204800,2026-01-06 16:41:30,,,726.78867187928,4.92126,0.0,14.9514768564,5.3983925612,15,5,7.374,726.78867187928,5.577428,0.223694,15.272474242,0.0,0.0,-1.11847,22.4,3.4,-2.8,0,0,1024,1024,1024,1024,0,0,0,0,0,0,0,66,3.685,3.684,0,0,0,0,5.287,70.7,726.78867187928,5.577428,6,P-GPS,,1.7
204900,2026-01-06 16:41:30,,,726.78867187928,5.249344,0.0,14.9926513984,5.4572508308,15,5,7.374,726.78867187928,5.577428,0.223694,15.272474242,0.0,0.0,-1.789552,22.1,3.4,-3.1,0,0,1024,1024,1024,1024,0,0,0,0,0,0,0,66,3.685,3.684,0,0,0,0,5.287,70.7,726.78867187928,5.577428,6,P-GPS,,1.7
205000,2026-01-06 16:41:30,,,727.11675587928,5.577428,0.0,15.0251645228,5.5088912524,15,5,7.374,727.11675587928,5.905512,0.223694,15.272474242,0.0,0.0,-1.789552,21.9,2.6,-3.8,0,0,1024,1024,1024,1024,0,0,0,0,0,0,0,66,3.685,3.684,0,0,0,0,5.287,70.7,727.11675587928,5.905512,6,P-GPS,,1.8
205100,2026-01-06 16:41:30,,,727.44483987928,5.577428,0.0,15.0564637364,5.6314634348,15,5,7.374,727.44483987928,6.233596,0.223694,15.272474242,0.0,0.0,-1.11847,21.8,3.1,-3.9,0,0,1024,1024,1024,1024,0,0,0,0,0,0,0,66,3.685,3.684,0,0,0,0,5.287,70.7,727.44483987928,6.233596,6,P-GPS,,1.9
205200,2026-01-06 16:41:30,,,727.44483987928,5.905512,0.0,15.1183403788,5.705052676,15,5,7.374,727.44483987928,6.233596,0.223694,15.272474242,0.0,0.0,-0.671082,22.0,2.8,-3.7,0,0,1024,1024,1024,1024,0,0,0,0,0,0,0,66,3.685,3.684,0,0,0,0,5.287,70.7,727.44483987928,6.233596,6,P-GPS,,1.9
205300,2026-01-06 16:41:31,,,727.44483987928,5.905512,0.0,15.175853504,5.7709647516,15,5,7.374,727.44483987928,6.233596,0.223694,15.272474242,0.0,0.0,-0.447388,21.9,2.4,-3.5,0,0,1024,1024,1024,1024,0,0,0,0,0,0,0,66,3.685,3.684,0,0,0,0,5.287,70.7,727.44483987928,6.233596,6,P-GPS,,1.9
205400,2026-01-06 16:41:31,,,727.44483987928,5.905512,0.0,15.2328416948,5.8308400816,15,5,7.374,727.44483987928,6.233596,0.223694,15.272474242,0.0,0.0,0.0,22.0,2.4,-3.4,0,0,1024,1024,1024,1024,0,0,0,0,0,0,0,66,3.685,3.684,0,0,0,0,5.287,70.7,727.44483987928,6.233596,6,P-GPS,,1.9
205500,2026-01-06 16:41:31,,,727.44483987928,5.905512,0.0,15.4193574488,6.064960824,15,5,7.385,727.44483987928,6.233596,0.223694,15.4193574488,0.0,0.0,0.0,22.0,2.7,-3.1,0,0,1024,1024,364,1024,0,0,-100,0,0,0,0,66,3.693,3.693,0,0,0,0,5.87,70.7,727.44483987928,6.233596,6,P-GPS,,1.9
205600,2026-01-06 16:41:31,,,727.44483987928,5.905512,0.0,15.508038554,6.1565618768,15,5,7.385,727.44483987928,6.233596,0.223694,15.508038554,0.0,0.0,0.0,22.0,3.0,-3.1,0,0,1024,1024,364,1024,0,0,-100,0,0,0,0,66,3.693,3.693,0,0,0,0,5.87,70.7,727.44483987928,6.233596,6,P-GPS,,1.9
205700,2026-01-06 16:41:31,,,727.44483987928,5.905512,0.0,15.5801514172,6.2317587296,15,5,7.385,727.44483987928,6.233596,0.223694,15.5801514172,0.0,0.0,0.0,22.0,2.9,-2.9,0,0,1024,1024,364,1024,0,0,-100,0,0,0,0,66,3.693,3.693,0,0,0,0,5.87,70.7,727.44483987928,6.233596,6,P-GPS,,1.9
205800,2026-01-06 16:41:31,,,727.44483987928,5.905512,0.0,15.549705222,6.2686681796,15,5,7.385,727.44483987928,6.233596,0.223694,15.5801514172,0.0,0.0,0.447388,21.9,3.9,-2.7,0,0,1024,1024,707,1024,0,0,-48,0,0,0,0,66,3.693,3.693,0,0,0,0,5.87,70.7,727.44483987928,6.233596,6,P-GPS,,1.9
205900,2026-01-06 16:41:31,,,727.11675587928,5.905512,0.0,15.5211947224,6.3026248736,15,5,7.385,727.44483987928,6.233596,0.223694,15.5801514172,0.0,0.0,0.894776,22.0,4.1,-2.6,0,0,1024,1024,1024,1024,0,0,0,0,0,0,0,66,3.693,3.693,0,0,0,0,5.87,70.7,727.11675587928,5.905512,6,P-GPS,,1.8
206000,2026-01-06 16:41:31,,,727.11675587928,5.577428,0.0,15.3020674188,6.5408794744,15,5,7.385,727.44483987928,6.233596,0.223694,15.5801514172,0.0,0.0,1.11847,22.0,4.1,-3.1,0,0,1024,1024,1024,1024,0,0,0,0,0,0,0,66,3.693,3.693,0,0,0,0,5.87,70.7,727.11675587928,5.905512,6,P-GPS,,1.8
206100,2026-01-06 16:41:31,,,726.78867187928,5.577428,0.0,15.2876317228,6.561844042,15,5,7.385,727.44483987928,6.233596,0.223694,15.5801514172,0.0,0.0,0.894776,22.0,4.2,-3.3,0,0,1024,1024,1024,1024,0,0,0,0,0,0,0,66,3.693,3.693,0,0,0,0,5.87,70.7,726.78867187928,5.577428,6,P-GPS,,1.7
206200,2026-01-06 16:41:31,,,726.78867187928,5.577428,0.0,15.2854663684,6.5640093964,15,5,7.385,727.44483987928,6.233596,0.223694,15.5801514172,0.0,0.0,0.447388,22.0,4.3,-3.7,0,0,1024,1024,1288,1024,0,0,40,0,0,0,0,66,3.693,3.693,0,0,0,0,5.87,70.7,726.78867187928,5.577428,6,P-GPS,,1.7
206300,2026-01-06 16:41:31,,,726.78867187928,5.577428,0.0,15.287730148,6.570866352,15,5,7.385,727.44483987928,6.233596,0.223694,15.5801514172,0.0,0.0,0.223694,21.7,4.5,-4.0,0,0,1024,1024,1684,1024,0,0,100,0,0,0,0,66,3.693,3.693,0,0,0,0,5.87,70.7,726.78867187928,5.577428,6,P-GPS,,1.7
206400,2026-01-06 16:41:32,,,726.78867187928,5.249344,0.0,15.3196527212,6.6641078248,15,5,7.385,727.44483987928,6.233596,0.223694,15.5801514172,0.0,0.0,0.0,21.7,3.8,-4.7,0,0,1024,1024,1684,1024,0,0,100,0,0,0,0,66,3.693,3.693,0,0,0,0,5.87,70.7,726.78867187928,5.577428,6,P-GPS,,1.7
206500,2026-01-06 16:41:32,,,726.78867187928,5.249344,0.0,15.3533797564,6.7306760684,15,5,7.385,727.44483987928,6.233596,0.223694,15.5801514172,0.0,0.0,0.0,21.7,3.9,-3.9,0,0,1024,1024,1684,1024,0,0,100,0,0,0,0,66,3.693,3.693,0,0,0,0,5.87,70.7,726.78867187928,5.577428,6,P-GPS,,1.7
206600,2026-01-06 16:41:32,,,726.78867187928,5.249344,0.0,15.3365818556,6.7839897184,15,5,7.385,727.44483987928,6.233596,0.223694,15.5801514172,0.0,0.0,-0.671082,21.5,2.7,-2.3,0,0,1024,1024,1684,1024,0,0,100,0,0,0,0,66,3.693,3.693,0,0,0,0,5.87,70.7,726.78867187928,5.577428,6,P-GPS,,1.7
206700,2026-01-06 16:41:32,,,726.78867187928,5.577428,0.223694,15.3294952412,6.8366800088,15,5,7.33,727.44483987928,6.233596,0.223694,15.5801514172,-0.223694,0.0,-1.565858,21.7,2.1,-2.2,0,0,1024,1024,1684,1024,0,0,100,0,0,0,0,66,3.617,3.619,0,0,0,0,5.631,70.7,726.78867187928,5.577428,6,P-GPS,,1.7
206800,2026-01-06 16:41:32,,,727.11675587928,5.905512,0.0,15.352198654,6.8657482512,15,5,7.33,727.44483987928,6.233596,0.223694,15.5801514172,0.0,0.0,-2.23694,22.0,1.7,-3.2,0,0,1024,1024,1684,1024,0,0,100,0,0,0,0,66,3.617,3.619,0,0,0,0,5.631,70.7,727.11675587928,5.905512,6,P-GPS,,1.8
206900,2026-01-06 16:41:32,,,727.44483987928,6.233596,0.0,15.3936356632,6.9124674128,15,5,7.33,727.44483987928,6.233596,0.223694,15.5801514172,0.0,0.0,-2.908022,22.0,2.1,-3.5,0,0,1024,1024,1684,1024,0,0,100,0,0,0,0,66,3.617,3.619,0,0,0,0,5.631,70.7,727.44483987928,6.233596,6,P-GPS,,1.9
207000,2026-01-06 16:41:32,,,728.10100787928,6.56168,0.0,15.4490490508,6.9761813256,15,5,7.33,728.10100787928,6.889764,0.223694,15.5801514172,0.0,0.0,-3.579104,22.0,2.3,-3.6,0,0,1024,1024,1684,1024,0,0,100,0,0,0,0,66,3.617,3.619,0,0,0,0,5.631,70.7,728.10100787928,6.889764,6,P-GPS,,2.1
207100,2026-01-06 16:41:32,,,728.75717587928,7.217848,0.0,15.495079236,7.0318899888,15,5,7.33,728.75717587928,7.545932,0.223694,15.5801514172,0.0,0.0,-4.026492,22.0,2.4,-3.7,0,0,1024,1024,1684,1024,0,0,100,0,0,0,0,66,3.617,3.619,0,0,0,0,5.631,70.7,728.75717587928,7.545932,6,P-GPS,,2.3
207200,2026-01-06 16:41:32,,,729.08525987928,7.874016,0.0,15.6121724156,7.1547246384,15,5,7.33,729.08525987928,7.874016,0.223694,15.6121724156,0.0,0.0,-4.026492,21.9,2.4,-3.2,0,0,1024,1024,1684,1024,0,0,100,0,0,0,0,66,3.617,3.619,0,0,0,0,5.631,70.7,729.08525987928,7.874016,6,P-GPS,,2.4
207300,2026-01-06 16:41:33,,,729.74142787928,8.2021,0.0,15.6368771408,7.1986222776,15,5,7.33,729.74142787928,8.530184,0.223694,15.6368771408,0.0,0.0,-4.250186,21.8,2.6,-2.8,0,0,1024,1024,1684,1024,0,0,100,0,0,0,0,66,3.617,3.619,0,0,0,0,5.631,70.7,729.74142787928,8.530184,6,P-GPS,,2.6
207400,2026-01-06 16:41:33,,,730.39759587928,8.858268,0.0,15.6246396076,7.2111878948,15,5,7.33,730.39759587928,9.186352,0.223694,15.6368771408,0.0,0.0,-4.250186,21.8,2.7,-2.8,0,0,1024,1024,1684,1024,0,0,100,0,0,0,0,66,3.617,3.619,0,0,0,0,5.631,70.7,730.39759587928,9.186352,6,P-GPS,,2.8
207500,2026-01-06 16:41:33,,,731.05376387928,9.514436,0.0,15.6121396072,7.2252626984,14,5,7.33,731.05376387928,9.84252,0.223694,15.6368771408,0.0,0.0,-4.250186,21.8,2.9,-2.9,0,0,1024,1024,1684,1024,0,0,100,0,0,0,0,66,3.617,3.619,0,0,0,0,5.631,70.7,731.05376387928,9.84252,6,P-GPS,,3.0
207600,2026-01-06 16:41:33,,,731.70993187928,10.170604,0.0,15.6185700536,7.2325133548,14,5,7.33,731.70993187928,10.498688,0.223694,15.6368771408,0.0,0.0,-4.250186,21.7,3.3,-2.8,0,0,1024,1024,1684,1024,0,0,100,0,0,0,0,66,3.617,3.619,0,0,0,0,5.631,70.7,731.70993187928,10.498688,6,P-GPS,,3.2
207700,2026-01-06 16:41:33,,,732.36609987928,10.826772,0.0,15.6038718904,7.3302495784,13,5,7.33,732.36609987928,11.154856,0.223694,15.6368771408,0.0,0.0,-4.47388,21.7,3.4,-2.5,0,0,1024,1024,1684,1024,0,0,100,0,0,0,0,66,3.617,3.619,0,0,0,0,5.631,70.7,732.36609987928,11.154856,6,P-GPS,,3.4
207800,2026-01-06 16:41:33,,,733.02226787928,11.48294,0.0,15.711450634,7.4401577184,13,5,7.294,733.02226787928,11.811024,0.223694,15.711450634,0.0,0.0,-4.250186,21.7,3.2,-3.0,0,0,1024,1024,1684,1024,0,0,100,0,0,0,0,66,3.646,3.648,0,0,0,0,7.121,70.7,733.02226787928,11.811024,6,P-GPS,,3.6
207900,2026-01-06 16:41:33,,,733.67843587928,11.811024,0.0,15.8068246528,7.535761396,14,5,7.294,733.67843587928,12.467192,0.223694,15.8068246528,0.0,0.0,-4.250186,21.7,3.3,-2.5,0,0,1024,1024,1684,1024,0,0,100,0,0,0,0,66,3.646,3.648,0,0,0,0,7.121,70.7,733.67843587928,12.467192,6,P-GPS,,3.8
208000,2026-01-06 16:41:33,,,734.33460387928,12.467192,0.0,15.8250333148,7.6303480132,14,5,7.294,734.33460387928,13.12336,0.223694,15.8250333148,0.0,0.0,-4.250186,21.8,3.0,-1.5,0,0,1024,1024,1684,1024,0,0,100,0,0,0,0,66,3.646,3.648,0,0,0,0,7.121,70.7,734.33460387928,13.12336,6,P-GPS,,4.0
208100,2026-01-06 16:41:33,,,734.99077187928,13.12336,0.223694,15.93996114,7.8134188852,14,5,7.294,734.99077187928,13.779528,0.223694,15.93996114,0.0,-0.223694,-4.250186,21.8,3.1,-1.2,0,0,1024,1024,1684,1024,0,0,100,0,0,0,0,66,3.646,3.648,0,0,0,0,7.121,70.7,734.99077187928,13.779528,6,P-GPS,,4.2
208200,2026-01-06 16:41:33,,,735.31885587928,13.779528,0.0,15.9202432916,7.903379518,14,5,7.294,735.31885587928,14.107612,0.223694,15.93996114,0.0,0.0,-4.250186,22.0,3.1,-0.9,0,0,1024,1024,1684,1024,0,0,100,0,0,0,0,66,3.646,3.648,0,0,0,0,7.121,70.7,735.31885587928,14.107612,6,P-GPS,SD card speed low. Normal use may be affected. Replace SD card (Code: 10028). Gimbal stuck. Make sure gimbal cover is removed and manually check whether gimbal can rotate freely (Code: 40002),4.3
208300,2026-01-06 16:41:33,,,735.97502387928,14.435696,0.0,15.9031173068,7.983432014,15,5,7.294,735.97502387928,14.76378,0.223694,15.93996114,0.0,0.0,-4.47388,22.2,2.8,-0.3,0,0,1024,1024,1684,1024,0,0,100,0,0,0,0,66,3.646,3.648,0,0,0,0,7.121,70.7,735.97502387928,14.76378,6,P-GPS,,4.5
208400,2026-01-06 16:41:34,,,736.63119187928,15.091864,0.0,15.863025442,8.033792908,15,5,7.294,736.63119187928,15.419948,0.223694,15.93996114,0.0,0.0,-4.47388,22.2,3.6,-0.4,0,0,1024,1024,1684,1024,0,0,100,0,0,0,0,66,3.646,3.648,0,0,0,0,7.121,70.7,736.63119187928,15.419948,6,P-GPS,,4.7
208500,2026-01-06 16:41:34,,,737.28735987928,15.748032,0.0,15.6322511564,8.2663060388,15,5,7.294,737.28735987928,16.076116,0.223694,15.93996114,0.0,0.0,-4.47388,22.2,4.2,-1.1,0,0,1024,1024,1684,1024,0,0,100,0,0,0,0,66,3.646,3.648,0,0,0,0,7.121,70.7,737.28735987928,16.076116,6,P-GPS,,4.9
208600,2026-01-06 16:41:34,,,738.27161187928,16.4042,0.0,15.5507550908,8.3580383252,15,5,7.294,738.27161187928,17.060368,0.223694,15.93996114,0.0,0.0,-4.47388,22.1,5.4,-1.9,0,0,1024,1024,1684,1024,0,0,100,0,0,0,0,66,3.646,3.648,0,0,0,0,7.121,70.7,738.27161187928,17.060368,6,P-GPS,,5.2
208700,2026-01-06 16:41:34,,,738.92777987928,17.060368,0.0,15.490650102,8.4322837344,15,5,7.294,738.92777987928,17.716536,0.223694,15.93996114,0.0,0.0,-4.47388,22.0,4.7,-2.8,0,0,1024,1024,1684,1024,0,0,100,0,0,0,0,66,3.646,3.648,0,0,0,0,7.121,70.7,738.92777987928,17.716536,6,P-GPS,Home Point updated. RTH altitude adjusted to 500 m (Code: 120852),5.4
208800,2026-01-06 16:41:34,,,739.58394787928,17.716536,0.0,15.5328417044,8.5011157576,15,5,7.294,739.58394787928,18.372704,0.223694,15.93996114,0.0,0.0,-4.47388,22.1,4.9,-2.8,0,0,1024,1024,1684,1024,0,0,100,0,0,0,0,66,3.646,3.648,0,0,0,0,7.121,70.7,739.58394787928,18.372704,6,P-GPS,,5.6
208900,2026-01-06 16:41:34,,,740.24011587928,18.372704,0.0,15.6665687428,8.7217194392,15,5,7.3,740.24011587928,19.028872,0.223694,15.93996114,0.0,0.0,-4.47388,21.9,4.7,-4.0,0,0,1024,1024,1684,1024,0,0,100,0,0,0,0,66,3.652,3.649,0,0,0,0,6.506,70.7,740.24011587928,19.028872,6,P-GPS,,5.8
209000,2026-01-06 16:41:34,,,740.89628387928,19.356956,0.0,15.7486225512,8.8042653736,15,5,7.3,740.89628387928,19.68504,0.223694,15.93996114,0.0,0.0,-4.47388,22.0,3.2,-4.2,0,0,1024,1024,1684,1024,0,0,100,0,0,0,0,66,3.652,3.649,0,0,0,0,6.506,70.7,740.89628387928,19.68504,6,P-GPS,,6.0
209100,2026-01-06 16:41:34,,,741.55245187928,20.013124,0.0,15.8177826584,8.8751971344,15,5,7.3,741.55245187928,20.341208,0.223694,15.93996114,0.0,0.0,-4.47388,22.1,3.5,-3.5,0,0,1024,1024,1684,1024,0,0,100,0,0,0,0,66,3.652,3.649,0,0,0,0,6.506,70.7,741.55245187928,20.341208,6,P-GPS,,6.2
209200,2026-01-06 16:41:34,,,742.20861987928,20.669292,0.0,15.8552826596,8.9267391308,15,5,7.3,742.20861987928,20.997376,0.223694,15.93996114,0.0,0.0,-4.47388,22.1,3.9,-3.0,0,0,1024,1024,1684,1024,0,0,100,0,0,0,0,66,3.652,3.649,0,0,0,0,6.506,70.7,742.20861987928,20.997376,6,P-GPS,,6.4
209300,2026-01-06 16:41:34,,,742.86478787928,21.32546,0.0,15.8874020832,8.9745081612,15,5,7.3,742.86478787928,21.653544,0.223694,15.93996114,0.0,0.0,-4.47388,22.0,4.3,-2.9,0,0,1024,1024,1684,1024,0,0,100,0,0,0,0,66,3.652,3.649,0,0,0,0,6.506,70.7,742.86478787928,21.653544,6,P-GPS,,6.6
209400,2026-01-06 16:41:35,,,743.52095587928,22.309712,0.0,15.8755910592,9.1610239152,15,5,7.3,743.52095587928,22.309712,0.223694,15.93996114,0.0,0.0,-4.47388,21.9,4.6,-3.1,0,0,1024,1024,1684,1024,0,0,100,0,0,0,0,66,3.652,3.649,0,0,0,0,6.506,70.7,743.52095587928,22.309712,6,P-GPS,,6.8
209500,2026-01-06 16:41:35,,,744.17712387928,23.293964,0.0,15.8920936844,9.2366800856,15,5,7.3,744.17712387928,22.96588,0.223694,15.93996114,0.0,0.0,-4.250186,21.7,4.3,-3.6,0,0,1024,1024,1684,1024,0,0,100,0,0,0,0,66,3.652,3.649,0,0,0,0,6.506,70.7,744.17712387928,22.96588,6,P-GPS,,7.0
209600,2026-01-06 16:41:35,,,744.50520787928,23.950132,0.0,15.9308075964,9.3015751008,15,5,7.3,744.50520787928,23.293964,0.223694,15.93996114,0.0,0.0,-4.250186,21.7,3.8,-2.7,0,0,1024,1024,1684,1024,0,0,100,0,0,0,0,66,3.652,3.649,0,0,0,0,6.506,70.7,744.50520787928,23.293964,6,P-GPS,,7.1
209700,2026-01-06 16:41:35,,,745.16137587928,24.934384,0.0,15.9596133716,9.365321822,15,5,7.3,745.16137587928,23.950132,0.223694,15.9596133716,0.0,0.0,-4.250186,21.8,4.0,-1.7,0,0,1024,1024,1684,1024,0,0,100,0,0,0,0,66,3.652,3.649,0,0,0,0,6.506,70.7,745.16137587928,23.950132,6,P-GPS,,7.3
209800,2026-01-06 16:41:35,,,745.81754387928,25.918636,0.223694,15.9366474916,9.388287702,15,5,7.3,745.81754387928,24.6063,0.223694,15.9596133716,0.0,-0.223694,-4.47388,21.9,3.6,-0.9,0,0,1024,1024,1684,1024,0,0,100,0,0,0,0,66,3.652,3.649,0,0,0,0,6.506,70.7,745.81754387928,24.6063,6,P-GPS,,7.5
209900,2026-01-06 16:41:35,,,746.47371187928,26.902888,0.223694,15.93257925,9.4392391472,15,5,7.3,746.47371187928,25.262468,0.223694,15.9596133716,0.0,-0.223694,-4.47388,21.9,3.3,-0.7,0,0,1024,1024,1684,1024,0,0,100,0,0,0,0,66,3.652,3.649,0,0,0,0,6.506,70.7,746.47371187928,25.262468,6,P-GPS,,7.7
210000,2026-01-06 16:41:35,,,747.12987987928,27.559056,0.223694,15.9318902736,9.5024937424,15,5,7.3,747.12987987928,25.918636,0.223694,15.9596133716,0.0,-0.223694,-4.47388,21.9,2.9,-0.7,0,0,1024,1024,1684,1024,0,0,100,0,0,0,0,66,3.652,3.649,0,0,0,0,6.506,70.7,747.12987987928,25.918636,6,P-GPS,,7.9
210100,2026-01-06 16:41:35,,,747.45796387928,28.215224,0.223694,15.9267721632,9.5625987312,15,5,7.3,747.45796387928,26.24672,0.223694,15.9596133716,0.0,-0.223694,-4.47388,22.0,2.8,-0.3,0,0,1024,1024,1684,1024,0,0,100,0,0,0,0,66,3.653,3.652,0,0,0,0,6.506,70.7,747.45796387928,26.24672,6,P-GPS,,8.0
210200,2026-01-06 16:41:35,,,748.11413187928,29.199476,0.0,15.74639158,9.7674215724,15,5,7.3,748.11413187928,26.902888,0.223694,15.9596133716,0.0,0.0,-4.47388,22.0,3.1,-0.2,0,0,1024,1024,1684,1024,0,0,100,0,0,0,0,66,3.653,3.652,0,0,0,0,6.506,70.7,748.11413187928,26.902888,6,P-GPS,,8.2
210300,2026-01-06 16:41:35,,,748.77029987928,29.855644,0.0,15.702428324,9.8434058268,15,5,7.3,748.77029987928,27.559056,0.223694,15.9596133716,0.0,0.0,-4.47388,21.9,3.3,-0.1,0,0,1024,1024,1684,1024,0,0,100,0,0,0,0,66,3.653,3.652,0,0,0,0,6.506,70.7,748.77029987928,27.559056,6,P-GPS,,8.4
210400,2026-01-06 16:41:36,,,749.42646787928,30.839896,0.0,15.6578089,9.8999675084,15,5,7.3,749.42646787928,28.215224,0.223694,15.9596133716,0.0,0.0,-4.250186,22.0,3.4,-0.3,0,0,1024,1024,1684,1024,0,0,100,0,0,0,0,66,3.653,3.652,0,0,0,0,6.506,70.7,749.42646787928,28.215224,6,P-GPS,,8.6
210500,2026-01-06 16:41:36,,,750.08263587928,31.496064,0.0,15.6219821272,9.9469491372,15,5,7.3,750.08263587928,28.871392,0.223694,15.9596133716,0.0,0.0,-4.47388,22.1,2.8,-0.3,0,0,1024,1024,1684,1024,0,0,100,0,0,0,0,66,3.653,3.652,0,0,0,0,6.506,70.7,750.08263587928,28.871392,6,P-GPS,,8.8
210600,2026-01-06 16:41:36,,,750.73880387928,32.152232,0.0,15.6397970884,9.965387458,15,5,7.3,750.73880387928,29.52756,0.223694,15.9596133716,0.0,0.0,-4.47388,22.1,3.0,-0.3,0,0,1024,1024,1684,1024,0,0,100,0,0,0,0,66,3.653,3.652,0,0,0,0,6.506,70.7,750.73880387928,29.52756,6,P-GPS,,9.0
210700,2026-01-06 16:41:36,,,751.39497187928,32.8084,0.0,15.6600726796,9.9976381152,15,5,7.3,751.39497187928,30.183728,0.223694,15.9596133716,0.0,0.0,-4.47388,22.1,2.7,-0.5,0,0,1024,1024,1684,1024,0,0,100,0,0,0,0,66,3.653,3.652,0,0,0,0,6.506,70.7,751.39497187928,30.183728,6,P-GPS,,9.2
210800,2026-01-06 16:41:36,,,752.05113987928,33.464568,0.0,15.6912406596,10.0288060952,15,5,7.3,752.05113987928,30.839896,0.223694,15.9596133716,0.0,0.0,-4.47388,22.0,3.4,-1.5,0,0,1024,1024,1684,1024,0,0,100,0,0,0,0,66,3.653,3.652,0,0,0,0,6.506,70.7,752.05113987928,30.839896,6,P-GPS,,9.4
210900,2026-01-06 16:41:36,,,752.70730787928,34.120736,0.0,15.7166015528,10.0545278808,15,5,7.3,752.70730787928,31.496064,0.223694,15.9596133716,0.0,0.0,-4.250186,22.0,3.1,-1.5,0,0,1024,1024,1684,1024,0,0,100,0,0,0,0,66,3.653,3.652,0,0,0,0,6.506,70.7,752.70730787928,31.496064,6,P-GPS,,9.6
211000,2026-01-06 16:41:36,,,753.36347587928,34.776904,0.0,15.6980319984,10.0730974352,15,5,7.3,753.36347587928,32.152232,0.223694,15.9596133716,0.0,0.0,-4.250186,22.0,3.3,-1.3,0,0,1024,1024,1684,1024,0,0,100,0,0,0,0,65,3.653,3.652,0,0,0,0,6.506,70.7,753.36347587928,32.152232,6,P-GPS,,9.8
211100,2026-01-06 16:41:36,,,754.01964387928,35.433072,0.0,15.6886159876,10.1427824768,15,5,7.3,754.01964387928,32.8084,0.223694,15.9596133716,0.0,0.0,-4.250186,22.0,3.6,-1.8,0,0,1024,1024,1684,1024,0,0,100,0,0,0,0,65,3.653,3.652,0,0,0,0,6.506,70.7,754.01964387928,32.8084,6,P-GPS,,10.0
211200,2026-01-06 16:41:36,,,754.34772787928,36.08924,0.0,15.7291999784,10.2209977024,15,5,7.316,754.34772787928,33.136484,0.223694,15.9596133716,0.0,0.0,-4.250186,22.0,3.7,-1.9,0,0,1024,1024,1684,1024,0,0,100,0,0,0,0,65,3.658,3.658,0,0,0,0,5.969,70.88,754.34772787928,33.136484,6,P-GPS,,10.1
211300,2026-01-06 16:41:36,,,755.00389587928,36.745408,0.0,15.7665359376,10.2905843188,15,5,7.316,755.00389587928,33.792652,0.223694,15.9596133716,0.0,0.0,-4.250186,21.9,3.4,-1.8,0,0,1024,1024,1024,1024,0,0,0,0,0,0,0,65,3.658,3.658,0,0,0,0,5.969,70.88,755.00389587928,33.792652,6,P-GPS,,10.3
211400,2026-01-06 16:41:37,,,755.66006387928,37.401576,0.0,15.8258535248,10.3530515124,15,5,7.316,755.66006387928,34.44882,0.223694,15.9596133716,0.0,0.0,-4.250186,21.9,3.6,-1.6,0,0,1024,1024,1024,1024,0,0,0,0,0,0,0,65,3.658,3.658,0,0,0,0,5.969,70.88,755.66006387928,34.44882,6,P-GPS,,10.5
211500,2026-01-06 16:41:37,,,756.31623187928,38.057744,0.0,15.9963587796,10.5429137232,15,5,7.316,756.31623187928,35.104988,0.223694,15.9963587796,0.0,0.0,-4.250186,21.9,3.3,-0.6,0,0,1024,1024,1024,1024,0,0,0,0,0,0,0,65,3.658,3.658,0,0,0,0,5.969,70.88,756.31623187928,35.104988,6,P-GPS,,10.7
211600,2026-01-06 16:41:37,,,756.97239987928,38.713912,0.0,15.9417327936,10.6079727804,15,5,7.316,756.97239987928,35.761156,0.223694,15.9963587796,0.0,0.0,-3.802798,21.9,4.1,-0.3,0,0,1024,1024,1024,1024,0,0,0,0,0,0,0,65,3.658,3.658,0,0,0,0,5.969,70.88,756.97239987928,35.761156,6,P-GPS,,10.9
211700,2026-01-06 16:41:37,,,757.62856787928,39.37008,0.0,15.8875005084,10.6672575592,15,5,7.316,757.62856787928,36.417324,0.223694,15.9963587796,0.0,0.0,-3.131716,21.9,4.5,-0.3,0,0,1024,1024,1024,1024,0,0,0,0,0,0,0,65,3.658,3.658,0,0,0,0,5.969,70.88,757.62856787928,36.417324,6,P-GPS,,11.1
211800,2026-01-06 16:41:37,,,757.95665187928,39.37008,0.0,15.816273472,10.750984596,15,5,7.316,757.95665187928,36.745408,0.223694,15.9963587796,0.0,0.0,-2.460634,21.9,4.3,-0.4,0,0,1024,1024,1024,1024,0,0,0,0,0,0,0,65,3.658,3.658,0,0,0,0,5.969,70.88,757.95665187928,36.745408,6,P-GPS,,11.2
211900,2026-01-06 16:41:37,,,757.95665187928,39.37008,0.0,15.5694558788,11.0049544204,15,5,7.316,757.95665187928,36.745408,0.223694,15.9963587796,0.0,0.0,-1.565858,21.9,4.2,-0.7,0,0,1024,1024,1024,1024,0,0,0,0,0,0,0,65,3.658,3.658,0,0,0,0,5.969,70.88,757.95665187928,36.745408,6,P-GPS,,11.2
212000,2026-01-06 16:41:37,,,758.28473587928,39.37008,0.0,15.5558732012,11.024606652,15,5,7.316,758.28473587928,37.073492,0.223694,15.9963587796,0.0,0.0,-0.894776,21.9,3.9,-1.0,0,0,1024,1024,1024,1024,0,0,0,0,0,0,0,65,3.658,3.658,0,0,0,0,5.969,70.88,758.28473587928,37.073492,6,P-GPS,,11.3
212100,2026-01-06 16:41:37,,,758.28473587928,39.37008,0.0,15.5479663768,11.0367785684,15,5,7.316,758.28473587928,37.073492,0.223694,15.9963587796,0.0,0.0,-0.447388,22.0,3.4,-1.0,0,0,1024,1024,1024,1024,0,0,0,0,0,0,0,65,3.658,3.658,0,0,0,0,5.969,70.88,758.28473587928,37.073492,6,P-GPS,,11.3
212200,2026-01-06 16:41:37,,,758.28473587928,39.37008,0.0,15.5566277944,11.0676512728,15,5,7.316,758.28473587928,37.073492,0.223694,15.9963587796,0.0,0.0,0.0,22.0,3.1,-1.4,0,0,1024,1024,1024,1024,0,0,0,0,0,0,0,65,3.658,3.658,0,0,0,0,5.969,70.88,758.28473587928,37.073492,6,P-GPS,,11.3
212300,2026-01-06 16:41:38,,,758.28473587928,39.37008,0.0,15.6811356724,11.2364176824,15,5,7.316,758.28473587928,37.073492,0.223694,15.9963587796,0.0,0.0,0.0,22.0,2.8,-1.9,0,0,1024,1024,1024,1024,0,0,0,0,0,0,0,65,3.658,3.658,0,0,0,0,5.969,70.88,758.28473587928,37.073492,6,P-GPS,,11.3
212400,2026-01-06 16:41:38,,,758.28473587928,39.37008,0.0,15.7288062776,11.2864504924,15,5,7.316,758.28473587928,37.073492,0.223694,15.9963587796,0.0,0.0,0.0,22.1,2.4,-2.2,0,0,1024,1024,1024,1024,0,0,0,0,0,0,0,65,3.658,3.658,0,0,0,0,5.969,70.88,758.28473587928,37.073492,6,P-GPS,,11.3
212500,2026-01-06 16:41:38,,,758.61281987928,39.37008,0.0,15.76935746,11.329396688,15,5,7.316,758.61281987928,37.401576,0.223694,15.9963587796,0.0,0.0,0.0,22.1,2.8,-2.1,0,0,1024,1024,1024,1024,0,0,0,0,0,0,0,65,3.658,3.658,0,0,0,0,5.969,70.88,758.61281987928,37.401576,6,P-GPS,,11.4
212600,2026-01-06 16:41:38,,,758.61281987928,39.37008,0.0,15.7620083784,11.3378284468,15,5,7.316,758.61281987928,37.401576,0.223694,15.9963587796,0.0,0.0,0.0,22.1,3.1,-2.2,0,0,1024,1024,1024,1024,0,0,0,0,0,0,0,65,3.658,3.658,0,0,0,0,5.969,70.88,758.61281987928,37.401576,6,P-GPS,,11.4
212700,2026-01-06 16:41:38,,,758.61281987928,39.37008,0.0,15.7525923676,11.3483271348,15,5,7.316,758.61281987928,37.401576,0.223694,15.9963587796,0.0,0.0,0.0,22.0,3.0,-2.4,0,0,1024,1024,1024,1024,0,0,0,0,0,0,0,65,3.658,3.658,0,0,0,0,5.969,70.88,758.61281987928,37.401576,6,P-GPS,,11.4
212800,2026-01-06 16:41:38,,,758.61281987928,39.37008,0.0,15.7032157256,11.39845837,15,5,7.316,758.61281987928,37.401576,0.223694,15.9963587796,0.0,0.0,0.0,22.1,2.8,-2.3,0,0,1024,1024,1024,1024,0,0,0,0,0,0,0,65,3.658,3.658,0,0,0,0,5.969,70.88,758.61281987928,37.401576,6,P-GPS,,11.4
212900,2026-01-06 16:41:38,,,758.61281987928,39.37008,0.0,15.6861225492,11.4200791056,15,5,7.316,758.61281987928,37.401576,0.223694,15.9963587796,0.0,0.0,0.0,22.1,3.1,-2.1,0,0,1024,1024,1024,1024,0,0,0,0,0,0,0,65,3.658,3.658,0,0,0,0,5.969,70.88,758.61281987928,37.401576,6,P-GPS,,11.4
213000,2026-01-06 16:41:38,,,758.61281987928,39.37008,0.0,15.6644690052,11.4418310748,15,5,7.316,758.61281987928,37.401576,0.223694,15.9963587796,0.0,0.0,0.0,22.1,3.1,-2.1,0,0,1024,1024,1024,1024,0,0,0,0,0,0,0,65,3.658,3.658,0,0,0,0,5.969,70.88,758.61281987928,37.401576,6,P-GPS,,11.4
213100,2026-01-06 16:41:38,,,758.61281987928,39.37008,0.0,15.6410438076,11.4653218892,15,5,7.408,758.61281987928,37.401576,0.223694,15.9963587796,0.0,0.0,0.0,22.0,3.0,-2.2,0,0,1024,1024,1024,1024,0,0,0,0,0,0,0,65,3.705,3.703,0,0,0,0,4.318,70.88,758.61281987928,37.401576,6,P-GPS,,11.4
213200,2026-01-06 16:41:38,,,758.61281987928,39.37008,0.0,15.5706369812,11.5391079808,15,5,7.408,758.61281987928,37.401576,0.223694,15.9963587796,0.0,0.0,0.0,22.0,2.7,-2.5,0,0,1024,1024,1024,1024,0,0,0,0,0,0,0,65,3.705,3.703,0,0,0,0,4.318,70.88,758.61281987928,37.401576,6,P-GPS,,11.4
213300,2026-01-06 16:41:38,,,758.61281987928,39.37008,0.0,15.5337275312,11.5760502392,15,5,7.408,758.61281987928,37.401576,0.223694,15.9963587796,0.0,0.0,0.0,22.1,2.6,-2.5,0,0,1024,1024,1024,1024,0,0,0,0,0,0,0,65,3.705,3.703,0,0,0,0,4.318,70.88,758.61281987928,37.401576,6,P-GPS,,11.4
213400,2026-01-06 16:41:39,,,758.61281987928,39.37008,0.0,15.5210634888,11.6012798988,15,5,7.408,758.61281987928,37.401576,0.223694,15.9963587796,0.0,0.0,0.0,22.0,2.5,-2.6,0,0,1024,1024,1024,1024,0,0,0,0,0,0,0,65,3.705,3.703,0,0,0,0,4.318,70.88,758.61281987928,37.401576,6,P-GPS,,11.4
213500,2026-01-06 16:41:39,,,758.61281987928,39.37008,0.0,15.5103023336,11.6233927604,15,5,7.408,758.61281987928,37.401576,0.223694,15.9963587796,0.0,0.0,0.0,21.9,2.5,-2.5,0,0,1024,1024,1024,1024,0,0,0,0,0,0,0,65,3.705,3.703,0,0,0,0,4.318,70.88,758.61281987928,37.401576,6,P-GPS,,11.4
213600,2026-01-06 16:41:39,,,758.61281987928,39.37008,0.0,15.6536422332,11.7683074632,15,5,7.408,758.61281987928,37.401576,0.223694,15.9963587796,0.0,0.0,0.0,21.9,2.3,-2.0,0,0,1024,1024,1024,1024,0,0,0,0,0,0,0,65,3.705,3.703,0,0,0,0,4.318,70.88,758.61281987928,37.401576,6,P-GPS,,11.4
213700,2026-01-06 16:41:39,,,758.61281987928,39.37008,0.0,15.6721461708,11.7869754428,15,5,7.408,758.61281987928,37.401576,0.223694,15.9963587796,0.0,0.0,0.0,22.0,2.1,-1.7,0,0,1024,1024,1024,1024,0,0,0,0,0,0,0,65,3.705,3.703,0,0,0,0,4.318,70.88,758.61281987928,37.401576,6,P-GPS,,11.4
213800,2026-01-06 16:41:39,,,758.61281987928,39.37008,0.0,15.685860082,11.8017064144,15,5,7.408,758.61281987928,37.401576,0.223694,15.9963587796,0.0,0.0,0.0,22.1,2.0,-1.8,0,0,1024,1024,1024,1024,0,0,0,0,0,0,0,65,3.705,3.703,0,0,0,0,4.318,70.88,758.61281987928,37.401576,6,P-GPS,,11.4
213900,2026-01-06 16:41:39,,,758.61281987928,39.37008,0.0,15.6966540456,11.8142064148,15,5,7.408,758.61281987928,37.401576,0.223694,15.9963587796,0.0,0.0,0.0,22.1,2.1,-1.8,0,0,1024,1024,1024,1024,0,0,0,0,0,0,0,65,3.705,3.703,0,0,0,0,4.318,70.88,758.61281987928,37.401576,6,P-GPS,,11.4
214000,2026-01-06 16:41:39,,,758.61281987928,39.37008,0.0,15.8273955196,11.963747102,15,5,7.408,758.61281987928,37.401576,0.223694,15.9963587796,0.0,0.0,0.0,22.0,2.2,-1.8,0,0,1024,1024,1024,1024,0,0,0,0,0,0,0,65,3.705,3.703,0,0,0,0,4.318,70.88,758.61281987928,37.401576,6,P-GPS,,11.4
214100,2026-01-06 16:41:39,,,758.61281987928,39.37008,0.0,15.8382879084,11.9784452652,15,5,7.362,758.61281987928,37.401576,0.223694,15.9963587796,0.0,0.0,0.0,22.0,2.5,-2.0,0,0,1024,1024,1024,1024,0,0,0,0,0,0,0,65,3.683,3.679,0,0,0,0,4.951,70.88,758.61281987928,37.401576,6,P-GPS,,11.4
214200,2026-01-06 16:41:39,,,758.61281987928,39.37008,0.0,15.8442262288,11.9958337172,15,5,7.362,758.61281987928,37.401576,0.223694,15.9963587796,0.0,0.0,0.0,21.9,2.9,-1.8,0,0,1024,1024,1024,1024,0,0,0,0,0,0,0,65,3.683,3.679,0,0,0,0,4.951,70.88,758.61281987928,37.401576,6,P-GPS,,11.4
214300,2026-01-06 16:41:39,,,758.61281987928,39.37008,0.0,15.8474742604,12.012303534,15,5,7.362,758.61281987928,37.401576,0.223694,15.9963587796,0.0,0.0,0.0,21.8,3.2,-1.8,0,0,1024,1024,1024,1024,0,0,0,0,0,0,0,65,3.683,3.679,0,0,0,0,4.951,70.88,758.61281987928,37.401576,6,P-GPS,,11.4
214400,2026-01-06 16:41:40,,,758.61281987928,39.37008,0.0,15.835138302,12.032316658,15,5,7.362,758.61281987928,37.401576,0.223694,15.9963587796,0.0,0.0,0.0,21.7,3.1,-1.9,0,0,1024,1024,1024,1024,0,0,0,0,0,0,0,65,3.683,3.679,0,0,0,0,4.951,70.88,758.61281987928,37.401576,6,P-GPS,,11.4
214500,2026-01-06 16:41:40,,,758.61281987928,39.37008,0.0,15.8632879092,12.0657484176,15,5,7.362,758.61281987928,37.401576,0.223694,15.9963587796,0.0,0.0,0.0,21.7,3.0,-1.8,0,0,1024,1024,1024,1024,0,0,0,0,0,0,0,65,3.683,3.679,0,0,0,0,4.951,70.88,758.61281987928,37.401576,6,P-GPS,,11.4
214600,2026-01-06 16:41:40,,,758.61281987928,39.37008,0.0,15.8775923716,12.0817917252,15,5,7.362,758.61281987928,37.401576,0.223694,15.9963587796,0.0,0.0,0.0,21.6,3.1,-1.7,0,0,1024,1024,1024,1024,0,0,0,0,0,0,0,65,3.683,3.679,0,0,0,0,4.951,70.88,758.61281987928,37.401576,6,P-GPS,,11.4
214700,2026-01-06 16:41:40,,,758.61281987928,39.37008,0.0,15.8936684876,12.0985240092,15,5,7.362,758.61281987928,37.401576,0.223694,15.9963587796,0.0,0.0,0.0,21.6,2.8,-1.3,0,0,1024,1024,1024,1024,0,0,0,0,0,0,0,65,3.683,3.679,0,0,0,0,4.951,70.88,758.61281987928,37.401576,6,P-GPS,,11.4
214800,2026-01-06 16:41:40,,,758.61281987928,39.37008,0.0,15.911417832,12.1169295216,15,5,7.362,758.61281987928,37.401576,0.223694,15.9963587796,0.0,0.0,0.0,21.8,2.2,-1.4,0,0,1024,1024,1024,1024,0,0,0,0,0,0,0,65,3.683,3.679,0,0,0,0,4.951,70.88,758.61281987928,37.401576,6,P-GPS,,11.4
214900,2026-01-06 16:41:40,,,758.61281987928,39.37008,0.0,15.9857616664,12.191765482,15,5,7.362,758.61281987928,37.401576,0.223694,15.9963587796,0.0,0.0,0.0,22.0,1.8,-1.9,0,0,1024,1024,1024,1024,0,0,0,0,0,0,0,65,3.683,3.679,0,0,0,0,4.951,70.88,758.61281987928,37.401576,6,P-GPS,,11.4
215000,2026-01-06 16:41:40,,,758.61281987928,39.37008,0.0,16.0231632424,12.2337274256,15,5,7.362,758.61281987928,37.401576,0.223694,16.0231632424,0.0,0.0,0.0,22.1,1.7,-2.1,0,0,1024,1024,1024,1024,0,0,0,0,0,0,0,65,3.683,3.679,0,0,0,0,4.951,70.88,758.61281987928,37.401576,6,P-GPS,,11.4
215100,2026-01-06 16:41:40,,,758.61281987928,39.37008,0.0,16.0565293852,12.2729990804,15,5,7.365,758.61281987928,37.401576,0.223694,16.0565293852,0.0,0.0,0.0,22.0,2.0,-2.3,0,0,1024,1024,1024,1024,0,0,0,0,0,0,0,65,3.683,3.681,0,0,0,0,4.916,70.88,758.61281987928,37.401576,6,P-GPS,,11.4
215200,2026-01-06 16:41:40,,,758.61281987928,39.37008,0.0,16.0900923784,12.3169951448,15,5,7.365,758.61281987928,37.401576,0.223694,16.0900923784,0.0,0.0,0.0,21.9,2.1,-2.2,0,0,1024,1024,1024,1024,0,0,0,0,0,0,0,65,3.683,3.681,0,0,0,0,4.916,70.88,758.61281987928,37.401576,6,P-GPS,,11.4
215300,2026-01-06 16:41:40,,,758.61281987928,39.37008,0.0,16.191929652,12.4329400304,15,5,7.365,758.61281987928,37.401576,0.223694,16.191929652,0.0,0.0,0.0,21.9,2.2,-1.9,0,0,1024,1024,1024,1024,0,0,0,0,0,0,0,65,3.683,3.681,0,0,0,0,4.916,70.88,758.61281987928,37.401576,6,P-GPS,,11.4
215400,2026-01-06 16:41:41,,,758.61281987928,39.37008,0.0,16.2073496,12.4542654904,15,5,7.365,758.61281987928,37.401576,0.223694,16.2073496,0.0,0.0,0.0,21.9,2.3,-1.6,0,0,1024,1024,1024,1024,0,0,0,0,0,0,0,65,3.683,3.681,0,0,0,0,4.916,70.88,758.61281987928,37.401576,6,P-GPS,,11.4
215500,2026-01-06 16:41:41,,,758.61281987928,39.37008,0.0,16.2215228288,12.4736224464,15,5,7.365,758.61281987928,37.401576,0.223694,16.2215228288,0.0,0.0,0.0,21.9,2.3,-1.4,0,0,1024,1024,1024,1024,0,0,0,0,0,0,0,65,3.683,3.681,0,0,0,0,4.916,70.88,758.61281987928,37.401576,6,P-GPS,,11.4
215600,2026-01-06 16:41:41,,,758.61281987928,39.37008,0.0,16.2326448764,12.4854662788,15,5,7.365,758.61281987928,37.401576,0.223694,16.2326448764,0.0,0.0,0.0,21.9,2.2,-1.7,0,0,1024,1024,1024,1024,0,0,0,0,0,0,0,65,3.683,3.681,0,0,0,0,4.916,70.88,758.61281987928,37.401576,6,P-GPS,,11.4
215700,2026-01-06 16:41:41,,,758.61281987928,39.37008,0.0,16.2160766344,12.516896726,15,5,7.365,758.61281987928,37.401576,0.223694,16.2326448764,0.0,0.0,0.0,21.8,2.2,-1.6,0,0,1024,1024,1024,1024,0,0,0,0,0,0,0,65,3.683,3.681,0,0,0,0,4.916,70.88,758.61281987928,37.401576,6,P-GPS,,11.4
215800,2026-01-06 16:41:41,,,758.61281987928,39.37008,0.0,16.2131894952,12.5208665424,15,5,7.365,758.61281987928,37.401576,0.223694,16.2326448764,0.0,0.0,0.0,21.8,2.1,-1.3,0,0,1024,1024,1024,1024,0,0,0,0,0,0,0,65,3.683,3.681,0,0,0,0,4.916,70.88,758.61281987928,37.401576,6,P-GPS,,11.4
215900,2026-01-06 16:41:41,,,758.94090387928,39.37008,0.0,16.20899002,12.5266080124,15,5,7.365,758.94090387928,37.72966,0.223694,16.2326448764,0.0,0.0,0.0,21.9,2.3,-1.2,0,0,1024,1024,1024,1024,0,0,0,0,0,0,0,65,3.683,3.681,0,0,0,0,4.916,70.88,758.94090387928,37.72966,6,P-GPS,,11.5
216000,2026-01-06 16:41:41,,,758.94090387928,39.37008,0.0,16.1882879196,12.5524282232,15,5,7.365,758.94090387928,37.72966,0.223694,16.2326448764,0.0,0.0,0.0,22.0,2.2,-1.2,0,0,1024,1024,1024,1024,0,0,0,0,0,0,0,65,3.683,3.681,0,0,0,0,4.916,70.88,758.94090387928,37.72966,6,P-GPS,,11.5
216100,2026-01-06 16:41:41,,,758.94090387928,39.37008,0.0,16.16715931,12.5806106388,15,5,7.367,758.94090387928,37.72966,0.223694,16.2326448764,0.0,0.0,0.0,22.0,2.3,-1.3,0,0,1024,1024,1024,1024,0,0,0,0,0,0,0,65,3.683,3.684,0,0,0,0,4.842,70.88,758.94090387928,37.72966,6,P-GPS,,11.5
216200,2026-01-06 16:41:41,,,758.94090387928,39.37008,0.0,16.0687013016,12.6932090676,15,5,7.367,758.94090387928,37.72966,0.223694,16.2326448764,0.0,0.0,0.0,22.0,2.7,-1.3,0,0,1024,1024,1024,1024,0,0,0,0,0,0,0,65,3.683,3.684,0,0,0,0,4.842,70.88,758.94090387928,37.72966,6,P-GPS,,11.5
216300,2026-01-06 16:41:41,,,758.94090387928,39.37008,0.0,16.0443574688,12.7318245544,15,5,7.367,758.94090387928,37.72966,0.223694,16.2326448764,0.0,0.0,0.0,22.0,3.0,-1.5,0,0,1024,1024,1024,1024,0,0,0,0,0,0,0,65,3.683,3.684,0,0,0,0,4.842,70.88,758.94090387928,37.72966,6,P-GPS,,11.5
216400,2026-01-06 16:41:42,,,758.94090387928,39.37008,0.0,16.0207354208,12.7642392536,15,5,7.367,758.94090387928,37.72966,0.223694,16.2326448764,0.0,0.0,0.0,21.9,3.1,-1.6,0,0,1024,1024,1024,1024,0,0,0,0,0,0,0,65,3.683,3.684,0,0,0,0,4.842,70.88,758.94090387928,37.72966,6,P-GPS,,11.5
216500,2026-01-06 16:41:42,,,758.94090387928,39.37008,0.0,16.0002301708,12.7932090708,15,5,7.367,758.94090387928,37.72966,0.223694,16.2326448764,0.0,0.0,0.0,21.9,3.2,-1.6,0,0,1024,1024,1024,1024,0,0,0,0,0,0,0,65,3.683,3.684,0,0,0,0,4.842,70.88,758.94090387928,37.72966,6,P-GPS,,11.5
216600,2026-01-06 16:41:42,,,758.94090387928,39.37008,0.0,15.961450642,12.8320542164,15,5,7.367,758.94090387928,37.72966,0.223694,16.2326448764,0.0,0.0,0.0,21.9,3.4,-2.0,0,0,1024,1024,1024,1024,0,0,0,0,0,0,0,65,3.683,3.684,0,0,0,0,4.842,70.88,758.94090387928,37.72966,6,P-GPS,,11.5
216700,2026-01-06 16:41:42,,,758.94090387928,39.37008,0.0,15.952100248,12.8473757392,15,5,7.367,758.94090387928,37.72966,0.223694,16.2326448764,0.0,0.0,0.0,21.9,3.0,-2.2,0,0,1024,1024,1024,1024,0,0,0,0,0,0,0,65,3.683,3.684,0,0,0,0,4.842,70.88,758.94090387928,37.72966,6,P-GPS,,11.5
216800,2026-01-06 16:41:42,,,758.94090387928,39.37008,0.0,15.9467524788,12.8539374192,15,5,7.367,758.94090387928,37.72966,0.223694,16.2326448764,0.0,0.0,0.0,21.9,2.8,-2.2,0,0,1024,1024,1024,1024,0,0,0,0,0,0,0,65,3.683,3.684,0,0,0,0,4.842,70.88,758.94090387928,37.72966,6,P-GPS,,11.5
216900,2026-01-06 16:41:42,,,758.94090387928,39.37008,0.0,15.9411750508,12.8603022488,15,5,7.367,758.94090387928,37.72966,0.223694,16.2326448764,0.0,0.0,0.0,21.8,3.1,-2.2,0,0,1024,1024,1024,1024,0,0,0,0,0,0,0,65,3.683,3.684,0,0,0,0,4.842,70.88,758.94090387928,37.72966,6,P-GPS,,11.5
217000,2026-01-06 16:41:42,,,758.94090387928,39.37008,0.0,15.9293640268,12.912894114,15,5,7.367,758.94090387928,37.72966,0.223694,16.2326448764,0.0,0.0,0.0,21.9,3.1,-2.5,0,0,1024,1024,1024,1024,0,0,0,0,0,0,0,65,3.683,3.684,0,0,0,0,4.842,70.88,758.94090387928,37.72966,6,P-GPS,,11.5
217100,2026-01-06 16:41:42,,,758.94090387928,39.37008,0.0,15.9243443416,12.9206697048,15,5,7.361,758.94090387928,37.72966,0.223694,16.2326448764,0.0,0.0,0.0,21.9,3.1,-2.5,0,0,1024,1024,1024,1024,0,0,0,0,0,0,0,65,3.679,3.678,0,0,0,0,4.853,70.88,758.94090387928,37.72966,6,P-GPS,,11.5
217200,2026-01-06 16:41:42,,,758.94090387928,39.37008,0.0,15.9321855492,12.9285109124,15,5,7.361,758.94090387928,37.72966,0.223694,16.2326448764,0.0,0.0,0.0,21.9,3.0,-2.5,0,0,1024,1024,1024,1024,0,0,0,0,0,0,0,65,3.679,3.678,0,0,0,0,4.853,70.88,758.94090387928,37.72966,6,P-GPS,,11.5
217300,2026-01-06 16:41:42,,,758.94090387928,39.37008,0.0,15.9379270192,12.9343508076,15,5,7.361,758.94090387928,37.72966,0.223694,16.2326448764,0.0,0.0,0.0,22.0,3.2,-2.5,0,0,1024,1024,1024,1024,0,0,0,0,0,0,0,65,3.679,3.678,0,0,0,0,4.853,70.88,758.94090387928,37.72966,6,P-GPS,,11.5
217400,2026-01-06 16:41:43,,,758.94090387928,39.37008,0.0,15.9213915856,12.9517392596,15,5,7.361,758.94090387928,37.72966,0.223694,16.2326448764,0.0,0.0,0.0,22.0,3.2,-2.5,0,0,1024,1024,1024,1024,0,0,0,0,0,0,0,65,3.679,3.678,0,0,0,0,4.853,70.88,758.94090387928,37.72966,6,P-GPS,,11.5
217500,2026-01-06 16:41:43,,,758.94090387928,39.37008,0.0,15.902723606,12.9707025148,15,5,7.361,758.94090387928,37.72966,0.223694,16.2326448764,0.0,0.0,0.0,22.0,3.5,-2.5,0,0,1024,1024,1024,1024,0,0,0,0,0,0,0,65,3.679,3.678,0,0,0,0,4.853,70.88,758.94090387928,37.72966,6,P-GPS,,11.5
217600,2026-01-06 16:41:43,,,759.26898787928,39.37008,0.0,15.8603023448,13.0131565844,15,5,7.361,759.26898787928,38.057744,0.223694,16.2326448764,0.0,0.0,0.0,22.0,3.5,-2.4,0,0,1024,1024,1024,1024,0,0,0,0,0,0,0,65,3.679,3.678,0,0,0,0,4.853,70.88,759.26898787928,38.057744,6,P-GPS,,11.6
