time(millisecond),timestamp,height_above_ground_at_drone_location(feet),ground_elevation_at_drone_location(feet),altitude_above_seaLevel(feet),height_sonar(feet),speed(mph),distance(feet),mileage(feet),satellites,gpslevel,voltage(v),max_altitude(feet),max_ascent(feet),max_speed(mph),max_distance(feet), xSpeed(mph), ySpeed(mph), zSpeed(mph), compass_heading(degrees), pitch(degrees), roll(degrees),isPhoto,isVideo,rc_elevator,rc_aileron,rc_throttle,rc_rudder,rc_elevator(percent),rc_aileron(percent),rc_throttle(percent),rc_rudder(percent),gimbal_heading(degrees),gimbal_pitch(degrees),gimbal_roll(degrees),battery_percent,voltageCell1,voltageCell2,voltageCell3,voltageCell4,voltageCell5,voltageCell6,current(A),battery_temperature(f),altitude(feet),ascent(feet),flycStateRaw,flycState,message,height_above_takeoff(meters)
464800,2026-01-07 15:41:38,Available with any HD 360 subscription,Available with any HD 360 subscription,720.56905291385,0.328084,0.0,0.0,0.0,16,5,0.0,720.56905291385,0.0,0.0,0.0,0.0,0.0,0.0,7.3,2.7,0.6,0,0,1024,1024,1024,1024,0,0,0,0,0,0,0,48,3.714,3.71,0,0,0,0,0.0,75.38,720.56905291385,0.0,41,Motors_Started,SD card speed low SD card speed low. Normal use may be affected. Replace SD card (Code: 10028). Gimbal stuck. Make sure gimbal cover is removed and manually check whether gimbal can rotate freely (Code: 40002),0.0
464900,2026-01-07 15:41:38,,,720.56905291385,0.328084,0.0,0.0095981630368,0.0095981630368,16,5,0.0,720.56905291385,0.0,0.0,0.0095981630368,0.0,0.0,0.0,7.3,2.7,0.6,0,0,1024,1024,1024,1024,0,0,0,0,0,0,0,48,3.714,3.71,0,0,0,0,0.0,75.38,720.56905291385,0.0,41,Motors_Started,,0.0
465000,2026-01-07 15:41:38,,,720.56905291385,0.328084,0.0,0.0187955058508,0.0205153221788,16,5,7.424,720.56905291385,0.0,0.0,0.0187955058508,0.0,0.0,0.0,7.3,2.7,0.6,0,0,1024,1024,1024,1024,0,0,0,0,0,0,0,48,3.714,3.71,0,0,0,0,0.685,75.38,720.56905291385,0.0,41,Motors_Started,Setting new Return-To-Home altitude to 500m (1640 ft). Data Recorder File Index is 27. Setting new Maximum Flight Altitude to 500m (1640 ft),0.0
465100,2026-01-07 15:41:39,,,720.56905291385,0.328084,0.0,2.59725073928,0.044154857056,16,5,7.424,720.56905291385,0.0,0.0,2.59725073928,0.0,0.0,0.0,7.3,2.7,0.6,0,0,1024,1024,1024,1024,0,0,0,0,0,0,0,48,3.714,3.71,0,0,0,0,0.685,75.38,720.56905291385,0.0,41,Motors_Started,,0.0
465200,2026-01-07 15:41:39,,,720.56905291385,0.328084,0.0,2.5861877468,0.059717193512,16,5,7.424,720.56905291385,0.0,0.0,2.59725073928,0.0,0.0,0.0,7.3,2.6,0.6,0,0,1024,1024,1024,1024,0,0,0,0,0,0,0,48,3.714,3.71,0,0,0,0,0.685,75.38,720.56905291385,0.0,41,Motors_Started,,0.0
465300,2026-01-07 15:41:39,,,720.56905291385,0.328084,0.0,2.58124352092,0.068072836824,16,5,7.424,720.56905291385,0.0,0.0,2.59725073928,0.0,0.0,0.0,7.4,2.7,0.6,0,0,1024,1024,1024,1024,0,0,0,0,0,0,0,48,3.714,3.71,0,0,0,0,0.685,75.38,720.56905291385,0.0,41,Motors_Started,,0.0
465400,2026-01-07 15:41:39,,,720.56905291385,0.328084,0.0,2.58191281228,0.0714977057,16,5,7.424,720.56905291385,0.0,0.0,2.59725073928,0.0,0.0,0.0,7.4,2.6,0.6,0,0,1024,1024,1024,1024,0,0,0,0,0,0,0,48,3.714,3.71,0,0,0,0,0.685,75.38,720.56905291385,0.0,41,Motors_Started,,0.0
465500,2026-01-07 15:41:39,,,720.56905291385,0.328084,0.0,2.59268709084,0.097449806268,16,5,7.424,720.56905291385,0.0,0.0,2.59725073928,0.0,0.0,0.0,7.4,2.6,0.6,0,0,1024,1024,1024,1024,0,0,0,0,0,0,0,48,3.714,3.71,0,0,0,0,0.685,75.38,720.56905291385,0.0,41,Motors_Started,,0.0
465600,2026-01-07 15:41:39,,,720.56905291385,0.328084,0.0,2.58522974152,0.109851709552,16,5,7.424,720.56905291385,0.0,0.0,2.59725073928,0.0,0.0,0.0,7.4,2.6,0.6,0,0,1024,1024,1024,1024,0,0,0,0,0,0,0,48,3.714,3.71,0,0,0,0,0.685,75.38,720.56905291385,0.0,41,Motors_Started,,0.0
465700,2026-01-07 15:41:39,,,720.56905291385,0.328084,0.0,2.57659457064,0.124551185088,16,5,7.424,720.56905291385,0.0,0.0,2.59725073928,0.0,0.0,0.0,7.4,2.6,0.6,0,0,1024,1024,1024,1024,0,0,0,0,0,0,0,48,3.714,3.71,0,0,0,0,0.685,75.38,720.56905291385,0.0,41,Motors_Started,,0.0
465800,2026-01-07 15:41:39,,,720.56905291385,0.328084,0.0,2.56610572516,0.142053482236,16,5,7.424,720.56905291385,0.0,0.0,2.59725073928,0.0,0.0,0.0,7.4,2.6,0.6,0,0,1024,1024,1024,1024,0,0,0,0,0,0,0,48,3.714,3.71,0,0,0,0,0.685,75.38,720.56905291385,0.0,41,Motors_Started,,0.0
465900,2026-01-07 15:41:39,,,720.56905291385,0.328084,0.0,2.56116806096,0.152575792284,16,5,7.424,720.56905291385,0.0,0.0,2.59725073928,0.0,0.0,0.0,7.3,2.6,0.6,0,0,1024,1024,1024,1024,0,0,0,0,0,0,0,48,3.714,3.71,0,0,0,0,0.685,75.38,720.56905291385,0.0,11,AutoTakeoff,,0.0
466000,2026-01-07 15:41:40,,,720.56905291385,0.328084,0.0,2.564304544,0.174959323184,16,5,7.424,720.56905291385,0.0,0.0,2.59725073928,0.0,0.0,0.0,7.3,2.7,0.6,0,0,1024,1024,1024,1024,0,0,0,0,0,0,0,48,3.714,3.71,0,0,0,0,0.685,75.38,720.56905291385,0.0,11,AutoTakeoff,,0.0
466100,2026-01-07 15:41:40,,,720.56905291385,0.328084,0.0,2.55413065916,0.185133864192,16,5,7.396,720.56905291385,0.0,0.0,2.59725073928,0.0,0.0,0.0,7.3,2.7,0.6,0,0,1024,1024,1024,1024,0,0,0,0,0,0,0,48,3.697,3.698,0,0,0,0,1.54,75.2,720.56905291385,0.0,11,AutoTakeoff,SD card speed low. Normal use may be affected. Replace SD card (Code: 10028),0.0
466200,2026-01-07 15:41:40,,,720.56905291385,0.328084,0.0,2.53386162964,0.206060045964,16,5,7.396,720.56905291385,0.0,0.0,2.59725073928,0.0,0.0,0.0,7.3,2.7,0.6,0,0,1024,1024,1024,1024,0,0,0,0,0,0,0,48,3.697,3.698,0,0,0,0,1.54,75.2,720.56905291385,0.0,11,AutoTakeoff,,0.0
466300,2026-01-07 15:41:40,,,720.56905291385,0.328084,0.0,2.51645677344,0.226848104372,16,5,7.396,720.56905291385,0.0,0.0,2.59725073928,0.0,0.0,0.0,7.2,2.7,0.6,0,0,1024,1024,1024,1024,0,0,0,0,0,0,0,48,3.697,3.698,0,0,0,0,1.54,75.2,720.56905291385,0.0,11,AutoTakeoff,,0.0
466400,2026-01-07 15:41:40,,,720.56905291385,0.328084,0.0,2.47353354372,0.303024287912,16,5,7.396,720.56905291385,0.0,0.0,2.59725073928,0.0,0.0,0.0,7.1,2.7,0.6,0,0,1024,1024,1024,1024,0,0,0,0,0,0,0,48,3.697,3.698,0,0,0,0,1.54,75.2,720.56905291385,0.0,11,AutoTakeoff,,0.0
466500,2026-01-07 15:41:40,,,720.56905291385,0.328084,0.0,2.46651254612,0.310058736956,16,5,7.396,720.56905291385,0.0,0.0,2.59725073928,0.0,0.0,0.0,7.2,2.6,0.6,0,0,1024,1024,1024,1024,0,0,0,0,0,0,0,48,3.697,3.698,0,0,0,0,1.54,75.2,720.56905291385,0.0,11,AutoTakeoff,,0.0
466600,2026-01-07 15:41:40,,,720.56905291385,0.328084,0.0,2.46329732292,0.326267070808,16,5,7.396,720.56905291385,0.0,0.0,2.59725073928,0.0,0.0,0.0,7.2,0.5,0.7,0,0,1024,1024,1024,1024,0,0,0,0,0,0,0,48,3.697,3.698,0,0,0,0,1.54,75.2,720.56905291385,0.0,11,AutoTakeoff,,0.0
466700,2026-01-07 15:41:40,,,720.56905291385,0.328084,0.0,2.4468012594,0.34277888236,16,5,7.396,720.56905291385,0.0,0.0,2.59725073928,0.0,0.0,-0.223694,7.6,-0.3,1.1,0,0,1024,1024,1024,1024,0,0,0,0,0,0,0,48,3.697,3.698,0,0,0,0,1.54,75.2,720.56905291385,0.0,11,AutoTakeoff,,0.0
466800,2026-01-07 15:41:40,,,720.56905291385,0.328084,0.0,2.41824810888,0.3728510618,16,5,7.396,720.56905291385,0.0,0.0,2.59725073928,0.0,0.0,-0.447388,7.7,0.3,0.9,0,0,1024,1024,1024,1024,0,0,0,0,0,0,0,48,3.697,3.698,0,0,0,0,1.54,75.2,720.56905291385,0.0,11,AutoTakeoff,,0.0
466900,2026-01-07 15:41:40,,,720.56905291385,0.328084,0.0,2.38829732052,0.41629922592,16,5,7.396,720.56905291385,0.0,0.0,2.59725073928,0.0,0.0,-0.671082,7.6,1.6,-0.5,0,0,1024,1024,1024,1024,0,0,0,0,0,0,0,48,3.697,3.698,0,0,0,0,1.54,75.2,720.56905291385,0.0,11,AutoTakeoff,,0.0
467000,2026-01-07 15:41:41,,,720.89713691385,0.656168,0.223694,2.35500991788,0.47098426704,16,5,7.396,720.89713691385,0.328084,0.223694,2.59725073928,0.223694,0.0,-0.894776,7.8,2.1,-0.1,0,0,1024,1024,1024,1024,0,0,0,0,0,0,0,48,3.697,3.698,0,0,0,0,1.54,75.2,720.89713691385,0.328084,11,AutoTakeoff,Home Point updated. RTH altitude adjusted to 500 m (Code: 120852),0.1
467100,2026-01-07 15:41:41,,,720.89713691385,0.656168,0.223694,2.3081693652,0.5352198334,16,5,7.396,720.89713691385,0.328084,0.223694,2.59725073928,0.223694,0.0,-1.11847,7.9,2.0,0.4,0,0,1024,1024,1024,1024,0,0,0,0,0,0,0,48,3.697,3.698,0,0,0,0,1.54,75.2,720.89713691385,0.328084,11,AutoTakeoff,,0.1
467200,2026-01-07 15:41:41,,,721.22522091385,0.984252,0.223694,2.21412736744,0.68253283024,16,5,7.205,721.22522091385,0.656168,0.223694,2.59725073928,0.223694,0.0,-1.342164,7.9,2.4,0.6,0,0,1024,1024,1024,1024,0,0,0,0,0,0,0,48,3.582,3.574,0,0,0,0,4.308,75.2,721.22522091385,0.656168,11,AutoTakeoff,,0.2
467300,2026-01-07 15:41:41,,,721.22522091385,0.984252,0.223694,2.14375991112,0.77861551048,16,5,7.205,721.22522091385,0.656168,0.223694,2.59725073928,0.223694,0.0,-1.789552,7.9,2.3,0.8,0,0,1024,1024,1024,1024,0,0,0,0,0,0,0,48,3.582,3.574,0,0,0,0,4.308,75.2,721.22522091385,0.656168,11,AutoTakeoff,,0.2
467400,2026-01-07 15:41:41,,,721.55330491385,1.312336,0.447388,2.05948825488,0.89925855896,16,5,7.205,721.55330491385,0.984252,0.447388,2.59725073928,0.447388,0.0,-2.013246,7.9,3.0,1.1,0,0,1024,1024,1277,1024,0,0,38,0,0,0,0,48,3.582,3.574,0,0,0,0,4.308,75.2,721.55330491385,0.984252,11,AutoTakeoff,,0.3
467500,2026-01-07 15:41:41,,,721.88138891385,1.64042,0.447388,1.9845965202,1.0093668302,16,5,7.205,721.88138891385,1.312336,0.447388,2.59725073928,0.447388,0.0,-2.013246,7.8,4.3,1.3,0,0,1024,1024,1684,1024,0,0,100,0,0,0,0,48,3.582,3.574,0,0,0,0,4.308,75.2,721.88138891385,1.312336,11,AutoTakeoff,,0.4
467600,2026-01-07 15:41:41,,,722.20947291385,1.968504,0.447388,1.91447840772,1.1130413742,16,5,7.205,722.20947291385,1.64042,0.447388,2.59725073928,0.447388,0.0,-2.23694,7.9,5.0,1.8,0,0,1024,1024,1684,1024,0,0,100,0,0,0,0,48,3.582,3.574,0,0,0,0,4.308,75.2,722.20947291385,1.64042,11,AutoTakeoff,,0.5
467700,2026-01-07 15:41:41,,,722.53755691385,2.296588,0.447388,1.84021331348,1.2495735308,16,5,7.205,722.53755691385,1.968504,0.447388,2.59725073928,0.447388,0.0,-2.23694,7.8,6.0,1.9,0,0,1024,1024,1684,1024,0,0,100,0,0,0,0,48,3.582,3.574,0,0,0,0,4.308,75.2,722.53755691385,1.968504,11,AutoTakeoff,,0.6
467800,2026-01-07 15:41:41,,,723.19372491385,2.624672,0.447388,1.85756567624,1.29425200992,16,5,7.205,723.19372491385,2.624672,0.447388,2.59725073928,0.447388,0.0,-2.23694,7.8,5.7,1.7,0,0,1024,1024,1684,1024,0,0,100,0,0,0,0,48,3.582,3.574,0,0,0,0,4.308,75.2,723.19372491385,2.624672,11,AutoTakeoff,,0.8
467900,2026-01-07 15:41:41,,,723.52180891385,2.952756,0.447388,1.86071528264,1.31851382172,16,5,7.205,723.52180891385,2.952756,0.447388,2.59725073928,0.223694,0.0,-2.684328,7.8,6.0,1.7,0,0,1024,1024,1684,1024,0,0,100,0,0,0,0,48,3.582,3.574,0,0,0,0,4.308,75.2,723.52180891385,2.952756,6,P-GPS,,0.9
468000,2026-01-07 15:41:42,,,724.17797691385,3.28084,0.223694,1.8402067518,1.34137799568,16,5,7.205,724.17797691385,3.608924,0.447388,2.59725073928,0.223694,0.0,-3.131716,7.8,6.9,1.5,0,0,1024,1024,1684,1024,0,0,100,0,0,0,0,48,3.582,3.574,0,0,0,0,4.308,75.2,724.17797691385,3.608924,6,P-GPS,,1.1
468100,2026-01-07 15:41:42,,,724.50606091385,3.937008,0.223694,1.92356633452,1.4981463734,16,5,7.205,724.50606091385,3.937008,0.447388,2.59725073928,0.223694,0.0,-3.579104,8.1,7.4,2.7,0,0,1024,1024,1684,1024,0,0,100,0,0,0,0,48,3.582,3.574,0,0,0,0,4.308,75.2,724.50606091385,3.937008,6,P-GPS,,1.2
468200,2026-01-07 15:41:42,,,725.16222891385,4.593176,0.0,1.91864507452,1.50665687236,16,5,7.205,725.16222891385,4.593176,0.447388,2.59725073928,0.0,0.0,-4.026492,8.2,6.3,3.0,0,0,1024,1024,1684,1024,0,0,100,0,0,0,0,48,3.582,3.574,0,0,0,0,4.308,75.2,725.16222891385,4.593176,6,P-GPS,,1.4
468300,2026-01-07 15:41:42,,,726.14648091385,4.92126,0.0,1.91045609788,1.51567262068,16,5,7.084,726.14648091385,5.577428,0.447388,2.59725073928,0.0,0.0,-4.250186,8.0,5.3,2.7,0,0,1024,1024,1684,1024,0,0,100,0,0,0,0,48,3.545,3.538,0,0,0,0,7.033,75.2,726.14648091385,5.577428,6,P-GPS,,1.7
468400,2026-01-07 15:41:42,,,726.80264891385,5.577428,0.0,1.89819231796,1.5297572668,16,5,7.084,726.80264891385,6.233596,0.447388,2.59725073928,0.0,0.0,-4.250186,8.0,4.6,1.7,0,0,1024,1024,1684,1024,0,0,100,0,0,0,0,48,3.545,3.538,0,0,0,0,7.033,75.2,726.80264891385,6.233596,6,P-GPS,,1.9
468500,2026-01-07 15:41:42,,,727.45881691385,6.233596,0.0,1.86613523032,1.5788386332,16,5,7.084,727.45881691385,6.889764,0.447388,2.59725073928,0.0,0.0,-4.250186,8.0,6.0,1.3,0,0,1024,1024,1684,1024,0,0,100,0,0,0,0,48,3.545,3.538,0,0,0,0,7.033,75.2,727.45881691385,6.889764,6,P-GPS,,2.1
468600,2026-01-07 15:41:42,,,728.11498491385,6.889764,0.0,1.80770675076,1.66973102456,16,5,7.084,728.11498491385,7.545932,0.447388,2.59725073928,0.0,0.0,-4.250186,8.1,6.3,1.1,0,0,1024,1024,1684,1024,0,0,100,0,0,0,0,48,3.545,3.538,0,0,0,0,7.033,75.2,728.11498491385,7.545932,6,P-GPS,,2.3
468700,2026-01-07 15:41:42,,,728.77115291385,7.874016,0.0,1.79057420428,1.70441606504,17,5,7.084,728.77115291385,8.2021,0.447388,2.59725073928,0.0,0.0,-4.250186,8.1,5.8,0.9,0,0,1024,1024,1684,1024,0,0,100,0,0,0,0,48,3.545,3.538,0,0,0,0,7.033,75.2,728.77115291385,8.2021,6,P-GPS,,2.5
468800,2026-01-07 15:41:42,,,729.75540491385,8.2021,0.223694,1.82235570136,1.7398458562,17,5,7.084,729.75540491385,9.186352,0.447388,2.59725073928,0.0,0.223694,-4.250186,8.1,5.1,0.0,0,0,1024,1024,1684,1024,0,0,100,0,0,0,0,48,3.545,3.538,0,0,0,0,7.033,75.2,729.75540491385,9.186352,6,P-GPS,,2.8
468900,2026-01-07 15:41:42,,,730.41157291385,8.858268,0.223694,1.95510833028,1.89697184548,16,5,7.084,730.41157291385,9.84252,0.447388,2.59725073928,0.0,0.223694,-4.47388,8.0,5.6,-0.8,0,0,1024,1024,1684,1024,0,0,100,0,0,0,0,48,3.545,3.538,0,0,0,0,7.033,75.2,730.41157291385,9.84252,6,P-GPS,,3.0
469000,2026-01-07 15:41:43,,,731.06774091385,9.514436,0.223694,2.05056437008,1.99681436836,16,5,7.084,731.06774091385,10.498688,0.447388,2.59725073928,0.0,0.223694,-4.47388,7.9,6.2,-0.8,0,0,1024,1024,1684,1024,0,0,100,0,0,0,0,48,3.545,3.538,0,0,0,0,7.033,75.2,731.06774091385,10.498688,6,P-GPS,,3.2
469100,2026-01-07 15:41:43,,,731.72390891385,10.170604,0.223694,2.14008208948,2.09101384644,17,5,7.084,731.72390891385,11.154856,0.447388,2.59725073928,0.0,0.223694,-4.47388,7.8,6.0,-1.1,0,0,1024,1024,1684,1024,0,0,100,0,0,0,0,48,3.545,3.538,0,0,0,0,7.033,75.2,731.72390891385,11.154856,6,P-GPS,,3.4
469200,2026-01-07 15:41:43,,,732.38007691385,10.826772,0.223694,2.22799875896,2.18480650036,17,5,7.084,732.38007691385,11.811024,0.447388,2.59725073928,0.0,0.223694,-4.47388,7.8,6.2,-1.8,0,0,1024,1024,1684,1024,0,0,100,0,0,0,0,48,3.545,3.538,0,0,0,0,7.033,75.2,732.38007691385,11.811024,6,P-GPS,,3.6
469300,2026-01-07 15:41:43,,,733.03624491385,11.48294,0.223694,2.27346463968,2.23239508456,17,5,7.084,733.03624491385,12.467192,0.447388,2.59725073928,0.0,0.223694,-4.47388,7.7,6.3,-1.4,0,0,1024,1024,1684,1024,0,0,100,0,0,0,0,48,3.559,3.551,0,0,0,0,7.033,75.2,733.03624491385,12.467192,6,P-GPS,,3.8
469400,2026-01-07 15:41:43,,,733.69241291385,12.139108,0.223694,2.24038392996,2.27969495484,17,5,7.084,733.69241291385,13.12336,0.447388,2.59725073928,0.0,0.0,-4.47388,7.6,6.7,-1.9,0,0,1024,1024,1684,1024,0,0,100,0,0,0,0,48,3.559,3.551,0,0,0,0,7.033,75.2,733.69241291385,13.12336,6,P-GPS,,4.0
469500,2026-01-07 15:41:43,,,734.34858091385,12.795276,0.0,2.18246069976,2.3381890512,17,5,7.084,734.34858091385,13.779528,0.447388,2.59725073928,0.0,0.0,-4.47388,7.7,6.8,-1.1,0,0,1024,1024,1684,1024,0,0,100,0,0,0,0,48,3.559,3.551,0,0,0,0,7.033,75.2,734.34858091385,13.779528,6,P-GPS,,4.2
469600,2026-01-07 15:41:43,,,735.00474891385,13.451444,0.0,2.060777625,2.46034128608,17,5,7.084,735.00474891385,14.435696,0.447388,2.59725073928,0.0,0.0,-4.47388,7.8,6.0,-1.2,0,0,1024,1024,1684,1024,0,0,100,0,0,0,0,48,3.559,3.551,0,0,0,0,7.033,75.2,735.00474891385,14.435696,6,P-GPS,,4.4
469700,2026-01-07 15:41:43,,,735.98900091385,14.107612,0.0,1.94799218832,2.57364509548,17,5,7.084,735.98900091385,15.419948,0.447388,2.59725073928,0.0,0.0,-4.47388,7.9,6.1,-0.1,0,0,1024,1024,1684,1024,0,0,100,0,0,0,0,48,3.559,3.551,0,0,0,0,7.033,75.2,735.98900091385,15.419948,6,P-GPS,,4.7
469800,2026-01-07 15:41:43,,,736.64516891385,14.76378,0.0,1.61080713816,2.936105737,17,5,7.084,736.64516891385,16.076116,0.447388,2.59725073928,0.0,0.0,-4.47388,7.8,5.8,-1.1,0,0,1024,1024,1684,1024,0,0,100,0,0,0,0,48,3.559,3.551,0,0,0,0,7.033,75.2,736.64516891385,16.076116,6,P-GPS,,4.9
469900,2026-01-07 15:41:43,,,737.30133691385,15.419948,0.0,1.59177826616,2.95730324424,17,5,7.084,737.30133691385,16.732284,0.447388,2.59725073928,0.0,0.0,-4.47388,7.6,5.8,-1.5,0,0,1024,1024,1684,1024,0,0,100,0,0,0,0,48,3.559,3.551,0,0,0,0,7.033,75.2,737.30133691385,16.732284,6,P-GPS,,5.1
470000,2026-01-07 15:41:43,,,737.95750491385,15.748032,0.0,1.64061356956,3.01923566092,17,5,7.084,737.95750491385,17.388452,0.447388,2.59725073928,0.0,0.0,-4.47388,7.5,5.9,-1.8,0,0,1024,1024,1684,1024,0,0,100,0,0,0,0,48,3.559,3.551,0,0,0,0,7.033,75.2,737.95750491385,17.388452,6,P-GPS,,5.3
470100,2026-01-07 15:41:44,,,738.61367291385,16.732284,0.0,1.70087275784,3.09497713316,17,5,7.084,738.61367291385,18.04462,0.447388,2.59725073928,0.0,0.0,-4.47388,7.5,6.0,-1.6,0,0,1024,1024,1684,1024,0,0,100,0,0,0,0,48,3.559,3.551,0,0,0,0,7.033,75.2,738.61367291385,18.04462,6,P-GPS,,5.5
470200,2026-01-07 15:41:44,,,739.26984091385,17.388452,0.0,2.07827106388,3.50065628,17,5,7.084,739.26984091385,18.700788,0.447388,2.59725073928,0.0,0.0,-4.47388,7.6,6.6,-0.9,0,0,1024,1024,1684,1024,0,0,100,0,0,0,0,48,3.559,3.551,0,0,0,0,7.033,75.2,739.26984091385,18.700788,6,P-GPS,,5.7
470300,2026-01-07 15:41:44,,,739.92600891385,18.04462,0.223694,2.10552172092,3.5625657308,17,5,7.084,739.92600891385,19.356956,0.447388,2.59725073928,0.0,-0.223694,-4.47388,7.7,6.8,0.2,0,0,1024,1024,1684,1024,0,0,100,0,0,0,0,48,3.559,3.551,0,0,0,0,7.033,75.2,739.92600891385,19.356956,6,P-GPS,,5.9
470400,2026-01-07 15:41:44,,,740.25409291385,18.700788,0.223694,2.0835138462,3.628773082,17,5,7.084,740.25409291385,19.68504,0.447388,2.59725073928,0.0,-0.223694,-4.250186,7.7,6.3,0.0,0,0,1024,1024,1684,1024,0,0,100,0,0,0,0,48,3.559,3.551,0,0,0,0,7.033,75.2,740.25409291385,19.68504,6,P-GPS,,6.0
470500,2026-01-07 15:41:44,,,740.91026091385,19.68504,0.223694,2.06613195588,3.6862533988,17,5,7.141,740.91026091385,20.341208,0.447388,2.59725073928,0.0,-0.223694,-4.47388,7.7,6.2,0.6,0,0,1024,1024,1684,1024,0,0,100,0,0,0,0,47,3.572,3.569,0,0,0,0,6.098,75.2,740.91026091385,20.341208,6,P-GPS,,6.2
470600,2026-01-07 15:41:44,,,741.56642891385,20.341208,0.223694,2.0572343178,3.748851826,17,5,7.141,741.56642891385,20.997376,0.447388,2.59725073928,0.0,-0.223694,-4.47388,7.6,6.5,1.1,0,0,1024,1024,1684,1024,0,0,100,0,0,0,0,47,3.572,3.569,0,0,0,0,6.098,75.2,741.56642891385,20.997376,6,P-GPS,,6.4
470700,2026-01-07 15:41:44,,,742.22259691385,21.32546,0.223694,2.03889770304,3.7889436908,17,5,7.141,742.22259691385,21.653544,0.447388,2.59725073928,0.0,-0.223694,-4.47388,7.6,5.8,1.0,0,0,1024,1024,1684,1024,0,0,100,0,0,0,0,47,3.572,3.569,0,0,0,0,6.098,75.2,742.22259691385,21.653544,6,P-GPS,,6.6
470800,2026-01-07 15:41:44,,,743.20684891385,21.981628,0.223694,2.0034777544,3.8304463168,16,5,7.141,743.20684891385,22.637796,0.447388,2.59725073928,0.0,-0.223694,-4.47388,7.7,5.9,1.7,0,0,1024,1024,1684,1024,0,0,100,0,0,0,0,47,3.572,3.569,0,0,0,0,6.098,75.2,743.20684891385,22.637796,6,P-GPS,,6.9
470900,2026-01-07 15:41:44,,,743.86301691385,22.96588,0.223694,1.93778877592,3.8970145604,16,5,7.141,743.86301691385,23.293964,0.447388,2.59725073928,0.0,-0.223694,-4.697574,7.7,7.6,2.7,0,0,1024,1024,1684,1024,0,0,100,0,0,0,0,47,3.572,3.569,0,0,0,0,6.098,75.2,743.86301691385,23.293964,6,P-GPS,,7.1
471000,2026-01-07 15:41:45,,,744.51918491385,23.622048,0.0,1.8482940224,3.9868111512,16,5,7.141,744.51918491385,23.950132,0.447388,2.59725073928,0.0,0.0,-4.47388,7.9,8.4,2.4,0,0,1024,1024,1684,1024,0,0,100,0,0,0,0,47,3.572,3.569,0,0,0,0,6.098,75.2,744.51918491385,23.950132,6,P-GPS,,7.3
471100,2026-01-07 15:41:45,,,745.17535291385,24.278216,0.0,1.62763456652,4.2109253316,17,5,7.141,745.17535291385,24.6063,0.447388,2.59725073928,0.0,0.0,-4.47388,8.0,8.2,2.8,0,0,1024,1024,1684,1024,0,0,100,0,0,0,0,47,3.572,3.569,0,0,0,0,6.098,75.2,745.17535291385,24.6063,6,P-GPS,,7.5
471200,2026-01-07 15:41:45,,,745.83152091385,24.6063,0.0,1.60650595692,4.233759978,17,5,7.141,745.83152091385,25.262468,0.447388,2.59725073928,0.0,0.0,-4.47388,7.8,8.2,2.3,0,0,1024,1024,1684,1024,0,0,100,0,0,0,0,47,3.572,3.569,0,0,0,0,6.098,75.2,745.83152091385,25.262468,6,P-GPS,,7.7
471300,2026-01-07 15:41:45,,,746.48768891385,28.871392,0.0,1.59687997236,4.2450460676,17,5,7.141,746.48768891385,25.918636,0.447388,2.59725073928,0.0,0.0,-4.47388,7.8,8.1,2.1,0,0,1024,1024,1684,1024,0,0,100,0,0,0,0,47,3.572,3.569,0,0,0,0,6.098,75.2,746.48768891385,25.918636,6,P-GPS,,7.9
471400,2026-01-07 15:41:45,,,747.14385691385,29.855644,0.0,1.5947014946,4.24786759,17,5,7.141,747.14385691385,26.574804,0.447388,2.59725073928,0.0,0.0,-4.47388,7.7,8.2,1.7,0,0,1024,1024,1684,1024,0,0,100,0,0,0,0,47,3.572,3.569,0,0,0,0,6.098,75.2,747.14385691385,26.574804,6,P-GPS,,8.1
471500,2026-01-07 15:41:45,,,747.47194091385,30.511812,0.0,1.59694230832,4.2660106352,17,5,7.141,747.47194091385,26.902888,0.447388,2.59725073928,0.0,0.0,-4.47388,7.7,8.8,1.5,0,0,1024,1024,1684,1024,0,0,100,0,0,0,0,47,3.572,3.569,0,0,0,0,6.098,75.2,747.47194091385,26.902888,6,P-GPS,,8.2
471600,2026-01-07 15:41:45,,,748.12810891385,31.16798,0.0,1.62935700752,4.2985237596,17,5,7.126,748.12810891385,27.559056,0.447388,2.59725073928,0.0,0.0,-4.250186,7.7,9.2,1.1,0,0,1024,1024,1684,1024,0,0,100,0,0,0,0,47,3.566,3.561,0,0,0,0,6.272,75.2,748.12810891385,27.559056,6,P-GPS,,8.4
471700,2026-01-07 15:41:45,,,748.78427691385,32.152232,0.0,1.64632223116,4.3155513192,17,5,7.126,748.78427691385,28.215224,0.447388,2.59725073928,0.0,0.0,-4.250186,7.9,9.3,1.6,0,0,1024,1024,1684,1024,0,0,100,0,0,0,0,47,3.566,3.561,0,0,0,0,6.272,75.2,748.78427691385,28.215224,6,P-GPS,,8.6
471800,2026-01-07 15:41:45,,,749.44044491385,32.8084,0.0,1.64462603688,4.3202429204,17,5,7.126,749.44044491385,28.871392,0.447388,2.59725073928,0.0,0.0,-4.250186,7.9,8.9,2.1,0,0,1024,1024,1684,1024,0,0,100,0,0,0,0,47,3.566,3.561,0,0,0,0,6.272,75.2,749.44044491385,28.871392,6,P-GPS,,8.8
471900,2026-01-07 15:41:45,,,750.09661291385,33.464568,0.0,1.62573167932,4.3395342596,17,5,7.126,750.09661291385,29.52756,0.447388,2.59725073928,0.0,0.0,-4.250186,7.9,8.3,2.5,0,0,1024,1024,1684,1024,0,0,100,0,0,0,0,47,3.566,3.561,0,0,0,0,6.272,75.2,750.09661291385,29.52756,6,P-GPS,,9.0
472000,2026-01-07 15:41:45,,,750.75278091385,34.120736,0.0,1.58887144192,4.3772639196,17,5,7.126,750.75278091385,30.183728,0.447388,2.59725073928,0.0,0.0,-4.47388,7.9,8.7,1.8,0,0,1024,1024,1684,1024,0,0,100,0,0,0,0,47,3.566,3.561,0,0,0,0,6.272,75.2,750.75278091385,30.183728,6,P-GPS,,9.2
472100,2026-01-07 15:41:46,,,751.40894891385,34.776904,0.0,1.57336947292,4.3952429228,17,5,7.126,751.40894891385,30.839896,0.447388,2.59725073928,0.0,0.0,-4.47388,7.8,9.4,1.2,0,0,1024,1024,1684,1024,0,0,100,0,0,0,0,47,3.566,3.561,0,0,0,0,6.272,75.2,751.40894891385,30.839896,6,P-GPS,,9.4
472200,2026-01-07 15:41:46,,,751.73703291385,35.433072,0.0,1.58281173044,4.4048229756,17,5,7.126,751.73703291385,31.16798,0.447388,2.59725073928,0.0,0.0,-4.250186,7.6,8.3,0.8,0,0,1024,1024,1684,1024,0,0,100,0,0,0,0,47,3.566,3.561,0,0,0,0,6.272,75.2,751.73703291385,31.16798,6,P-GPS,,9.5
472300,2026-01-07 15:41:46,,,752.39320091385,36.08924,0.0,1.44832025632,4.540026392,17,5,7.126,752.39320091385,31.824148,0.447388,2.59725073928,0.0,0.0,-4.47388,7.5,6.6,0.9,0,0,1024,1024,1684,1024,0,0,100,0,0,0,0,47,3.566,3.561,0,0,0,0,6.272,75.2,752.39320091385,31.824148,6,P-GPS,,9.7
472400,2026-01-07 15:41:46,,,753.04936891385,36.745408,0.0,1.43888456048,4.5759187816,17,5,7.126,753.04936891385,32.480316,0.447388,2.59725073928,0.0,0.0,-4.47388,7.5,6.6,1.2,0,0,1024,1024,1684,1024,0,0,100,0,0,0,0,47,3.566,3.561,0,0,0,0,6.272,75.2,753.04936891385,32.480316,6,P-GPS,,9.9
472500,2026-01-07 15:41:46,,,753.70553691385,37.401576,0.223694,1.44836290724,4.6220802004,17,5,7.126,753.70553691385,33.136484,0.447388,2.59725073928,-0.223694,0.0,-4.47388,7.5,6.0,1.2,0,0,1024,1024,1684,1024,0,0,100,0,0,0,0,47,3.566,3.561,0,0,0,0,6.272,75.2,753.70553691385,33.136484,6,P-GPS,,10.1
472600,2026-01-07 15:41:46,,,754.03362091385,38.057744,0.0,1.48185372196,4.6875657668,17,5,7.126,754.03362091385,33.464568,0.447388,2.59725073928,0.0,0.0,-4.47388,7.7,6.9,1.1,0,0,1024,1024,1684,1024,0,0,100,0,0,0,0,47,3.566,3.561,0,0,0,0,6.272,75.2,754.03362091385,33.464568,6,P-GPS,,10.2
472700,2026-01-07 15:41:46,,,754.68978891385,38.713912,0.0,1.50824151808,4.7385828288,17,5,7.13,754.68978891385,34.120736,0.447388,2.59725073928,0.0,0.0,-4.47388,7.7,7.6,1.2,0,0,1024,1024,1024,1024,0,0,0,0,0,0,0,47,3.567,3.563,0,0,0,0,6.372,75.2,754.68978891385,34.120736,6,P-GPS,,10.4
472800,2026-01-07 15:41:46,,,755.34595691385,39.37008,0.0,1.53655516728,4.8488518612,17,5,7.13,755.34595691385,34.776904,0.447388,2.59725073928,0.0,0.0,-4.47388,7.8,8.2,1.4,0,0,1024,1024,1024,1024,0,0,0,0,0,0,0,47,3.567,3.563,0,0,0,0,6.372,75.2,755.34595691385,34.776904,6,P-GPS,,10.6
472900,2026-01-07 15:41:46,,,755.67404091385,40.026248,0.0,1.57247708444,4.8962928076,17,5,7.13,755.67404091385,35.104988,0.447388,2.59725073928,0.0,0.0,-4.250186,7.8,7.7,1.2,0,0,1024,1024,1024,1024,0,0,0,0,0,0,0,47,3.567,3.563,0,0,0,0,6.372,75.2,755.67404091385,35.104988,6,P-GPS,,10.7
473000,2026-01-07 15:41:46,,,756.33020891385,40.354332,0.0,1.62599414652,4.956364988,17,5,7.13,756.33020891385,35.761156,0.447388,2.59725073928,0.0,0.0,-3.579104,7.7,7.4,0.9,0,0,1024,1024,1024,1024,0,0,0,0,0,0,0,47,3.567,3.563,0,0,0,0,6.372,75.2,756.33020891385,35.761156,6,P-GPS,,10.9
473100,2026-01-07 15:41:47,,,756.65829291385,40.354332,0.223694,1.672982337,5.0084647272,17,5,7.13,756.65829291385,36.08924,0.447388,2.59725073928,-0.223694,0.0,-2.908022,7.6,6.8,1.1,0,0,1024,1024,1024,1024,0,0,0,0,0,0,0,47,3.567,3.563,0,0,0,0,6.372,75.2,756.65829291385,36.08924,6,P-GPS,,11.0
473200,2026-01-07 15:41:47,,,756.98637691385,40.354332,0.223694,1.74788063336,5.0852035748,17,5,7.13,756.98637691385,36.417324,0.447388,2.59725073928,-0.223694,0.0,-2.23694,7.6,6.3,1.1,0,0,1024,1024,1024,1024,0,0,0,0,0,0,0,47,3.567,3.563,0,0,0,0,6.372,75.2,756.98637691385,36.417324,6,P-GPS,,11.1
473300,2026-01-07 15:41:47,,,756.98637691385,40.354332,0.0,1.77980976824,5.1254594816,17,5,7.13,756.98637691385,36.417324,0.447388,2.59725073928,0.0,0.0,-1.565858,7.6,6.3,1.2,0,0,1024,1024,1024,1024,0,0,0,0,0,0,0,47,3.567,3.563,0,0,0,0,6.372,75.2,756.98637691385,36.417324,6,P-GPS,,11.1
473400,2026-01-07 15:41:47,,,756.98637691385,40.354332,0.0,1.8045768294,5.167158958,17,5,7.13,756.98637691385,36.417324,0.447388,2.59725073928,0.0,0.0,-0.671082,7.7,6.3,1.3,0,0,1024,1024,1024,1024,0,0,0,0,0,0,0,47,3.567,3.563,0,0,0,0,6.372,75.2,756.98637691385,36.417324,6,P-GPS,,11.1
473500,2026-01-07 15:41:47,,,756.98637691385,40.354332,0.0,1.81330714464,5.2111550224,17,5,7.13,756.98637691385,36.417324,0.447388,2.59725073928,0.0,0.0,-0.223694,7.7,6.4,1.6,0,0,1024,1024,1024,1024,0,0,0,0,0,0,0,47,3.567,3.563,0,0,0,0,6.372,75.2,756.98637691385,36.417324,6,P-GPS,,11.1
473600,2026-01-07 15:41:47,,,756.98637691385,40.354332,0.0,1.74698496404,5.3253610628,17,5,7.13,756.98637691385,36.417324,0.447388,2.59725073928,0.0,0.0,0.0,7.8,5.9,1.7,0,0,1024,1024,1024,1024,0,0,0,0,0,0,0,47,3.567,3.563,0,0,0,0,6.372,75.2,756.98637691385,36.417324,6,P-GPS,,11.1
473700,2026-01-07 15:41:47,,,756.98637691385,40.354332,0.0,1.73778220784,5.3674214316,17,5,7.13,756.98637691385,36.417324,0.447388,2.59725073928,0.0,0.0,0.0,7.8,6.1,1.2,0,0,1024,1024,1024,1024,0,0,0,0,0,0,0,47,3.567,3.563,0,0,0,0,6.372,75.2,756.98637691385,36.417324,6,P-GPS,,11.1
473800,2026-01-07 15:41:47,,,756.98637691385,40.354332,0.0,1.7154528108,5.4082350812,16,5,7.176,756.98637691385,36.417324,0.447388,2.59725073928,0.0,0.0,0.0,7.8,6.7,1.2,0,0,1024,1024,1024,1024,0,0,0,0,0,0,0,47,3.592,3.584,0,0,0,0,4.545,75.2,756.98637691385,36.417324,6,P-GPS,,11.1
473900,2026-01-07 15:41:47,,,756.98637691385,40.354332,0.0,1.6828084528,5.4503938752,16,5,7.176,756.98637691385,36.417324,0.447388,2.59725073928,0.0,0.0,0.0,7.8,6.7,1.2,0,0,1024,1024,1024,1024,0,0,0,0,0,0,0,47,3.592,3.584,0,0,0,0,4.545,75.2,756.98637691385,36.417324,6,P-GPS,,11.1
474000,2026-01-07 15:41:47,,,756.98637691385,40.354332,0.0,1.50161094044,5.6339568732,16,5,7.176,756.98637691385,36.417324,0.447388,2.59725073928,0.0,0.0,0.0,7.7,7.1,1.2,0,0,1024,1024,1024,1024,0,0,0,0,0,0,0,47,3.592,3.584,0,0,0,0,4.545,75.2,756.98637691385,36.417324,6,P-GPS,,11.1
474100,2026-01-07 15:41:48,,,756.98637691385,40.354332,0.0,1.4589403354,5.6810697356,16,5,7.176,756.98637691385,36.417324,0.447388,2.59725073928,0.0,0.0,0.0,7.7,7.1,0.9,0,0,1024,1024,1024,1024,0,0,0,0,0,0,0,47,3.592,3.584,0,0,0,0,4.545,75.2,756.98637691385,36.417324,6,P-GPS,,11.1
474200,2026-01-07 15:41:48,,,756.65829291385,40.354332,0.0,1.4202592318,5.7261156688,16,5,7.176,756.98637691385,36.417324,0.447388,2.59725073928,0.0,0.0,0.0,7.6,6.1,0.9,0,0,1024,1024,1024,1024,0,0,0,0,0,0,0,47,3.592,3.584,0,0,0,0,4.545,75.2,756.65829291385,36.08924,6,P-GPS,,11.0
474300,2026-01-07 15:41:48,,,756.65829291385,40.354332,0.0,1.41788718448,5.7393702624,17,5,7.176,756.98637691385,36.417324,0.447388,2.59725073928,0.0,0.0,0.0,7.6,5.9,0.8,0,0,1024,1024,1024,1024,0,0,0,0,0,0,0,47,3.592,3.584,0,0,0,0,4.545,75.2,756.65829291385,36.08924,6,P-GPS,,11.0
474400,2026-01-07 15:41:48,,,756.65829291385,40.354332,0.0,1.44614834024,5.7686681636,17,5,7.176,756.98637691385,36.417324,0.447388,2.59725073928,0.0,0.0,0.0,7.7,5.4,0.9,0,0,1024,1024,1024,1024,0,0,0,0,0,0,0,47,3.592,3.584,0,0,0,0,4.545,75.2,756.65829291385,36.08924,6,P-GPS,,11.0
474500,2026-01-07 15:41:48,,,756.65829291385,40.354332,0.0,1.49950464116,5.8272967744,17,5,7.176,756.98637691385,36.417324,0.447388,2.59725073928,0.0,0.0,0.0,7.7,5.2,1.2,0,0,1024,1024,1024,1024,0,0,0,0,0,0,0,47,3.592,3.584,0,0,0,0,4.545,75.2,756.65829291385,36.08924,6,P-GPS,,11.0
474600,2026-01-07 15:41:48,,,756.65829291385,40.354332,0.0,1.52272314584,5.8569883764,17,5,7.176,756.98637691385,36.417324,0.447388,2.59725073928,0.0,0.0,0.0,7.7,5.1,1.8,0,0,1024,1024,1024,1024,0,0,0,0,0,0,0,47,3.592,3.584,0,0,0,0,4.545,75.2,756.65829291385,36.08924,6,P-GPS,,11.0
474700,2026-01-07 15:41:48,,,756.33020891385,40.354332,0.0,1.538631939,5.8812665924,17,5,7.176,756.98637691385,36.417324,0.447388,2.59725073928,0.0,0.0,0.0,7.7,5.3,2.3,0,0,1024,1024,1024,1024,0,0,0,0,0,0,0,47,3.592,3.584,0,0,0,0,4.545,75.2,756.33020891385,35.761156,6,P-GPS,,10.9
474800,2026-01-07 15:41:48,,,756.33020891385,40.354332,0.0,1.54726710988,5.9013453332,17,5,7.176,756.98637691385,36.417324,0.447388,2.59725073928,0.0,0.0,0.0,7.7,5.2,2.5,0,0,1024,1024,1024,1024,0,0,0,0,0,0,0,47,3.592,3.584,0,0,0,0,4.545,75.2,756.33020891385,35.761156,6,P-GPS,,10.9
474900,2026-01-07 15:41:48,,,756.33020891385,40.354332,0.0,1.6316929656,5.9857613464,17,5,7.165,756.98637691385,36.417324,0.447388,2.59725073928,0.0,0.0,0.0,7.7,5.4,2.7,0,0,1024,1024,1024,1024,0,0,0,0,0,0,0,47,3.586,3.582,0,0,0,0,5.404,75.2,756.33020891385,35.761156,6,P-GPS,,10.9
475000,2026-01-07 15:41:49,,,756.33020891385,40.354332,0.0,1.64055451444,6.0277889068,17,5,7.165,756.98637691385,36.417324,0.447388,2.59725073928,0.0,0.0,0.0,7.7,5.6,2.8,0,0,1024,1024,1024,1024,0,0,0,0,0,0,0,47,3.586,3.582,0,0,0,0,5.404,75.2,756.33020891385,35.761156,6,P-GPS,,10.9
475100,2026-01-07 15:41:49,,,756.00212491385,40.354332,0.0,1.66131238912,6.0651904828,17,5,7.165,756.98637691385,36.417324,0.447388,2.59725073928,0.0,0.0,0.0,7.7,5.1,2.4,0,0,1024,1024,1024,1024,0,0,0,0,0,0,0,47,3.586,3.582,0,0,0,0,5.404,75.2,756.00212491385,35.433072,6,P-GPS,,10.8
475200,2026-01-07 15:41:49,,,756.00212491385,40.354332,0.0,1.69582354508,6.1057416652,17,5,7.165,756.98637691385,36.417324,0.447388,2.59725073928,0.0,0.0,0.0,7.8,4.9,2.2,0,0,1024,1024,1024,1024,0,0,0,0,0,0,0,47,3.586,3.582,0,0,0,0,5.404,75.2,756.00212491385,35.433072,6,P-GPS,,10.8
475300,2026-01-07 15:41:49,,,756.00212491385,40.354332,0.0,1.73310373,6.151410958,16,5,7.165,756.98637691385,36.417324,0.447388,2.59725073928,0.0,0.0,0.0,7.8,4.5,1.9,0,0,1024,1024,1024,1024,0,0,0,0,0,0,0,47,3.586,3.582,0,0,0,0,5.404,75.2,756.00212491385,35.433072,6,P-GPS,,10.8
475400,2026-01-07 15:41:49,,,756.00212491385,40.354332,0.0,1.77365819324,6.205052692,16,5,7.165,756.98637691385,36.417324,0.447388,2.59725073928,0.0,0.0,0.0,7.8,4.6,2.0,0,0,1024,1024,1024,1024,0,0,0,0,0,0,0,47,3.586,3.582,0,0,0,0,5.404,75.2,756.00212491385,35.433072,6,P-GPS,,10.8
475500,2026-01-07 15:41:49,,,756.00212491385,40.354332,0.0,1.7935696112,6.2341865512,16,5,7.165,756.98637691385,36.417324,0.447388,2.59725073928,0.0,0.0,0.0,7.7,4.4,2.0,0,0,1024,1024,1024,1024,0,0,0,0,0,0,0,47,3.586,3.582,0,0,0,0,5.404,75.2,756.00212491385,35.433072,6,P-GPS,,10.8
475600,2026-01-07 15:41:49,,,756.00212491385,40.354332,0.0,1.78908798376,6.2415684412,16,5,7.165,756.98637691385,36.417324,0.447388,2.59725073928,0.0,0.0,0.0,7.7,4.5,2.0,0,0,1024,1024,1024,1024,0,0,0,0,0,0,0,47,3.586,3.582,0,0,0,0,5.404,75.2,756.00212491385,35.433072,6,P-GPS,,10.8
475700,2026-01-07 15:41:49,,,756.00212491385,40.354332,0.0,1.70948496284,6.3273624072,16,5,7.165,756.98637691385,36.417324,0.447388,2.59725073928,0.0,0.0,0.0,7.7,4.6,1.8,0,0,1024,1024,1024,1024,0,0,0,0,0,0,0,47,3.586,3.582,0,0,0,0,5.404,75.2,756.00212491385,35.433072,6,P-GPS,,10.8
475800,2026-01-07 15:41:49,,,756.00212491385,40.354332,0.0,1.69233601216,6.3522639828,16,5,7.165,756.98637691385,36.417324,0.447388,2.59725073928,0.0,0.0,0.0,7.7,4.9,2.3,0,0,1024,1024,1024,1024,0,0,0,0,0,0,0,47,3.586,3.582,0,0,0,0,5.404,75.2,756.00212491385,35.433072,6,P-GPS,,10.8
475900,2026-01-07 15:41:49,,,756.00212491385,40.354332,0.0,1.66803154944,6.3778545348,16,5,7.165,756.98637691385,36.417324,0.447388,2.59725073928,0.0,0.0,0.0,7.7,5.4,2.5,0,0,1024,1024,1024,1024,0,0,0,0,0,0,0,47,3.586,3.582,0,0,0,0,5.404,75.2,756.00212491385,35.433072,6,P-GPS,,10.8
476000,2026-01-07 15:41:49,,,756.00212491385,40.354332,0.0,1.63624677152,6.4097114912,16,5,7.18,756.98637691385,36.417324,0.447388,2.59725073928,0.0,0.0,0.0,7.8,5.6,2.3,0,0,1024,1024,1024,1024,0,0,0,0,0,0,0,47,3.593,3.587,0,0,0,0,4.905,75.2,756.00212491385,35.433072,6,P-GPS,,10.8
476100,2026-01-07 15:41:50,,,756.00212491385,40.354332,0.0,1.60168640296,6.4442915448,16,5,7.18,756.98637691385,36.417324,0.447388,2.59725073928,0.0,0.0,0.0,7.7,5.8,2.3,0,0,1024,1024,1024,1024,0,0,0,0,0,0,0,47,3.593,3.587,0,0,0,0,4.905,75.2,756.00212491385,35.433072,6,P-GPS,SD card speed low. Normal use may be affected. Replace SD card (Code: 10028). Gimbal stuck. Make sure gimbal cover is removed and manually check whether gimbal can rotate freely (Code: 40002),10.8
476200,2026-01-07 15:41:50,,,756.00212491385,40.354332,0.0,1.47514112332,6.5734254072,16,5,7.18,756.98637691385,36.417324,0.447388,2.59725073928,0.0,0.0,0.0,7.7,6.3,2.6,0,0,1024,1024,1024,1024,0,0,0,0,0,0,0,47,3.593,3.587,0,0,0,0,4.905,75.2,756.00212491385,35.433072,6,P-GPS,,10.8
476300,2026-01-07 15:41:50,,,756.00212491385,40.354332,0.0,1.44458009872,6.6042324948,16,5,7.18,756.98637691385,36.417324,0.447388,2.59725073928,0.0,0.0,0.0,7.8,6.4,3.0,0,0,1024,1024,1024,1024,0,0,0,0,0,0,0,47,3.593,3.587,0,0,0,0,4.905,75.2,756.00212491385,35.433072,6,P-GPS,,10.8
476400,2026-01-07 15:41:50,,,756.00212491385,40.354332,0.0,1.42143377252,6.6283794772,16,5,7.18,756.98637691385,36.417324,0.447388,2.59725073928,0.0,0.0,0.0,7.8,6.6,2.6,0,0,1024,1024,1024,1024,0,0,0,0,0,0,0,47,3.593,3.587,0,0,0,0,4.905,75.2,756.00212491385,35.433072,6,P-GPS,,10.8
476500,2026-01-07 15:41:50,,,756.00212491385,40.354332,0.0,1.40507550428,6.6557416828,16,5,7.18,756.98637691385,36.417324,0.447388,2.59725073928,0.0,0.0,0.0,7.8,6.4,2.3,0,0,1024,1024,1024,1024,0,0,0,0,0,0,0,47,3.593,3.587,0,0,0,0,4.905,75.2,756.00212491385,35.433072,6,P-GPS,,10.8
476600,2026-01-07 15:41:50,,,756.00212491385,40.354332,0.0,1.38223757704,6.73474431,16,5,7.18,756.98637691385,36.417324,0.447388,2.59725073928,0.0,0.0,0.0,7.8,6.8,2.6,0,0,1024,1024,1024,1024,0,0,0,0,0,0,0,47,3.593,3.587,0,0,0,0,4.905,75.2,756.00212491385,35.433072,6,P-GPS,,10.8
476700,2026-01-07 15:41:50,,,756.00212491385,40.354332,0.0,1.38235896812,6.7689306628,16,5,7.18,756.98637691385,36.417324,0.447388,2.59725073928,0.0,0.0,0.0,8.0,7.5,2.3,0,0,1024,1024,1024,1024,0,0,0,0,0,0,0,47,3.593,3.587,0,0,0,0,4.905,75.2,756.00212491385,35.433072,6,P-GPS,,10.8
476800,2026-01-07 15:41:50,,,756.00212491385,40.354332,0.0,1.39412077952,6.7988191152,16,5,7.18,756.98637691385,36.417324,0.447388,2.59725073928,0.0,0.0,0.0,7.9,7.7,2.1,0,0,1024,1024,1024,1024,0,0,0,0,0,0,0,47,3.593,3.587,0,0,0,0,4.905,75.2,756.00212491385,35.433072,6,P-GPS,,10.8
476900,2026-01-07 15:41:50,,,756.00212491385,40.354332,0.0,1.41401579328,6.8294293524,16,5,7.18,756.98637691385,36.417324,0.447388,2.59725073928,0.0,0.0,0.0,7.8,7.3,2.0,0,0,1024,1024,1024,1024,0,0,0,0,0,0,0,47,3.593,3.587,0,0,0,0,4.905,75.2,756.00212491385,35.433072,6,P-GPS,,10.8
477000,2026-01-07 15:41:51,,,756.00212491385,40.354332,0.0,1.47333009964,6.892716756,16,5,7.18,756.98637691385,36.417324,0.447388,2.59725073928,0.0,0.0,0.0,7.7,6.9,1.8,0,0,1024,1024,1024,1024,0,0,0,0,0,0,0,47,3.593,3.587,0,0,0,0,4.905,75.2,756.00212491385,35.433072,6,P-GPS,,10.8
477100,2026-01-07 15:41:51,,,756.00212491385,40.354332,0.0,1.50122708216,6.9234582268,17,5,7.153,756.98637691385,36.417324,0.447388,2.59725073928,0.0,0.0,0.0,7.7,6.0,1.7,0,0,1024,1024,1024,1024,0,0,0,0,0,0,0,47,3.578,3.575,0,0,0,0,4.911,75.2,756.00212491385,35.433072,6,P-GPS,,10.8
477200,2026-01-07 15:41:51,,,756.00212491385,40.354332,0.0,1.52617130868,6.949803372,17,5,7.153,756.98637691385,36.417324,0.447388,2.59725073928,0.0,0.0,0.0,7.7,5.8,1.9,0,0,1024,1024,1024,1024,0,0,0,0,0,0,0,47,3.578,3.575,0,0,0,0,4.911,75.2,756.00212491385,35.433072,6,P-GPS,,10.8
477300,2026-01-07 15:41:51,,,756.00212491385,40.354332,0.0,1.54520346152,6.9725724016,17,5,7.153,756.98637691385,36.417324,0.447388,2.59725073928,0.0,0.0,0.0,7.8,6.1,1.9,0,0,1024,1024,1024,1024,0,0,0,0,0,0,0,47,3.578,3.575,0,0,0,0,4.911,75.2,756.00212491385,35.433072,6,P-GPS,,10.8
477400,2026-01-07 15:41:51,,,756.00212491385,40.354332,0.0,1.54089899944,6.9990815888,17,5,7.153,756.98637691385,36.417324,0.447388,2.59725073928,0.0,0.0,0.0,7.8,6.2,2.0,0,0,1024,1024,1024,1024,0,0,0,0,0,0,0,47,3.578,3.575,0,0,0,0,4.911,75.2,756.00212491385,35.433072,6,P-GPS,,10.8
477500,2026-01-07 15:41:51,,,756.00212491385,40.354332,0.0,1.5646490002,7.0273296212,17,5,7.153,756.98637691385,36.417324,0.447388,2.59725073928,0.0,0.0,0.0,7.8,6.0,2.0,0,0,1024,1024,1024,1024,0,0,0,0,0,0,0,47,3.578,3.575,0,0,0,0,4.911,75.2,756.00212491385,35.433072,6,P-GPS,,10.8
477600,2026-01-07 15:41:51,,,756.00212491385,40.354332,0.0,1.60208994628,7.0673558692,17,5,7.153,756.98637691385,36.417324,0.447388,2.59725073928,0.0,0.0,0.0,7.8,6.1,1.9,0,0,1024,1024,1024,1024,0,0,0,0,0,0,0,47,3.578,3.575,0,0,0,0,4.911,75.2,756.00212491385,35.433072,6,P-GPS,,10.8
477700,2026-01-07 15:41:51,,,756.00212491385,40.354332,0.223694,1.63797249336,7.105971356,17,5,7.153,756.98637691385,36.417324,0.447388,2.59725073928,0.0,0.223694,0.0,7.8,6.5,1.3,0,0,1024,1024,1024,1024,0,0,0,0,0,0,0,47,3.578,3.575,0,0,0,0,4.911,75.2,756.00212491385,35.433072,6,P-GPS,,10.8
477800,2026-01-07 15:41:51,,,756.00212491385,40.354332,0.223694,1.672736274,7.1430120396,17,5,7.153,756.98637691385,36.417324,0.447388,2.59725073928,0.0,0.223694,0.0,7.8,6.7,0.8,0,0,1024,1024,1024,1024,0,0,0,0,0,0,0,47,3.578,3.575,0,0,0,0,4.911,75.2,756.00212491385,35.433072,6,P-GPS,,10.8
477900,2026-01-07 15:41:51,,,756.00212491385,40.354332,0.223694,1.71314638028,7.1851052168,17,5,7.153,756.98637691385,36.417324,0.447388,2.59725073928,0.0,0.223694,-0.223694,7.7,6.8,0.5,0,0,1024,1024,1024,1024,0,0,0,0,0,0,0,47,3.578,3.575,0,0,0,0,4.911,75.2,756.00212491385,35.433072,6,P-GPS,,10.8
478000,2026-01-07 15:41:51,,,756.00212491385,40.354332,0.223694,1.72887800808,7.2113847452,17,5,7.153,756.98637691385,36.417324,0.447388,2.59725073928,0.0,0.223694,0.0,7.8,6.9,0.3,0,0,1024,1024,1024,1024,0,0,0,0,0,0,0,47,3.578,3.575,0,0,0,0,4.911,75.2,756.00212491385,35.433072,6,P-GPS,,10.8
478100,2026-01-07 15:41:52,,,756.00212491385,40.354332,0.0,1.7348589794,7.2373033812,17,5,7.153,756.98637691385,36.417324,0.447388,2.59725073928,0.0,0.0,0.0,7.7,7.2,0.2,0,0,1024,1024,1024,1024,0,0,0,0,0,0,0,47,3.578,3.575,0,0,0,0,4.911,75.2,756.00212491385,35.433072,6,P-GPS,,10.8
478200,2026-01-07 15:41:52,,,756.00212491385,40.354332,0.0,1.73066278504,7.2676511512,17,5,7.175,756.98637691385,36.417324,0.447388,2.59725073928,0.0,0.0,0.0,7.8,7.5,0.2,0,0,1024,1024,1024,1024,0,0,0,0,0,0,0,47,3.59,3.585,0,0,0,0,4.815,75.2,756.00212491385,35.433072,6,P-GPS,,10.8
478300,2026-01-07 15:41:52,,,756.00212491385,40.354332,0.0,1.65196199512,7.3573165084,17,5,7.175,756.98637691385,36.417324,0.447388,2.59725073928,0.0,0.0,0.0,7.8,7.5,0.9,0,0,1024,1024,1024,1024,0,0,0,0,0,0,0,47,3.59,3.585,0,0,0,0,4.815,75.2,756.00212491385,35.433072,6,P-GPS,,10.8
478400,2026-01-07 15:41:52,,,756.00212491385,40.354332,0.0,1.6387303674,7.3771655904,17,5,7.175,756.98637691385,36.417324,0.447388,2.59725073928,0.0,0.0,0.0,7.8,7.0,0.9,0,0,1024,1024,1024,1024,0,0,0,0,0,0,0,47,3.59,3.585,0,0,0,0,4.815,75.2,756.00212491385,35.433072,6,P-GPS,,10.8
478500,2026-01-07 15:41:52,,,756.00212491385,40.354332,0.0,1.62320871336,7.4004923628,17,5,7.175,756.98637691385,36.417324,0.447388,2.59725073928,0.0,0.0,0.0,7.7,6.3,2.0,0,0,1024,1024,1024,1024,0,0,0,0,0,0,0,47,3.59,3.585,0,0,0,0,4.815,75.2,756.00212491385,35.433072,6,P-GPS,,10.8
478600,2026-01-07 15:41:52,,,756.00212491385,40.354332,0.0,1.60668640312,7.4202430196,17,5,7.175,756.98637691385,36.417324,0.447388,2.59725073928,0.0,0.0,0.0,7.7,6.9,2.5,0,0,1024,1024,1024,1024,0,0,0,0,0,0,0,47,3.59,3.585,0,0,0,0,4.815,75.2,756.00212491385,35.433072,6,P-GPS,,10.8
478700,2026-01-07 15:41:52,,,755.67404091385,40.354332,0.0,1.560531546,7.4692587692,17,5,7.175,756.98637691385,36.417324,0.447388,2.59725073928,0.0,0.0,0.0,7.7,6.8,1.6,0,0,1024,1024,1024,1024,0,0,0,0,0,0,0,47,3.59,3.585,0,0,0,0,4.815,75.2,755.67404091385,35.104988,6,P-GPS,,10.7
478800,2026-01-07 15:41:52,,,755.67404091385,40.354332,0.0,1.56457682172,7.4804136252,17,5,7.175,756.98637691385,36.417324,0.447388,2.59725073928,0.0,0.0,0.0,7.7,6.6,1.1,0,0,1024,1024,1024,1024,0,0,0,0,0,0,0,47,3.59,3.585,0,0,0,0,4.815,75.2,755.67404091385,35.104988,6,P-GPS,,10.7
478900,2026-01-07 15:41:52,,,755.67404091385,40.354332,0.0,1.57585963048,7.4985566704,17,5,7.175,756.98637691385,36.417324,0.447388,2.59725073928,0.0,0.0,0.0,7.7,6.6,1.3,0,0,1024,1024,1024,1024,0,0,0,0,0,0,0,47,3.59,3.585,0,0,0,0,4.815,75.2,755.67404091385,35.104988,6,P-GPS,,10.7
479000,2026-01-07 15:41:52,,,755.67404091385,40.354332,0.0,1.5965059566,7.526411002,17,5,7.175,756.98637691385,36.417324,0.447388,2.59725073928,0.0,0.0,0.0,7.8,6.6,1.6,0,0,1024,1024,1024,1024,0,0,0,0,0,0,0,47,3.59,3.585,0,0,0,0,4.815,75.2,755.67404091385,35.104988,6,P-GPS,,10.7
479100,2026-01-07 15:41:53,,,755.67404091385,40.354332,0.0,1.65029204756,7.5809713712,17,5,7.175,756.98637691385,36.417324,0.447388,2.59725073928,0.0,0.0,0.0,7.8,6.7,1.3,0,0,1024,1024,1024,1024,0,0,0,0,0,0,0,47,3.59,3.585,0,0,0,0,4.815,75.2,755.67404091385,35.104988,6,P-GPS,,10.7
479200,2026-01-07 15:41:53,,,755.67404091385,40.354332,0.0,1.66373692988,7.5973755712,17,5,7.175,756.98637691385,36.417324,0.447388,2.59725073928,0.0,0.0,0.0,7.7,7.0,1.0,0,0,1024,1024,1024,1024,0,0,0,0,0,0,0,47,3.59,3.585,0,0,0,0,4.815,75.2,755.67404091385,35.104988,6,P-GPS,,10.7
479300,2026-01-07 15:41:53,,,755.67404091385,40.354332,0.0,1.67135175952,7.6106629732,17,5,7.175,756.98637691385,36.417324,0.447388,2.59725073928,0.0,0.0,0.0,7.8,6.9,1.2,0,0,1024,1024,1024,1024,0,0,0,0,0,0,0,47,3.59,3.587,0,0,0,0,4.815,75.2,755.67404091385,35.104988,6,P-GPS,,10.7
479400,2026-01-07 15:41:53,,,755.67404091385,40.354332,0.0,1.67469493548,7.6226708476,17,5,7.175,756.98637691385,36.417324,0.447388,2.59725073928,0.0,0.0,0.0,7.9,6.8,0.8,0,0,1024,1024,1024,1024,0,0,0,0,0,0,0,47,3.59,3.587,0,0,0,0,4.815,75.2,755.67404091385,35.104988,6,P-GPS,,10.7
479500,2026-01-07 15:41:53,,,755.67404091385,40.354332,0.0,1.68154204856,7.6295606116,17,5,7.175,756.98637691385,36.417324,0.447388,2.59725073928,0.0,0.0,0.0,7.9,6.8,0.9,0,0,1024,1024,1024,1024,0,0,0,0,0,0,0,47,3.59,3.587,0,0,0,0,4.815,75.2,755.67404091385,35.104988,6,P-GPS,,10.7
479600,2026-01-07 15:41:53,,,755.67404091385,40.354332,0.0,1.67561685152,7.6496393524,17,5,7.175,756.98637691385,36.417324,0.447388,2.59725073928,0.0,0.0,0.0,8.0,6.5,0.4,0,0,1024,1024,1024,1024,0,0,0,0,0,0,0,47,3.59,3.587,0,0,0,0,4.815,75.2,755.67404091385,35.104988,6,P-GPS,,10.7
479700,2026-01-07 15:41:53,,,755.67404091385,40.354332,0.223694,1.69448496236,7.6694228176,17,5,7.175,756.98637691385,36.417324,0.447388,2.59725073928,0.0,0.223694,0.0,8.1,6.0,-0.2,0,0,1024,1024,1024,1024,0,0,0,0,0,0,0,47,3.59,3.587,0,0,0,0,4.815,75.2,755.67404091385,35.104988,6,P-GPS,,10.7
479800,2026-01-07 15:41:53,,,755.67404091385,40.354332,0.223694,1.71395018608,7.7003611388,17,5,7.175,756.98637691385,36.417324,0.447388,2.59725073928,0.0,0.223694,0.0,8.1,5.6,-0.7,0,0,1024,1024,1024,1024,0,0,0,0,0,0,0,47,3.59,3.587,0,0,0,0,4.815,75.2,755.67404091385,35.104988,6,P-GPS,,10.7
479900,2026-01-07 15:41:53,,,755.67404091385,40.354332,0.223694,1.74141737856,7.7304464416,17,5,7.175,756.98637691385,36.417324,0.447388,2.59725073928,0.0,0.223694,0.0,8.1,5.2,-1.4,0,0,1024,1024,1024,1024,0,0,0,0,0,0,0,47,3.59,3.587,0,0,0,0,4.815,75.2,755.67404091385,35.104988,6,P-GPS,,10.7
480000,2026-01-07 15:41:54,,,755.67404091385,40.354332,0.223694,1.77282485988,7.7641406684,17,5,7.175,756.98637691385,36.417324,0.447388,2.59725073928,0.0,0.223694,0.0,8.1,5.2,-1.3,0,0,1024,1024,1024,1024,0,0,0,0,0,0,0,47,3.59,3.587,0,0,0,0,4.815,75.2,755.67404091385,35.104988,6,P-GPS,,10.7
480100,2026-01-07 15:41:54,,,755.67404091385,40.354332,0.0,1.81081370624,7.8022968376,17,5,7.175,756.98637691385,36.417324,0.447388,2.59725073928,0.0,0.0,0.0,8.0,5.5,-1.7,0,0,1024,1024,1024,1024,0,0,0,0,0,0,0,47,3.59,3.587,0,0,0,0,4.815,75.2,755.67404091385,35.104988,6,P-GPS,,10.7
480200,2026-01-07 15:41:54,,,755.34595691385,40.354332,0.0,1.85026908808,7.842355894,17,5,7.175,756.98637691385,36.417324,0.447388,2.59725073928,0.0,0.0,0.0,7.9,5.7,-2.0,0,0,1024,1024,1024,1024,0,0,0,0,0,0,0,47,3.59,3.587,0,0,0,0,4.815,75.2,755.34595691385,34.776904,6,P-GPS,,10.6
480300,2026-01-07 15:41:54,,,755.34595691385,40.354332,0.0,1.87349415444,7.8656826664,17,5,7.175,756.98637691385,36.417324,0.447388,2.59725073928,0.0,0.0,0.0,8.0,5.8,-1.8,0,0,1024,1024,1024,1024,0,0,0,0,0,0,0,47,3.59,3.587,0,0,0,0,4.815,75.2,755.34595691385,34.776904,6,P-GPS,,10.6
480400,2026-01-07 15:41:54,,,755.34595691385,40.354332,0.0,1.91406502188,7.9063978908,17,5,7.177,756.98637691385,36.417324,0.447388,2.59725073928,0.0,0.0,0.0,7.9,6.1,-1.5,0,0,1024,1024,1024,1024,0,0,0,0,0,0,0,47,3.593,3.588,0,0,0,0,4.695,75.2,755.34595691385,34.776904,6,P-GPS,,10.6
480500,2026-01-07 15:41:54,,,755.34595691385,40.354332,0.0,1.90677171456,7.9236879176,17,5,7.177,756.98637691385,36.417324,0.447388,2.59725073928,0.0,0.0,0.0,7.8,6.4,-0.4,0,0,1024,1024,1024,1024,0,0,0,0,0,0,0,47,3.593,3.588,0,0,0,0,4.695,75.2,755.34595691385,34.776904,6,P-GPS,,10.6
480600,2026-01-07 15:41:54,,,755.34595691385,40.354332,0.0,1.88917000796,7.9560698084,17,5,7.177,756.98637691385,36.417324,0.447388,2.59725073928,0.0,0.0,0.0,7.8,5.9,0.1,0,0,1024,1024,1024,1024,0,0,0,0,0,0,0,47,3.593,3.588,0,0,0,0,4.695,75.2,755.34595691385,34.776904,6,P-GPS,,10.6
480700,2026-01-07 15:41:54,,,755.34595691385,40.354332,0.0,1.85860898336,8.0037076052,17,5,7.177,756.98637691385,36.417324,0.447388,2.59725073928,0.0,0.0,0.0,7.8,5.5,0.6,0,0,1024,1024,1024,1024,0,0,0,0,0,0,0,47,3.593,3.588,0,0,0,0,4.695,75.2,755.34595691385,34.776904,6,P-GPS,,10.6
480800,2026-01-07 15:41:54,,,755.67404091385,40.354332,0.0,1.76222446584,8.11843858,17,5,7.177,756.98637691385,36.417324,0.447388,2.59725073928,0.0,0.0,0.0,7.9,5.6,1.0,0,0,1024,1024,1024,1024,0,0,0,0,0,0,0,47,3.593,3.588,0,0,0,0,4.695,75.2,755.67404091385,35.104988,6,P-GPS,,10.7
480900,2026-01-07 15:41:54,,,755.67404091385,40.354332,0.0,1.7295440186,8.18077454,17,5,7.177,756.98637691385,36.417324,0.447388,2.59725073928,0.0,0.0,0.0,7.8,5.5,1.7,0,0,1024,1024,1024,1024,0,0,0,0,0,0,0,47,3.593,3.588,0,0,0,0,4.695,75.2,755.67404091385,35.104988,6,P-GPS,,10.7
481000,2026-01-07 15:41:54,,,755.67404091385,40.354332,0.0,1.70970805996,8.2420606312,17,5,7.177,756.98637691385,36.417324,0.447388,2.59725073928,0.0,0.0,0.0,7.9,5.9,2.0,0,0,1024,1024,1024,1024,0,0,0,0,0,0,0,47,3.593,3.588,0,0,0,0,4.695,75.2,755.67404091385,35.104988,6,P-GPS,,10.7
481100,2026-01-07 15:41:55,,,755.67404091385,40.354332,0.0,1.70274939832,8.2881892416,17,5,7.177,756.98637691385,36.417324,0.447388,2.59725073928,0.0,0.0,0.0,7.8,6.2,1.0,0,0,1024,1024,1024,1024,0,0,0,0,0,0,0,47,3.593,3.588,0,0,0,0,4.695,75.2,755.67404091385,35.104988,6,P-GPS,,10.7
481200,2026-01-07 15:41:55,,,756.00212491385,40.354332,0.0,1.70631895224,8.3294622088,17,5,7.177,756.98637691385,36.417324,0.447388,2.59725073928,0.0,0.0,0.0,7.7,6.4,0.9,0,0,1024,1024,1024,1024,0,0,0,0,0,0,0,47,3.593,3.588,0,0,0,0,4.695,75.2,756.00212491385,35.433072,6,P-GPS,,10.8
481300,2026-01-07 15:41:55,,,756.00212491385,40.354332,0.0,1.73868771968,8.3936026308,17,5,7.177,756.98637691385,36.417324,0.447388,2.59725073928,0.0,0.0,0.0,7.7,5.9,1.1,0,0,1024,1024,1024,1024,0,0,0,0,0,0,0,47,3.593,3.588,0,0,0,0,4.695,75.2,756.00212491385,35.433072,6,P-GPS,,10.8
481400,2026-01-07 15:41:55,,,756.00212491385,40.354332,0.0,1.73175530476,8.4272640492,17,5,7.177,756.98637691385,36.417324,0.447388,2.59725073928,0.0,0.0,0.0,7.5,5.6,1.1,0,0,1024,1024,1024,1024,0,0,0,0,0,0,0,47,3.593,3.588,0,0,0,0,4.695,75.2,756.00212491385,35.433072,6,P-GPS,,10.8
481500,2026-01-07 15:41:55,,,756.00212491385,40.354332,0.0,1.72699152508,8.4539700868,17,5,7.177,756.98637691385,36.417324,0.447388,2.59725073928,0.0,0.0,0.0,7.5,4.6,1.3,0,0,1024,1024,1024,1024,0,0,0,0,0,0,0,47,3.593,3.588,0,0,0,0,4.695,75.2,756.00212491385,35.433072,6,P-GPS,,10.8
481600,2026-01-07 15:41:55,,,756.00212491385,40.354332,0.223694,1.72043640676,8.4754595888,16,5,7.148,756.98637691385,36.417324,0.447388,2.59725073928,0.0,-0.223694,0.0,7.5,4.0,1.6,0,0,1024,1024,1024,1024,0,0,0,0,0,0,0,47,3.575,3.572,0,0,0,0,5.025,75.2,756.00212491385,35.433072,6,P-GPS,,10.8
481700,2026-01-07 15:41:55,,,756.00212491385,40.354332,0.223694,1.68701448968,8.51788085,16,5,7.148,756.98637691385,36.417324,0.447388,2.59725073928,0.0,-0.223694,0.0,7.5,3.9,2.5,0,0,1024,1024,1024,1024,0,0,0,0,0,0,0,47,3.575,3.572,0,0,0,0,5.025,75.2,756.00212491385,35.433072,6,P-GPS,,10.8
481800,2026-01-07 15:41:55,,,756.33020891385,40.354332,0.223694,1.6618438852,8.5653546048,16,5,7.148,756.98637691385,36.417324,0.447388,2.59725073928,0.0,-0.223694,0.0,7.6,4.0,2.9,0,0,1024,1024,1024,1024,0,0,0,0,0,0,0,47,3.575,3.572,0,0,0,0,5.025,75.2,756.33020891385,35.761156,6,P-GPS,,10.9
481900,2026-01-07 15:41:55,,,756.33020891385,40.354332,0.223694,1.64562669308,8.6067259972,16,5,7.148,756.98637691385,36.417324,0.447388,2.59725073928,0.0,-0.223694,0.0,7.6,3.9,3.3,0,0,1024,1024,1024,1024,0,0,0,0,0,0,0,47,3.575,3.572,0,0,0,0,5.025,75.2,756.33020891385,35.761156,6,P-GPS,,10.9
482000,2026-01-07 15:41:56,,,756.33020891385,40.354332,0.0,1.63907813644,8.6442588068,16,5,7.148,756.98637691385,36.417324,0.447388,2.59725073928,0.0,0.0,0.0,7.5,3.6,3.7,0,0,1024,1024,1024,1024,0,0,0,0,0,0,0,47,3.575,3.572,0,0,0,0,5.025,75.2,756.33020891385,35.761156,6,P-GPS,,10.9
482100,2026-01-07 15:41:56,,,756.33020891385,40.354332,0.0,1.65116147016,8.6945868924,16,5,7.148,756.98637691385,36.417324,0.447388,2.59725073928,0.0,0.0,0.0,7.5,3.8,3.8,0,0,1024,1024,1024,1024,0,0,0,0,0,0,0,47,3.575,3.572,0,0,0,0,5.025,75.2,756.33020891385,35.761156,6,P-GPS,,10.9
482200,2026-01-07 15:41:56,,,756.33020891385,40.354332,0.0,1.6511975594,8.71965251,16,5,7.148,756.98637691385,36.417324,0.447388,2.59725073928,0.0,0.0,0.0,7.5,4.0,3.3,0,0,1024,1024,1024,1024,0,0,0,0,0,0,0,47,3.575,3.572,0,0,0,0,5.025,75.2,756.33020891385,35.761156,6,P-GPS,,10.9
482300,2026-01-07 15:41:56,,,756.33020891385,40.354332,0.0,1.65598430496,8.7351708832,16,5,7.148,756.98637691385,36.417324,0.447388,2.59725073928,0.0,0.0,0.0,7.5,4.0,2.8,0,0,1024,1024,1024,1024,0,0,0,0,0,0,0,47,3.575,3.572,0,0,0,0,5.025,75.2,756.33020891385,35.761156,6,P-GPS,,10.9
482400,2026-01-07 15:41:56,,,756.65829291385,40.354332,0.0,1.66609585384,8.7484910936,16,5,7.148,756.98637691385,36.417324,0.447388,2.59725073928,0.0,0.0,0.0,7.5,4.0,2.1,0,0,1024,1024,1024,1024,0,0,0,0,0,0,0,47,3.575,3.572,0,0,0,0,5.025,75.2,756.65829291385,36.08924,6,P-GPS,,11.0
482500,2026-01-07 15:41:56,,,756.65829291385,40.354332,0.0,1.71943575056,8.80249372,16,5,7.148,756.98637691385,36.417324,0.447388,2.59725073928,0.0,0.0,0.0,7.5,3.4,1.9,0,0,1024,1024,1024,1024,0,0,0,0,0,0,0,47,3.575,3.572,0,0,0,0,5.025,75.2,756.65829291385,36.08924,6,P-GPS,,11.0
482600,2026-01-07 15:41:56,,,756.65829291385,40.354332,0.0,1.73550530488,8.8198165552,16,5,7.148,756.98637691385,36.417324,0.447388,2.59725073928,0.0,0.0,0.0,7.6,3.6,1.6,0,0,1024,1024,1024,1024,0,0,0,0,0,0,0,47,3.575,3.572,0,0,0,0,5.025,75.2,756.65829291385,36.08924,6,P-GPS,,11.0
482700,2026-01-07 15:41:56,,,756.65829291385,40.354332,0.0,1.73930123676,8.82956065,16,5,7.163,756.98637691385,36.417324,0.447388,2.59725073928,0.0,0.0,0.0,7.5,3.7,1.4,0,0,1024,1024,1024,1024,0,0,0,0,0,0,0,47,3.583,3.58,0,0,0,0,4.776,75.2,756.65829291385,36.08924,6,P-GPS,,11.0
482800,2026-01-07 15:41:56,,,756.65829291385,40.354332,0.0,1.72839900544,8.8437994956,16,5,7.163,756.98637691385,36.417324,0.447388,2.59725073928,0.0,0.0,0.0,7.5,3.9,2.0,0,0,1024,1024,1024,1024,0,0,0,0,0,0,0,47,3.583,3.58,0,0,0,0,4.776,75.2,756.65829291385,36.08924,6,P-GPS,,11.0
482900,2026-01-07 15:41:56,,,756.65829291385,40.354332,0.0,1.69815950316,8.8743769244,17,5,7.163,756.98637691385,36.417324,0.447388,2.59725073928,0.0,0.0,0.0,7.5,3.9,2.2,0,0,1024,1024,1024,1024,0,0,0,0,0,0,0,47,3.583,3.58,0,0,0,0,4.776,75.2,756.65829291385,36.08924,6,P-GPS,,11.0
483000,2026-01-07 15:41:56,,,756.65829291385,40.354332,0.0,1.59505254448,8.97801866,17,5,7.163,756.98637691385,36.417324,0.447388,2.59725073928,0.0,0.0,0.0,7.3,3.5,2.5,0,0,1024,1024,1024,1024,0,0,0,0,0,0,0,47,3.583,3.58,0,0,0,0,4.776,75.2,756.65829291385,36.08924,6,P-GPS,,11.0
483100,2026-01-07 15:41:57,,,756.65829291385,40.354332,0.0,1.55054466904,9.02313021,17,5,7.163,756.98637691385,36.417324,0.447388,2.59725073928,0.0,0.0,0.0,7.3,3.9,2.1,0,0,1024,1024,1024,1024,0,0,0,0,0,0,0,47,3.583,3.58,0,0,0,0,4.776,75.2,756.65829291385,36.08924,6,P-GPS,,11.0
483200,2026-01-07 15:41:57,,,756.98637691385,40.354332,0.223694,1.50240162288,9.0718834924,17,5,7.163,756.98637691385,36.417324,0.447388,2.59725073928,0.223694,0.0,0.0,7.5,5.3,2.7,0,0,1024,1024,1024,1024,0,0,0,0,0,0,0,47,3.583,3.58,0,0,0,0,4.776,75.2,756.98637691385,36.417324,6,P-GPS,,11.1
483300,2026-01-07 15:41:57,,,756.98637691385,40.354332,0.223694,1.4473917786,9.126968796,17,5,7.163,756.98637691385,36.417324,0.447388,2.59725073928,0.223694,0.0,0.0,7.6,6.9,3.1,0,0,1024,1024,1024,1024,0,0,0,0,0,0,0,47,3.583,3.58,0,0,0,0,4.776,75.2,756.98637691385,36.417324,6,P-GPS,,11.1
483400,2026-01-07 15:41:57,,,756.98637691385,40.354332,0.223694,1.36144689396,9.2272968832,17,5,7.163,756.98637691385,36.417324,0.447388,2.59725073928,0.223694,0.0,0.0,7.7,7.7,3.4,0,0,1024,1024,1024,1024,0,0,0,0,0,0,0,47,3.583,3.58,0,0,0,0,4.776,75.2,756.98637691385,36.417324,6,P-GPS,,11.1
483500,2026-01-07 15:41:57,,,756.98637691385,40.354332,0.223694,1.30952103928,9.2793310056,17,5,7.163,756.98637691385,36.417324,0.447388,2.59725073928,0.223694,0.0,0.0,7.8,7.7,3.4,0,0,1024,1024,1024,1024,0,0,0,0,0,0,0,47,3.583,3.58,0,0,0,0,4.776,75.2,756.98637691385,36.417324,6,P-GPS,,11.1
483600,2026-01-07 15:41:57,,,756.98637691385,40.354332,0.0,1.26551185152,9.3253283824,17,5,7.163,756.98637691385,36.417324,0.447388,2.59725073928,0.0,0.0,0.0,7.9,7.6,3.4,0,0,1024,1024,1024,1024,0,0,0,0,0,0,0,47,3.583,3.58,0,0,0,0,4.776,75.2,756.98637691385,36.417324,6,P-GPS,,11.1
483700,2026-01-07 15:41:57,,,756.98637691385,40.354332,0.0,1.22893048552,9.364665654,17,5,7.163,756.98637691385,36.417324,0.447388,2.59725073928,0.0,0.0,0.0,7.9,7.5,3.1,0,0,1024,1024,1024,1024,0,0,0,0,0,0,0,47,3.583,3.58,0,0,0,0,4.776,75.2,756.98637691385,36.417324,6,P-GPS,,11.1
483800,2026-01-07 15:41:57,,,756.98637691385,40.354332,0.0,1.17958993276,9.4316275984,17,5,7.158,756.98637691385,36.417324,0.447388,2.59725073928,0.0,0.0,0.0,7.9,7.5,2.3,0,0,1024,1024,1024,1024,0,0,0,0,0,0,0,47,3.581,3.577,0,0,0,0,4.744,75.2,756.98637691385,36.417324,6,P-GPS,,11.1
483900,2026-01-07 15:41:57,,,756.98637691385,40.354332,0.0,1.15651906588,9.4603349484,17,5,7.158,756.98637691385,36.417324,0.447388,2.59725073928,0.0,0.0,0.0,7.9,7.1,1.7,0,0,1024,1024,1024,1024,0,0,0,0,0,0,0,47,3.581,3.577,0,0,0,0,4.744,75.2,756.98637691385,36.417324,6,P-GPS,,11.1
484000,2026-01-07 15:41:57,,,756.98637691385,40.354332,0.0,1.13793966896,9.483596104,17,5,7.158,756.98637691385,36.417324,0.447388,2.59725073928,0.0,0.0,0.0,7.9,7.1,1.5,0,0,1024,1024,1024,1024,0,0,0,0,0,0,0,47,3.581,3.577,0,0,0,0,4.744,75.2,756.98637691385,36.417324,6,P-GPS,,11.1
484100,2026-01-07 15:41:58,,,756.98637691385,40.354332,0.0,1.13634518072,9.5094819316,17,5,7.158,756.98637691385,36.417324,0.447388,2.59725073928,0.0,0.0,0.0,7.9,6.8,0.8,0,0,1024,1024,1024,1024,0,0,0,0,0,0,0,47,3.581,3.577,0,0,0,0,4.744,75.2,756.98637691385,36.417324,6,P-GPS,,11.1
484200,2026-01-07 15:41:58,,,756.98637691385,40.354332,0.0,1.16491473544,9.5690291776,17,5,7.158,756.98637691385,36.417324,0.447388,2.59725073928,0.0,0.0,0.0,7.7,6.9,0.6,0,0,1024,1024,1024,1024,0,0,0,0,0,0,0,47,3.581,3.577,0,0,0,0,4.744,75.2,756.98637691385,36.417324,6,P-GPS,,11.1
484300,2026-01-07 15:41:58,,,756.98637691385,40.354332,0.0,1.182332715,9.6047903336,17,5,7.158,756.98637691385,36.417324,0.447388,2.59725073928,0.0,0.0,0.0,7.9,6.6,0.5,0,0,1024,1024,1024,1024,0,0,0,0,0,0,0,47,3.581,3.577,0,0,0,0,4.744,75.2,756.98637691385,36.417324,6,P-GPS,,11.1
484400,2026-01-07 15:41:58,,,756.98637691385,40.354332,0.0,1.20340555032,9.6381564764,17,5,7.158,756.98637691385,36.417324,0.447388,2.59725073928,0.0,0.0,0.0,7.9,7.1,0.6,0,0,1024,1024,1024,1024,0,0,0,0,0,0,0,47,3.581,3.577,0,0,0,0,4.744,75.2,756.98637691385,36.417324,6,P-GPS,,11.1
484500,2026-01-07 15:41:58,,,756.98637691385,40.354332,0.0,1.23510174556,9.6800199948,17,5,7.158,756.98637691385,36.417324,0.447388,2.59725073928,0.0,0.0,0.0,8.0,7.0,0.9,0,0,1024,1024,1024,1024,0,0,0,0,0,0,0,47,3.581,3.577,0,0,0,0,4.744,75.2,756.98637691385,36.417324,6,P-GPS,,11.1
484600,2026-01-07 15:41:58,,,756.98637691385,40.354332,0.0,1.28373035604,9.7381236712,17,5,7.158,756.98637691385,36.417324,0.447388,2.59725073928,0.0,0.0,0.0,8.0,6.8,0.5,0,0,1024,1024,1024,1024,0,0,0,0,0,0,0,47,3.581,3.577,0,0,0,0,4.744,75.2,756.98637691385,36.417324,6,P-GPS,,11.1
484700,2026-01-07 15:41:58,,,756.98637691385,40.354332,0.0,1.4129429586,9.8771984788,17,5,7.158,756.98637691385,36.417324,0.447388,2.59725073928,0.0,0.0,0.0,7.9,6.1,0.3,0,0,1024,1024,1024,1024,0,0,0,0,0,0,0,47,3.581,3.577,0,0,0,0,4.744,75.2,756.98637691385,36.417324,6,P-GPS,,11.1
484800,2026-01-07 15:41:58,,,756.98637691385,40.354332,0.0,1.4550853484,9.921096118,17,5,7.158,756.98637691385,36.417324,0.447388,2.59725073928,0.0,0.0,0.0,7.9,6.1,0.4,0,0,1024,1024,1024,1024,0,0,0,0,0,0,0,47,3.581,3.577,0,0,0,0,4.744,75.2,756.98637691385,36.417324,6,P-GPS,,11.1
484900,2026-01-07 15:41:58,,,756.65829291385,40.354332,0.0,1.47965227832,9.9475724968,17,5,7.156,756.98637691385,36.417324,0.447388,2.59725073928,0.0,0.0,0.0,7.8,6.2,0.5,0,0,1024,1024,1024,1024,0,0,0,0,0,0,0,46,3.58,3.575,0,0,0,0,4.942,75.2,756.65829291385,36.08924,6,P-GPS,,11.0
485000,2026-01-07 15:41:58,,,756.65829291385,40.354332,0.0,1.48741146492,9.960138114,17,5,7.156,756.98637691385,36.417324,0.447388,2.59725073928,0.0,0.0,0.0,7.9,6.0,0.6,0,0,1024,1024,1024,1024,0,0,0,0,0,0,0,46,3.58,3.575,0,0,0,0,4.942,75.2,756.65829291385,36.08924,6,P-GPS,,11.0
485100,2026-01-07 15:41:59,,,756.65829291385,40.354332,0.0,1.48378285588,9.9841866712,17,5,7.156,756.98637691385,36.417324,0.447388,2.59725073928,0.0,0.0,0.0,7.8,5.8,0.1,0,0,1024,1024,1024,1024,0,0,0,0,0,0,0,46,3.58,3.575,0,0,0,0,4.942,75.2,756.65829291385,36.08924,6,P-GPS,,11.0
485200,2026-01-07 15:41:59,,,756.65829291385,40.354332,0.0,1.50614506132,10.0065948084,17,5,7.156,756.98637691385,36.417324,0.447388,2.59725073928,0.0,0.0,0.0,7.8,6.0,0.0,0,0,1024,1024,1024,1024,0,0,0,0,0,0,0,46,3.58,3.575,0,0,0,0,4.942,75.2,756.65829291385,36.08924,6,P-GPS,,11.0
