time(millisecond),timestamp,height_above_ground_at_drone_location(feet),ground_elevation_at_drone_location(feet),altitude_above_seaLevel(feet),height_sonar(feet),speed(mph),distance(feet),mileage(feet),satellites,gpslevel,voltage(v),max_altitude(feet),max_ascent(feet),max_speed(mph),max_distance(feet), xSpeed(mph), ySpeed(mph), zSpeed(mph), compass_heading(degrees), pitch(degrees), roll(degrees),isPhoto,isVideo,rc_elevator,rc_aileron,rc_throttle,rc_rudder,rc_elevator(percent),rc_aileron(percent),rc_throttle(percent),rc_rudder(percent),gimbal_heading(degrees),gimbal_pitch(degrees),gimbal_roll(degrees),battery_percent,voltageCell1,voltageCell2,voltageCell3,voltageCell4,voltageCell5,voltageCell6,current(A),battery_temperature(f),altitude(feet),ascent(feet),flycStateRaw,flycState,message,height_above_takeoff(meters)
299700,2026-01-07 12:34:02,Available with any HD 360 subscription,Available with any HD 360 subscription,721.03587773194,0.0,0.0,0.0,0.0,18,5,0.0,721.03587773194,0.0,0.0,0.0,0.0,0.0,0.0,21.9,2.7,0.6,0,0,1024,1024,1024,1024,0,0,0,0,0,0,0,77,3.921,3.92,0,0,0,0,0.0,71.6,721.03587773194,0.0,41,Motors_Started,SD card speed low SD card speed low. Normal use may be affected. Replace SD card (Code: 10028). Gimbal stuck. Make sure gimbal cover is removed and manually check whether gimbal can rotate freely (Code: 40002),0.0
299800,2026-01-07 12:34:02,,,721.03587773194,0.0,0.0,0.0083857286148,0.0083857286148,18,5,0.0,721.03587773194,0.0,0.0,0.0083857286148,0.0,0.0,0.0,21.9,2.7,0.7,0,0,1024,1024,1024,1024,0,0,0,0,0,0,0,77,3.921,3.92,0,0,0,0,0.0,71.6,721.03587773194,0.0,41,Motors_Started,,0.0
299900,2026-01-07 12:34:02,,,721.03587773194,0.328084,0.0,0.0233391739752,0.023354167414,18,5,0.0,721.03587773194,0.0,0.0,0.0233391739752,0.0,0.0,0.0,22.0,2.7,0.6,0,0,1024,1024,1024,1024,0,0,0,0,0,0,0,77,3.921,3.92,0,0,0,0,0.0,71.6,721.03587773194,0.0,41,Motors_Started,,0.0
300000,2026-01-07 12:34:02,,,721.03587773194,0.328084,0.0,0.079244425108,0.082570868784,18,5,0.0,721.03587773194,0.0,0.0,0.079244425108,0.0,0.0,0.0,21.9,2.7,0.6,0,0,1024,1024,1024,1024,0,0,0,0,0,0,0,77,3.921,3.92,0,0,0,0,0.0,71.6,721.03587773194,0.0,41,Motors_Started,,0.0
300100,2026-01-07 12:34:02,,,721.03587773194,0.328084,0.0,0.104164045328,0.108151578264,18,5,0.0,721.03587773194,0.0,0.0,0.104164045328,0.0,0.0,0.0,22.0,2.7,0.6,0,0,1024,1024,1024,1024,0,0,0,0,0,0,0,77,3.921,3.92,0,0,0,0,0.0,71.6,721.03587773194,0.0,41,Motors_Started,,0.0
300200,2026-01-07 12:34:02,,,721.03587773194,0.328084,0.0,0.112459649268,0.1168225103,18,5,0.0,721.03587773194,0.0,0.0,0.112459649268,0.0,0.0,0.0,21.9,2.7,0.7,0,0,1024,1024,1024,1024,0,0,0,0,0,0,0,77,3.921,3.92,0,0,0,0,0.0,71.6,721.03587773194,0.0,41,Motors_Started,,0.0
300300,2026-01-07 12:34:03,,,721.03587773194,0.328084,0.0,0.117791014268,0.12258202492,18,5,0.0,721.03587773194,0.0,0.0,0.117791014268,0.0,0.0,0.0,22.0,2.8,0.7,0,0,1024,1024,1024,1024,0,0,0,0,0,0,0,77,3.921,3.92,0,0,0,0,0.0,71.6,721.03587773194,0.0,41,Motors_Started,,0.0
300400,2026-01-07 12:34:03,,,721.03587773194,0.328084,0.0,0.131769033088,0.144644361584,18,5,0.0,721.03587773194,0.0,0.0,0.131769033088,0.0,0.0,0.0,22.0,2.7,0.6,0,0,1024,1024,1024,1024,0,0,0,0,0,0,0,77,3.921,3.92,0,0,0,0,0.0,71.6,721.03587773194,0.0,41,Motors_Started,,0.0
300500,2026-01-07 12:34:03,,,721.03587773194,0.328084,0.0,0.151461947104,0.164702433092,18,5,0.0,721.03587773194,0.0,0.0,0.151461947104,0.0,0.0,0.0,22.1,2.6,0.6,0,0,1024,1024,1024,1024,0,0,0,0,0,0,0,77,3.921,3.92,0,0,0,0,0.0,71.6,721.03587773194,0.0,41,Motors_Started,,0.0
300600,2026-01-07 12:34:03,,,721.03587773194,0.328084,0.0,0.156273955132,0.169845477876,18,5,0.0,721.03587773194,0.0,0.0,0.156273955132,0.0,0.0,0.0,22.1,2.7,0.6,0,0,1024,1024,1024,1024,0,0,0,0,0,0,0,77,3.921,3.92,0,0,0,0,0.0,71.6,721.03587773194,0.0,41,Motors_Started,Setting new Return-To-Home altitude to 500m (1640 ft). Data Recorder File Index is 26. Setting new Maximum Flight Altitude to 500m (1640 ft),0.0
300700,2026-01-07 12:34:03,,,721.03587773194,0.328084,0.0,2.14292001608,0.172121724668,18,5,0.0,721.03587773194,0.0,0.0,2.14292001608,0.0,0.0,0.0,22.2,2.7,0.6,0,0,1024,1024,1024,1024,0,0,0,0,0,0,0,77,3.921,3.92,0,0,0,0,0.0,71.6,721.03587773194,0.0,41,Motors_Started,,0.0
300800,2026-01-07 12:34:03,,,721.03587773194,0.328084,0.0,2.14113523912,0.188089901032,18,5,0.0,721.03587773194,0.0,0.0,2.14292001608,0.0,0.0,0.0,22.1,2.7,0.6,0,0,1024,1024,1024,1024,0,0,0,0,0,0,0,77,3.921,3.92,0,0,0,0,0.0,71.6,721.03587773194,0.0,11,AutoTakeoff,,0.0
300900,2026-01-07 12:34:03,,,721.03587773194,0.328084,0.0,2.14603353324,0.207279206108,18,5,0.0,721.03587773194,0.0,0.0,2.14603353324,0.0,0.0,0.0,22.1,2.7,0.6,0,0,1024,1024,1024,1024,0,0,0,0,0,0,0,77,3.921,3.92,0,0,0,0,0.0,71.6,721.03587773194,0.0,11,AutoTakeoff,,0.0
301000,2026-01-07 12:34:03,,,721.03587773194,0.328084,0.0,2.14776581676,0.21226542674,18,5,0.0,721.03587773194,0.0,0.0,2.14776581676,0.0,0.0,0.0,22.1,2.7,0.6,0,0,1024,1024,1024,1024,0,0,0,0,0,0,0,77,3.921,3.92,0,0,0,0,0.0,71.6,721.03587773194,0.0,11,AutoTakeoff,,0.0
301100,2026-01-07 12:34:03,,,721.03587773194,0.328084,0.0,2.14841214224,0.2140994163,18,5,0.0,721.03587773194,0.0,0.0,2.14841214224,0.0,0.0,0.0,22.1,2.7,0.6,0,0,1024,1024,1024,1024,0,0,0,0,0,0,0,77,3.921,3.92,0,0,0,0,0.0,71.6,721.03587773194,0.0,11,AutoTakeoff,,0.0
301200,2026-01-07 12:34:03,,,721.03587773194,0.328084,0.0,2.15265098752,0.229298563768,18,5,0.0,721.03587773194,0.0,0.0,2.15265098752,0.0,0.0,0.0,22.1,2.7,0.6,0,0,1024,1024,1024,1024,0,0,0,0,0,0,0,77,3.921,3.92,0,0,0,0,0.0,71.6,721.03587773194,0.0,11,AutoTakeoff,,0.0
301300,2026-01-07 12:34:03,,,721.03587773194,0.328084,0.0,2.15770348112,0.249874679912,18,5,0.0,721.03587773194,0.0,0.0,2.15770348112,0.0,0.0,0.0,22.3,2.7,0.5,0,0,1024,1024,1024,1024,0,0,0,0,0,0,0,77,3.921,3.92,0,0,0,0,0.0,71.6,721.03587773194,0.0,11,AutoTakeoff,,0.0
301400,2026-01-07 12:34:04,,,721.03587773194,0.328084,0.0,2.1718012506,0.270855323628,18,5,7.812,721.03587773194,0.0,0.0,2.1718012506,0.0,0.0,0.0,23.1,2.8,0.4,0,0,1024,1024,1024,1024,0,0,0,0,0,0,0,77,3.903,3.909,0,0,0,0,1.222,71.6,721.03587773194,0.0,11,AutoTakeoff,,0.0
301500,2026-01-07 12:34:04,,,721.03587773194,0.328084,0.0,2.1895013824,0.29457185982,18,5,7.812,721.03587773194,0.0,0.0,2.1895013824,0.0,0.0,0.0,24.4,1.5,0.1,0,0,1024,1024,1024,1024,0,0,0,0,0,0,0,77,3.903,3.909,0,0,0,0,1.222,71.6,721.03587773194,0.0,11,AutoTakeoff,,0.0
301600,2026-01-07 12:34:04,,,721.03587773194,0.328084,0.0,2.19535112012,0.300717529308,18,5,7.812,721.03587773194,0.0,0.0,2.19535112012,0.0,0.0,-0.223694,25.0,-0.3,-0.3,0,0,1024,1323,1024,1024,0,45,0,0,0,0,0,77,3.903,3.909,0,0,0,0,1.222,71.6,721.03587773194,0.0,11,AutoTakeoff,,0.0
301700,2026-01-07 12:34:04,,,721.03587773194,0.328084,0.0,2.20040689456,0.3249015852,18,5,7.812,721.03587773194,0.0,0.0,2.20040689456,0.0,0.0,-0.671082,25.0,0.9,-0.3,0,0,1024,1024,1024,1024,0,0,0,0,0,0,0,77,3.903,3.909,0,0,0,0,1.222,71.6,721.03587773194,0.0,11,AutoTakeoff,,0.0
301800,2026-01-07 12:34:04,,,721.36396173194,0.656168,0.0,2.18242789136,0.34681431556,18,5,7.812,721.36396173194,0.328084,0.0,2.20040689456,0.0,0.0,-0.894776,25.1,1.6,1.3,0,0,1024,1024,1024,1024,0,0,0,0,0,0,0,77,3.903,3.909,0,0,0,0,1.222,71.6,721.36396173194,0.328084,11,AutoTakeoff,,0.1
301900,2026-01-07 12:34:04,,,721.36396173194,0.656168,0.0,2.15686686692,0.37428478888,18,5,7.812,721.36396173194,0.328084,0.0,2.20040689456,0.0,0.0,-1.11847,25.4,1.6,8.7,0,0,1024,1024,1024,1024,0,0,0,0,0,0,0,77,3.903,3.909,0,0,0,0,1.222,71.6,721.36396173194,0.328084,11,AutoTakeoff,,0.1
302000,2026-01-07 12:34:04,,,721.69204573194,0.656168,0.223694,2.13419954336,0.41114174544,18,5,7.812,721.69204573194,0.656168,0.223694,2.20040689456,0.0,0.223694,-1.342164,25.4,2.0,4.6,0,0,1024,1024,1024,1024,0,0,0,0,0,0,0,77,3.903,3.909,0,0,0,0,1.222,71.6,721.69204573194,0.656168,11,AutoTakeoff,,0.2
302100,2026-01-07 12:34:04,,,721.69204573194,0.984252,0.447388,2.093011878,0.4870078896,18,5,7.812,721.69204573194,0.656168,0.447388,2.20040689456,0.0,0.447388,-1.565858,25.0,2.0,-0.7,0,0,1024,1024,1024,1024,0,0,0,0,0,0,0,77,3.903,3.909,0,0,0,0,1.222,71.6,721.69204573194,0.656168,11,AutoTakeoff,,0.2
302200,2026-01-07 12:34:04,,,722.02012973194,0.984252,0.447388,2.05399940956,0.56689306276,18,5,7.812,722.02012973194,0.984252,0.447388,2.20040689456,0.0,0.447388,-1.789552,25.0,2.0,-1.9,0,0,1024,1024,1024,1024,0,0,0,0,0,0,0,77,3.903,3.909,0,0,0,0,1.222,71.6,722.02012973194,0.984252,11,AutoTakeoff,,0.3
302300,2026-01-07 12:34:04,,,722.34821373194,1.312336,0.447388,2.01107946068,0.64203414128,18,5,7.812,722.34821373194,1.312336,0.447388,2.20040689456,0.0,0.447388,-2.013246,25.0,2.2,-1.6,0,0,1024,1390,1024,1024,0,55,0,0,0,0,0,77,3.903,3.909,0,0,0,0,1.222,71.6,722.34821373194,1.312336,11,AutoTakeoff,,0.4
302400,2026-01-07 12:34:05,,,722.67629773194,1.64042,0.223694,1.9613189604,0.70952430092,18,5,7.686,722.67629773194,1.64042,0.447388,2.20040689456,0.0,0.223694,-2.23694,25.0,2.5,-1.7,0,0,1024,1399,1024,1024,0,57,0,0,0,0,0,77,3.846,3.84,0,0,0,0,2.932,71.6,722.67629773194,1.64042,11,AutoTakeoff,Home Point updated. RTH altitude adjusted to 500 m (Code: 120852),0.5
302500,2026-01-07 12:34:05,,,723.00438173194,1.968504,0.3131716,1.88044953524,0.81447509168,18,5,7.686,723.00438173194,1.968504,0.447388,2.20040689456,0.223694,0.223694,-2.23694,25.1,2.7,0.6,0,0,1024,1024,1024,1024,0,0,0,0,0,0,0,77,3.846,3.84,0,0,0,0,2.932,71.6,723.00438173194,1.968504,11,AutoTakeoff,,0.6
302600,2026-01-07 12:34:05,,,723.33246573194,2.296588,0.3131716,1.82921265696,0.87971459508,18,5,7.686,723.33246573194,2.296588,0.447388,2.20040689456,0.0,0.223694,-2.23694,25.4,3.0,9.1,0,0,1024,1024,1024,770,0,0,0,-38,0,0,0,77,3.846,3.84,0,0,0,0,2.932,71.6,723.33246573194,2.296588,11,AutoTakeoff,,0.7
302700,2026-01-07 12:34:05,,,723.66054973194,2.624672,0.447388,1.77719493876,0.97120081848,18,5,7.686,723.66054973194,2.624672,0.447388,2.20040689456,0.0,0.447388,-2.23694,25.0,2.9,2.2,0,0,1024,1024,1024,770,0,0,0,-38,0,0,0,77,3.846,3.84,0,0,0,0,2.932,71.6,723.66054973194,2.624672,11,AutoTakeoff,,0.8
302800,2026-01-07 12:34:05,,,723.98863373194,2.952756,0.447388,1.73857945196,1.05963914152,18,5,7.686,723.98863373194,2.952756,0.447388,2.20040689456,0.0,0.447388,-2.23694,24.5,3.1,-0.8,0,0,1024,1024,1024,1024,0,0,0,0,0,0,0,77,3.846,3.84,0,0,0,0,2.932,71.6,723.98863373194,2.952756,6,P-GPS,,0.9
302900,2026-01-07 12:34:05,,,723.98863373194,3.28084,0.447388,1.70279861092,1.14469163768,18,5,7.686,723.98863373194,2.952756,0.447388,2.20040689456,0.0,0.447388,-1.789552,22.8,3.1,-1.9,0,0,1024,1024,1024,1684,0,0,0,100,0,0,0,77,3.846,3.84,0,0,0,0,2.932,71.6,723.98863373194,2.952756,6,P-GPS,,0.9
303000,2026-01-07 12:34:05,,,724.31671773194,3.608924,0.447388,1.67981960756,1.18841211152,18,5,7.686,724.31671773194,3.28084,0.447388,2.20040689456,0.0,0.223694,-1.342164,26.5,3.3,-2.4,0,0,1024,1024,1024,1684,0,0,0,100,0,0,0,77,3.846,3.84,0,0,0,0,2.932,71.6,724.31671773194,3.28084,6,P-GPS,,1.0
303100,2026-01-07 12:34:05,,,724.64480173194,3.608924,0.3131716,1.65582026296,1.21595476332,18,5,7.686,724.64480173194,3.608924,0.447388,2.20040689456,0.223694,0.223694,-0.894776,39.5,3.5,-0.7,0,0,1024,1024,1024,1024,0,0,0,0,0,0,0,77,3.846,3.84,0,0,0,0,2.932,71.6,724.64480173194,3.608924,6,P-GPS,,1.1
303200,2026-01-07 12:34:05,,,724.64480173194,3.608924,0.223694,1.61485897556,1.25722773052,18,5,7.686,724.64480173194,3.608924,0.447388,2.20040689456,0.223694,0.0,-0.447388,50.2,3.5,0.5,0,0,1024,1024,1024,1024,0,0,0,0,0,0,0,77,3.846,3.84,0,0,0,0,2.932,71.6,724.64480173194,3.608924,6,P-GPS,,1.1
303300,2026-01-07 12:34:05,,,724.64480173194,3.937008,0.223694,1.57072839672,1.30265096032,18,5,7.686,724.64480173194,3.608924,0.447388,2.20040689456,0.223694,0.0,0.0,50.0,3.5,0.7,0,0,1024,1024,1173,1024,0,0,23,0,0,0,0,77,3.846,3.84,0,0,0,0,2.932,71.6,724.64480173194,3.608924,6,P-GPS,,1.1
303400,2026-01-07 12:34:06,,,724.97288573194,3.937008,0.0,1.55652564036,1.33949151268,18,5,7.546,724.97288573194,3.937008,0.447388,2.20040689456,0.0,0.0,0.0,50.0,3.3,0.1,0,0,1024,1024,1684,1024,0,0,100,0,0,0,0,77,3.768,3.779,0,0,0,0,5.561,71.6,724.97288573194,3.937008,6,P-GPS,,1.2
303500,2026-01-07 12:34:06,,,724.97288573194,3.937008,0.0,1.54250989188,1.36854335088,17,5,7.546,724.97288573194,3.937008,0.447388,2.20040689456,0.0,0.0,0.0,50.1,3.1,0.8,0,0,1024,1024,1684,1024,0,0,100,0,0,0,0,77,3.768,3.779,0,0,0,0,5.561,71.6,724.97288573194,3.937008,6,P-GPS,,1.2
303600,2026-01-07 12:34:06,,,724.97288573194,3.937008,0.0,1.5235892876,1.38844820716,17,5,7.546,724.97288573194,3.937008,0.447388,2.20040689456,0.0,0.0,0.0,50.2,2.0,1.3,0,0,1024,1024,1684,1024,0,0,100,0,0,0,0,77,3.768,3.779,0,0,0,0,5.561,71.6,724.97288573194,3.937008,6,P-GPS,,1.2
303700,2026-01-07 12:34:06,,,724.97288573194,3.937008,0.0,1.50213587484,1.41600726316,17,5,7.546,724.97288573194,3.937008,0.447388,2.20040689456,0.0,0.0,-0.671082,50.1,1.8,1.5,0,0,1024,1024,1684,1024,0,0,100,0,0,0,0,77,3.768,3.779,0,0,0,0,5.561,71.6,724.97288573194,3.937008,6,P-GPS,,1.2
303800,2026-01-07 12:34:06,,,725.30096973194,4.265092,0.0,1.49051185872,1.46660437764,17,5,7.546,725.30096973194,4.265092,0.447388,2.20040689456,0.0,0.0,-1.342164,50.0,1.8,0.8,0,0,1024,1024,1684,1024,0,0,100,0,0,0,0,77,3.768,3.779,0,0,0,0,5.561,71.6,725.30096973194,4.265092,6,P-GPS,,1.3
303900,2026-01-07 12:34:06,,,725.30096973194,4.265092,0.0,1.47253285552,1.50269689848,17,5,7.546,725.30096973194,4.265092,0.447388,2.20040689456,0.0,0.0,-2.23694,50.0,2.0,0.9,0,0,1024,1024,1684,1024,0,0,100,0,0,0,0,77,3.768,3.779,0,0,0,0,5.561,71.6,725.30096973194,4.265092,6,P-GPS,,1.3
304000,2026-01-07 12:34:06,,,725.95713773194,4.92126,0.0,1.45973101784,1.54156500996,17,5,7.546,725.95713773194,4.92126,0.447388,2.20040689456,0.0,0.0,-2.908022,50.0,1.5,0.9,0,0,1024,1024,1684,1024,0,0,100,0,0,0,0,77,3.768,3.779,0,0,0,0,5.561,71.6,725.95713773194,4.92126,6,P-GPS,,1.5
304100,2026-01-07 12:34:06,,,726.28522173194,5.249344,0.0,1.44473101736,1.58552170428,16,5,7.546,726.28522173194,5.249344,0.447388,2.20040689456,0.0,0.0,-3.579104,50.0,1.0,1.6,0,0,1024,1024,1684,1024,0,0,100,0,0,0,0,77,3.768,3.779,0,0,0,0,5.561,71.6,726.28522173194,5.249344,6,P-GPS,,1.6
304200,2026-01-07 12:34:06,,,726.94138973194,5.905512,0.0,1.48903548072,1.7265912626,16,5,7.546,726.94138973194,5.905512,0.447388,2.20040689456,0.0,0.0,-4.026492,50.0,0.7,2.0,0,0,1024,1024,1684,1024,0,0,100,0,0,0,0,77,3.768,3.779,0,0,0,0,5.561,71.6,726.94138973194,5.905512,6,P-GPS,,1.8
304300,2026-01-07 12:34:06,,,727.59755773194,6.56168,0.223694,1.48272970624,1.7902559628,17,5,7.546,727.59755773194,6.56168,0.447388,2.20040689456,0.223694,0.0,-4.250186,50.0,0.9,2.1,0,0,1024,1024,1684,1024,0,0,100,0,0,0,0,77,3.768,3.779,0,0,0,0,5.561,71.6,727.59755773194,6.56168,6,P-GPS,,2.0
304400,2026-01-07 12:34:07,,,728.25372573194,7.217848,0.223694,1.45718836684,1.82800858868,17,5,7.532,728.25372573194,7.217848,0.447388,2.20040689456,0.223694,0.0,-4.250186,50.1,1.6,1.7,0,0,1024,1024,1684,1024,0,0,100,0,0,0,0,77,3.771,3.761,0,0,0,0,5.731,71.6,728.25372573194,7.217848,6,P-GPS,,2.2
304500,2026-01-07 12:34:07,,,728.90989373194,7.874016,0.223694,1.4211286544,1.86870412804,17,5,7.532,728.90989373194,7.874016,0.447388,2.20040689456,0.223694,0.0,-4.47388,50.1,2.4,1.7,0,0,1024,1024,1684,1024,0,0,100,0,0,0,0,77,3.771,3.761,0,0,0,0,5.731,71.6,728.90989373194,7.874016,6,P-GPS,,2.4
304600,2026-01-07 12:34:07,,,729.56606173194,8.530184,0.223694,1.385498732,1.90465229192,17,5,7.532,729.56606173194,8.530184,0.447388,2.20040689456,0.223694,0.0,-4.47388,50.1,2.9,1.4,0,0,1024,1024,1684,1024,0,0,100,0,0,0,0,77,3.771,3.761,0,0,0,0,5.731,71.6,729.56606173194,8.530184,6,P-GPS,,2.6
304700,2026-01-07 12:34:07,,,730.22222973194,9.186352,0.3131716,1.34856631612,1.95606633556,18,5,7.532,730.22222973194,9.186352,0.447388,2.20040689456,0.223694,0.223694,-4.250186,50.2,3.9,1.2,0,0,1024,1024,1684,1024,0,0,100,0,0,0,0,77,3.771,3.761,0,0,0,0,5.731,71.6,730.22222973194,9.186352,6,P-GPS,,2.8
304800,2026-01-07 12:34:07,,,730.87839773194,9.84252,0.223694,1.27343508012,2.03716213868,18,5,7.532,730.87839773194,9.84252,0.447388,2.20040689456,0.223694,0.0,-4.250186,50.3,4.5,1.3,0,0,1024,1024,1684,1024,0,0,100,0,0,0,0,77,3.771,3.761,0,0,0,0,5.731,71.6,730.87839773194,9.84252,6,P-GPS,,3.0
304900,2026-01-07 12:34:07,,,731.53456573194,10.170604,0.223694,1.19324806968,2.12533143284,18,5,7.532,731.53456573194,10.498688,0.447388,2.20040689456,0.223694,0.0,-4.250186,50.3,4.7,1.5,0,0,1024,1024,1684,1024,0,0,100,0,0,0,0,77,3.771,3.761,0,0,0,0,5.731,71.6,731.53456573194,10.498688,6,P-GPS,,3.2
305000,2026-01-07 12:34:07,,,732.19073373194,10.826772,0.223694,1.13150266088,2.19047579188,18,5,7.532,732.19073373194,11.154856,0.447388,2.20040689456,0.223694,0.0,-4.250186,50.3,4.4,1.7,0,0,1024,1024,1684,1024,0,0,100,0,0,0,0,77,3.771,3.761,0,0,0,0,5.731,71.6,732.19073373194,11.154856,6,P-GPS,,3.4
305100,2026-01-07 12:34:07,,,732.84690173194,11.48294,0.0,0.97741801028,2.3867946958,18,5,7.532,732.84690173194,11.811024,0.447388,2.20040689456,0.0,0.0,-4.250186,50.3,4.4,1.7,0,0,1024,1024,1684,1024,0,0,100,0,0,0,0,77,3.771,3.761,0,0,0,0,5.731,71.6,732.84690173194,11.811024,6,P-GPS,,3.6
305200,2026-01-07 12:34:07,,,733.50306973194,12.139108,0.0,0.95025921676,2.41396989352,18,5,7.532,733.50306973194,12.467192,0.447388,2.20040689456,0.0,0.0,-4.250186,50.2,3.9,1.6,0,0,1024,1024,1684,1024,0,0,100,0,0,0,0,77,3.771,3.761,0,0,0,0,5.731,71.6,733.50306973194,12.467192,6,P-GPS,,3.8
305300,2026-01-07 12:34:07,,,734.15923773194,12.795276,0.0,0.93149281196,2.43445873932,18,5,7.532,734.15923773194,13.12336,0.447388,2.20040689456,0.0,0.0,-4.250186,50.2,3.3,1.5,0,0,1024,1024,1684,1024,0,0,100,0,0,0,0,77,3.771,3.761,0,0,0,0,5.731,71.6,734.15923773194,13.12336,6,P-GPS,,4.0
305400,2026-01-07 12:34:08,,,734.81540573194,13.451444,0.0,0.92402233928,2.44196530124,18,5,7.575,734.81540573194,13.779528,0.447388,2.20040689456,0.0,0.0,-4.47388,50.1,3.6,1.8,0,0,1024,1024,1684,1024,0,0,100,0,0,0,0,77,3.789,3.788,0,0,0,0,5.844,71.6,734.81540573194,13.779528,6,P-GPS,,4.2
305500,2026-01-07 12:34:08,,,735.47157373194,14.107612,0.0,0.92174215548,2.4478675324,18,5,7.575,735.47157373194,14.435696,0.447388,2.20040689456,0.0,0.0,-4.47388,50.1,3.3,2.2,0,0,1024,1024,1684,1024,0,0,100,0,0,0,0,77,3.789,3.788,0,0,0,0,5.844,71.6,735.47157373194,14.435696,6,P-GPS,,4.4
305600,2026-01-07 12:34:08,,,736.12774173194,14.76378,0.0,0.96307089696,2.48947842612,18,5,7.575,736.12774173194,15.091864,0.447388,2.20040689456,0.0,0.0,-4.250186,50.1,3.5,2.3,0,0,1024,1024,1684,1024,0,0,100,0,0,0,0,77,3.789,3.788,0,0,0,0,5.844,71.6,736.12774173194,15.091864,6,P-GPS,,4.6
305700,2026-01-07 12:34:08,,,736.78390973194,15.419948,0.0,1.01867785412,2.54526582948,17,5,7.575,736.78390973194,15.748032,0.447388,2.20040689456,0.0,0.0,-4.250186,50.2,2.8,2.3,0,0,1024,1024,1684,1024,0,0,100,0,0,0,0,77,3.789,3.788,0,0,0,0,5.844,71.6,736.78390973194,15.748032,6,P-GPS,,4.8
305800,2026-01-07 12:34:08,,,737.44007773194,16.076116,0.0,1.0523950468,2.57938328464,17,5,7.575,737.44007773194,16.4042,0.447388,2.20040689456,0.0,0.0,-4.47388,50.1,3.2,2.2,0,0,1024,1024,1684,1024,0,0,100,0,0,0,0,77,3.789,3.788,0,0,0,0,5.844,71.6,737.44007773194,16.4042,6,P-GPS,,5.0
305900,2026-01-07 12:34:08,,,738.09624573194,16.732284,0.0,1.18131237376,2.70972121532,17,5,7.575,738.09624573194,17.060368,0.447388,2.20040689456,0.0,0.0,-4.47388,50.2,3.4,2.4,0,0,1024,1024,1684,1024,0,0,100,0,0,0,0,77,3.789,3.788,0,0,0,0,5.844,71.6,738.09624573194,17.060368,6,P-GPS,,5.2
306000,2026-01-07 12:34:08,,,739.08049773194,17.388452,0.0,1.204396364,2.73470809276,17,5,7.575,739.08049773194,18.04462,0.447388,2.20040689456,0.0,0.0,-4.250186,50.1,2.8,2.2,0,0,1024,1024,1684,1024,0,0,100,0,0,0,0,77,3.789,3.788,0,0,0,0,5.844,71.6,739.08049773194,18.04462,6,P-GPS,,5.5
306100,2026-01-07 12:34:08,,,739.73666573194,18.04462,0.0,1.22291014412,2.7569226604,17,5,7.575,739.73666573194,18.700788,0.447388,2.20040689456,0.0,0.0,-4.250186,49.9,2.7,2.0,0,0,1024,1024,1684,1024,0,0,100,0,0,0,0,77,3.789,3.788,0,0,0,0,5.844,71.6,739.73666573194,18.700788,6,P-GPS,,5.7
306200,2026-01-07 12:34:08,,,740.39283373194,18.700788,0.0,1.24545279576,2.78545284504,17,5,7.575,740.39283373194,19.356956,0.447388,2.20040689456,0.0,0.0,-4.250186,49.9,3.2,2.0,0,0,1024,1024,1684,1024,0,0,100,0,0,0,0,77,3.789,3.788,0,0,0,0,5.844,71.6,740.39283373194,19.356956,6,P-GPS,,5.9
306300,2026-01-07 12:34:08,,,741.04900173194,19.356956,0.0,1.26708665472,2.8178806676,17,5,7.547,741.04900173194,20.013124,0.447388,2.20040689456,0.0,0.0,-4.47388,50.0,3.7,1.7,0,0,1024,1024,1684,1024,0,0,100,0,0,0,0,77,3.777,3.772,0,0,0,0,5.785,71.6,741.04900173194,20.013124,6,P-GPS,,6.1
306400,2026-01-07 12:34:09,,,741.70516973194,20.341208,0.0,1.2817585712,2.83674877844,17,5,7.547,741.70516973194,20.669292,0.447388,2.20040689456,0.0,0.0,-4.47388,50.0,3.7,2.2,0,0,1024,1024,1684,1024,0,0,100,0,0,0,0,77,3.777,3.772,0,0,0,0,5.785,71.6,741.70516973194,20.669292,6,P-GPS,,6.3
306500,2026-01-07 12:34:09,,,742.68942173194,20.997376,0.0,1.29431434588,2.8502789626,17,5,7.547,742.68942173194,21.653544,0.447388,2.20040689456,0.0,0.0,-4.47388,50.2,3.6,3.0,0,0,1024,1024,1684,1024,0,0,100,0,0,0,0,77,3.777,3.772,0,0,0,0,5.785,71.6,742.68942173194,21.653544,6,P-GPS,,6.6
306600,2026-01-07 12:34:09,,,743.34558973194,21.981628,0.0,1.285843217,2.8700132152,17,5,7.547,743.34558973194,22.309712,0.447388,2.20040689456,0.0,0.0,-4.47388,50.1,3.4,2.8,0,0,1024,1024,1684,1024,0,0,100,0,0,0,0,77,3.777,3.772,0,0,0,0,5.785,71.6,743.34558973194,22.309712,6,P-GPS,,6.8
306700,2026-01-07 12:34:09,,,744.00175773194,22.96588,0.0,1.27235240292,2.89742791424,17,5,7.547,744.00175773194,22.96588,0.447388,2.20040689456,0.0,0.0,-4.47388,50.1,3.0,2.7,0,0,1024,1024,1684,1024,0,0,100,0,0,0,0,77,3.777,3.772,0,0,0,0,5.785,71.6,744.00175773194,22.96588,6,P-GPS,,7.0
306800,2026-01-07 12:34:09,,,744.65792573194,23.622048,0.0,1.23468179804,3.02371072668,17,5,7.547,744.65792573194,23.622048,0.447388,2.20040689456,0.0,0.0,-4.47388,50.1,2.8,3.2,0,0,1024,1024,1684,1024,0,0,100,0,0,0,0,77,3.777,3.772,0,0,0,0,5.785,71.6,744.65792573194,23.622048,6,P-GPS,,7.2
306900,2026-01-07 12:34:09,,,745.31409373194,24.6063,0.0,1.22922248028,3.06977043944,18,5,7.547,745.31409373194,24.278216,0.447388,2.20040689456,0.0,0.0,-4.47388,50.2,3.2,3.8,0,0,1024,1024,1684,1024,0,0,100,0,0,0,0,77,3.777,3.772,0,0,0,0,5.785,71.6,745.31409373194,24.278216,6,P-GPS,,7.4
307000,2026-01-07 12:34:09,,,745.97026173194,25.262468,0.0,1.25928153636,3.09997385248,18,5,7.547,745.97026173194,24.934384,0.447388,2.20040689456,0.0,0.0,-4.47388,50.3,3.1,3.6,0,0,1024,1024,1684,1024,0,0,100,0,0,0,0,77,3.777,3.772,0,0,0,0,5.785,71.6,745.97026173194,24.934384,6,P-GPS,,7.6
307100,2026-01-07 12:34:09,,,746.95451373194,25.918636,0.0,1.29819229876,3.1414699168,17,5,7.547,746.95451373194,25.918636,0.447388,2.20040689456,0.0,0.0,-4.47388,50.2,3.2,3.4,0,0,1024,1024,1684,1024,0,0,100,0,0,0,0,77,3.777,3.772,0,0,0,0,5.785,71.6,746.95451373194,25.918636,6,P-GPS,,7.9
307200,2026-01-07 12:34:09,,,747.61068173194,26.902888,0.0,1.38982615996,3.27263461916,17,5,7.547,747.61068173194,26.574804,0.447388,2.20040689456,0.0,0.0,-4.47388,50.2,3.5,3.2,0,0,1024,1024,1684,1024,0,0,100,0,0,0,0,77,3.777,3.772,0,0,0,0,5.785,71.6,747.61068173194,26.574804,6,P-GPS,,8.1
307300,2026-01-07 12:34:09,,,748.26684973194,27.559056,0.0,1.39390424408,3.27946860888,17,5,7.547,748.26684973194,27.230972,0.447388,2.20040689456,0.0,0.0,-4.47388,50.1,3.5,3.0,0,0,1024,1024,1684,1024,0,0,100,0,0,0,0,77,3.777,3.772,0,0,0,0,5.785,71.6,748.26684973194,27.230972,6,P-GPS,,8.3
307400,2026-01-07 12:34:10,,,748.92301773194,28.543308,0.0,1.37302825916,3.30134525,17,5,7.547,748.92301773194,27.88714,0.447388,2.20040689456,0.0,0.0,-4.47388,50.1,3.8,3.1,0,0,1024,1024,1684,1024,0,0,100,0,0,0,0,77,3.785,3.78,0,0,0,0,5.785,71.6,748.92301773194,27.88714,6,P-GPS,,8.5
307500,2026-01-07 12:34:10,,,749.57918573194,29.199476,0.0,1.3465715654,3.3296260908,18,5,7.547,749.57918573194,28.543308,0.447388,2.20040689456,0.0,0.0,-4.47388,50.0,3.5,3.3,0,0,1024,1024,1684,1024,0,0,100,0,0,0,0,77,3.785,3.78,0,0,0,0,5.785,71.6,749.57918573194,28.543308,6,P-GPS,,8.7
307600,2026-01-07 12:34:10,,,750.23535373194,30.183728,0.0,1.35819230068,3.369750764,18,5,7.547,750.23535373194,29.199476,0.447388,2.20040689456,0.0,0.0,-4.47388,50.0,3.8,3.2,0,0,1024,1024,1684,1024,0,0,100,0,0,0,0,77,3.785,3.78,0,0,0,0,5.785,71.6,750.23535373194,29.199476,6,P-GPS,,8.9
307700,2026-01-07 12:34:10,,,750.89152173194,30.839896,0.0,1.3746555558,3.3986877728,17,5,7.547,750.89152173194,29.855644,0.447388,2.20040689456,0.0,0.0,-4.47388,50.0,3.9,3.1,0,0,1024,1024,1684,1024,0,0,100,0,0,0,0,77,3.785,3.78,0,0,0,0,5.785,71.6,750.89152173194,29.855644,6,P-GPS,,9.1
307800,2026-01-07 12:34:10,,,751.54768973194,31.824148,0.0,1.38045280008,3.4169620516,17,5,7.547,751.54768973194,30.511812,0.447388,2.20040689456,0.0,0.0,-4.47388,50.0,4.5,2.9,0,0,1024,1024,1684,1024,0,0,100,0,0,0,0,77,3.785,3.78,0,0,0,0,5.785,71.6,751.54768973194,30.511812,6,P-GPS,,9.3
307900,2026-01-07 12:34:10,,,752.20385773194,32.480316,0.0,1.38514440128,3.4333334432,17,5,7.547,752.20385773194,31.16798,0.447388,2.20040689456,0.0,0.0,-4.47388,50.0,4.7,2.7,0,0,1024,1024,1684,1024,0,0,100,0,0,0,0,77,3.785,3.78,0,0,0,0,5.785,71.6,752.20385773194,31.16798,6,P-GPS,,9.5
308000,2026-01-07 12:34:10,,,752.86002573194,33.136484,0.0,1.39249676372,3.4426838372,17,5,7.547,752.86002573194,31.824148,0.447388,2.20040689456,0.0,0.0,-4.47388,49.9,4.2,2.9,0,0,1024,1024,1024,1024,0,0,0,0,0,0,0,77,3.785,3.78,0,0,0,0,5.785,71.6,752.86002573194,31.824148,6,P-GPS,,9.7
308100,2026-01-07 12:34:10,,,753.51619373194,33.792652,0.0,1.3958989948,3.483595912,17,5,7.547,753.51619373194,32.480316,0.447388,2.20040689456,0.0,0.0,-4.47388,50.0,4.6,3.2,0,0,1024,1024,1024,1024,0,0,0,0,0,0,0,77,3.785,3.78,0,0,0,0,5.785,71.6,753.51619373194,32.480316,6,P-GPS,,9.9
308200,2026-01-07 12:34:10,,,754.17236173194,34.44882,0.0,1.37865161892,3.5014436816,17,5,7.547,754.17236173194,33.136484,0.447388,2.20040689456,0.0,0.0,-4.250186,50.1,5.2,3.8,0,0,1024,1024,1024,1024,0,0,0,0,0,0,0,77,3.785,3.78,0,0,0,0,5.785,71.6,754.17236173194,33.136484,6,P-GPS,,10.1
308300,2026-01-07 12:34:10,,,754.50044573194,35.104988,0.0,1.35778547652,3.522473866,18,5,7.547,754.50044573194,33.464568,0.447388,2.20040689456,0.0,0.0,-3.579104,50.1,5.7,3.4,0,0,1024,1024,1024,1024,0,0,0,0,0,0,0,77,3.785,3.78,0,0,0,0,5.785,71.6,754.50044573194,33.464568,6,P-GPS,,10.2
308400,2026-01-07 12:34:11,,,754.82852973194,35.761156,0.0,1.36402235336,3.5290027376,18,5,7.547,754.82852973194,33.792652,0.447388,2.20040689456,0.0,0.0,-2.908022,50.1,5.4,3.3,0,0,1024,1024,1024,1024,0,0,0,0,0,0,0,77,3.785,3.78,0,0,0,0,5.785,71.6,754.82852973194,33.792652,6,P-GPS,,10.3
308500,2026-01-07 12:34:11,,,755.15661373194,36.08924,0.0,1.38575463752,3.552001426,18,5,7.558,755.15661373194,34.120736,0.447388,2.20040689456,0.0,0.0,-2.013246,50.1,5.0,3.7,0,0,1024,1024,1024,1024,0,0,0,0,0,0,0,77,3.827,3.823,0,0,0,0,5.719,71.6,755.15661373194,34.120736,6,P-GPS,,10.4
308600,2026-01-07 12:34:11,,,755.48469773194,36.08924,0.0,1.40325463808,3.5710959148,18,5,7.558,755.48469773194,34.44882,0.447388,2.20040689456,0.0,0.0,-1.342164,50.2,4.9,4.3,0,0,1024,1024,1024,1024,0,0,0,0,0,0,0,77,3.827,3.823,0,0,0,0,5.719,71.6,755.48469773194,34.44882,6,P-GPS,,10.5
308700,2026-01-07 12:34:11,,,755.81278173194,36.417324,0.0,1.42033797196,3.5924869916,18,5,7.558,755.81278173194,34.776904,0.447388,2.20040689456,0.0,0.0,-0.671082,50.2,5.0,4.0,0,0,1024,1024,1024,1024,0,0,0,0,0,0,0,77,3.827,3.823,0,0,0,0,5.719,71.6,755.81278173194,34.776904,6,P-GPS,,10.6
308800,2026-01-07 12:34:11,,,755.81278173194,36.417324,0.0,1.42466539992,3.5993767556,18,5,7.558,755.81278173194,34.776904,0.447388,2.20040689456,0.0,0.0,-0.223694,50.1,5.0,4.0,0,0,1024,1024,1024,1024,0,0,0,0,0,0,0,77,3.827,3.823,0,0,0,0,5.719,71.6,755.81278173194,34.776904,6,P-GPS,,10.6
308900,2026-01-07 12:34:11,,,755.81278173194,36.417324,0.0,1.44248036112,3.6346129772,18,5,7.558,755.81278173194,34.776904,0.447388,2.20040689456,0.0,0.0,0.0,50.1,5.6,4.1,0,0,1024,1024,1024,1024,0,0,0,0,0,0,0,77,3.827,3.823,0,0,0,0,5.719,71.6,755.81278173194,34.776904,6,P-GPS,,10.6
309000,2026-01-07 12:34:11,,,755.81278173194,36.417324,0.0,1.41831369368,3.6704069416,18,5,7.558,755.81278173194,34.776904,0.447388,2.20040689456,0.0,0.0,0.0,50.2,6.3,4.2,0,0,1024,1024,1024,1024,0,0,0,0,0,0,0,77,3.827,3.823,0,0,0,0,5.719,71.6,755.81278173194,34.776904,6,P-GPS,,10.6
309100,2026-01-07 12:34:11,,,756.14086573194,36.417324,0.0,1.39150595004,3.7139764968,18,5,7.558,756.14086573194,35.104988,0.447388,2.20040689456,0.0,0.0,0.0,50.3,6.3,3.9,0,0,1024,1024,1024,1024,0,0,0,0,0,0,0,77,3.827,3.823,0,0,0,0,5.719,71.6,756.14086573194,35.104988,6,P-GPS,,10.7
309200,2026-01-07 12:34:11,,,756.14086573194,36.417324,0.0,1.35827104084,3.7473426396,18,5,7.558,756.14086573194,35.104988,0.447388,2.20040689456,0.0,0.0,0.0,50.2,6.3,3.9,0,0,1024,1024,1024,1024,0,0,0,0,0,0,0,77,3.827,3.823,0,0,0,0,5.719,71.6,756.14086573194,35.104988,6,P-GPS,,10.7
309300,2026-01-07 12:34:11,,,756.14086573194,36.417324,0.0,1.22645673216,3.880905636,18,5,7.558,756.14086573194,35.104988,0.447388,2.20040689456,0.0,0.0,0.0,50.2,6.1,3.9,0,0,1024,1024,1024,1024,0,0,0,0,0,0,0,77,3.827,3.823,0,0,0,0,5.719,71.6,756.14086573194,35.104988,6,P-GPS,,10.7
309400,2026-01-07 12:34:12,,,756.14086573194,36.417324,0.0,1.20395016976,3.9062009124,18,5,7.558,756.14086573194,35.104988,0.447388,2.20040689456,0.0,0.0,0.0,50.1,5.6,4.0,0,0,1024,1024,1024,1024,0,0,0,0,0,0,0,77,3.827,3.823,0,0,0,0,5.719,71.6,756.14086573194,35.104988,6,P-GPS,,10.7
309500,2026-01-07 12:34:12,,,756.14086573194,36.417324,0.0,1.18294951292,3.9305775536,18,5,7.558,756.14086573194,35.104988,0.447388,2.20040689456,0.0,0.0,0.0,50.2,5.8,3.8,0,0,1024,1024,1024,1024,0,0,0,0,0,0,0,77,3.827,3.823,0,0,0,0,5.719,71.6,756.14086573194,35.104988,6,P-GPS,,10.7
309600,2026-01-07 12:34:12,,,756.14086573194,36.417324,0.0,1.18146001156,3.9457350344,18,5,7.599,756.14086573194,35.104988,0.447388,2.20040689456,0.0,0.0,0.0,50.2,5.8,3.9,0,0,1024,1024,1024,1024,0,0,0,0,0,0,0,77,3.807,3.799,0,0,0,0,4.187,71.6,756.14086573194,35.104988,6,P-GPS,,10.7
309700,2026-01-07 12:34:12,,,756.14086573194,36.417324,0.0,1.18715226896,3.961450258,18,5,7.599,756.14086573194,35.104988,0.447388,2.20040689456,0.0,0.0,0.0,50.2,5.4,3.6,0,0,1024,1024,1024,1024,0,0,0,0,0,0,0,77,3.807,3.799,0,0,0,0,4.187,71.6,756.14086573194,35.104988,6,P-GPS,,10.7
309800,2026-01-07 12:34:12,,,756.14086573194,36.417324,0.0,1.20415358184,3.9994423852,18,5,7.599,756.14086573194,35.104988,0.447388,2.20040689456,0.0,0.0,0.0,50.3,4.9,3.5,0,0,1024,1024,1024,1024,0,0,0,0,0,0,0,77,3.807,3.799,0,0,0,0,4.187,71.6,756.14086573194,35.104988,6,P-GPS,,10.7
309900,2026-01-07 12:34:12,,,756.14086573194,36.417324,0.0,1.22317589216,4.0425198144,18,5,7.599,756.14086573194,35.104988,0.447388,2.20040689456,0.0,0.0,0.0,50.2,5.1,3.4,0,0,1024,1024,1024,1024,0,0,0,0,0,0,0,77,3.807,3.799,0,0,0,0,4.187,71.6,756.14086573194,35.104988,6,P-GPS,,10.7
310000,2026-01-07 12:34:12,,,756.14086573194,36.417324,0.0,1.2247211678,4.0708006552,18,5,7.599,756.14086573194,35.104988,0.447388,2.20040689456,0.0,0.0,0.0,50.3,5.8,3.5,0,0,1024,1024,1024,1024,0,0,0,0,0,0,0,77,3.807,3.799,0,0,0,0,4.187,71.6,756.14086573194,35.104988,6,P-GPS,,10.7
310100,2026-01-07 12:34:12,,,756.14086573194,36.417324,0.0,1.2200787792,4.0975723096,18,5,7.599,756.14086573194,35.104988,0.447388,2.20040689456,0.0,0.0,0.0,50.2,6.2,3.5,0,0,1024,1024,1024,1024,0,0,0,0,0,0,0,77,3.807,3.799,0,0,0,0,4.187,71.6,756.14086573194,35.104988,6,P-GPS,,10.7
310200,2026-01-07 12:34:12,,,755.81278173194,36.417324,0.0,1.25418639184,4.1426510512,18,5,7.599,756.14086573194,35.104988,0.447388,2.20040689456,0.0,0.0,0.0,50.2,6.2,3.3,0,0,1024,1024,1024,1024,0,0,0,0,0,0,0,77,3.807,3.799,0,0,0,0,4.187,71.6,755.81278173194,34.776904,6,P-GPS,,10.6
310300,2026-01-07 12:34:12,,,755.81278173194,36.417324,0.0,1.26897641856,4.1575132564,18,5,7.599,756.14086573194,35.104988,0.447388,2.20040689456,0.0,0.0,0.0,50.1,5.8,3.3,0,0,1024,1024,1024,1024,0,0,0,0,0,0,0,77,3.807,3.799,0,0,0,0,4.187,71.6,755.81278173194,34.776904,6,P-GPS,,10.6
310400,2026-01-07 12:34:13,,,755.81278173194,36.417324,0.0,1.26866473876,4.1587271672,18,5,7.599,756.14086573194,35.104988,0.447388,2.20040689456,0.0,0.0,0.0,50.1,5.2,3.5,0,0,1024,1024,1024,1024,0,0,0,0,0,0,0,77,3.807,3.799,0,0,0,0,4.187,71.6,755.81278173194,34.776904,6,P-GPS,,10.6
310500,2026-01-07 12:34:13,,,755.81278173194,36.417324,0.0,1.26209977792,4.1660434404,18,5,7.599,756.14086573194,35.104988,0.447388,2.20040689456,0.0,0.0,0.0,50.1,5.6,3.7,0,0,1024,1024,1024,1024,0,0,0,0,0,0,0,77,3.807,3.799,0,0,0,0,4.187,71.6,755.81278173194,34.776904,6,P-GPS,,10.6
310600,2026-01-07 12:34:13,,,755.81278173194,36.417324,0.0,1.21631237488,4.2232284816,18,5,7.599,756.14086573194,35.104988,0.447388,2.20040689456,0.0,0.0,0.0,50.1,6.0,3.5,0,0,1024,1024,1024,1024,0,0,0,0,0,0,0,77,3.807,3.799,0,0,0,0,4.187,71.6,755.81278173194,34.776904,6,P-GPS,,10.6
310700,2026-01-07 12:34:13,,,755.81278173194,36.417324,0.0,1.20224413296,4.2394030228,18,5,7.589,756.14086573194,35.104988,0.447388,2.20040689456,0.0,0.0,0.0,50.2,5.8,3.4,0,0,1024,1024,1024,1024,0,0,0,0,0,0,0,77,3.797,3.793,0,0,0,0,4.659,71.6,755.81278173194,34.776904,6,P-GPS,,10.6
310800,2026-01-07 12:34:13,,,755.48469773194,36.417324,0.0,1.2089567316,4.2514108972,18,5,7.589,756.14086573194,35.104988,0.447388,2.20040689456,0.0,0.0,0.0,50.2,5.4,3.9,0,0,1024,1024,1024,1024,0,0,0,0,0,0,0,77,3.797,3.793,0,0,0,0,4.659,71.6,755.48469773194,34.44882,6,P-GPS,,10.5
310900,2026-01-07 12:34:13,,,755.48469773194,36.417324,0.0,1.21827103636,4.269029008,18,5,7.589,756.14086573194,35.104988,0.447388,2.20040689456,0.0,0.0,0.0,50.2,4.8,4.0,0,0,1024,1024,1024,1024,0,0,0,0,0,0,0,77,3.797,3.793,0,0,0,0,4.659,71.6,755.48469773194,34.44882,6,P-GPS,,10.5
311000,2026-01-07 12:34:13,,,755.48469773194,36.417324,0.0,1.24976381952,4.311679928,18,5,7.589,756.14086573194,35.104988,0.447388,2.20040689456,0.0,0.0,0.0,50.3,4.4,4.1,0,0,1024,1024,1024,1024,0,0,0,0,0,0,0,77,3.797,3.793,0,0,0,0,4.659,71.6,755.48469773194,34.44882,6,P-GPS,,10.5
311100,2026-01-07 12:34:13,,,755.48469773194,36.417324,0.0,1.24572510548,4.3278216608,18,5,7.589,756.14086573194,35.104988,0.447388,2.20040689456,0.0,0.0,0.0,50.3,4.5,4.1,0,0,1024,1024,1024,1024,0,0,0,0,0,0,0,77,3.797,3.793,0,0,0,0,4.659,71.6,755.48469773194,34.44882,6,P-GPS,,10.5
311200,2026-01-07 12:34:13,,,755.48469773194,36.417324,0.0,1.23928481656,4.3401904276,18,5,7.589,756.14086573194,35.104988,0.447388,2.20040689456,0.0,0.0,0.0,50.3,4.8,4.0,0,0,1024,1024,1024,1024,0,0,0,0,0,0,0,77,3.797,3.793,0,0,0,0,4.659,71.6,755.48469773194,34.44882,6,P-GPS,,10.5
311300,2026-01-07 12:34:13,,,755.48469773194,36.417324,0.0,1.23092523624,4.3520670684,18,5,7.589,756.14086573194,35.104988,0.447388,2.20040689456,0.0,0.0,0.0,50.2,4.8,4.0,0,0,1024,1024,1024,1024,0,0,0,0,0,0,0,77,3.797,3.793,0,0,0,0,4.659,71.6,755.48469773194,34.44882,6,P-GPS,,10.5
311400,2026-01-07 12:34:14,,,755.15661373194,36.417324,0.0,1.22643376628,4.362204864,18,5,7.589,756.14086573194,35.104988,0.447388,2.20040689456,0.0,0.0,0.0,50.2,5.3,3.9,0,0,1024,1024,1024,1024,0,0,0,0,0,0,0,77,3.797,3.793,0,0,0,0,4.659,71.6,755.15661373194,34.120736,6,P-GPS,,10.4
311500,2026-01-07 12:34:14,,,755.15661373194,36.417324,0.0,1.22818901568,4.3734909536,18,5,7.589,756.14086573194,35.104988,0.447388,2.20040689456,0.0,0.0,0.0,50.2,5.4,4.1,0,0,1024,1024,1024,1024,0,0,0,0,0,0,0,77,3.797,3.793,0,0,0,0,4.659,71.6,755.15661373194,34.120736,6,P-GPS,,10.4
311600,2026-01-07 12:34:14,,,755.15661373194,36.417324,0.0,1.21851053768,4.3937993532,18,5,7.589,756.14086573194,35.104988,0.447388,2.20040689456,0.0,0.0,0.0,50.4,5.2,4.4,0,0,1024,1024,1024,1024,0,0,0,0,0,0,0,77,3.797,3.793,0,0,0,0,4.659,71.6,755.15661373194,34.120736,6,P-GPS,,10.4
311700,2026-01-07 12:34:14,,,755.15661373194,36.417324,0.0,1.21213258472,4.4154857056,18,5,7.589,756.14086573194,35.104988,0.447388,2.20040689456,0.0,0.0,0.0,50.4,4.8,3.9,0,0,1024,1024,1024,1024,0,0,0,0,0,0,0,77,3.797,3.793,0,0,0,0,4.659,71.6,755.15661373194,34.120736,6,P-GPS,,10.4
311800,2026-01-07 12:34:14,,,754.82852973194,36.417324,0.0,1.2077756292,4.4302494856,18,5,7.589,756.14086573194,35.104988,0.447388,2.20040689456,0.0,0.0,0.0,50.3,4.2,3.8,0,0,1024,1024,1024,1024,0,0,0,0,0,0,0,77,3.797,3.793,0,0,0,0,4.659,71.6,754.82852973194,33.792652,6,P-GPS,,10.3
311900,2026-01-07 12:34:14,,,754.82852973194,36.417324,0.0,1.180036127,4.4625657596,18,5,7.578,756.14086573194,35.104988,0.447388,2.20040689456,0.0,0.0,0.0,50.1,3.7,3.9,0,0,1024,1024,1024,1024,0,0,0,0,0,0,0,76,3.792,3.788,0,0,0,0,4.757,71.6,754.82852973194,33.792652,6,P-GPS,,10.3
312000,2026-01-07 12:34:14,,,754.82852973194,36.417324,0.0,1.18232287248,4.474573634,18,5,7.578,756.14086573194,35.104988,0.447388,2.20040689456,0.0,0.0,0.0,50.0,3.1,4.0,0,0,1024,1024,1024,1024,0,0,0,0,0,0,0,76,3.792,3.788,0,0,0,0,4.757,71.6,754.82852973194,33.792652,6,P-GPS,,10.3
312100,2026-01-07 12:34:14,,,754.82852973194,36.417324,0.0,1.18614833192,4.4839896448,18,5,7.578,756.14086573194,35.104988,0.447388,2.20040689456,0.0,0.0,0.0,50.0,3.2,3.5,0,0,1024,1024,1024,1024,0,0,0,0,0,0,0,76,3.792,3.788,0,0,0,0,4.757,71.6,754.82852973194,33.792652,6,P-GPS,,10.3
312200,2026-01-07 12:34:14,,,754.50044573194,36.417324,0.0,1.21647969772,4.51443584,18,5,7.578,756.14086573194,35.104988,0.447388,2.20040689456,0.0,0.0,0.0,50.0,3.2,3.4,0,0,1024,1024,1024,1024,0,0,0,0,0,0,0,76,3.792,3.788,0,0,0,0,4.757,71.6,754.50044573194,33.464568,6,P-GPS,,10.2
312300,2026-01-07 12:34:14,,,754.50044573194,36.417324,0.0,1.28877628796,4.5900920104,18,5,7.578,756.14086573194,35.104988,0.447388,2.20040689456,0.0,0.0,0.0,49.9,3.2,3.1,0,0,1024,1024,1024,1024,0,0,0,0,0,0,0,76,3.792,3.788,0,0,0,0,4.757,71.6,754.50044573194,33.464568,6,P-GPS,,10.2
312400,2026-01-07 12:34:15,,,754.50044573194,36.417324,0.0,1.31858271936,4.6207022476,18,5,7.578,756.14086573194,35.104988,0.447388,2.20040689456,0.0,0.0,0.0,50.0,3.2,2.9,0,0,1024,1024,1024,1024,0,0,0,0,0,0,0,76,3.792,3.788,0,0,0,0,4.757,71.6,754.50044573194,33.464568,6,P-GPS,,10.2
312500,2026-01-07 12:34:15,,,754.50044573194,36.417324,0.0,1.34264439992,4.6470473928,18,5,7.578,756.14086573194,35.104988,0.447388,2.20040689456,0.0,0.0,0.0,50.1,3.8,3.0,0,0,1024,1024,1024,1024,0,0,0,0,0,0,0,76,3.792,3.788,0,0,0,0,4.757,71.6,754.50044573194,33.464568,6,P-GPS,,10.2
312600,2026-01-07 12:34:15,,,754.17236173194,36.417324,0.0,1.35376644752,4.6627954248,18,5,7.578,756.14086573194,35.104988,0.447388,2.20040689456,0.0,0.0,0.0,50.2,4.1,2.6,0,0,1024,1024,1024,1024,0,0,0,0,0,0,0,76,3.792,3.788,0,0,0,0,4.757,71.6,754.17236173194,33.136484,6,P-GPS,,10.1
312700,2026-01-07 12:34:15,,,754.17236173194,36.417324,0.0,1.39224741988,4.7105972636,18,5,7.578,756.14086573194,35.104988,0.447388,2.20040689456,0.0,0.0,0.0,50.2,4.5,2.6,0,0,1024,1024,1024,1024,0,0,0,0,0,0,0,76,3.792,3.788,0,0,0,0,4.757,71.6,754.17236173194,33.136484,6,P-GPS,,10.1
312800,2026-01-07 12:34:15,,,754.17236173194,36.417324,0.0,1.3900755038,4.7223426708,18,5,7.578,756.14086573194,35.104988,0.447388,2.20040689456,0.0,0.0,0.0,50.2,4.6,3.0,0,0,1024,1024,1024,1024,0,0,0,0,0,0,0,76,3.792,3.788,0,0,0,0,4.757,71.6,754.17236173194,33.136484,6,P-GPS,,10.1
312900,2026-01-07 12:34:15,,,754.17236173194,36.417324,0.0,1.388779572,4.7337271856,18,5,7.578,756.14086573194,35.104988,0.447388,2.20040689456,0.0,0.0,0.0,50.2,3.9,3.0,0,0,1024,1024,1024,1024,0,0,0,0,0,0,0,76,3.792,3.788,0,0,0,0,4.757,71.6,754.17236173194,33.136484,6,P-GPS,,10.1
313000,2026-01-07 12:34:15,,,754.17236173194,36.417324,0.0,1.39164702616,4.7528544828,18,5,7.583,756.14086573194,35.104988,0.447388,2.20040689456,0.0,0.0,0.0,50.3,3.6,2.8,0,0,1024,1024,1024,1024,0,0,0,0,0,0,0,76,3.794,3.79,0,0,0,0,4.681,71.6,754.17236173194,33.136484,6,P-GPS,,10.1
313100,2026-01-07 12:34:15,,,754.17236173194,36.417324,0.0,1.39700135704,4.7771326988,18,5,7.583,756.14086573194,35.104988,0.447388,2.20040689456,0.0,0.0,0.0,50.4,3.5,2.6,0,0,1024,1024,1024,1024,0,0,0,0,0,0,0,76,3.794,3.79,0,0,0,0,4.681,71.6,754.17236173194,33.136484,6,P-GPS,,10.1
313200,2026-01-07 12:34:15,,,754.17236173194,36.417324,0.0,1.38611224908,4.8066930672,18,5,7.583,756.14086573194,35.104988,0.447388,2.20040689456,0.0,0.0,-0.223694,50.3,3.4,2.0,0,0,1024,1024,1024,1024,0,0,0,0,0,0,0,76,3.794,3.79,0,0,0,0,4.681,71.6,754.17236173194,33.136484,6,P-GPS,,10.1
313300,2026-01-07 12:34:15,,,753.84427773194,36.417324,0.0,1.3923228792,4.8191930676,18,5,7.583,756.14086573194,35.104988,0.447388,2.20040689456,0.0,0.0,0.0,50.3,3.4,1.9,0,0,1024,1024,1024,1024,0,0,0,0,0,0,0,76,3.794,3.79,0,0,0,0,4.681,71.6,753.84427773194,32.8084,6,P-GPS,,10.0
313400,2026-01-07 12:34:16,,,753.84427773194,36.417324,0.0,1.41093836536,4.851050024,18,5,7.583,756.14086573194,35.104988,0.447388,2.20040689456,0.0,0.0,0.0,50.2,3.7,1.3,0,0,1024,1024,1024,1024,0,0,0,0,0,0,0,76,3.794,3.79,0,0,0,0,4.681,71.6,753.84427773194,32.8084,6,P-GPS,,10.0
313500,2026-01-07 12:34:16,,,753.84427773194,36.417324,0.0,1.43301185688,4.890420104,18,5,7.583,756.14086573194,35.104988,0.447388,2.20040689456,0.0,0.0,0.0,50.1,3.6,0.6,0,0,1024,1024,1024,1024,0,0,0,0,0,0,0,76,3.794,3.79,0,0,0,0,4.681,71.6,753.84427773194,32.8084,6,P-GPS,,10.0
313600,2026-01-07 12:34:16,,,753.84427773194,36.417324,0.0,1.49478023156,4.9585959592,18,5,7.583,756.14086573194,35.104988,0.447388,2.20040689456,0.0,0.0,0.0,50.1,4.2,0.3,0,0,1024,1024,1024,1024,0,0,0,0,0,0,0,76,3.794,3.79,0,0,0,0,4.681,71.6,753.84427773194,32.8084,6,P-GPS,,10.0
313700,2026-01-07 12:34:16,,,753.84427773194,36.417324,0.0,1.51080713496,4.9855972724,18,5,7.583,756.14086573194,35.104988,0.447388,2.20040689456,0.0,0.0,0.0,50.1,4.9,0.5,0,0,1024,1024,1024,1024,0,0,0,0,0,0,0,76,3.794,3.79,0,0,0,0,4.681,71.6,753.84427773194,32.8084,6,P-GPS,,10.0
313800,2026-01-07 12:34:16,,,753.84427773194,36.417324,0.0,1.51854663652,5.0059712888,18,5,7.583,756.14086573194,35.104988,0.447388,2.20040689456,0.0,0.0,0.0,50.2,5.5,0.5,0,0,1024,1024,1024,1024,0,0,0,0,0,0,0,76,3.794,3.79,0,0,0,0,4.681,71.6,753.84427773194,32.8084,6,P-GPS,,10.0
313900,2026-01-07 12:34:16,,,753.84427773194,36.417324,0.0,1.52601382836,5.0202429428,18,5,7.583,756.14086573194,35.104988,0.447388,2.20040689456,0.0,0.0,0.0,50.2,5.7,0.7,0,0,1024,1024,1024,1024,0,0,0,0,0,0,0,76,3.794,3.79,0,0,0,0,4.681,71.6,753.84427773194,32.8084,6,P-GPS,,10.0
314000,2026-01-07 12:34:16,,,753.84427773194,36.417324,0.0,1.48079729148,5.0671589548,18,5,7.583,756.14086573194,35.104988,0.447388,2.20040689456,0.0,0.0,0.0,50.2,5.3,1.0,0,0,1024,1024,1024,1024,0,0,0,0,0,0,0,76,3.794,3.79,0,0,0,0,4.681,71.6,753.84427773194,32.8084,6,P-GPS,,10.0
314100,2026-01-07 12:34:16,,,753.84427773194,36.417324,0.0,1.47291343296,5.0751970128,18,5,7.596,756.14086573194,35.104988,0.447388,2.20040689456,0.0,0.0,0.0,50.1,4.6,1.0,0,0,1024,1024,1024,1024,0,0,0,0,0,0,0,76,3.8,3.796,0,0,0,0,4.344,71.6,753.84427773194,32.8084,6,P-GPS,,10.0
314200,2026-01-07 12:34:16,,,753.84427773194,36.417324,0.0,1.47973758016,5.0835303464,18,5,7.596,756.14086573194,35.104988,0.447388,2.20040689456,0.0,0.0,0.0,50.2,4.2,1.1,0,0,1024,1024,1024,1024,0,0,0,0,0,0,0,76,3.8,3.796,0,0,0,0,4.344,71.6,753.84427773194,32.8084,6,P-GPS,,10.0
314300,2026-01-07 12:34:16,,,753.84427773194,36.417324,0.0,1.48862209488,5.0945211604,18,5,7.596,756.14086573194,35.104988,0.447388,2.20040689456,0.0,0.0,0.0,50.2,4.0,1.4,0,0,1024,1024,1024,1024,0,0,0,0,0,0,0,76,3.8,3.796,0,0,0,0,4.344,71.6,753.84427773194,32.8084,6,P-GPS,,10.0
314400,2026-01-07 12:34:17,,,753.84427773194,36.417324,0.0,1.49973429996,5.1099083,18,5,7.596,756.14086573194,35.104988,0.447388,2.20040689456,0.0,0.0,0.0,50.2,4.1,1.6,0,0,1024,1024,1024,1024,0,0,0,0,0,0,0,76,3.8,3.796,0,0,0,0,4.344,71.6,753.84427773194,32.8084,6,P-GPS,,10.0
314500,2026-01-07 12:34:17,,,753.84427773194,36.417324,0.0,1.5030020166,5.1208663056,18,5,7.596,756.14086573194,35.104988,0.447388,2.20040689456,0.0,0.0,0.0,50.2,4.0,1.4,0,0,1024,1024,1024,1024,0,0,0,0,0,0,0,76,3.8,3.796,0,0,0,0,4.344,71.6,753.84427773194,32.8084,6,P-GPS,,10.0
314600,2026-01-07 12:34:17,,,753.84427773194,36.417324,0.0,1.51675201704,5.1427823168,18,5,7.596,756.14086573194,35.104988,0.447388,2.20040689456,0.0,0.0,0.0,50.2,4.1,1.4,0,0,1024,1024,1024,1024,0,0,0,0,0,0,0,76,3.8,3.796,0,0,0,0,4.344,71.6,753.84427773194,32.8084,6,P-GPS,,10.0
314700,2026-01-07 12:34:17,,,753.84427773194,36.417324,0.0,1.53286094144,5.1675198504,18,5,7.596,756.14086573194,35.104988,0.447388,2.20040689456,0.0,0.0,0.0,50.2,4.4,1.3,0,0,1024,1024,1024,1024,0,0,0,0,0,0,0,76,3.8,3.796,0,0,0,0,4.344,71.6,753.84427773194,32.8084,6,P-GPS,,10.0
314800,2026-01-07 12:34:17,,,753.84427773194,36.417324,0.0,1.53368115144,5.1707022652,18,5,7.596,756.14086573194,35.104988,0.447388,2.20040689456,0.0,0.0,0.0,50.2,4.4,1.2,0,0,1024,1024,1024,1024,0,0,0,0,0,0,0,76,3.8,3.796,0,0,0,0,4.344,71.6,753.84427773194,32.8084,6,P-GPS,,10.0
314900,2026-01-07 12:34:17,,,753.84427773194,36.417324,0.0,1.53435700448,5.1738190632,18,5,7.596,756.14086573194,35.104988,0.447388,2.20040689456,0.0,0.0,0.0,50.2,4.3,1.1,0,0,1024,1024,1024,1024,0,0,0,0,0,0,0,76,3.8,3.796,0,0,0,0,4.344,71.6,753.84427773194,32.8084,6,P-GPS,,10.0
315000,2026-01-07 12:34:17,,,753.84427773194,36.417324,0.0,1.52466540312,5.188484418,18,5,7.596,756.14086573194,35.104988,0.447388,2.20040689456,0.0,0.0,0.0,50.2,4.4,1.2,0,0,1024,1024,1024,1024,0,0,0,0,0,0,0,76,3.8,3.796,0,0,0,0,4.344,71.6,753.84427773194,32.8084,6,P-GPS,,10.0
315100,2026-01-07 12:34:17,,,753.84427773194,36.417324,0.0,1.51176514024,5.2102035788,18,5,7.596,756.14086573194,35.104988,0.447388,2.20040689456,0.0,0.0,0.0,50.1,4.4,1.6,0,0,1024,1024,1024,1024,0,0,0,0,0,0,0,76,3.8,3.796,0,0,0,0,4.344,71.6,753.84427773194,32.8084,6,P-GPS,,10.0
315200,2026-01-07 12:34:17,,,753.84427773194,36.417324,0.0,1.5118438804,5.2212272012,18,5,7.587,756.14086573194,35.104988,0.447388,2.20040689456,0.0,0.0,0.0,50.1,4.6,2.1,0,0,1024,1024,1024,1024,0,0,0,0,0,0,0,76,3.797,3.791,0,0,0,0,4.45,71.6,753.84427773194,32.8084,6,P-GPS,,10.0
315300,2026-01-07 12:34:17,,,753.84427773194,36.417324,0.0,1.52981960276,5.2392718212,18,5,7.587,756.14086573194,35.104988,0.447388,2.20040689456,0.0,0.0,0.0,50.1,4.5,2.3,0,0,1024,1024,1024,1024,0,0,0,0,0,0,0,76,3.797,3.791,0,0,0,0,4.45,71.6,753.84427773194,32.8084,6,P-GPS,,10.0
315400,2026-01-07 12:34:18,,,753.84427773194,36.417324,0.0,1.52942590196,5.2579398008,18,5,7.587,756.14086573194,35.104988,0.447388,2.20040689456,0.0,0.0,0.0,50.2,5.0,2.6,0,0,1024,1024,1024,1024,0,0,0,0,0,0,0,76,3.797,3.791,0,0,0,0,4.45,71.6,753.84427773194,32.8084,6,P-GPS,,10.0
315500,2026-01-07 12:34:18,,,753.84427773194,36.417324,0.0,1.53124676816,5.2753610612,18,5,7.587,756.14086573194,35.104988,0.447388,2.20040689456,0.0,0.0,0.0,50.3,5.2,2.5,0,0,1024,1024,1024,1024,0,0,0,0,0,0,0,76,3.797,3.791,0,0,0,0,4.45,71.6,753.84427773194,32.8084,6,P-GPS,,10.0
315600,2026-01-07 12:34:18,,,753.84427773194,36.417324,0.0,1.52297248968,5.2840224788,18,5,7.587,756.14086573194,35.104988,0.447388,2.20040689456,0.0,0.0,0.0,50.4,5.0,2.0,0,0,1024,1024,1024,1024,0,0,0,0,0,0,0,76,3.797,3.791,0,0,0,0,4.45,71.6,753.84427773194,32.8084,6,P-GPS,,10.0
315700,2026-01-07 12:34:18,,,753.84427773194,36.417324,0.0,1.4933071344,5.3140749732,18,5,7.587,756.14086573194,35.104988,0.447388,2.20040689456,0.0,0.0,0.0,50.4,4.7,1.6,0,0,1024,1024,1024,1024,0,0,0,0,0,0,0,76,3.797,3.791,0,0,0,0,4.45,71.6,753.84427773194,32.8084,6,P-GPS,,10.0
315800,2026-01-07 12:34:18,,,753.84427773194,36.417324,0.0,1.50815949708,5.3291012204,18,5,7.587,756.14086573194,35.104988,0.447388,2.20040689456,0.0,0.0,0.0,50.4,4.6,1.1,0,0,1024,1024,1024,1024,0,0,0,0,0,0,0,76,3.797,3.791,0,0,0,0,4.45,71.6,753.84427773194,32.8084,6,P-GPS,,10.0
315900,2026-01-07 12:34:18,,,753.84427773194,36.417324,0.0,1.5292323324,5.3505251056,18,5,7.587,756.14086573194,35.104988,0.447388,2.20040689456,0.0,0.0,0.0,50.4,4.5,0.8,0,0,1024,1024,1024,1024,0,0,0,0,0,0,0,76,3.797,3.791,0,0,0,0,4.45,71.6,753.84427773194,32.8084,6,P-GPS,,10.0
316000,2026-01-07 12:34:18,,,753.84427773194,36.417324,0.0,1.53627301504,5.361220644,18,5,7.587,756.14086573194,35.104988,0.447388,2.20040689456,0.0,0.0,0.0,50.4,4.3,0.4,0,0,1024,1024,1024,1024,0,0,0,0,0,0,0,76,3.797,3.791,0,0,0,0,4.45,71.6,753.84427773194,32.8084,6,P-GPS,,10.0
316100,2026-01-07 12:34:18,,,753.84427773194,36.417324,0.0,1.54270674228,5.378609096,18,5,7.587,756.14086573194,35.104988,0.447388,2.20040689456,0.0,0.0,0.0,50.4,4.6,0.1,0,0,1024,1024,1024,1024,0,0,0,0,0,0,0,76,3.797,3.791,0,0,0,0,4.45,71.6,753.84427773194,32.8084,6,P-GPS,,10.0
316200,2026-01-07 12:34:18,,,753.84427773194,36.417324,0.0,1.5627297088,5.4012140836,18,5,7.587,756.14086573194,35.104988,0.447388,2.20040689456,0.0,0.0,0.0,50.3,4.6,0.1,0,0,1024,1024,1024,1024,0,0,0,0,0,0,0,76,3.797,3.791,0,0,0,0,4.45,71.6,753.84427773194,32.8084,6,P-GPS,,10.0
316300,2026-01-07 12:34:18,,,753.84427773194,36.417324,0.0,1.58776579884,5.4270342944,18,5,7.585,756.14086573194,35.104988,0.447388,2.20040689456,0.0,0.0,0.0,50.3,4.2,0.3,0,0,1024,1024,1024,1024,0,0,0,0,0,0,0,76,3.793,3.792,0,0,0,0,4.544,71.6,753.84427773194,32.8084,6,P-GPS,,10.0
316400,2026-01-07 12:34:19,,,753.84427773194,36.417324,0.0,1.60884847668,5.4495408568,18,5,7.585,756.14086573194,35.104988,0.447388,2.20040689456,0.0,0.0,0.0,50.3,4.0,0.3,0,0,1024,1024,1024,1024,0,0,0,0,0,0,0,76,3.793,3.792,0,0,0,0,4.544,71.6,753.84427773194,32.8084,6,P-GPS,,10.0
316500,2026-01-07 12:34:19,,,753.84427773194,36.417324,0.0,1.62863850356,5.470144532,18,5,7.585,756.14086573194,35.104988,0.447388,2.20040689456,0.0,0.0,0.0,50.3,4.1,0.5,0,0,1024,1024,1024,1024,0,0,0,0,0,0,0,76,3.793,3.792,0,0,0,0,4.544,71.6,753.84427773194,32.8084,6,P-GPS,,10.0
316600,2026-01-07 12:34:19,,,753.84427773194,36.417324,0.0,1.65724086668,5.498851882,18,5,7.585,756.14086573194,35.104988,0.447388,2.20040689456,0.0,0.0,0.0,50.3,4.0,0.8,0,0,1024,1024,1024,1024,0,0,0,0,0,0,0,76,3.793,3.792,0,0,0,0,4.544,71.6,753.84427773194,32.8084,6,P-GPS,,10.0
316700,2026-01-07 12:34:19,,,753.84427773194,36.417324,0.0,1.6890092404,5.5306104132,18,5,7.585,756.14086573194,35.104988,0.447388,2.20040689456,0.0,0.0,0.0,50.2,3.7,0.8,0,0,1024,1024,1024,1024,0,0,0,0,0,0,0,76,3.793,3.792,0,0,0,0,4.544,71.6,753.84427773194,32.8084,6,P-GPS,,10.0
316800,2026-01-07 12:34:19,,,753.84427773194,36.417324,0.0,1.6925197392,5.5448164504,18,5,7.585,756.14086573194,35.104988,0.447388,2.20040689456,0.0,0.0,0.0,50.2,3.6,0.9,0,0,1024,1024,1024,1024,0,0,0,0,0,0,0,76,3.793,3.792,0,0,0,0,4.544,71.6,753.84427773194,32.8084,6,P-GPS,,10.0
316900,2026-01-07 12:34:19,,,753.84427773194,36.417324,0.0,1.69016409608,5.5618768184,18,5,7.585,756.14086573194,35.104988,0.447388,2.20040689456,0.0,0.0,0.0,50.2,3.4,0.9,0,0,1024,1024,1024,1024,0,0,0,0,0,0,0,76,3.793,3.792,0,0,0,0,4.544,71.6,753.84427773194,32.8084,6,P-GPS,,10.0
317000,2026-01-07 12:34:19,,,753.84427773194,36.417324,0.0,1.6738189512,5.5786091024,18,5,7.585,756.14086573194,35.104988,0.447388,2.20040689456,0.0,0.0,0.0,50.2,3.3,1.0,0,0,1024,1024,1024,1024,0,0,0,0,0,0,0,76,3.793,3.792,0,0,0,0,4.544,71.6,753.84427773194,32.8084,6,P-GPS,,10.0
317100,2026-01-07 12:34:19,,,753.84427773194,36.417324,0.0,1.6817257756,5.5873689452,18,5,7.585,756.14086573194,35.104988,0.447388,2.20040689456,0.0,0.0,0.0,50.2,3.3,0.9,0,0,1024,1024,1024,1024,0,0,0,0,0,0,0,76,3.793,3.792,0,0,0,0,4.544,71.6,753.84427773194,32.8084,6,P-GPS,,10.0
317200,2026-01-07 12:34:19,,,754.17236173194,36.417324,0.0,1.69548561856,5.6022311504,18,5,7.585,756.14086573194,35.104988,0.447388,2.20040689456,0.0,0.0,0.0,50.2,3.4,0.9,0,0,1024,1024,1024,1024,0,0,0,0,0,0,0,76,3.793,3.792,0,0,0,0,4.544,71.6,754.17236173194,33.136484,6,P-GPS,,10.1
317300,2026-01-07 12:34:20,,,754.17236173194,36.417324,0.0,1.709153598,5.6173558228,18,5,7.585,756.14086573194,35.104988,0.447388,2.20040689456,0.0,0.0,0.0,50.2,3.5,0.9,0,0,1024,1024,1024,1024,0,0,0,0,0,0,0,76,3.793,3.792,0,0,0,0,4.544,71.6,754.17236173194,33.136484,6,P-GPS,,10.1
317400,2026-01-07 12:34:20,,,754.17236173194,36.417324,0.0,1.71248693144,5.6345474244,18,5,7.585,756.14086573194,35.104988,0.447388,2.20040689456,0.0,0.0,0.0,50.1,3.8,1.0,0,0,1024,1024,1024,1024,0,0,0,0,0,0,0,76,3.793,3.792,0,0,0,0,4.544,71.6,754.17236173194,33.136484,6,P-GPS,,10.1
317500,2026-01-07 12:34:20,,,754.17236173194,36.417324,0.0,1.70575464776,5.6495408632,18,5,7.585,756.14086573194,35.104988,0.447388,2.20040689456,0.0,0.0,0.0,50.1,3.8,1.3,0,0,1024,1024,1024,1024,0,0,0,0,0,0,0,76,3.793,3.791,0,0,0,0,4.544,71.6,754.17236173194,33.136484,6,P-GPS,,10.1
317600,2026-01-07 12:34:20,,,754.17236173194,36.417324,0.0,1.69581042172,5.6686025436,18,5,7.585,756.14086573194,35.104988,0.447388,2.20040689456,0.0,0.0,0.0,50.1,3.9,1.6,0,0,1024,1024,1024,1024,0,0,0,0,0,0,0,76,3.793,3.791,0,0,0,0,4.544,71.6,754.17236173194,33.136484,6,P-GPS,,10.1
317700,2026-01-07 12:34:20,,,754.17236173194,36.417324,0.0,1.68621396472,5.6887140928,18,5,7.585,756.14086573194,35.104988,0.447388,2.20040689456,0.0,0.0,0.0,50.1,3.9,1.7,0,0,1024,1024,1024,1024,0,0,0,0,0,0,0,76,3.793,3.791,0,0,0,0,4.544,71.6,754.17236173194,33.136484,6,P-GPS,,10.1
317800,2026-01-07 12:34:20,,,754.17236173194,36.417324,0.0,1.61857288644,5.7578742,18,5,7.585,756.14086573194,35.104988,0.447388,2.20040689456,0.0,0.0,0.0,50.1,4.0,1.9,0,0,1024,1024,1024,1024,0,0,0,0,0,0,0,76,3.793,3.791,0,0,0,0,4.544,71.6,754.17236173194,33.136484,6,P-GPS,,10.1
317900,2026-01-07 12:34:20,,,754.17236173194,36.417324,0.0,1.59385175704,5.7844161956,18,5,7.585,756.14086573194,35.104988,0.447388,2.20040689456,0.0,0.0,0.0,50.2,4.0,2.0,0,0,1024,1024,1024,1024,0,0,0,0,0,0,0,76,3.793,3.791,0,0,0,0,4.544,71.6,754.17236173194,33.136484,6,P-GPS,,10.1
318000,2026-01-07 12:34:20,,,754.17236173194,36.417324,0.0,1.5893701296,5.7961616028,18,5,7.585,756.14086573194,35.104988,0.447388,2.20040689456,0.0,0.0,0.0,50.2,4.2,1.9,0,0,1024,1024,1024,1024,0,0,0,0,0,0,0,76,3.793,3.791,0,0,0,0,4.544,71.6,754.17236173194,33.136484,6,P-GPS,,10.1
318100,2026-01-07 12:34:20,,,754.17236173194,36.417324,0.0,1.59166999844,5.8084647528,18,5,7.585,756.14086573194,35.104988,0.447388,2.20040689456,0.0,0.0,0.0,50.2,4.1,1.8,0,0,1024,1024,1024,1024,0,0,0,0,0,0,0,76,3.793,3.791,0,0,0,0,4.544,71.6,754.17236173194,33.136484,6,P-GPS,,10.1
318200,2026-01-07 12:34:20,,,754.17236173194,36.417324,0.0,1.59170608768,5.8232285328,18,5,7.585,756.14086573194,35.104988,0.447388,2.20040689456,0.0,0.0,0.0,50.2,4.0,1.7,0,0,1024,1024,1024,1024,0,0,0,0,0,0,0,76,3.793,3.791,0,0,0,0,4.544,71.6,754.17236173194,33.136484,6,P-GPS,,10.1
318300,2026-01-07 12:34:21,,,754.17236173194,36.417324,0.0,1.59947839764,5.8508203972,18,5,7.585,756.14086573194,35.104988,0.447388,2.20040689456,0.0,0.0,0.0,50.1,3.8,1.8,0,0,1024,1024,1024,1024,0,0,0,0,0,0,0,76,3.793,3.791,0,0,0,0,4.544,71.6,754.17236173194,33.136484,6,P-GPS,,10.1
318400,2026-01-07 12:34:21,,,754.50044573194,36.417324,0.0,1.59585635028,5.8680119988,18,5,7.585,756.14086573194,35.104988,0.447388,2.20040689456,0.0,0.0,0.0,50.1,3.6,1.7,0,0,1024,1024,1024,1024,0,0,0,0,0,0,0,76,3.793,3.791,0,0,0,0,4.544,71.6,754.50044573194,33.464568,6,P-GPS,,10.2
318500,2026-01-07 12:34:21,,,754.50044573194,36.417324,0.0,1.59046593016,5.8844161988,18,5,7.585,756.14086573194,35.104988,0.447388,2.20040689456,0.0,0.0,0.0,50.2,3.7,1.9,0,0,1024,1024,1024,1024,0,0,0,0,0,0,0,76,3.793,3.791,0,0,0,0,4.544,71.6,754.50044573194,33.464568,6,P-GPS,,10.2
318600,2026-01-07 12:34:21,,,754.50044573194,36.417324,0.0,1.59610241328,5.8944883776,18,5,7.576,756.14086573194,35.104988,0.447388,2.20040689456,0.0,0.0,0.0,50.2,3.8,1.8,0,0,1024,1024,1024,1024,0,0,0,0,0,0,0,76,3.789,3.787,0,0,0,0,4.558,71.6,754.50044573194,33.464568,6,P-GPS,,10.2
318700,2026-01-07 12:34:21,,,754.50044573194,36.417324,0.0,1.60906173128,5.9123033388,18,5,7.576,756.14086573194,35.104988,0.447388,2.20040689456,0.0,0.0,0.0,50.2,3.8,1.7,0,0,1024,1024,1024,1024,0,0,0,0,0,0,0,76,3.789,3.787,0,0,0,0,4.558,71.6,754.50044573194,33.464568,6,P-GPS,,10.2
318800,2026-01-07 12:34:21,,,754.50044573194,36.417324,0.0,1.61531501232,5.9228676436,18,5,7.576,756.14086573194,35.104988,0.447388,2.20040689456,0.0,0.0,0.0,50.2,3.8,1.5,0,0,1024,1024,1024,1024,0,0,0,0,0,0,0,76,3.789,3.787,0,0,0,0,4.558,71.6,754.50044573194,33.464568,6,P-GPS,,10.2
318900,2026-01-07 12:34:21,,,754.50044573194,36.417324,0.0,1.62205713852,5.9358269616,18,5,7.576,756.14086573194,35.104988,0.447388,2.20040689456,0.0,0.0,0.0,50.2,3.6,1.6,0,0,1024,1024,1024,1024,0,0,0,0,0,0,0,76,3.789,3.787,0,0,0,0,4.558,71.6,754.50044573194,33.464568,6,P-GPS,,10.2
319000,2026-01-07 12:34:21,,,754.50044573194,36.417324,0.0,1.63117459288,5.9454398228,18,5,7.576,756.14086573194,35.104988,0.447388,2.20040689456,0.0,0.0,0.0,50.2,3.5,1.5,0,0,1024,1024,1024,1024,0,0,0,0,0,0,0,76,3.789,3.787,0,0,0,0,4.558,71.6,754.50044573194,33.464568,6,P-GPS,,10.2
319100,2026-01-07 12:34:21,,,754.50044573194,36.417324,0.0,1.6486221,5.9734910048,18,5,7.576,756.14086573194,35.104988,0.447388,2.20040689456,0.0,0.0,0.0,50.1,3.4,1.3,0,0,1024,1024,1024,1024,0,0,0,0,0,0,0,76,3.789,3.787,0,0,0,0,4.558,71.6,754.50044573194,33.464568,6,P-GPS,,10.2
319200,2026-01-07 12:34:21,,,754.50044573194,36.417324,0.0,1.65523955428,5.9820539972,18,5,7.576,756.14086573194,35.104988,0.447388,2.20040689456,0.0,0.0,0.0,50.2,3.6,1.0,0,0,1024,1024,1024,1024,0,0,0,0,0,0,0,76,3.789,3.787,0,0,0,0,4.558,71.6,754.50044573194,33.464568,6,P-GPS,,10.2
319300,2026-01-07 12:34:21,,,754.50044573194,36.417324,0.0,1.65976383264,5.9901248636,18,5,7.576,756.14086573194,35.104988,0.447388,2.20040689456,0.0,0.0,0.0,50.2,3.6,0.9,0,0,1024,1024,1024,1024,0,0,0,0,0,0,0,76,3.789,3.787,0,0,0,0,4.558,71.6,754.50044573194,33.464568,6,P-GPS,,10.2
319400,2026-01-07 12:34:22,,,754.50044573194,36.417324,0.0,1.65787734964,5.9947180396,18,5,7.576,756.14086573194,35.104988,0.447388,2.20040689456,0.0,0.0,0.0,50.1,3.9,0.8,0,0,1024,1024,1024,1024,0,0,0,0,0,0,0,76,3.789,3.787,0,0,0,0,4.558,71.6,754.50044573194,33.464568,6,P-GPS,,10.2
319500,2026-01-07 12:34:22,,,754.50044573194,36.417324,0.0,1.63868443564,6.0139109536,18,5,7.576,756.14086573194,35.104988,0.447388,2.20040689456,0.0,0.0,0.0,50.1,4.2,1.0,0,0,1024,1024,1024,1024,0,0,0,0,0,0,0,76,3.789,3.787,0,0,0,0,4.558,71.6,754.50044573194,33.464568,6,P-GPS,,10.2
319600,2026-01-07 12:34:22,,,754.50044573194,36.417324,0.0,1.62997708628,6.0226051796,18,5,7.576,756.14086573194,35.104988,0.447388,2.20040689456,0.0,0.0,0.0,50.1,4.5,1.3,0,0,1024,1024,1024,1024,0,0,0,0,0,0,0,76,3.789,3.787,0,0,0,0,4.558,71.6,754.50044573194,33.464568,6,P-GPS,,10.2
319700,2026-01-07 12:34:22,,,754.50044573194,36.417324,0.0,1.62160110176,6.03100413,17,5,7.581,756.14086573194,35.104988,0.447388,2.20040689456,0.0,0.0,0.0,50.1,4.4,1.2,0,0,1024,1024,1024,1024,0,0,0,0,0,0,0,76,3.793,3.793,0,0,0,0,4.475,71.6,754.50044573194,33.464568,6,P-GPS,,10.2
319800,2026-01-07 12:34:22,,,754.50044573194,36.417324,0.0,1.61455385744,6.0385828704,17,5,7.581,756.14086573194,35.104988,0.447388,2.20040689456,0.0,0.0,0.0,50.1,4.3,1.3,0,0,1024,1024,1024,1024,0,0,0,0,0,0,0,76,3.793,3.793,0,0,0,0,4.475,71.6,754.50044573194,33.464568,6,P-GPS,,10.2
319900,2026-01-07 12:34:22,,,754.82852973194,36.417324,0.0,1.60738850288,6.0462272276,17,5,7.581,756.14086573194,35.104988,0.447388,2.20040689456,0.0,0.0,0.0,50.1,4.6,1.3,0,0,1024,1024,1024,1024,0,0,0,0,0,0,0,76,3.793,3.793,0,0,0,0,4.475,71.6,754.82852973194,33.792652,6,P-GPS,,10.3
320000,2026-01-07 12:34:22,,,754.82852973194,36.417324,0.0,1.59362865992,6.0653545248,17,5,7.581,756.14086573194,35.104988,0.447388,2.20040689456,0.0,0.0,0.0,50.1,4.7,1.4,0,0,1024,1024,1024,1024,0,0,0,0,0,0,0,76,3.793,3.793,0,0,0,0,4.475,71.6,754.82852973194,33.792652,6,P-GPS,,10.3
320100,2026-01-07 12:34:22,,,754.82852973194,36.417324,0.0,1.5789534626,6.0887141056,17,5,7.581,756.14086573194,35.104988,0.447388,2.20040689456,0.0,0.0,0.0,50.1,4.9,0.8,0,0,1024,1024,1024,1024,0,0,0,0,0,0,0,76,3.793,3.793,0,0,0,0,4.475,71.6,754.82852973194,33.792652,6,P-GPS,,10.3
320200,2026-01-07 12:34:22,,,754.82852973194,36.417324,0.0,1.57744099536,6.0952429772,17,5,7.581,756.14086573194,35.104988,0.447388,2.20040689456,0.0,0.0,0.0,50.1,5.0,1.2,0,0,1024,1024,1024,1024,0,0,0,0,0,0,0,76,3.793,3.793,0,0,0,0,4.475,71.6,754.82852973194,33.792652,6,P-GPS,,10.3
