time(millisecond),timestamp,altitude_above_seaLevel(feet),height_sonar(feet),speed(mph),distance(feet),mileage(feet),satellites,gpslevel,voltage(v),max_altitude(feet),max_ascent(feet),max_speed(mph),max_distance(feet), xSpeed(mph), ySpeed(mph), zSpeed(mph), compass_heading(degrees), pitch(degrees), roll(degrees),isPhoto,isVideo,rc_elevator,rc_aileron,rc_throttle,rc_rudder,rc_elevator(percent),rc_aileron(percent),rc_throttle(percent),rc_rudder(percent),gimbal_heading(degrees),gimbal_pitch(degrees),gimbal_roll(degrees),battery_percent,voltageCell1,voltageCell2,voltageCell3,voltageCell4,voltageCell5,voltageCell6,current(A),battery_temperature(f),altitude(feet),ascent(feet),flycStateRaw,flycState,message,height_above_takeoff(meters)
135100,2026-01-07 12:30:46,721.21204473233,0.328084,0.0,0.0,0.0,16,5,0.0,721.21204473233,0.0,0.0,0.0,0.0,0.0,0.0,11.2,2.1,0.6,0,0,1024,1024,1024,1024,0,0,0,0,0,0,0,87,4.011,4.013,0,0,0,0,0.0,68.72,721.21204473233,0.0,41,Motors_Started,SD card speed low SD card speed low. Normal use may be affected. Replace SD card (Code: 10028). Gimbal stuck. Make sure gimbal cover is removed and manually check whether gimbal can rotate freely (Code: 40002),0.0
135200,2026-01-07 12:30:46,721.21204473233,0.328084,0.0,0.0105280187096,0.0105280187096,16,5,0.0,721.21204473233,0.0,0.0,0.0105280187096,0.0,0.0,0.0,11.2,2.1,0.6,0,0,1024,1024,1024,1024,0,0,0,0,0,0,0,87,4.011,4.013,0,0,0,0,0.0,68.72,721.21204473233,0.0,41,Motors_Started,,0.0
135300,2026-01-07 12:30:47,721.21204473233,0.328084,0.0,0.0218582027992,0.0222022972984,16,5,0.0,721.21204473233,0.0,0.0,0.0218582027992,0.0,0.0,0.0,11.2,2.1,0.6,0,0,1024,1024,1024,1024,0,0,0,0,0,0,0,87,4.011,4.013,0,0,0,0,0.0,68.72,721.21204473233,0.0,41,Motors_Started,,0.0
135400,2026-01-07 12:30:47,721.21204473233,0.328084,0.0,0.058475395572,0.061848099092,16,5,0.0,721.21204473233,0.0,0.0,0.058475395572,0.0,0.0,0.0,11.2,2.1,0.6,0,0,1024,1024,1024,1024,0,0,0,0,0,0,0,87,4.011,4.013,0,0,0,0,0.0,68.72,721.21204473233,0.0,41,Motors_Started,,0.0
135500,2026-01-07 12:30:47,721.21204473233,0.328084,0.0,0.075861879068,0.079749346384,16,5,0.0,721.21204473233,0.0,0.0,0.075861879068,0.0,0.0,0.0,11.2,2.1,0.6,0,0,1024,1024,1024,1024,0,0,0,0,0,0,0,87,4.011,4.013,0,0,0,0,0.0,68.72,721.21204473233,0.0,41,Motors_Started,Setting new Return-To-Home altitude to 500m (1640 ft). Data Recorder File Index is 26. Setting new Maximum Flight Altitude to 500m (1640 ft),0.0
135600,2026-01-07 12:30:47,721.21204473233,0.328084,0.0,4.8514765332,0.083376315004,16,5,0.0,721.21204473233,0.0,0.0,4.8514765332,0.0,0.0,0.0,11.2,2.1,0.6,0,0,1024,1024,1024,1024,0,0,0,0,0,0,0,87,4.011,4.013,0,0,0,0,0.0,68.72,721.21204473233,0.0,41,Motors_Started,,0.0
135700,2026-01-07 12:30:47,721.21204473233,0.328084,0.0,4.85728362,0.0894931131,16,5,0.0,721.21204473233,0.0,0.0,4.85728362,0.0,0.0,0.0,11.3,2.2,0.5,0,0,1024,1024,1024,1024,0,0,0,0,0,0,0,87,4.011,4.013,0,0,0,0,0.0,68.72,721.21204473233,0.0,41,Motors_Started,,0.0
135800,2026-01-07 12:30:47,721.21204473233,0.328084,0.0,4.8819555368,0.114185043024,16,5,0.0,721.21204473233,0.0,0.0,4.8819555368,0.0,0.0,0.0,11.3,2.1,0.6,0,0,1024,1024,1024,1024,0,0,0,0,0,0,0,87,4.011,4.013,0,0,0,0,0.0,68.72,721.21204473233,0.0,41,Motors_Started,,0.0
135900,2026-01-07 12:30:47,721.21204473233,0.328084,0.0,4.8921589492,0.127076447636,16,5,0.0,721.21204473233,0.0,0.0,4.8921589492,0.0,0.0,0.0,11.2,2.1,0.5,0,0,1024,1024,1024,1024,0,0,0,0,0,0,0,87,4.011,4.013,0,0,0,0,0.0,68.72,721.21204473233,0.0,41,Motors_Started,,0.0
136000,2026-01-07 12:30:47,721.21204473233,0.328084,0.0,4.8766077676,0.142611881204,16,5,0.0,721.21204473233,0.0,0.0,4.8921589492,0.0,0.0,0.0,11.2,2.1,0.5,0,0,1024,1024,1024,1024,0,0,0,0,0,0,0,87,4.011,4.013,0,0,0,0,0.0,68.72,721.21204473233,0.0,41,Motors_Started,,0.0
136100,2026-01-07 12:30:47,721.21204473233,0.328084,0.0,4.8667652476,0.152522314592,16,5,0.0,721.21204473233,0.0,0.0,4.8921589492,0.0,0.0,0.0,11.2,2.1,0.5,0,0,1024,1024,1024,1024,0,0,0,0,0,0,0,87,4.011,4.013,0,0,0,0,0.0,68.72,721.21204473233,0.0,41,Motors_Started,,0.0
136200,2026-01-07 12:30:47,721.21204473233,0.328084,0.0,4.8567258772,0.179978352216,16,5,0.0,721.21204473233,0.0,0.0,4.8921589492,0.0,0.0,0.0,11.2,2.2,0.6,0,0,1024,1024,1024,1024,0,0,0,0,0,0,0,87,4.011,4.013,0,0,0,0,0.0,68.72,721.21204473233,0.0,11,AutoTakeoff,,0.0
136300,2026-01-07 12:30:48,721.21204473233,0.328084,0.0,4.8660434628,0.189310045428,16,5,8.006,721.21204473233,0.0,0.0,4.8921589492,0.0,0.0,0.0,11.2,2.1,0.6,0,0,1024,1024,1024,1024,0,0,0,0,0,0,0,87,4.005,4.003,0,0,0,0,0.868,68.72,721.21204473233,0.0,11,AutoTakeoff,,0.0
136400,2026-01-07 12:30:48,721.21204473233,0.328084,0.0,4.8695539616,0.201267722976,16,5,8.006,721.21204473233,0.0,0.0,4.8921589492,0.0,0.0,0.0,11.2,2.1,0.6,0,0,1024,1024,1024,1024,0,0,0,0,0,0,0,87,4.005,4.003,0,0,0,0,0.868,68.72,721.21204473233,0.0,11,AutoTakeoff,,0.0
136500,2026-01-07 12:30:48,721.21204473233,0.328084,0.0,4.8718505496,0.21375164726,16,5,8.006,721.21204473233,0.0,0.0,4.8921589492,0.0,0.0,0.0,11.2,2.1,0.6,0,0,1024,1024,1024,1024,0,0,0,0,0,0,0,87,4.005,4.003,0,0,0,0,0.868,68.72,721.21204473233,0.0,11,AutoTakeoff,,0.0
136600,2026-01-07 12:30:48,721.21204473233,0.328084,0.0,4.871063148,0.230963261984,16,5,8.006,721.21204473233,0.0,0.0,4.8921589492,0.0,0.0,0.0,11.2,2.1,0.6,0,0,1024,1024,1167,1024,0,0,22,0,0,0,0,87,4.005,4.003,0,0,0,0,0.868,68.72,721.21204473233,0.0,11,AutoTakeoff,,0.0
136700,2026-01-07 12:30:48,721.21204473233,0.328084,0.0,4.8609909692,0.272865494296,16,5,8.006,721.21204473233,0.0,0.0,4.8921589492,0.0,0.0,0.0,11.0,2.1,0.6,0,0,1024,1024,1160,1024,0,0,21,0,0,0,0,87,4.005,4.003,0,0,0,0,0.868,68.72,721.21204473233,0.0,11,AutoTakeoff,,0.0
136800,2026-01-07 12:30:48,721.21204473233,0.328084,0.0,4.8782481876,0.290305455484,16,5,8.006,721.21204473233,0.0,0.0,4.8921589492,0.0,0.0,0.0,11.2,2.1,0.6,0,0,1024,1024,1024,1024,0,0,0,0,0,0,0,87,4.005,4.003,0,0,0,0,0.868,68.72,721.21204473233,0.0,11,AutoTakeoff,,0.0
136900,2026-01-07 12:30:48,721.21204473233,0.328084,0.0,4.8921261408,0.304426518928,16,5,8.006,721.21204473233,0.0,0.0,4.8921589492,0.0,0.0,0.0,11.0,0.9,0.6,0,0,1024,1024,1024,1024,0,0,0,0,0,0,0,87,4.005,4.003,0,0,0,0,0.868,68.72,721.21204473233,0.0,11,AutoTakeoff,,0.0
137000,2026-01-07 12:30:48,721.21204473233,0.328084,0.0,4.8932744348,0.317564642708,16,5,8.006,721.21204473233,0.0,0.0,4.8932744348,0.0,0.0,-0.223694,10.6,1.3,1.1,0,0,1024,1024,1024,1024,0,0,0,0,0,0,0,87,4.005,4.003,0,0,0,0,0.868,68.72,721.21204473233,0.0,11,AutoTakeoff,,0.0
137100,2026-01-07 12:30:48,721.21204473233,0.328084,0.0,4.9042324404,0.3528215336,16,5,8.006,721.21204473233,0.0,0.0,4.9042324404,0.0,0.0,-0.447388,10.4,1.0,0.3,0,0,1024,1024,1024,1024,0,0,0,0,0,0,0,87,4.005,4.003,0,0,0,0,0.868,68.72,721.21204473233,0.0,11,AutoTakeoff,,0.0
137200,2026-01-07 12:30:48,721.21204473233,0.328084,0.0,4.888615642,0.37058400136,16,5,8.006,721.21204473233,0.0,0.0,4.9042324404,0.0,0.0,-0.894776,10.5,1.3,0.3,0,0,1024,1024,1026,1024,0,0,0,0,0,0,0,87,4.005,4.003,0,0,0,0,0.868,68.72,721.21204473233,0.0,11,AutoTakeoff,,0.0
137300,2026-01-07 12:30:49,721.21204473233,0.656168,0.0,4.8691274524,0.3954560494,16,5,7.966,721.21204473233,0.0,0.0,4.9042324404,0.0,0.0,-1.11847,10.7,1.6,1.1,0,0,1024,1024,1673,1024,0,0,98,0,0,0,0,87,3.984,3.982,0,0,0,0,1.611,68.72,721.21204473233,0.0,11,AutoTakeoff,,0.0
137400,2026-01-07 12:30:49,721.54012873233,0.656168,0.0,4.8422573728,0.43141077496,16,5,7.966,721.54012873233,0.328084,0.0,4.9042324404,0.0,0.0,-1.342164,10.7,1.8,1.2,0,0,1024,1024,1684,1024,0,0,100,0,0,0,0,87,3.984,3.982,0,0,0,0,1.611,68.72,721.54012873233,0.328084,11,AutoTakeoff,,0.1
137500,2026-01-07 12:30:49,721.86821273233,0.984252,0.0,4.7945867676,0.48345802072,16,5,7.966,721.86821273233,0.656168,0.0,4.9042324404,0.0,0.0,-1.789552,10.5,1.9,1.5,0,0,1024,1024,1684,1117,0,0,100,14,0,0,0,87,3.984,3.982,0,0,0,0,1.611,68.72,721.86821273233,0.656168,11,AutoTakeoff,,0.2
137600,2026-01-07 12:30:49,722.19629673233,1.312336,0.223694,4.7611221996,0.52789043684,16,5,7.966,722.19629673233,0.984252,0.223694,4.9042324404,0.223694,0.0,-2.23694,10.4,2.1,1.8,0,0,1024,1024,1684,1024,0,0,100,0,0,0,0,87,3.984,3.982,0,0,0,0,1.611,68.72,722.19629673233,0.984252,11,AutoTakeoff,,0.3
137700,2026-01-07 12:30:49,722.52438073233,1.64042,0.223694,4.724737684,0.57273295796,18,5,7.966,722.52438073233,1.312336,0.223694,4.9042324404,0.223694,0.0,-2.908022,10.6,2.8,1.5,0,0,1024,1024,1684,1024,0,0,100,0,0,0,0,87,3.984,3.982,0,0,0,0,1.611,68.72,722.52438073233,1.312336,11,AutoTakeoff,,0.4
137800,2026-01-07 12:30:49,722.85246473233,1.968504,0.223694,4.6812009372,0.62569555808,18,5,7.966,722.85246473233,1.64042,0.223694,4.9042324404,0.223694,0.0,-3.579104,10.9,3.1,1.6,0,0,1024,1042,1024,1024,0,3,0,0,0,0,0,87,3.984,3.982,0,0,0,0,1.611,68.72,722.85246473233,1.64042,11,AutoTakeoff,,0.5
137900,2026-01-07 12:30:49,723.50863273233,2.624672,0.223694,4.6375329568,0.67084647816,18,5,7.966,723.50863273233,2.296588,0.223694,4.9042324404,0.223694,0.0,-4.026492,10.8,3.4,1.6,0,0,1024,1684,1024,1024,0,100,0,0,0,0,0,87,3.984,3.982,0,0,0,0,1.611,68.72,723.50863273233,2.296588,11,AutoTakeoff,,0.7
138000,2026-01-07 12:30:49,724.16480073233,3.28084,0.223694,4.6055775752,0.71216865796,18,5,7.966,724.16480073233,2.952756,0.223694,4.9042324404,0.223694,0.0,-4.250186,10.8,3.6,1.1,0,0,1024,1684,1024,1024,0,100,0,0,0,0,0,87,3.984,3.982,0,0,0,0,1.611,68.72,724.16480073233,2.952756,6,P-GPS,,0.9
138100,2026-01-07 12:30:49,724.82096873233,3.937008,0.223694,4.578084136,0.74732942024,18,5,7.966,724.82096873233,3.608924,0.223694,4.9042324404,0.223694,0.0,-4.250186,11.0,3.3,3.2,0,0,1024,1684,1024,1024,0,100,0,0,0,0,0,87,3.984,3.982,0,0,0,0,1.611,68.72,724.82096873233,3.608924,6,P-GPS,,1.1
138200,2026-01-07 12:30:49,725.47713673233,4.265092,0.0,4.5510500144,0.77655186212,18,5,7.966,725.47713673233,4.265092,0.223694,4.9042324404,0.0,0.0,-4.026492,11.5,3.6,12.6,0,0,1024,1684,1024,1024,0,100,0,0,0,0,0,87,3.984,3.982,0,0,0,0,1.611,68.72,725.47713673233,4.265092,6,P-GPS,Home Point updated. RTH altitude adjusted to 500 m (Code: 120852),1.3
138300,2026-01-07 12:30:50,726.13330473233,4.92126,0.447388,4.5327757356,0.8290190554,18,5,7.691,726.13330473233,4.92126,0.447388,4.9042324404,0.0,0.447388,-3.35541,11.8,3.1,18.2,0,0,1024,1684,1024,1024,0,100,0,0,0,0,0,87,3.845,3.846,0,0,0,0,6.171,68.72,726.13330473233,4.92126,6,P-GPS,,1.5
138400,2026-01-07 12:30:50,726.46138873233,5.249344,0.894776,4.4854988312,0.93616800896,18,5,7.691,726.46138873233,5.249344,0.894776,4.9042324404,0.0,0.894776,-2.684328,11.6,2.8,19.4,0,0,1024,1684,1024,1024,0,100,0,0,0,0,0,87,3.845,3.846,0,0,0,0,6.171,68.72,726.46138873233,5.249344,6,P-GPS,,1.6
138500,2026-01-07 12:30:50,726.78947273233,5.905512,1.565858,4.4862862328,1.11565292284,18,5,7.691,726.78947273233,5.577428,1.565858,4.9042324404,0.0,1.565858,-2.013246,11.4,2.8,19.5,0,0,1024,1684,1024,1024,0,100,0,0,0,0,0,87,3.845,3.846,0,0,0,0,6.171,68.72,726.78947273233,5.577428,6,P-GPS,,1.7
138600,2026-01-07 12:30:50,727.11755673233,5.905512,1.565858,4.509842664,1.39401579264,18,5,7.691,727.11755673233,5.905512,1.565858,4.9042324404,0.0,2.013246,-1.342164,11.3,2.9,19.5,0,0,1024,1684,1024,1024,0,100,0,0,0,0,0,87,3.845,3.846,0,0,0,0,6.171,68.72,727.11755673233,5.905512,6,P-GPS,,1.8
138700,2026-01-07 12:30:50,727.11755673233,6.233596,2.460634,4.5668636632,1.72838260124,18,5,7.691,727.11755673233,5.905512,2.460634,4.9042324404,0.0,2.460634,-0.671082,11.2,3.2,19.3,0,0,1024,1684,1024,1024,0,100,0,0,0,0,0,87,3.845,3.846,0,0,0,0,6.171,68.72,727.11755673233,5.905512,6,P-GPS,,1.8
138800,2026-01-07 12:30:50,727.44564073233,6.233596,2.460634,4.63500671,2.23067264356,18,5,7.691,727.44564073233,6.233596,2.460634,4.9042324404,0.0,3.131716,-0.447388,11.3,3.4,18.7,0,0,1024,1684,1024,1024,0,100,0,0,0,0,0,87,3.845,3.846,0,0,0,0,6.171,68.72,727.44564073233,6.233596,6,P-GPS,,1.9
138900,2026-01-07 12:30:50,727.11755673233,6.233596,3.802798,4.8428807324,2.74577108524,18,5,7.691,727.44564073233,6.233596,3.802798,4.9042324404,-0.223694,3.802798,0.0,11.4,3.6,18.4,0,0,1024,1684,1024,1024,0,100,0,0,0,0,0,87,3.845,3.846,0,0,0,0,6.171,68.72,727.11755673233,5.905512,6,P-GPS,,1.8
139000,2026-01-07 12:30:50,727.11755673233,6.233596,4.250186,5.2480644724,3.4798885628,18,5,7.691,727.44564073233,6.233596,4.250186,5.2480644724,-0.223694,4.250186,0.0,11.6,4.1,18.4,0,0,1024,1684,1024,1024,0,100,0,0,0,0,0,87,3.845,3.846,0,0,0,0,6.171,68.72,727.11755673233,5.905512,6,P-GPS,,1.8
139100,2026-01-07 12:30:50,727.11755673233,6.233596,4.7199434,5.7465881104,4.2495408184,18,5,7.691,727.44564073233,6.233596,4.7199434,5.7465881104,-0.447388,4.697574,0.0,11.6,3.5,18.6,0,0,1024,1684,1024,1024,0,100,0,0,0,0,0,87,3.845,3.846,0,0,0,0,6.171,68.72,727.11755673233,5.905512,6,P-GPS,,1.8
139200,2026-01-07 12:30:50,727.11755673233,6.233596,5.4133948,6.5886485048,5.4008203828,18,5,7.691,727.44564073233,6.233596,5.4133948,6.5886485048,-0.671082,5.368656,0.0,11.8,4.0,18.8,0,0,1024,1684,1024,1024,0,100,0,0,0,0,0,87,3.845,3.846,0,0,0,0,6.171,68.72,727.11755673233,5.905512,6,P-GPS,,1.8
139300,2026-01-07 12:30:51,726.78947273233,6.56168,5.8831522,7.303477924,6.2874345844,18,5,7.833,727.44564073233,6.233596,5.8831522,7.303477924,-0.894776,5.816044,0.0,11.5,3.5,18.5,0,0,1024,1684,1024,1024,0,100,0,0,0,0,0,87,3.917,3.916,0,0,0,0,4.219,68.72,726.78947273233,5.577428,6,P-GPS,,1.7
139400,2026-01-07 12:30:51,726.78947273233,6.56168,6.5766036,8.1810370072,7.300033042,18,5,7.833,727.44564073233,6.233596,6.5766036,8.1810370072,-1.11847,6.487126,0.0,11.4,3.0,17.7,0,0,1024,1684,1024,1024,0,100,0,0,0,0,0,87,3.917,3.916,0,0,0,0,4.219,68.72,726.78947273233,5.577428,6,P-GPS,,1.7
139500,2026-01-07 12:30:51,726.78947273233,6.56168,6.8002976,9.095472732,8.3238847808,18,5,7.833,727.44564073233,6.233596,6.8002976,9.095472732,-1.11847,6.71082,0.0,11.4,2.7,17.3,0,0,1024,1684,1024,1024,0,100,0,0,0,0,0,87,3.917,3.916,0,0,0,0,4.219,68.72,726.78947273233,5.577428,6,P-GPS,,1.7
139600,2026-01-07 12:30:51,726.46138873233,6.56168,7.2924244,10.1041997984,9.4286748424,18,5,7.833,727.44564073233,6.233596,7.2924244,10.1041997984,-1.342164,7.158208,0.0,11.3,2.4,16.9,0,0,1024,1684,1024,1024,0,100,0,0,0,0,0,87,3.917,3.916,0,0,0,0,4.219,68.72,726.46138873233,5.249344,6,P-GPS,,1.6
139700,2026-01-07 12:30:51,726.46138873233,8.530184,7.717443,11.1271985188,10.5379924632,18,5,7.833,727.44564073233,6.233596,7.717443,11.1271985188,-1.342164,7.605596,0.0,11.4,2.8,16.8,0,0,1024,1684,1024,1024,0,100,0,0,0,0,0,87,3.917,3.916,0,0,0,0,4.219,68.72,726.46138873233,5.249344,6,P-GPS,,1.6
139800,2026-01-07 12:30:51,726.46138873233,8.530184,8.164831,12.2682418624,11.7516736044,18,5,7.833,727.44564073233,6.233596,8.164831,12.2682418624,-1.342164,8.052984,0.0,11.4,2.8,16.4,0,0,1024,1024,1024,1024,0,0,0,0,0,0,0,87,3.917,3.916,0,0,0,0,4.219,68.72,726.46138873233,5.249344,6,P-GPS,,1.6
139900,2026-01-07 12:30:51,726.13330473233,8.2021,8.612219,13.4223101408,12.9661421472,17,5,7.833,727.44564073233,6.233596,8.612219,13.4223101408,-1.342164,8.500372,0.0,11.4,3.1,16.2,0,0,1024,957,1024,1024,0,-10,0,0,0,0,0,87,3.917,3.916,0,0,0,0,4.219,68.72,726.13330473233,4.92126,6,P-GPS,,1.5
140000,2026-01-07 12:30:51,726.13330473233,8.2021,8.835913,14.7278219936,14.3259190936,17,5,7.833,727.44564073233,6.233596,8.835913,14.7278219936,-1.342164,8.724066,0.0,11.3,3.5,14.5,0,0,1024,957,1024,1024,0,-10,0,0,0,0,0,87,3.917,3.916,0,0,0,0,4.219,68.72,726.13330473233,4.92126,6,P-GPS,,1.5
140100,2026-01-07 12:30:51,726.13330473233,8.2021,9.0372376,15.9787734772,15.6091868512,16,5,7.833,727.44564073233,6.233596,9.0372376,15.9787734772,-1.342164,8.94776,0.0,10.5,3.0,-5.1,0,1,1024,364,1024,1024,0,-100,0,0,0,0,0,87,3.917,3.916,0,0,0,0,4.219,68.72,726.13330473233,4.92126,6,P-GPS,,1.5
140200,2026-01-07 12:30:51,726.13330473233,8.2021,8.3437862,17.2711291616,16.9535110412,16,5,7.833,727.44564073233,6.233596,9.0372376,17.2711291616,-1.11847,8.276678,0.0,10.6,0.7,-18.9,0,1,1024,364,1024,1024,0,-100,0,0,0,0,0,87,3.917,3.916,0,0,0,0,4.219,68.72,726.13330473233,4.92126,6,P-GPS,,1.5
140300,2026-01-07 12:30:52,725.80522073233,8.530184,7.1805774,18.3923562316,18.1186685588,18,5,7.767,727.44564073233,6.233596,9.0372376,18.3923562316,-0.671082,7.158208,0.0,10.6,1.9,-20.3,0,1,1024,364,1024,1024,0,-100,0,0,0,0,0,87,3.886,3.885,0,0,0,0,5.255,68.72,725.80522073233,4.593176,6,P-GPS,Gimbal stuck. SD card speed low SD card speed low. Normal use may be affected. Replace SD card (Code: 10028). Gimbal stuck. Make sure gimbal cover is removed and manually check whether gimbal can rotate freely (Code: 40002). SD card speed low. Normal use may be affected. Replace SD,1.4
140400,2026-01-07 12:30:52,725.80522073233,8.530184,7.1805774,19.43815679,19.2054140004,18,5,7.767,727.44564073233,6.233596,9.0372376,19.43815679,-0.447388,6.263432,0.0,10.7,2.4,-20.0,0,1,1024,364,1024,1024,0,-100,0,0,0,0,0,87,3.886,3.885,0,0,0,0,5.255,68.72,725.80522073233,4.593176,6,P-GPS,,1.4
140500,2026-01-07 12:30:52,725.80522073233,8.530184,5.144962,20.2602040604,20.0845806952,18,5,7.767,727.44564073233,6.233596,9.0372376,20.2602040604,-0.223694,5.144962,0.0,10.1,4.2,-20.1,0,1,1024,364,1024,1024,0,-100,0,0,0,0,0,87,3.886,3.885,0,0,0,0,5.255,68.72,725.80522073233,4.593176,6,P-GPS,,1.4
140600,2026-01-07 12:30:52,725.47713673233,8.530184,5.144962,20.9413392528,20.7900597204,18,5,7.767,727.44564073233,6.233596,9.0372376,20.9413392528,-0.223694,4.026492,0.0,10.0,3.7,-19.6,0,1,1024,364,1024,1024,0,-100,0,0,0,0,0,87,3.886,3.885,0,0,0,0,5.255,68.72,725.47713673233,4.265092,6,P-GPS,,1.3
140700,2026-01-07 12:30:52,725.47713673233,8.530184,3.131716,21.443406198,21.3103025192,18,5,7.767,727.44564073233,6.233596,9.0372376,21.443406198,-0.223694,3.131716,0.0,9.9,4.3,-19.5,0,1,1024,364,1024,1024,0,-100,0,0,0,0,0,87,3.886,3.885,0,0,0,0,5.255,68.72,725.47713673233,4.265092,6,P-GPS,Gimbal stuck. SD card speed low Gimbal stuck. Make sure gimbal cover is removed and manually check whether gimbal can rotate freely (Code: 40002). Home Point updated. RTH altitude adjusted to 500 m (Code: 120852). SD card speed low. Normal use may be affected. Replace SD card (Code,1.3
140800,2026-01-07 12:30:52,725.47713673233,8.530184,2.23694,21.762139804,21.643045312,18,5,7.767,727.44564073233,6.233596,9.0372376,21.762139804,0.0,2.23694,0.0,10.4,3.6,-18.8,0,1,1024,364,1024,1024,0,-100,0,0,0,0,0,87,3.886,3.885,0,0,0,0,5.255,68.72,725.47713673233,4.265092,6,P-GPS,,1.3
140900,2026-01-07 12:30:52,725.47713673233,8.530184,1.342164,21.5711621076,21.8361883628,18,5,7.767,727.44564073233,6.233596,9.0372376,21.762139804,0.0,1.342164,0.0,10.0,3.9,-18.4,0,1,1024,364,1024,1024,0,-100,0,0,0,0,0,87,3.886,3.885,0,0,0,0,5.255,68.72,725.47713673233,4.265092,6,P-GPS,,1.3
141000,2026-01-07 12:30:52,725.47713673233,8.530184,0.447388,21.567750034,21.9062999136,18,5,7.767,727.44564073233,6.233596,9.0372376,21.762139804,0.0,0.447388,0.0,9.9,4.5,-17.6,0,1,1024,364,1024,1024,0,-100,0,0,0,0,0,87,3.886,3.885,0,0,0,0,5.255,68.72,725.47713673233,4.265092,6,P-GPS,,1.3
141100,2026-01-07 12:30:52,725.47713673233,8.530184,0.0,21.4528222088,22.0277566104,18,5,7.767,727.44564073233,6.233596,9.0372376,21.762139804,0.0,0.0,0.0,10.2,4.2,-16.5,0,1,1024,364,1024,1024,0,-100,0,0,0,0,0,87,3.886,3.885,0,0,0,0,5.255,68.72,725.47713673233,4.265092,6,P-GPS,,1.3
141200,2026-01-07 12:30:52,725.80522073233,8.530184,0.9171454,21.233268396,22.2473432316,18,5,7.759,727.44564073233,6.233596,9.0372376,21.762139804,0.223694,-0.894776,0.0,10.5,4.0,-15.7,0,1,1024,364,1024,1024,0,-100,0,0,0,0,0,86,3.88,3.879,0,0,0,0,5.233,68.72,725.80522073233,4.593176,6,P-GPS,,1.4
141300,2026-01-07 12:30:53,725.80522073233,8.530184,1.3645334,20.5393379276,22.943242204,18,5,7.759,727.44564073233,6.233596,9.0372376,21.762139804,0.223694,-1.342164,0.0,10.5,3.7,-15.6,0,1,1024,364,1024,1024,0,-100,0,0,0,0,0,86,3.88,3.879,0,0,0,0,5.233,68.72,725.80522073233,4.593176,6,P-GPS,,1.4
141400,2026-01-07 12:30:53,725.80522073233,8.530184,2.0579848,20.151903532,23.3314640012,18,5,7.759,727.44564073233,6.233596,9.0372376,21.762139804,0.447388,-2.013246,0.0,10.5,3.3,-15.3,0,1,1024,364,1024,1024,0,-100,0,0,0,0,0,86,3.88,3.879,0,0,0,0,5.233,68.72,725.80522073233,4.593176,6,P-GPS,,1.4
141500,2026-01-07 12:30:53,725.80522073233,8.530184,2.7290668,19.7067919692,23.7785768764,18,5,7.759,727.44564073233,6.233596,9.0372376,21.762139804,0.447388,-2.684328,0.0,10.6,3.1,-15.1,0,1,1024,364,1024,1024,0,-100,0,0,0,0,0,86,3.88,3.879,0,0,0,0,5.233,68.72,725.80522073233,4.593176,6,P-GPS,,1.4
141600,2026-01-07 12:30:53,725.80522073233,8.530184,3.1540854,19.17404917,24.3168971036,18,5,7.759,727.44564073233,6.233596,9.0372376,21.762139804,0.447388,-3.131716,0.0,10.7,3.0,-14.8,0,1,1024,364,1024,1024,0,-100,0,0,0,0,0,86,3.88,3.879,0,0,0,0,5.233,68.72,725.80522073233,4.593176,6,P-GPS,Gimbal stuck. SD card speed low SD card speed low. Normal use may be affected. Replace SD card (Code: 10028). Gimbal stuck. Make sure gimbal cover is removed and manually check whether gimbal can rotate freely (Code: 40002). SD card speed low. Normal use may be affected. Replace SD,1.4
141700,2026-01-07 12:30:53,726.13330473233,8.530184,3.6462122,18.6011488892,24.8957028964,18,5,7.759,727.44564073233,6.233596,9.0372376,21.762139804,0.671082,-3.579104,0.0,10.8,2.8,-14.9,0,1,1024,364,1024,1024,0,-100,0,0,0,0,0,86,3.88,3.879,0,0,0,0,5.233,68.72,726.13330473233,4.92126,6,P-GPS,,1.5
141800,2026-01-07 12:30:53,726.13330473233,8.530184,4.2949248,18.0261488708,25.4777567208,18,5,7.759,727.44564073233,6.233596,9.0372376,21.762139804,0.671082,-4.250186,0.0,10.8,2.7,-15.1,0,1,1024,364,1024,1024,0,-100,0,0,0,0,0,86,3.88,3.879,0,0,0,0,5.233,68.72,726.13330473233,4.92126,6,P-GPS,Gimbal stuck. SD card speed low SD card speed low. Normal use may be affected. Replace SD card (Code: 10028). Gimbal stuck. Make sure gimbal cover is removed and manually check whether gimbal can rotate freely (Code: 40002). SD card speed low. Normal use may be affected. Replace SD,1.5
141900,2026-01-07 12:30:53,726.13330473233,8.530184,4.5633576,17.3496724712,26.1599745904,18,5,7.759,727.44564073233,6.233596,9.0372376,21.762139804,0.894776,-4.47388,0.0,10.8,2.9,-15.2,0,1,1024,457,1024,1024,0,-86,0,0,0,0,0,86,3.88,3.879,0,0,0,0,5.233,68.72,726.13330473233,4.92126,6,P-GPS,,1.5
142000,2026-01-07 12:30:53,726.46138873233,8.530184,4.5633576,16.5988850456,26.9211294704,18,5,7.759,727.44564073233,6.233596,9.0372376,21.762139804,0.894776,-5.144962,0.0,11.0,3.0,-15.4,0,1,1024,670,1024,1024,0,-54,0,0,0,0,0,86,3.88,3.879,0,0,0,0,5.233,68.72,726.46138873233,5.249344,6,P-GPS,,1.6
142100,2026-01-07 12:30:53,726.46138873233,8.530184,5.704197,15.8158469628,27.7152567924,18,5,7.759,727.44564073233,6.233596,9.0372376,21.762139804,1.11847,-5.59235,0.0,10.9,2.9,-15.1,0,1,1024,570,1024,1024,0,-69,0,0,0,0,0,86,3.88,3.879,0,0,0,0,5.233,68.72,726.46138873233,5.249344,6,P-GPS,,1.6
142200,2026-01-07 12:30:53,726.46138873233,8.530184,6.151585,15.0572839464,28.4921925128,18,5,7.759,727.44564073233,6.233596,9.0372376,21.762139804,1.11847,-6.039738,0.0,10.9,3.1,-11.0,0,1,1024,570,1024,1024,0,-69,0,0,0,0,0,86,3.88,3.879,0,0,0,0,5.233,68.72,726.46138873233,5.249344,6,P-GPS,,1.6
142300,2026-01-07 12:30:54,726.78947273233,8.2021,6.3529096,14.1490490092,29.4149287628,18,5,7.759,727.44564073233,6.233596,9.0372376,21.762139804,1.11847,-6.263432,0.0,11.1,3.3,-6.5,0,1,1024,472,1024,1024,0,-84,0,0,0,0,0,86,3.882,3.879,0,0,0,0,5.233,68.72,726.78947273233,5.577428,6,P-GPS,,1.7
142400,2026-01-07 12:30:54,726.78947273233,8.2021,6.3529096,13.1755581644,30.408629582,18,5,7.759,727.44564073233,6.233596,9.0372376,21.762139804,1.342164,-6.263432,0.0,11.2,3.3,-7.3,0,1,1024,580,1024,1024,0,-67,0,0,0,0,0,86,3.882,3.879,0,0,0,0,5.233,68.72,726.78947273233,5.577428,6,P-GPS,,1.7
142500,2026-01-07 12:30:54,726.78947273233,8.2021,6.6213424,12.225394092,31.3807752824,18,5,7.759,727.44564073233,6.233596,9.0372376,21.762139804,1.342164,-6.487126,0.0,11.0,3.3,-9.8,0,1,1024,1024,1024,1024,0,0,0,0,0,0,0,86,3.882,3.879,0,0,0,0,5.233,68.72,726.78947273233,5.577428,6,P-GPS,Gimbal stuck. SD card speed low SD card speed low. Normal use may be affected. Replace SD card (Code: 10028). Gimbal stuck. Make sure gimbal cover is removed and manually check whether gimbal can rotate freely (Code: 40002). SD card speed low. Normal use may be affected. Replace SD,1.7
142600,2026-01-07 12:30:54,726.78947273233,8.2021,6.8450364,11.1917326416,32.4431112744,18,5,7.759,727.44564073233,6.233596,9.0372376,21.762139804,1.342164,-6.71082,0.0,10.8,3.8,-10.2,0,1,1024,1024,1024,1024,0,0,0,0,0,0,0,86,3.882,3.879,0,0,0,0,5.233,68.72,726.78947273233,5.577428,6,P-GPS,,1.7
142700,2026-01-07 12:30:54,726.78947273233,8.2021,7.0687304,10.1669294592,33.497048316,18,5,7.759,727.44564073233,6.233596,9.0372376,21.762139804,1.342164,-6.934514,0.0,11.0,3.8,-0.6,0,1,1024,799,1024,1024,0,-34,0,0,0,0,0,86,3.882,3.879,0,0,0,0,5.233,68.72,726.78947273233,5.577428,6,P-GPS,,1.7
142800,2026-01-07 12:30:54,726.78947273233,8.2021,6.6213424,9.1196197144,34.577428928,18,5,7.759,727.44564073233,6.233596,9.0372376,21.762139804,1.342164,-6.487126,0.0,11.4,1.9,16.1,0,1,1024,559,1024,1024,0,-70,0,0,0,0,0,86,3.882,3.879,0,0,0,0,5.233,68.72,726.78947273233,5.577428,6,P-GPS,,1.7
142900,2026-01-07 12:30:54,727.11755673233,8.2021,5.704197,8.2196853024,35.512796412,18,5,7.759,727.44564073233,6.233596,9.0372376,21.762139804,1.11847,-5.59235,0.0,11.3,1.8,18.5,0,1,1024,412,1024,1024,0,-93,0,0,0,0,0,86,3.882,3.879,0,0,0,0,5.233,68.72,727.11755673233,5.905512,6,P-GPS,,1.8
143000,2026-01-07 12:30:54,727.11755673233,8.2021,5.0554844,7.5007876416,36.27132662,18,5,7.759,727.44564073233,6.233596,9.0372376,21.762139804,1.11847,-4.921268,0.0,11.4,3.3,11.3,0,1,1024,410,1024,1024,0,-93,0,0,0,0,0,86,3.882,3.879,0,0,0,0,5.233,68.72,727.11755673233,5.905512,6,P-GPS,Gimbal stuck. SD card speed low SD card speed low. Normal use may be affected. Replace SD card (Code: 10028). Gimbal stuck. Make sure gimbal cover is removed and manually check whether gimbal can rotate freely (Code: 40002). SD card speed low. Normal use may be affected. Replace SD,1.8
143100,2026-01-07 12:30:54,727.11755673233,8.2021,4.6080964,6.8278545492,36.986221656,18,5,7.759,727.44564073233,6.233596,9.0372376,21.762139804,1.11847,-4.47388,0.0,11.0,4.3,1.2,0,1,1024,410,1024,1024,0,-93,0,0,0,0,0,86,3.882,3.879,0,0,0,0,5.233,68.72,727.11755673233,5.905512,6,P-GPS,,1.8
143200,2026-01-07 12:30:54,727.11755673233,8.2021,4.3844024,6.1462600392,37.70833454,18,5,7.759,727.44564073233,6.233596,9.0372376,21.762139804,1.11847,-4.250186,0.0,10.6,4.6,-6.7,0,1,1024,410,1024,1024,0,-93,0,0,0,0,0,86,3.882,3.879,0,0,0,0,5.233,68.72,727.11755673233,5.905512,6,P-GPS,,1.8
143300,2026-01-07 12:30:55,727.11755673233,8.2021,4.6080964,5.5131563444,38.393045848,18,5,7.759,727.44564073233,6.233596,9.0372376,21.762139804,1.11847,-4.47388,0.0,10.5,4.3,-10.9,0,1,1024,384,1024,1024,0,-97,0,0,0,0,0,86,3.882,3.879,0,0,0,0,5.233,68.72,727.11755673233,5.905512,6,P-GPS,,1.8
143400,2026-01-07 12:30:55,727.11755673233,8.2021,4.8317904,4.8898623612,39.088583928,18,5,7.762,727.44564073233,6.233596,9.0372376,21.762139804,1.11847,-4.697574,0.0,10.6,4.0,-12.7,0,1,1024,384,1024,1024,0,-97,0,0,0,0,0,86,3.879,3.878,0,0,0,0,4.876,68.72,727.11755673233,5.905512,6,P-GPS,,1.8
143500,2026-01-07 12:30:55,727.11755673233,8.2021,5.480503,4.4304135276,39.58825586,18,5,7.762,727.44564073233,6.233596,9.0372376,21.762139804,1.11847,-5.368656,0.0,10.6,3.5,-13.7,0,1,1024,580,1024,1024,0,-67,0,0,0,0,0,86,3.879,3.878,0,0,0,0,4.876,68.72,727.11755673233,5.905512,6,P-GPS,,1.8
143600,2026-01-07 12:30:55,727.11755673233,8.2021,5.927891,3.80495419,40.353019664,18,5,7.762,727.44564073233,6.233596,9.0372376,21.762139804,1.11847,-5.816044,0.0,10.7,3.4,-13.9,0,1,1024,1024,1024,1024,0,0,0,0,0,0,0,86,3.879,3.878,0,0,0,0,4.876,68.72,727.11755673233,5.905512,6,P-GPS,,1.8
143700,2026-01-07 12:30:55,727.11755673233,8.2021,6.3529096,3.22306768844,41.14501444,18,5,7.762,727.44564073233,6.233596,9.0372376,21.762139804,1.11847,-6.263432,0.0,10.7,3.3,-12.9,0,1,1024,1024,1024,1024,0,0,0,0,0,0,0,86,3.879,3.878,0,0,0,0,4.876,68.72,727.11755673233,5.905512,6,P-GPS,Gimbal stuck. SD card speed low SD card speed low. Normal use may be affected. Replace SD card (Code: 10028). Gimbal stuck. Make sure gimbal cover is removed and manually check whether gimbal can rotate freely (Code: 40002). SD card speed low. Normal use may be affected. Replace SD,1.8
143800,2026-01-07 12:30:55,727.11755673233,8.2021,6.6213424,2.68099418028,42.082022344,18,5,7.762,727.44564073233,6.233596,9.0372376,21.762139804,1.342164,-6.487126,0.0,10.9,3.0,-6.8,0,1,1024,1024,1024,1024,0,0,0,0,0,0,0,86,3.879,3.878,0,0,0,0,4.876,68.72,727.11755673233,5.905512,6,P-GPS,,1.8
143900,2026-01-07 12:30:55,727.11755673233,7.874016,6.6213424,2.41562999856,42.885171976,18,5,7.762,727.44564073233,6.233596,9.0372376,21.762139804,1.342164,-6.71082,0.0,11.3,2.9,7.2,0,1,1024,1140,1024,1024,0,18,0,0,0,0,0,86,3.879,3.878,0,0,0,0,4.876,68.72,727.11755673233,5.905512,6,P-GPS,,1.8
144000,2026-01-07 12:30:55,727.44564073233,7.874016,6.151585,2.44840230932,43.948164136,18,5,7.762,727.44564073233,6.233596,9.0372376,21.762139804,1.11847,-6.039738,0.0,11.1,1.0,17.3,0,1,1024,1140,1024,1024,0,18,0,0,0,0,0,86,3.879,3.878,0,0,0,0,4.876,68.72,727.44564073233,6.233596,6,P-GPS,,1.9
144100,2026-01-07 12:30:55,727.44564073233,7.874016,5.480503,2.81146334456,44.85236364,18,5,7.762,727.44564073233,6.233596,9.0372376,21.762139804,1.11847,-5.368656,0.0,11.2,1.6,19.1,0,1,1024,1659,1024,1024,0,96,0,0,0,0,0,86,3.879,3.878,0,0,0,0,4.876,68.72,727.44564073233,6.233596,6,P-GPS,,1.9
144200,2026-01-07 12:30:55,727.77372473233,7.874016,5.480503,3.323326878,45.658466028,18,5,7.762,727.77372473233,6.56168,9.0372376,21.762139804,0.894776,-4.47388,0.0,11.3,2.8,19.3,0,1,1024,1684,1024,1024,0,100,0,0,0,0,0,86,3.879,3.878,0,0,0,0,4.876,68.72,727.77372473233,6.56168,6,P-GPS,,2.0
144300,2026-01-07 12:30:55,727.77372473233,7.874016,3.4225182,4.0399279508,46.579069732,18,5,7.762,727.77372473233,6.56168,9.0372376,21.762139804,0.671082,-3.35541,0.0,11.2,3.1,19.1,0,1,1024,1684,1024,1024,0,100,0,0,0,0,0,86,3.879,3.878,0,0,0,0,4.876,68.72,727.77372473233,6.56168,6,P-GPS,,2.0
144400,2026-01-07 12:30:56,727.77372473233,7.874016,2.5053728,4.4653544736,47.100395208,18,5,7.762,727.77372473233,6.56168,9.0372376,21.762139804,0.447388,-2.460634,0.0,11.2,3.0,18.8,0,1,1024,1684,1024,1024,0,100,0,0,0,0,0,86,3.879,3.878,0,0,0,0,4.876,68.72,727.77372473233,6.56168,6,P-GPS,,2.0
144500,2026-01-07 12:30:56,727.77372473233,8.2021,1.6329662,4.7697508088,47.459319104,18,5,7.734,727.77372473233,6.56168,9.0372376,21.762139804,0.447388,-1.565858,0.0,11.2,2.8,18.7,0,1,1024,1684,1024,1024,0,100,0,0,0,0,0,86,3.867,3.867,0,0,0,0,5.129,68.72,727.77372473233,6.56168,6,P-GPS,,2.0
144600,2026-01-07 12:30:56,727.77372473233,8.2021,0.9171454,4.9048229916,47.615487088,18,5,7.734,727.77372473233,6.56168,9.0372376,21.762139804,0.223694,-0.894776,0.0,11.1,3.0,18.3,0,1,1024,1684,1024,1024,0,100,0,0,0,0,0,86,3.867,3.867,0,0,0,0,5.129,68.72,727.77372473233,6.56168,6,P-GPS,,2.0
144700,2026-01-07 12:30:56,727.77372473233,8.2021,0.3131716,4.546259988,47.979332244,18,5,7.734,727.77372473233,6.56168,9.0372376,21.762139804,0.223694,-0.223694,0.0,11.3,3.3,18.2,0,1,1024,1684,1024,1024,0,100,0,0,0,0,0,86,3.867,3.867,0,0,0,0,5.129,68.72,727.77372473233,6.56168,6,P-GPS,,2.0
144800,2026-01-07 12:30:56,727.77372473233,8.2021,0.223694,4.4104988288,48.11515902,18,5,7.734,727.77372473233,6.56168,9.0372376,21.762139804,0.0,0.223694,0.0,11.4,3.4,18.1,0,1,1024,1684,1024,1024,0,100,0,0,0,0,0,86,3.867,3.867,0,0,0,0,5.129,68.72,727.77372473233,6.56168,6,P-GPS,Gimbal stuck. SD card speed low SD card speed low. Normal use may be affected. Replace SD card (Code: 10028). Gimbal stuck. Make sure gimbal cover is removed and manually check whether gimbal can rotate freely (Code: 40002). SD card speed low. Normal use may be affected. Replace SD,2.0
144900,2026-01-07 12:30:56,727.77372473233,8.2021,0.894776,4.2027232316,48.330382124,18,5,7.734,727.77372473233,6.56168,9.0372376,21.762139804,0.0,0.894776,0.0,11.3,3.4,18.0,0,1,1024,1684,1024,1024,0,100,0,0,0,0,0,86,3.867,3.867,0,0,0,0,5.129,68.72,727.77372473233,6.56168,6,P-GPS,,2.0
145000,2026-01-07 12:30:56,727.77372473233,8.2021,1.565858,3.9316274224,48.632219404,18,5,7.734,727.77372473233,6.56168,9.0372376,21.762139804,0.0,1.565858,0.0,11.1,3.4,18.1,0,1,1024,1684,1024,1024,0,100,0,0,0,0,0,86,3.867,3.867,0,0,0,0,5.129,68.72,727.77372473233,6.56168,6,P-GPS,,2.0
145100,2026-01-07 12:30:56,727.77372473233,8.2021,2.23694,3.6148951288,48.996392644,17,5,7.734,727.77372473233,6.56168,9.0372376,21.762139804,0.0,2.23694,0.0,11.0,3.3,18.3,0,1,1024,1684,1024,1024,0,100,0,0,0,0,0,86,3.867,3.867,0,0,0,0,5.129,68.72,727.77372473233,6.56168,6,P-GPS,,2.0
145200,2026-01-07 12:30:56,727.44564073233,8.2021,2.684328,3.21324813432,49.4914714,17,5,7.734,727.77372473233,6.56168,9.0372376,21.762139804,-0.223694,2.684328,0.0,10.9,3.5,18.3,0,1,1024,1684,1024,1024,0,100,0,0,0,0,0,86,3.867,3.867,0,0,0,0,5.129,68.72,727.44564073233,6.233596,6,P-GPS,,1.9
145300,2026-01-07 12:30:57,727.44564073233,8.2021,3.35541,2.83074812208,49.979988476,17,5,7.734,727.77372473233,6.56168,9.0372376,21.762139804,-0.223694,3.35541,0.0,11.1,3.6,18.2,0,1,1024,1684,1024,1024,0,100,0,0,0,0,0,86,3.867,3.867,0,0,0,0,5.129,68.72,727.44564073233,6.233596,6,P-GPS,,1.9
145400,2026-01-07 12:30:57,727.44564073233,8.2021,4.0488614,2.39774285888,50.597770648,17,5,7.734,727.77372473233,6.56168,9.0372376,21.762139804,-0.447388,4.026492,0.0,11.2,4.0,18.1,0,1,1024,1684,1024,1024,0,100,0,0,0,0,0,86,3.867,3.867,0,0,0,0,5.129,68.72,727.44564073233,6.233596,6,P-GPS,,1.9
145500,2026-01-07 12:30:57,727.44564073233,8.2021,4.7199434,2.04496069536,51.26476542,17,5,7.734,727.77372473233,6.56168,9.0372376,21.762139804,-0.447388,4.697574,0.0,11.2,4.0,18.4,0,1,1024,1684,1024,1024,0,100,0,0,0,0,0,86,3.867,3.867,0,0,0,0,5.129,68.72,727.44564073233,6.233596,6,P-GPS,,1.9
145600,2026-01-07 12:30:57,727.11755673233,8.2021,5.1897008,1.77792656608,52.0669308,17,5,7.734,727.77372473233,6.56168,9.0372376,21.762139804,-0.671082,5.144962,0.0,11.2,4.0,18.4,0,1,1024,1684,1024,1024,0,100,0,0,0,0,0,86,3.867,3.867,0,0,0,0,5.129,68.72,727.11755673233,5.905512,6,P-GPS,,1.8
145700,2026-01-07 12:30:57,727.11755673233,7.874016,5.6370888,1.94056436656,52.888125052,17,5,7.736,727.77372473233,6.56168,9.0372376,21.762139804,-0.671082,5.59235,0.0,11.2,4.3,18.3,0,1,1024,1684,1024,1024,0,100,0,0,0,0,0,86,3.87,3.867,0,0,0,0,5.014,68.72,727.11755673233,5.905512,6,P-GPS,,1.8
145800,2026-01-07 12:30:57,727.11755673233,8.2021,6.3305402,2.46295283472,53.820867864,17,5,7.736,727.77372473233,6.56168,9.0372376,21.762139804,-0.894776,6.263432,0.0,11.3,4.4,17.6,0,1,1024,1024,1024,1024,0,0,0,0,0,0,0,86,3.87,3.867,0,0,0,0,5.014,68.72,727.11755673233,5.905512,6,P-GPS,,1.8
145900,2026-01-07 12:30:57,727.11755673233,8.2021,6.5542342,3.21042989276,54.78510674,17,5,7.736,727.77372473233,6.56168,9.0372376,21.762139804,-0.894776,6.487126,0.0,9.8,3.8,1.0,0,1,1024,1024,1024,1024,0,0,0,0,0,0,0,86,3.87,3.867,0,0,0,0,5.014,68.72,727.11755673233,5.905512,6,P-GPS,,1.8
146000,2026-01-07 12:30:57,727.11755673233,8.2021,6.5542342,4.1217521004,55.844489976,17,5,7.736,727.77372473233,6.56168,9.0372376,21.762139804,-0.894776,6.039738,0.0,9.3,0.9,-25.9,0,1,1024,1024,1024,1024,0,0,0,0,0,0,0,86,3.87,3.867,0,0,0,0,5.014,68.72,727.11755673233,5.905512,6,P-GPS,,1.8
146100,2026-01-07 12:30:57,727.11755673233,8.2021,4.7199434,4.906004094,56.694227536,18,5,7.736,727.77372473233,6.56168,9.0372376,21.762139804,-0.447388,4.697574,0.0,10.3,0.8,-34.2,0,1,1024,1024,1024,1024,0,0,0,0,0,0,0,86,3.87,3.867,0,0,0,0,5.014,68.72,727.11755673233,5.905512,6,P-GPS,,1.8
146200,2026-01-07 12:30:57,727.44564073233,8.2021,3.131716,5.4889109368,57.315946716,18,5,7.736,727.77372473233,6.56168,9.0372376,21.762139804,-0.223694,3.131716,0.0,9.6,3.6,-27.9,0,0,1024,1024,1024,1024,0,0,0,0,0,0,0,86,3.87,3.867,0,0,0,0,5.014,68.72,727.44564073233,6.233596,6,P-GPS,,1.9
146300,2026-01-07 12:30:57,727.44564073233,8.530184,2.013246,5.8633860144,57.714240692,18,5,7.736,727.77372473233,6.56168,9.0372376,21.762139804,0.0,2.013246,0.0,9.8,5.2,-18.2,0,0,1024,1024,1024,1024,0,0,0,0,0,0,0,86,3.87,3.867,0,0,0,0,5.014,68.72,727.44564073233,6.233596,6,P-GPS,,1.9
146400,2026-01-07 12:30:58,727.44564073233,8.530184,1.11847,6.074639302,57.927823376,18,5,7.736,727.77372473233,6.56168,9.0372376,21.762139804,0.0,1.11847,0.0,10.2,5.2,-11.6,0,0,1024,1024,1024,1024,0,0,0,0,0,0,0,86,3.87,3.867,0,0,0,0,5.014,68.72,727.44564073233,6.233596,6,P-GPS,,1.9
146500,2026-01-07 12:30:58,727.44564073233,8.530184,0.447388,6.237368966,58.096130468,18,5,7.736,727.77372473233,6.56168,9.0372376,21.762139804,0.0,0.447388,0.0,10.6,4.6,-7.4,0,0,1024,1024,1024,1024,0,0,0,0,0,0,0,86,3.87,3.867,0,0,0,0,5.014,68.72,727.44564073233,6.233596,6,P-GPS,,1.9
146600,2026-01-07 12:30:58,727.44564073233,8.530184,0.0,6.2779201484,58.138453304,18,5,7.736,727.77372473233,6.56168,9.0372376,21.762139804,0.0,0.0,0.0,11.3,3.9,-4.2,0,0,1024,1024,1024,1024,0,0,0,0,0,0,0,86,3.87,3.867,0,0,0,0,5.014,68.72,727.44564073233,6.233596,6,P-GPS,,1.9
146700,2026-01-07 12:30:58,727.44564073233,8.530184,0.0,6.252624872,58.171589788,17,5,7.736,727.77372473233,6.56168,9.0372376,21.762139804,0.0,0.0,0.0,11.1,3.4,-2.4,0,0,1024,1116,1024,1024,0,14,0,0,0,0,0,86,3.87,3.867,0,0,0,0,5.014,68.72,727.44564073233,6.233596,6,P-GPS,,1.9
146800,2026-01-07 12:30:58,727.44564073233,8.530184,0.0,6.0640749972,58.362206592,17,5,7.745,727.77372473233,6.56168,9.0372376,21.762139804,0.0,0.0,0.0,10.9,3.2,-1.5,0,0,1024,1684,1024,1024,0,100,0,0,0,0,0,86,3.87,3.874,0,0,0,0,5.354,68.72,727.44564073233,6.233596,6,P-GPS,,1.9
146900,2026-01-07 12:30:58,727.44564073233,8.2021,0.223694,5.323490984,59.108925776,18,5,7.745,727.77372473233,6.56168,9.0372376,21.762139804,0.0,0.223694,0.0,10.9,3.0,-1.4,0,0,1024,1684,1024,1024,0,100,0,0,0,0,0,86,3.87,3.874,0,0,0,0,5.354,68.72,727.44564073233,6.233596,6,P-GPS,,1.9
147000,2026-01-07 12:30:58,727.77372473233,8.2021,0.223694,5.2265093536,59.207022892,18,5,7.745,727.77372473233,6.56168,9.0372376,21.762139804,0.0,0.223694,0.0,10.9,2.7,-1.4,0,0,1024,1684,1024,1024,0,100,0,0,0,0,0,86,3.87,3.874,0,0,0,0,5.354,68.72,727.77372473233,6.56168,6,P-GPS,,2.0
147100,2026-01-07 12:30:58,727.77372473233,8.2021,0.223694,5.1486550204,59.287403472,18,5,7.745,727.77372473233,6.56168,9.0372376,21.762139804,0.0,0.223694,0.0,10.8,2.8,-1.3,0,0,1024,1684,1024,1024,0,100,0,0,0,0,0,86,3.87,3.874,0,0,0,0,5.354,68.72,727.77372473233,6.56168,6,P-GPS,,2.0
147200,2026-01-07 12:30:58,727.77372473233,8.2021,0.0,5.1576773304,59.318571452,18,5,7.745,727.77372473233,6.56168,9.0372376,21.762139804,0.0,0.0,0.0,10.8,2.7,-1.2,0,0,1024,1684,1024,1024,0,100,0,0,0,0,0,86,3.87,3.874,0,0,0,0,5.354,68.72,727.77372473233,6.56168,6,P-GPS,,2.0
147300,2026-01-07 12:30:59,727.77372473233,8.2021,0.0,5.2233597472,59.419949408,18,5,7.745,727.77372473233,6.56168,9.0372376,21.762139804,0.0,0.0,0.0,10.8,2.2,-1.8,0,0,1024,1684,1024,1024,0,100,0,0,0,0,0,86,3.87,3.874,0,0,0,0,5.354,68.72,727.77372473233,6.56168,6,P-GPS,,2.0
147400,2026-01-07 12:30:59,727.77372473233,8.2021,0.0,5.2441930812,59.441274868,18,5,7.745,727.77372473233,6.56168,9.0372376,21.762139804,0.0,0.0,0.0,10.8,2.4,-1.2,0,0,1024,1684,1024,1024,0,100,0,0,0,0,0,86,3.87,3.874,0,0,0,0,5.354,68.72,727.77372473233,6.56168,6,P-GPS,,2.0
147500,2026-01-07 12:30:59,727.44564073233,8.2021,0.0,5.2593177536,59.457350984,18,5,7.745,727.77372473233,6.56168,9.0372376,21.762139804,0.0,0.0,0.0,10.8,2.5,-0.6,0,0,1024,1134,1024,1024,0,17,0,0,0,0,0,86,3.87,3.874,0,0,0,0,5.354,68.72,727.44564073233,6.233596,6,P-GPS,,1.9
147600,2026-01-07 12:30:59,727.44564073233,8.2021,0.0,5.2745408512,59.473755184,18,5,7.745,727.77372473233,6.56168,9.0372376,21.762139804,0.0,0.0,0.0,10.8,2.6,-0.3,0,0,1024,1024,1024,1024,0,0,0,0,0,0,0,86,3.87,3.874,0,0,0,0,5.354,68.72,727.44564073233,6.233596,6,P-GPS,,1.9
147700,2026-01-07 12:30:59,727.44564073233,8.2021,0.0,5.529363694,59.741143644,18,5,7.745,727.77372473233,6.56168,9.0372376,21.762139804,0.0,0.0,0.0,10.9,2.7,-0.1,0,0,1024,851,1024,1024,0,-26,0,0,0,0,0,86,3.87,3.874,0,0,0,0,5.354,68.72,727.44564073233,6.233596,6,P-GPS,,1.9
147800,2026-01-07 12:30:59,727.44564073233,8.2021,0.0,5.5285762924,59.761484852,18,5,7.745,727.77372473233,6.56168,9.0372376,21.762139804,0.0,0.0,0.0,10.9,2.9,0.0,0,0,1024,364,1024,1024,0,-100,0,0,0,0,0,86,3.87,3.874,0,0,0,0,5.354,68.72,727.44564073233,6.233596,6,P-GPS,,1.9
147900,2026-01-07 12:30:59,727.44564073233,8.2021,0.0,5.5220474208,59.785434984,18,5,7.757,727.77372473233,6.56168,9.0372376,21.762139804,0.0,0.0,0.0,10.9,2.9,-0.1,0,0,1024,364,1024,1024,0,-100,0,0,0,0,0,86,3.878,3.879,0,0,0,0,4.579,68.72,727.44564073233,6.233596,6,P-GPS,,1.9
148000,2026-01-07 12:30:59,727.44564073233,8.2021,0.0,5.4938321968,59.828085904,18,5,7.757,727.77372473233,6.56168,9.0372376,21.762139804,0.0,0.0,0.0,10.9,3.2,0.0,0,0,1024,364,1024,1024,0,-100,0,0,0,0,0,86,3.878,3.879,0,0,0,0,4.579,68.72,727.44564073233,6.233596,6,P-GPS,,1.9
148100,2026-01-07 12:30:59,727.44564073233,8.2021,0.0,5.550197028,59.957351,18,5,7.757,727.77372473233,6.56168,9.0372376,21.762139804,0.0,0.0,0.0,10.8,3.5,0.2,0,0,1024,1024,1024,1024,0,0,0,0,0,0,0,86,3.878,3.879,0,0,0,0,4.579,68.72,727.44564073233,6.233596,6,P-GPS,,1.9
148200,2026-01-07 12:30:59,727.44564073233,8.2021,0.0,5.5235894156,59.999017668,18,5,7.757,727.77372473233,6.56168,9.0372376,21.762139804,0.0,0.0,0.0,10.8,3.9,0.3,0,0,1024,1024,1024,1024,0,0,0,0,0,0,0,86,3.878,3.879,0,0,0,0,4.579,68.72,727.44564073233,6.233596,6,P-GPS,,1.9
148300,2026-01-07 12:30:59,727.44564073233,8.2021,0.0,5.4929791784,60.041996672,18,5,7.757,727.77372473233,6.56168,9.0372376,21.762139804,0.0,0.0,0.0,10.9,4.0,0.7,0,0,1024,1024,1024,402,0,0,0,-94,0,0,0,86,3.878,3.879,0,0,0,0,4.579,68.72,727.44564073233,6.233596,6,P-GPS,,1.9
148400,2026-01-07 12:31:00,727.44564073233,8.2021,0.0,5.4416668408,60.099739456,18,5,7.757,727.77372473233,6.56168,9.0372376,21.762139804,0.0,0.0,0.0,10.9,4.2,1.2,0,0,1024,1024,1024,364,0,0,0,-100,0,0,0,86,3.878,3.879,0,0,0,0,4.579,68.72,727.44564073233,6.233596,6,P-GPS,,1.9
148500,2026-01-07 12:31:00,727.44564073233,8.2021,0.0,5.3997048972,60.146983552,18,5,7.757,727.77372473233,6.56168,9.0372376,21.762139804,0.0,0.0,0.0,3.5,4.2,1.9,0,0,1024,1024,1024,364,0,0,0,-100,0,0,0,86,3.878,3.879,0,0,0,0,4.579,68.72,727.44564073233,6.233596,6,P-GPS,,1.9
148600,2026-01-07 12:31:00,727.44564073233,8.2021,0.0,5.3519358668,60.212600352,18,5,7.757,727.77372473233,6.56168,9.0372376,21.762139804,0.0,0.0,0.0,351.0,4.0,-0.1,0,0,1024,1024,1024,626,0,0,0,-60,0,0,0,86,3.878,3.879,0,0,0,0,4.579,68.72,727.44564073233,6.233596,6,P-GPS,,1.9
148700,2026-01-07 12:31:00,727.44564073233,8.2021,0.0,5.3424542392,60.233925812,17,5,7.757,727.77372473233,6.56168,9.0372376,21.762139804,0.0,0.0,0.0,338.1,3.1,-1.7,0,0,1024,1024,1024,1024,0,0,0,0,0,0,0,86,3.878,3.879,0,0,0,0,4.579,68.72,727.44564073233,6.233596,6,P-GPS,,1.9
148800,2026-01-07 12:31:00,727.44564073233,8.2021,0.0,5.333661588,60.248689592,17,5,7.757,727.77372473233,6.56168,9.0372376,21.762139804,0.0,0.0,0.0,328.2,2.6,-2.9,0,0,1024,500,1024,1024,0,-79,0,0,0,0,0,86,3.878,3.879,0,0,0,0,4.579,68.72,727.44564073233,6.233596,6,P-GPS,,1.9
148900,2026-01-07 12:31:00,727.44564073233,8.2021,0.0,5.3231300916,60.25918828,16,5,7.757,727.77372473233,6.56168,9.0372376,21.762139804,0.0,0.0,0.0,328.6,2.7,-2.4,0,0,1024,364,1024,1357,0,-100,0,50,0,0,0,86,3.878,3.879,0,0,0,0,4.579,68.72,727.44564073233,6.233596,6,P-GPS,,1.9
149000,2026-01-07 12:31:00,727.44564073233,8.2021,0.0,5.3518046332,60.30676046,16,5,7.745,727.77372473233,6.56168,9.0372376,21.762139804,0.0,0.0,0.0,328.8,2.3,-3.0,0,0,1024,364,1024,1337,0,-100,0,47,0,0,0,86,3.875,3.87,0,0,0,0,4.838,68.72,727.44564073233,6.233596,6,P-GPS,,1.9
149100,2026-01-07 12:31:00,727.44564073233,8.2021,0.223694,5.3448492524,60.334319516,17,5,7.745,727.77372473233,6.56168,9.0372376,21.762139804,0.0,-0.223694,0.0,329.9,2.3,-11.5,0,0,1024,364,1024,1337,0,-100,0,47,0,0,0,86,3.875,3.87,0,0,0,0,4.838,68.72,727.44564073233,6.233596,6,P-GPS,,1.9
149200,2026-01-07 12:31:00,727.44564073233,8.2021,0.223694,5.3072836344,60.413059676,17,5,7.745,727.77372473233,6.56168,9.0372376,21.762139804,-0.223694,-0.671082,0.0,333.2,3.5,-17.0,0,0,1024,364,1024,1266,0,-100,0,37,0,0,0,86,3.875,3.87,0,0,0,0,4.838,68.72,727.44564073233,6.233596,6,P-GPS,,1.9
149300,2026-01-07 12:31:01,727.44564073233,8.530184,1.4092722,5.2217521356,60.562994064,17,5,7.745,727.77372473233,6.56168,9.0372376,21.762139804,-0.447388,-1.342164,0.0,336.7,3.7,-18.2,0,0,1024,364,1024,1024,0,-100,0,0,0,0,0,86,3.875,3.87,0,0,0,0,4.838,68.72,727.44564073233,6.233596,6,P-GPS,,1.9
149400,2026-01-07 12:31:01,727.44564073233,8.530184,2.1922012,5.110892552,60.816274912,17,5,7.745,727.77372473233,6.56168,9.0372376,21.762139804,-0.894776,-2.013246,0.0,339.0,3.7,-17.2,0,0,1024,364,1024,1024,0,-100,0,0,0,0,0,86,3.875,3.87,0,0,0,0,4.838,68.72,727.44564073233,6.233596,6,P-GPS,,1.9
149500,2026-01-07 12:31:01,727.44564073233,8.530184,2.7066974,4.918471286,61.150592508,17,5,7.745,727.77372473233,6.56168,9.0372376,21.762139804,-1.11847,-2.460634,0.0,339.5,3.1,-16.5,0,0,1024,1024,1024,1327,0,0,0,46,0,0,0,86,3.875,3.87,0,0,0,0,4.838,68.72,727.44564073233,6.233596,6,P-GPS,,1.9
149600,2026-01-07 12:31:01,727.44564073233,8.530184,2.7066974,4.6676838764,61.608269688,17,5,7.745,727.77372473233,6.56168,9.0372376,21.762139804,-1.342164,-3.131716,0.0,340.0,2.8,-16.4,0,0,1024,1024,1024,1684,0,0,0,100,0,0,0,86,3.875,3.87,0,0,0,0,4.838,68.72,727.44564073233,6.233596,6,P-GPS,,1.9
149700,2026-01-07 12:31:01,727.77372473233,8.530184,3.8251674,4.410597254,62.12762666,16,5,7.745,727.77372473233,6.56168,9.0372376,21.762139804,-1.342164,-3.579104,0.0,341.6,3.9,-12.3,0,0,1024,1024,1024,1684,0,0,0,100,0,0,0,86,3.875,3.87,0,0,0,0,4.838,68.72,727.77372473233,6.56168,6,P-GPS,,2.0
149800,2026-01-07 12:31:01,727.77372473233,8.530184,4.026492,4.1016733596,62.891078128,16,5,7.745,727.77372473233,6.56168,9.0372376,21.762139804,-1.342164,-3.802798,0.0,353.7,1.8,5.8,0,0,1024,1024,1024,1684,0,0,0,100,0,0,0,86,3.875,3.87,0,0,0,0,4.838,68.72,727.77372473233,6.56168,6,P-GPS,,2.0
149900,2026-01-07 12:31:01,727.77372473233,8.530184,3.5343652,3.9388780788,63.484254,17,5,7.745,727.77372473233,6.56168,9.0372376,21.762139804,-1.11847,-3.35541,0.0,6.1,-4.7,13.9,0,0,1024,1024,1024,1024,0,0,0,0,0,0,0,86,3.875,3.87,0,0,0,0,4.838,68.72,727.77372473233,6.56168,6,P-GPS,,2.0
150000,2026-01-07 12:31:01,727.77372473233,8.530184,2.7738056,3.8404856872,64.044949556,17,5,7.745,727.77372473233,6.56168,9.0372376,21.762139804,-0.671082,-2.684328,0.0,18.8,-7.4,12.5,0,0,1024,1024,1024,1024,0,0,0,0,0,0,0,86,3.875,3.87,0,0,0,0,4.838,68.72,727.77372473233,6.56168,6,P-GPS,,2.0
150100,2026-01-07 12:31:01,728.10180873233,8.530184,1.8342908,3.8098098332,64.467849832,17,5,7.74,728.10180873233,6.889764,9.0372376,21.762139804,-0.447388,-1.789552,0.0,29.0,-6.5,10.3,0,0,1024,1024,1024,1024,0,0,0,0,0,0,0,86,3.871,3.87,0,0,0,0,5.27,68.72,728.10180873233,6.889764,6,P-GPS,,2.1
150200,2026-01-07 12:31:01,728.10180873233,8.530184,1.3645334,3.8242455292,64.788715984,17,5,7.74,728.10180873233,6.889764,9.0372376,21.762139804,-0.223694,-1.342164,0.0,29.1,-4.2,7.5,0,0,1024,1024,1024,1024,0,0,0,0,0,0,0,86,3.871,3.87,0,0,0,0,5.27,68.72,728.10180873233,6.889764,6,P-GPS,,2.1
150300,2026-01-07 12:31:02,728.10180873233,6.56168,0.671082,3.8523295196,65.151576888,17,5,7.74,728.10180873233,6.889764,9.0372376,21.762139804,0.0,-0.671082,0.0,29.1,-1.9,5.8,0,0,1438,1024,1024,1024,63,0,0,0,0,0,0,86,3.871,3.87,0,0,0,0,5.27,68.72,728.10180873233,6.889764,6,P-GPS,,2.1
150400,2026-01-07 12:31:02,728.10180873233,6.56168,0.447388,3.8175198072,65.27723306,17,5,7.74,728.10180873233,6.889764,9.0372376,21.762139804,0.0,-0.447388,0.0,29.3,-0.4,5.0,0,0,1684,1024,1024,1024,100,0,0,0,0,0,0,86,3.871,3.87,0,0,0,0,5.27,68.72,728.10180873233,6.889764,6,P-GPS,,2.1
150500,2026-01-07 12:31:02,728.10180873233,6.889764,0.223694,3.7762796484,65.355317052,17,5,7.74,728.10180873233,6.889764,9.0372376,21.762139804,0.0,-0.223694,0.0,29.2,-0.9,4.2,0,0,1684,1024,1024,1024,100,0,0,0,0,0,0,86,3.871,3.87,0,0,0,0,5.27,68.72,728.10180873233,6.889764,6,P-GPS,,2.1
150600,2026-01-07 12:31:02,728.10180873233,6.56168,0.223694,3.7163058932,65.422574272,17,5,7.74,728.10180873233,6.889764,9.0372376,21.762139804,0.223694,0.0,0.0,28.8,-9.8,3.2,0,0,1684,1024,1024,1024,100,0,0,0,0,0,0,86,3.871,3.87,0,0,0,0,5.27,68.72,728.10180873233,6.889764,6,P-GPS,,2.1
150700,2026-01-07 12:31:02,728.10180873233,6.56168,0.671082,3.5028216344,65.875002108,17,5,7.74,728.10180873233,6.889764,9.0372376,21.762139804,0.671082,0.0,0.0,28.8,-14.0,2.2,0,0,1684,1024,1024,1024,100,0,0,0,0,0,0,86,3.871,3.87,0,0,0,0,5.27,68.72,728.10180873233,6.889764,6,P-GPS,,2.1
150800,2026-01-07 12:31:02,728.10180873233,6.56168,1.2079476,3.3501969576,66.09744306,17,5,7.74,728.10180873233,6.889764,9.0372376,21.762139804,1.11847,0.447388,0.0,29.0,-14.4,1.8,0,0,1162,1024,1024,1024,21,0,0,0,0,0,0,86,3.871,3.87,0,0,0,0,5.27,68.72,728.10180873233,6.889764,6,P-GPS,,2.1
150900,2026-01-07 12:31:02,728.10180873233,6.56168,1.7000744,3.1562993136,66.390750156,17,5,7.74,728.10180873233,6.889764,9.0372376,21.762139804,1.565858,0.671082,0.0,29.0,-14.0,2.0,0,0,1024,1024,1024,1024,0,0,0,0,0,0,0,86,3.871,3.87,0,0,0,0,5.27,68.72,728.10180873233,6.889764,6,P-GPS,,2.1
151000,2026-01-07 12:31:02,728.10180873233,6.56168,2.5053728,2.9205873638,66.750658304,17,5,7.74,728.10180873233,6.889764,9.0372376,21.762139804,2.23694,1.11847,0.0,29.1,-12.9,1.8,0,0,472,1024,1024,1024,-84,0,0,0,0,0,0,86,3.871,3.87,0,0,0,0,5.27,68.72,728.10180873233,6.889764,6,P-GPS,,2.1
151100,2026-01-07 12:31:02,728.10180873233,6.56168,2.908022,2.71562672732,67.262797428,17,5,7.74,728.10180873233,6.889764,9.0372376,21.762139804,2.684328,1.11847,0.0,29.3,2.8,1.8,0,0,364,1024,1024,1024,-100,0,0,0,0,0,0,86,3.871,3.87,0,0,0,0,5.27,68.72,728.10180873233,6.889764,6,P-GPS,,2.1
151200,2026-01-07 12:31:02,728.10180873233,6.56168,2.7066974,2.50398958144,67.723427364,17,5,7.74,728.10180873233,6.889764,9.0372376,21.762139804,2.460634,1.11847,0.0,29.7,12.2,1.8,0,0,364,1024,1024,1024,-100,0,0,0,0,0,0,86,3.872,3.868,0,0,0,0,4.745,68.72,728.10180873233,6.889764,6,P-GPS,,2.1
151300,2026-01-07 12:31:03,728.10180873233,6.56168,2.5053728,2.37532487916,68.13156386,17,5,7.74,728.10180873233,6.889764,9.0372376,21.762139804,2.23694,1.11847,0.0,29.7,17.4,1.5,0,0,364,1024,1024,1024,-100,0,0,0,0,0,0,86,3.872,3.868,0,0,0,0,4.745,68.72,728.10180873233,6.889764,6,P-GPS,,2.1
151400,2026-01-07 12:31:03,727.77372473233,6.56168,2.5053728,2.30473760656,68.532154424,17,5,7.74,728.10180873233,6.889764,9.0372376,21.762139804,1.565858,0.671082,0.0,29.7,19.6,1.3,0,0,364,1024,1024,1024,-100,0,0,0,0,0,0,86,3.872,3.868,0,0,0,0,4.745,68.72,727.77372473233,6.56168,6,P-GPS,,2.0
151500,2026-01-07 12:31:03,727.77372473233,8.530184,0.9171454,2.21187999204,69.00098646,18,5,7.74,728.10180873233,6.889764,9.0372376,21.762139804,0.894776,0.223694,0.0,29.7,19.7,1.5,0,0,364,1024,1024,1024,-100,0,0,0,0,0,0,86,3.872,3.868,0,0,0,0,4.745,68.72,727.77372473233,6.56168,6,P-GPS,,2.0
151600,2026-01-07 12:31:03,727.77372473233,8.530184,0.9171454,2.22269692152,69.190290928,18,5,7.74,728.10180873233,6.889764,9.0372376,21.762139804,0.223694,0.0,0.0,29.6,19.6,1.4,0,0,364,1024,1024,1024,-100,0,0,0,0,0,0,86,3.872,3.868,0,0,0,0,4.745,68.72,727.77372473233,6.56168,6,P-GPS,,2.0
151700,2026-01-07 12:31:03,727.77372473233,8.530184,0.223694,2.2122376036,69.27001534,18,5,7.74,728.10180873233,6.889764,9.0372376,21.762139804,0.0,-0.223694,0.0,29.7,19.3,1.6,0,0,693,1024,1024,1024,-50,0,0,0,0,0,0,86,3.872,3.868,0,0,0,0,4.745,68.72,727.77372473233,6.56168,6,P-GPS,,2.0
151800,2026-01-07 12:31:03,727.77372473233,8.530184,0.8052984,2.16076778568,69.349739752,18,5,7.74,728.10180873233,6.889764,9.0372376,21.762139804,-0.671082,-0.447388,0.0,29.7,18.9,1.6,0,0,1024,1024,1024,1024,0,0,0,0,0,0,0,86,3.872,3.868,0,0,0,0,4.745,68.72,727.77372473233,6.56168,6,P-GPS,,2.0
151900,2026-01-07 12:31:03,727.77372473233,8.530184,1.4316416,2.091289437,69.53084212,18,5,7.74,728.10180873233,6.889764,9.0372376,21.762139804,-1.11847,-0.894776,0.0,29.8,18.5,2.1,0,0,1024,1024,1024,1024,0,0,0,0,0,0,0,86,3.872,3.868,0,0,0,0,4.745,68.72,727.77372473233,6.56168,6,P-GPS,,2.0
152000,2026-01-07 12:31:03,727.77372473233,8.530184,1.4316416,2.10093182576,70.279857892,18,5,7.74,728.10180873233,6.889764,9.0372376,21.762139804,-1.565858,-0.894776,0.0,29.6,11.4,2.4,0,0,1024,1024,1185,1024,0,0,24,0,0,0,0,86,3.872,3.868,0,0,0,0,4.745,68.72,727.77372473233,6.56168,6,P-GPS,,2.0
152100,2026-01-07 12:31:03,727.77372473233,8.530184,1.8119214,2.1941929836,70.683729296,18,5,7.74,728.10180873233,6.889764,9.0372376,21.762139804,-1.565858,-0.894776,0.0,29.2,-1.8,2.3,0,0,1024,1024,1684,1024,0,0,100,0,0,0,0,86,3.872,3.868,0,0,0,0,4.745,68.72,727.77372473233,6.56168,6,P-GPS,,2.0
152200,2026-01-07 12:31:03,727.77372473233,8.2021,1.6105968,2.3305775024,71.054464216,18,5,7.74,728.10180873233,6.889764,9.0372376,21.762139804,-1.342164,-0.894776,0.0,29.1,-5.5,2.2,0,0,1024,1024,1684,1024,0,0,100,0,0,0,0,86,3.872,3.868,0,0,0,0,4.745,68.72,727.77372473233,6.56168,6,P-GPS,,2.0
152300,2026-01-07 12:31:04,727.77372473233,7.874016,1.2974252,2.47601057792,71.357941916,18,5,7.74,728.10180873233,6.889764,9.0372376,21.762139804,-1.11847,-0.671082,0.0,29.2,-4.5,2.6,0,0,1024,1024,1684,1024,0,0,100,0,0,0,0,86,3.882,3.875,0,0,0,0,4.745,68.72,727.77372473233,6.56168,6,P-GPS,,2.0
152400,2026-01-07 12:31:04,728.10180873233,7.874016,0.8052984,2.7294292212,71.772312008,18,5,7.74,728.10180873233,6.889764,9.0372376,21.762139804,-0.671082,-0.447388,-0.671082,29.5,-2.5,2.8,0,0,1024,1024,1684,1024,0,0,100,0,0,0,0,86,3.882,3.875,0,0,0,0,4.745,68.72,728.10180873233,6.889764,6,P-GPS,,2.1
152500,2026-01-07 12:31:04,728.42989273233,7.874016,0.3131716,2.83698171808,71.945212276,18,5,7.74,728.42989273233,7.217848,9.0372376,21.762139804,-0.223694,-0.223694,-1.342164,29.6,0.1,2.7,0,0,1024,1024,1684,1024,0,0,100,0,0,0,0,86,3.882,3.875,0,0,0,0,4.745,68.72,728.42989273233,7.217848,6,P-GPS,,2.2
152600,2026-01-07 12:31:04,728.75797673233,8.2021,0.223694,2.893946943,72.062994432,18,5,7.74,728.75797673233,7.545932,9.0372376,21.762139804,-0.223694,0.0,-2.23694,29.8,2.0,2.3,0,0,1024,1024,1684,1024,0,0,100,0,0,0,0,86,3.882,3.875,0,0,0,0,4.745,68.72,728.75797673233,7.545932,6,P-GPS,,2.3
152700,2026-01-07 12:31:04,729.08606073233,8.530184,0.0,2.931840645,72.133204408,18,5,7.74,729.08606073233,7.874016,9.0372376,21.762139804,0.0,0.0,-2.908022,29.8,2.9,1.8,0,0,1024,1024,1684,1024,0,0,100,0,0,0,0,86,3.882,3.875,0,0,0,0,4.745,68.72,729.08606073233,7.874016,6,P-GPS,,2.4
152800,2026-01-07 12:31:04,729.74222873233,9.186352,0.0,2.74228355232,72.394359272,18,5,7.74,729.74222873233,8.530184,9.0372376,21.762139804,0.0,0.0,-3.579104,29.8,3.1,1.0,0,0,1024,1024,1684,1024,0,0,100,0,0,0,0,86,3.882,3.875,0,0,0,0,4.745,68.72,729.74222873233,8.530184,6,P-GPS,,2.6
152900,2026-01-07 12:31:04,730.07031273233,9.514436,0.0,2.72673237072,72.441603368,17,5,7.74,730.07031273233,8.858268,9.0372376,21.762139804,0.0,0.0,-4.026492,29.6,2.5,1.3,0,0,1024,1024,1684,1024,0,0,100,0,0,0,0,86,3.882,3.875,0,0,0,0,4.745,68.72,730.07031273233,8.858268,6,P-GPS,,2.7
153000,2026-01-07 12:31:04,730.72648073233,10.170604,0.0,2.69703420704,72.516078436,17,5,7.74,730.72648073233,9.514436,9.0372376,21.762139804,0.0,0.0,-4.250186,29.7,2.6,1.3,0,0,1024,1024,1684,1024,0,0,100,0,0,0,0,86,3.882,3.875,0,0,0,0,4.745,68.72,730.72648073233,9.514436,6,P-GPS,,2.9
153100,2026-01-07 12:31:04,731.38264873233,10.498688,0.0,2.6706693768,72.598099436,18,5,7.74,731.38264873233,10.170604,9.0372376,21.762139804,0.0,0.0,-4.47388,29.6,2.5,1.0,0,0,1024,1024,1684,1024,0,0,100,0,0,0,0,86,3.882,3.875,0,0,0,0,4.745,68.72,731.38264873233,10.170604,6,P-GPS,,3.1
153200,2026-01-07 12:31:04,732.03881673233,11.154856,0.0,2.57498039736,72.980317296,18,5,7.74,732.03881673233,10.826772,9.0372376,21.762139804,0.0,0.0,-4.47388,29.6,2.9,0.6,0,0,1024,1024,1684,1024,0,0,100,0,0,0,0,86,3.882,3.875,0,0,0,0,4.745,68.72,732.03881673233,10.826772,6,P-GPS,,3.3
153300,2026-01-07 12:31:04,732.69498473233,11.811024,0.0,2.58498367852,73.063978716,18,5,7.74,732.69498473233,11.48294,9.0372376,21.762139804,0.0,0.0,-4.47388,29.5,3.8,0.1,0,0,1024,1024,1684,1024,0,0,100,0,0,0,0,86,3.882,3.875,0,0,0,0,4.745,68.72,732.69498473233,11.48294,6,P-GPS,,3.5
153400,2026-01-07 12:31:05,733.35115273233,12.139108,0.0,2.62188656684,73.109910476,18,5,7.737,733.35115273233,12.139108,9.0372376,21.762139804,0.0,0.0,-4.47388,29.5,3.9,0.3,0,0,1024,1024,1684,1024,0,0,100,0,0,0,0,86,3.839,3.838,0,0,0,0,4.847,68.9,733.35115273233,12.139108,6,P-GPS,,3.7
153500,2026-01-07 12:31:05,734.00732073233,12.795276,0.0,2.65097121344,73.149936724,18,5,7.737,734.00732073233,12.795276,9.0372376,21.762139804,0.0,0.0,-4.47388,29.5,3.9,0.3,0,0,1024,1024,1684,1024,0,0,100,0,0,0,0,86,3.839,3.838,0,0,0,0,4.847,68.9,734.00732073233,12.795276,6,P-GPS,,3.9
153600,2026-01-07 12:31:05,734.33540473233,13.451444,0.0,2.66652895672,73.199149324,18,5,7.737,734.33540473233,13.12336,9.0372376,21.762139804,0.0,0.0,-4.250186,29.6,4.6,0.4,0,0,1024,1024,1684,1024,0,0,100,0,0,0,0,86,3.839,3.838,0,0,0,0,4.847,68.9,734.33540473233,13.12336,6,P-GPS,,4.0
153700,2026-01-07 12:31:05,734.99157273233,14.107612,0.0,2.75591872336,73.291340928,18,5,7.737,734.99157273233,13.779528,9.0372376,21.762139804,0.0,0.0,-4.250186,29.6,5.2,0.8,0,0,1024,1024,1684,1024,0,0,100,0,0,0,0,86,3.839,3.838,0,0,0,0,4.847,68.9,734.99157273233,13.779528,6,P-GPS,,4.2
153800,2026-01-07 12:31:05,735.64774073233,14.76378,0.0,2.76045940592,73.305776624,18,5,7.737,735.64774073233,14.435696,9.0372376,21.762139804,0.0,0.0,-4.250186,29.6,5.0,1.0,0,0,1024,1024,1684,1024,0,0,100,0,0,0,0,86,3.839,3.838,0,0,0,0,4.847,68.9,735.64774073233,14.435696,6,P-GPS,,4.4
153900,2026-01-07 12:31:05,736.30390873233,15.419948,0.0,2.7636811908,73.32513358,18,5,7.737,736.30390873233,15.091864,9.0372376,21.762139804,0.0,0.0,-4.250186,29.6,4.8,1.2,0,0,1024,1024,1684,1024,0,0,100,0,0,0,0,86,3.839,3.838,0,0,0,0,4.847,68.9,736.30390873233,15.091864,6,P-GPS,,4.6
154000,2026-01-07 12:31:05,736.96007673233,16.076116,0.0,2.75650599372,73.339569276,18,5,7.737,736.96007673233,15.748032,9.0372376,21.762139804,0.0,0.0,-4.250186,29.6,4.3,0.9,0,0,1024,1024,1684,1024,0,0,100,0,0,0,0,86,3.839,3.838,0,0,0,0,4.847,68.9,736.96007673233,15.748032,6,P-GPS,,4.8
154100,2026-01-07 12:31:05,737.61624473233,16.732284,0.0,2.72722121588,73.435697888,17,5,7.737,737.61624473233,16.4042,9.0372376,21.762139804,0.0,0.0,-4.250186,29.6,4.2,0.8,0,0,1024,1024,1684,1024,0,0,100,0,0,0,0,86,3.839,3.838,0,0,0,0,4.847,68.9,737.61624473233,16.4042,6,P-GPS,,5.0
154200,2026-01-07 12:31:05,738.27241273233,17.388452,0.0,2.73104995616,73.478020724,17,5,7.737,738.27241273233,17.060368,9.0372376,21.762139804,0.0,0.0,-4.250186,29.7,3.6,0.7,0,0,1024,1024,1684,1024,0,0,100,0,0,0,0,86,3.839,3.838,0,0,0,0,4.847,68.9,738.27241273233,17.060368,6,P-GPS,,5.2
154300,2026-01-07 12:31:06,738.92858073233,18.04462,0.0,2.74882226644,73.530514164,18,5,7.737,738.92858073233,17.716536,9.0372376,21.762139804,0.0,0.0,-4.250186,29.7,3.2,0.8,0,0,1024,1024,1684,1024,0,0,100,0,0,0,0,86,3.839,3.838,0,0,0,0,4.847,68.9,738.92858073233,17.716536,6,P-GPS,,5.4
154400,2026-01-07 12:31:06,739.58474873233,18.700788,0.0,2.80755914496,73.61712834,18,5,7.737,739.58474873233,18.372704,9.0372376,21.762139804,0.0,0.0,-4.47388,29.6,3.3,0.7,0,0,1024,1024,1684,1024,0,0,100,0,0,0,0,86,3.839,3.838,0,0,0,0,4.847,68.9,739.58474873233,18.372704,6,P-GPS,,5.6
154500,2026-01-07 12:31:06,740.24091673233,19.356956,0.0,2.92689969996,73.7942937,18,5,7.737,740.24091673233,19.028872,9.0372376,21.762139804,0.0,0.0,-4.47388,29.6,3.2,0.3,0,0,1024,1024,1684,1024,0,0,100,0,0,0,0,86,3.839,3.838,0,0,0,0,4.847,68.9,740.24091673233,19.028872,6,P-GPS,,5.8
154600,2026-01-07 12:31:06,740.56900073233,20.013124,0.0,2.95763460908,73.83858504,18,5,7.692,740.56900073233,19.356956,9.0372376,21.762139804,0.0,0.0,-4.47388,29.6,3.3,0.3,0,0,1024,1024,1684,1024,0,0,100,0,0,0,0,86,3.848,3.85,0,0,0,0,5.505,68.9,740.56900073233,19.356956,6,P-GPS,,5.9
