time(millisecond),timestamp,height_above_ground_at_drone_location(feet),ground_elevation_at_drone_location(feet),altitude_above_seaLevel(feet),height_sonar(feet),speed(mph),distance(feet),mileage(feet),satellites,gpslevel,voltage(v),max_altitude(feet),max_ascent(feet),max_speed(mph),max_distance(feet), xSpeed(mph), ySpeed(mph), zSpeed(mph), compass_heading(degrees), pitch(degrees), roll(degrees),isPhoto,isVideo,rc_elevator,rc_aileron,rc_throttle,rc_rudder,rc_elevator(percent),rc_aileron(percent),rc_throttle(percent),rc_rudder(percent),gimbal_heading(degrees),gimbal_pitch(degrees),gimbal_roll(degrees),battery_percent,voltageCell1,voltageCell2,voltageCell3,voltageCell4,voltageCell5,voltageCell6,current(A),battery_temperature(f),altitude(feet),ascent(feet),flycStateRaw,flycState,message,height_above_takeoff(meters)
584500,2026-01-07 12:42:29,Available with any HD 360 subscription,Available with any HD 360 subscription,720.94576683667,0.328084,0.0,0.0,0.0,17,5,0.0,720.94576683667,0.0,0.0,0.0,0.0,0.0,0.0,25.6,3.7,1.0,0,0,1024,1024,1024,1024,0,0,0,0,0,0,0,57,3.789,3.789,0,0,0,0,0.0,73.76,720.94576683667,0.0,41,Motors_Started,SD card speed low SD card speed low. Normal use may be affected. Replace SD card (Code: 10028). Gimbal stuck. Make sure gimbal cover is removed and manually check whether gimbal can rotate freely (Code: 40002),0.0
584600,2026-01-07 12:42:29,,,720.94576683667,0.328084,0.0,0.0058475723656,0.0058475723656,17,5,0.0,720.94576683667,0.0,0.0,0.0058475723656,0.0,0.0,0.0,25.6,3.7,1.0,0,0,1024,1024,1024,1024,0,0,0,0,0,0,0,57,3.789,3.789,0,0,0,0,0.0,73.76,720.94576683667,0.0,41,Motors_Started,SD card speed low. Normal use may be affected. Replace SD card (Code: 40112),0.0
584700,2026-01-07 12:42:29,,,720.94576683667,0.328084,0.0,0.0232988196432,0.0267573171292,17,5,7.58,720.94576683667,0.0,0.0,0.0232988196432,0.0,0.0,0.0,25.6,3.7,0.9,0,0,1024,1024,1024,1024,0,0,0,0,0,0,0,57,3.789,3.789,0,0,0,0,0.678,73.76,720.94576683667,0.0,41,Motors_Started,Setting new Return-To-Home altitude to 500m (1640 ft). Data Recorder File Index is 26. Setting new Maximum Flight Altitude to 500m (1640 ft),0.0
584800,2026-01-07 12:42:29,,,720.94576683667,0.328084,0.0,1.18737208524,0.0281990822672,17,5,7.58,720.94576683667,0.0,0.0,1.18737208524,0.0,0.0,0.0,25.6,3.7,0.9,0,0,1024,1024,1024,1024,0,0,0,0,0,0,0,57,3.789,3.789,0,0,0,0,0.678,73.76,720.94576683667,0.0,41,Motors_Started,,0.0
584900,2026-01-07 12:42:29,,,720.94576683667,0.328084,0.0,1.18829072044,0.0291342200924,17,5,7.58,720.94576683667,0.0,0.0,1.18829072044,0.0,0.0,0.0,25.6,3.7,1.0,0,0,1024,1024,1024,1024,0,0,0,0,0,0,0,57,3.789,3.789,0,0,0,0,0.678,73.76,720.94576683667,0.0,41,Motors_Started,,0.0
585000,2026-01-07 12:42:29,,,720.94576683667,0.328084,0.0,1.18714570728,0.0317187674192,17,5,7.58,720.94576683667,0.0,0.0,1.18829072044,0.0,0.0,0.0,25.6,3.7,1.0,0,0,1024,1024,1024,1024,0,0,0,0,0,0,0,57,3.789,3.789,0,0,0,0,0.678,73.76,720.94576683667,0.0,41,Motors_Started,,0.0
585100,2026-01-07 12:42:29,,,720.94576683667,0.328084,0.0,1.16607287196,0.07517552734,17,5,7.58,720.94576683667,0.0,0.0,1.18829072044,0.0,0.0,0.0,25.6,3.7,0.9,0,0,1024,1024,1024,1024,0,0,0,0,0,0,0,57,3.789,3.789,0,0,0,0,0.678,73.76,720.94576683667,0.0,41,Motors_Started,,0.0
585200,2026-01-07 12:42:30,,,720.94576683667,0.328084,0.0,1.15439308156,0.09161909742,17,5,7.58,720.94576683667,0.0,0.0,1.18829072044,0.0,0.0,0.0,25.4,3.7,0.9,0,0,1024,1024,1024,1024,0,0,0,0,0,0,0,57,3.789,3.789,0,0,0,0,0.678,73.76,720.94576683667,0.0,41,Motors_Started,,0.0
585300,2026-01-07 12:42:30,,,720.94576683667,0.328084,0.0,1.13967195248,0.106900265888,17,5,7.58,720.94576683667,0.0,0.0,1.18829072044,0.0,0.0,0.0,25.4,3.6,0.9,0,0,1024,1024,1024,1024,0,0,0,0,0,0,0,57,3.789,3.789,0,0,0,0,0.678,73.76,720.94576683667,0.0,41,Motors_Started,,0.0
585400,2026-01-07 12:42:30,,,720.94576683667,0.328084,0.0,1.1269029232,0.12031496448,16,5,7.58,720.94576683667,0.0,0.0,1.18829072044,0.0,0.0,0.0,25.4,3.7,1.0,0,0,1024,1024,1024,1024,0,0,0,0,0,0,0,57,3.789,3.789,0,0,0,0,0.678,73.76,720.94576683667,0.0,41,Motors_Started,,0.0
585500,2026-01-07 12:42:30,,,720.94576683667,0.328084,0.0,1.12022969464,0.14686844302,16,5,7.58,720.94576683667,0.0,0.0,1.18829072044,0.0,0.0,0.0,25.4,3.6,1.0,0,0,1024,1024,1024,1024,0,0,0,0,0,0,0,57,3.789,3.789,0,0,0,0,0.678,73.76,720.94576683667,0.0,41,Motors_Started,,0.0
585600,2026-01-07 12:42:30,,,720.94576683667,0.328084,0.0,1.11588914332,0.151425857864,17,5,7.58,720.94576683667,0.0,0.0,1.18829072044,0.0,0.0,0.0,25.4,3.7,1.0,0,0,1024,1024,1024,1024,0,0,0,0,0,0,0,57,3.789,3.789,0,0,0,0,0.678,73.76,720.94576683667,0.0,11,AutoTakeoff,,0.0
585700,2026-01-07 12:42:30,,,720.94576683667,0.328084,0.0,1.10490817184,0.167450464676,17,5,7.58,720.94576683667,0.0,0.0,1.18829072044,0.0,0.0,0.0,25.4,3.7,1.0,0,0,1024,1024,1024,1024,0,0,0,0,0,0,0,57,3.789,3.789,0,0,0,0,0.678,73.76,720.94576683667,0.0,11,AutoTakeoff,,0.0
585800,2026-01-07 12:42:30,,,720.94576683667,0.328084,0.0,1.09577759412,0.1812007932,16,5,7.542,720.94576683667,0.0,0.0,1.18829072044,0.0,0.0,0.0,25.4,3.6,1.0,0,0,1024,1024,1024,1024,0,0,0,0,0,0,0,57,3.769,3.773,0,0,0,0,1.556,73.76,720.94576683667,0.0,11,AutoTakeoff,SD card speed low. Normal use may be affected. Replace SD card (Code: 10028),0.0
585900,2026-01-07 12:42:30,,,720.94576683667,0.328084,0.0,1.09399281716,0.184847118776,16,5,7.542,720.94576683667,0.0,0.0,1.18829072044,0.0,0.0,0.0,25.5,3.7,0.9,0,0,1024,1024,1024,1024,0,0,0,0,0,0,0,57,3.769,3.773,0,0,0,0,1.556,73.76,720.94576683667,0.0,11,AutoTakeoff,,0.0
586000,2026-01-07 12:42:30,,,720.94576683667,0.328084,0.0,1.09902890656,0.2072506628,16,5,7.542,720.94576683667,0.0,0.0,1.18829072044,0.0,0.0,0.0,25.5,3.7,0.9,0,0,1024,1024,1024,1024,0,0,0,0,0,0,0,57,3.769,3.773,0,0,0,0,1.556,73.76,720.94576683667,0.0,11,AutoTakeoff,,0.0
586100,2026-01-07 12:42:30,,,720.94576683667,0.328084,0.0,1.10145344732,0.210048891236,16,5,7.542,720.94576683667,0.0,0.0,1.18829072044,0.0,0.0,0.0,25.6,3.7,0.9,0,0,1024,1024,1024,1024,0,0,0,0,0,0,0,57,3.769,3.773,0,0,0,0,1.556,73.76,720.94576683667,0.0,11,AutoTakeoff,,0.0
586200,2026-01-07 12:42:31,,,720.94576683667,0.328084,0.0,1.10290029776,0.213946201072,16,5,7.542,720.94576683667,0.0,0.0,1.18829072044,0.0,0.0,0.0,25.7,3.7,0.9,0,0,1024,1024,1024,1024,0,0,0,0,0,0,0,57,3.769,3.773,0,0,0,0,1.556,73.76,720.94576683667,0.0,11,AutoTakeoff,,0.0
586300,2026-01-07 12:42:31,,,720.94576683667,0.328084,0.0,1.09672247604,0.2295603748,16,5,7.542,720.94576683667,0.0,0.0,1.18829072044,0.0,0.0,0.0,26.3,3.5,0.9,0,0,1024,1024,1024,1024,0,0,0,0,0,0,0,57,3.769,3.773,0,0,0,0,1.556,73.76,720.94576683667,0.0,11,AutoTakeoff,,0.0
586400,2026-01-07 12:42:31,,,720.94576683667,0.328084,0.0,1.09598428704,0.267763131928,16,5,7.542,720.94576683667,0.0,0.0,1.18829072044,0.0,0.0,0.0,26.7,1.8,0.7,0,0,1024,1024,1024,1024,0,0,0,0,0,0,0,57,3.769,3.773,0,0,0,0,1.556,73.76,720.94576683667,0.0,11,AutoTakeoff,,0.0
586500,2026-01-07 12:42:31,,,720.94576683667,0.328084,0.0,1.09048888004,0.273593184608,16,5,7.542,720.94576683667,0.0,0.0,1.18829072044,0.0,0.0,-0.223694,26.7,1.9,-0.1,0,0,1024,1024,1024,1024,0,0,0,0,0,0,0,57,3.769,3.773,0,0,0,0,1.556,73.76,720.94576683667,0.0,11,AutoTakeoff,,0.0
586600,2026-01-07 12:42:31,,,720.94576683667,0.328084,0.0,1.0909285126,0.27443570432,16,5,7.542,720.94576683667,0.0,0.0,1.18829072044,0.0,0.0,-0.447388,26.5,1.1,0.0,0,0,1024,1024,1024,1024,0,0,0,0,0,0,0,57,3.769,3.773,0,0,0,0,1.556,73.76,720.94576683667,0.0,11,AutoTakeoff,,0.0
586700,2026-01-07 12:42:31,,,720.94576683667,0.656168,0.0,1.105397017,0.289000665416,16,5,7.542,720.94576683667,0.0,0.0,1.18829072044,0.0,0.0,-0.894776,26.8,0.6,0.5,0,0,1024,1024,1024,1024,0,0,0,0,0,0,0,57,3.769,3.773,0,0,0,0,1.556,73.76,720.94576683667,0.0,11,AutoTakeoff,,0.0
586800,2026-01-07 12:42:31,,,720.94576683667,0.656168,0.0,1.11769688616,0.314878290916,15,5,7.542,720.94576683667,0.0,0.0,1.18829072044,0.0,0.0,-1.11847,26.9,0.8,0.6,0,0,1024,1024,1413,1024,0,0,59,0,0,0,0,57,3.769,3.773,0,0,0,0,1.556,73.76,720.94576683667,0.0,11,AutoTakeoff,Home Point updated. RTH altitude adjusted to 500 m (Code: 120852),0.0
586900,2026-01-07 12:42:31,,,720.94576683667,0.656168,0.0,1.13717851408,0.33436352776,15,5,7.542,720.94576683667,0.0,0.0,1.18829072044,0.0,0.0,-1.342164,26.9,0.8,0.8,0,0,1024,1024,1684,1024,0,0,100,0,0,0,0,57,3.769,3.773,0,0,0,0,1.556,73.76,720.94576683667,0.0,11,AutoTakeoff,,0.0
587000,2026-01-07 12:42:31,,,721.27385083667,0.984252,0.0,1.14823494488,0.34686352816,16,5,7.345,721.27385083667,0.328084,0.0,1.18829072044,0.0,0.0,-1.565858,26.9,0.6,0.7,0,0,1024,1024,1684,1024,0,0,100,0,0,0,0,57,3.656,3.652,0,0,0,0,4.42,73.76,721.27385083667,0.328084,11,AutoTakeoff,,0.1
587100,2026-01-07 12:42:31,,,721.60193483667,1.312336,0.0,1.13960305484,0.37187665232,16,5,7.345,721.60193483667,0.656168,0.0,1.18829072044,0.0,0.0,-1.789552,27.0,0.6,1.4,0,0,1024,1024,1684,1024,0,0,100,0,0,0,0,57,3.656,3.652,0,0,0,0,4.42,73.76,721.60193483667,0.656168,11,AutoTakeoff,,0.2
587200,2026-01-07 12:42:32,,,721.93001883667,1.312336,0.0,1.17750331852,0.4312336096,17,5,7.345,721.93001883667,0.984252,0.0,1.18829072044,0.0,0.0,-2.23694,27.3,1.2,1.2,0,0,1024,1024,1684,1024,0,0,100,0,0,0,0,57,3.656,3.652,0,0,0,0,4.42,73.76,721.93001883667,0.984252,11,AutoTakeoff,,0.3
587300,2026-01-07 12:42:32,,,722.25810283667,1.64042,0.0,1.17497379088,0.4584317732,17,5,7.345,722.25810283667,1.312336,0.0,1.18829072044,0.0,0.0,-2.684328,27.5,2.1,0.7,0,0,1024,1024,1684,1024,0,0,100,0,0,0,0,57,3.656,3.652,0,0,0,0,4.42,73.76,722.25810283667,1.312336,11,AutoTakeoff,,0.4
587400,2026-01-07 12:42:32,,,722.58618683667,2.296588,0.0,1.16172247812,0.48306103908,18,5,7.345,722.58618683667,1.64042,0.0,1.18829072044,0.0,0.0,-3.35541,27.3,2.3,0.4,0,0,1024,1024,1684,1024,0,0,100,0,0,0,0,57,3.656,3.652,0,0,0,0,4.42,73.76,722.58618683667,1.64042,11,AutoTakeoff,,0.5
587500,2026-01-07 12:42:32,,,723.24235483667,2.624672,0.0,1.1185531854,0.53389765488,18,5,7.345,723.24235483667,2.296588,0.0,1.18829072044,0.0,0.0,-4.026492,27.2,2.7,-0.7,0,0,1024,1024,1684,1024,0,0,100,0,0,0,0,57,3.656,3.652,0,0,0,0,4.42,73.76,723.24235483667,2.296588,11,AutoTakeoff,,0.7
587600,2026-01-07 12:42:32,,,723.89852283667,3.28084,0.0,1.07953415528,0.57951445424,18,5,7.345,723.89852283667,2.952756,0.0,1.18829072044,0.0,0.223694,-4.250186,27.0,3.7,-1.4,0,0,1024,1024,1684,1024,0,0,100,0,0,0,0,57,3.656,3.652,0,0,0,0,4.42,73.76,723.89852283667,2.952756,6,P-GPS,,0.9
587700,2026-01-07 12:42:32,,,724.55469083667,3.937008,0.223694,1.06042654312,0.61151248676,18,5,7.345,724.55469083667,3.608924,0.223694,1.18829072044,0.223694,0.0,-4.47388,26.8,4.5,-1.3,0,0,1024,1024,1684,1024,0,0,100,0,0,0,0,57,3.656,3.652,0,0,0,0,4.42,73.76,724.55469083667,3.608924,6,P-GPS,,1.1
587800,2026-01-07 12:42:32,,,725.21085883667,4.593176,0.223694,1.03508205412,0.6379265296,19,5,7.345,725.21085883667,4.265092,0.223694,1.18829072044,0.223694,0.0,-4.47388,26.8,5.5,-0.8,0,0,1024,1024,1684,1024,0,0,100,0,0,0,0,57,3.656,3.652,0,0,0,0,4.42,73.76,725.21085883667,4.265092,6,P-GPS,,1.3
587900,2026-01-07 12:42:32,,,726.19511083667,5.249344,0.223694,0.97902562188,0.70515422204,19,5,7.345,726.19511083667,5.249344,0.223694,1.18829072044,0.223694,0.0,-4.47388,27.0,5.2,-0.2,0,0,1024,1024,1684,1024,0,0,100,0,0,0,0,57,3.656,3.652,0,0,0,0,4.42,73.76,726.19511083667,5.249344,6,P-GPS,,1.6
588000,2026-01-07 12:42:32,,,726.85127883667,5.905512,0.3131716,0.91771000312,0.77420934236,19,5,7.345,726.85127883667,5.905512,0.3131716,1.18829072044,0.223694,0.223694,-4.47388,27.0,6.6,-0.5,0,0,1024,1024,1684,1024,0,0,100,0,0,0,0,57,3.656,3.652,0,0,0,0,4.42,73.76,726.85127883667,5.905512,6,P-GPS,,1.8
588100,2026-01-07 12:42:32,,,727.50744683667,6.56168,0.3131716,0.5500000176,1.14490817312,19,5,7.284,727.50744683667,6.56168,0.3131716,1.18829072044,0.223694,0.223694,-4.250186,26.9,8.1,-1.5,0,0,1024,1024,1684,1024,0,0,100,0,0,0,0,57,3.641,3.642,0,0,0,0,7.051,73.76,727.50744683667,6.56168,6,P-GPS,,2.0
588200,2026-01-07 12:42:33,,,728.16361483667,7.217848,0.223694,0.43591208744,1.2597277306,19,5,7.284,728.16361483667,7.217848,0.3131716,1.18829072044,0.223694,0.0,-4.250186,26.8,8.6,-0.7,0,0,1024,1024,1684,1024,0,0,100,0,0,0,0,57,3.641,3.642,0,0,0,0,7.051,73.76,728.16361483667,7.217848,6,P-GPS,,2.2
588300,2026-01-07 12:42:33,,,728.81978283667,7.874016,0.223694,0.37174213788,1.33021985884,19,5,7.284,728.81978283667,7.874016,0.3131716,1.18829072044,0.223694,0.0,-4.250186,27.1,7.6,0.0,0,0,1024,1024,1684,1024,0,0,100,0,0,0,0,57,3.641,3.642,0,0,0,0,7.051,73.76,728.81978283667,7.874016,6,P-GPS,,2.4
588400,2026-01-07 12:42:33,,,729.80403483667,8.530184,0.0,0.324789708556,1.38183403372,19,5,7.284,729.80403483667,8.858268,0.3131716,1.18829072044,0.0,0.0,-4.250186,27.0,7.3,-0.4,0,0,1024,1024,1684,1024,0,0,100,0,0,0,0,57,3.641,3.642,0,0,0,0,7.051,73.76,729.80403483667,8.858268,6,P-GPS,,2.7
588500,2026-01-07 12:42:33,,,730.46020283667,9.186352,0.0,0.277019693904,1.466207396,19,5,7.284,730.46020283667,9.514436,0.3131716,1.18829072044,0.0,0.0,-4.47388,26.9,7.8,-1.3,0,0,1024,1024,1684,1024,0,0,100,0,0,0,0,57,3.641,3.642,0,0,0,0,7.051,73.76,730.46020283667,9.514436,6,P-GPS,,2.9
588600,2026-01-07 12:42:33,,,731.11637083667,9.514436,0.0,0.274390428728,1.50399611112,19,5,7.284,731.11637083667,10.170604,0.3131716,1.18829072044,0.0,0.0,-4.47388,26.9,8.1,-2.1,0,0,1024,1024,1684,1024,0,0,100,0,0,0,0,57,3.641,3.642,0,0,0,0,7.051,73.76,731.11637083667,10.170604,6,P-GPS,,3.1
588700,2026-01-07 12:42:33,,,731.77253883667,10.170604,0.0,0.3203494197,1.56402892144,19,5,7.284,731.77253883667,10.826772,0.3131716,1.18829072044,0.0,0.0,-4.250186,26.9,7.7,-2.0,0,0,1024,1024,1684,1024,0,0,100,0,0,0,0,57,3.641,3.642,0,0,0,0,7.051,73.76,731.77253883667,10.826772,6,P-GPS,,3.3
588800,2026-01-07 12:42:33,,,732.42870683667,10.826772,0.0,0.37541339784,1.62300202044,19,5,7.284,732.42870683667,11.48294,0.3131716,1.18829072044,0.0,0.0,-4.250186,26.9,6.6,-1.3,0,0,1024,1024,1684,1024,0,0,100,0,0,0,0,57,3.641,3.642,0,0,0,0,7.051,73.76,732.42870683667,11.48294,6,P-GPS,,3.5
588900,2026-01-07 12:42:33,,,733.41295883667,11.48294,0.0,0.53563650008,1.7885171176,19,5,7.284,733.41295883667,12.467192,0.3131716,1.18829072044,0.0,0.0,-4.250186,26.9,7.4,-1.4,0,0,1024,1024,1684,1024,0,0,100,0,0,0,0,57,3.641,3.642,0,0,0,0,7.051,73.76,733.41295883667,12.467192,6,P-GPS,,3.8
589000,2026-01-07 12:42:33,,,734.06912683667,11.811024,0.447388,0.58352364072,1.8479003216,19,5,7.284,734.06912683667,13.12336,0.447388,1.18829072044,0.0,-0.447388,-4.250186,27.1,6.7,0.9,0,0,1024,1024,1684,1024,0,0,100,0,0,0,0,57,3.641,3.642,0,0,0,0,7.051,73.76,734.06912683667,13.12336,6,P-GPS,,4.0
589100,2026-01-07 12:42:33,,,734.72529483667,12.467192,0.447388,0.65383532276,1.95227040368,19,5,7.284,734.72529483667,13.779528,0.447388,1.18829072044,0.0,-0.447388,-4.250186,27.1,6.8,1.1,0,0,1024,1024,1684,1024,0,0,100,0,0,0,0,57,3.641,3.642,0,0,0,0,7.051,73.76,734.72529483667,13.779528,6,P-GPS,,4.2
589200,2026-01-07 12:42:34,,,735.38146283667,13.12336,0.223694,0.72583335656,2.04675531484,19,5,7.266,735.38146283667,14.435696,0.447388,1.18829072044,0.0,-0.223694,-4.250186,27.2,6.3,1.6,0,0,1024,1024,1684,1024,0,0,100,0,0,0,0,57,3.622,3.621,0,0,0,0,6.88,73.76,735.38146283667,14.435696,6,P-GPS,,4.4
589300,2026-01-07 12:42:34,,,736.36571483667,13.779528,0.223694,0.80504923836,2.13977697136,19,5,7.266,736.36571483667,15.419948,0.447388,1.18829072044,0.0,-0.223694,-4.250186,27.2,6.5,1.6,0,0,1024,1024,1684,1024,0,0,100,0,0,0,0,57,3.622,3.621,0,0,0,0,6.88,73.76,736.36571483667,15.419948,6,P-GPS,,4.7
589400,2026-01-07 12:42:34,,,737.02188283667,14.435696,0.223694,1.00671591148,2.38370086368,19,5,7.266,737.02188283667,16.076116,0.447388,1.18829072044,0.0,0.0,-4.250186,27.2,6.3,1.6,0,0,1024,1024,1684,1024,0,0,100,0,0,0,0,57,3.622,3.621,0,0,0,0,6.88,73.76,737.02188283667,16.076116,6,P-GPS,,4.9
589500,2026-01-07 12:42:34,,,737.67805083667,15.091864,0.0,1.01368769648,2.4129593948,19,5,7.266,737.67805083667,16.732284,0.447388,1.18829072044,0.0,0.0,-4.250186,27.1,6.0,0.2,0,0,1024,1024,1684,1024,0,0,100,0,0,0,0,57,3.622,3.621,0,0,0,0,6.88,73.76,737.67805083667,16.732284,6,P-GPS,,5.1
589600,2026-01-07 12:42:34,,,738.66230283667,15.748032,0.0,1.01154202712,2.4414698944,19,5,7.266,738.66230283667,17.716536,0.447388,1.18829072044,0.0,0.0,-4.47388,26.9,6.8,-0.3,0,0,1024,1024,1684,1024,0,0,100,0,0,0,0,57,3.622,3.621,0,0,0,0,6.88,73.76,738.66230283667,17.716536,6,P-GPS,,5.4
589700,2026-01-07 12:42:34,,,739.31847083667,16.4042,0.0,1.009432447,2.46729666688,19,5,7.266,739.31847083667,18.372704,0.447388,1.18829072044,0.0,0.0,-4.47388,27.0,7.0,0.0,0,0,1024,1024,1684,1024,0,0,100,0,0,0,0,57,3.622,3.621,0,0,0,0,6.88,73.76,739.31847083667,18.372704,6,P-GPS,,5.6
589800,2026-01-07 12:42:34,,,739.97463883667,17.388452,0.0,0.96466866604,2.52864509404,19,5,7.266,739.97463883667,19.028872,0.447388,1.18829072044,0.0,0.0,-4.47388,26.9,7.2,0.0,0,0,1024,1024,1684,1024,0,0,100,0,0,0,0,57,3.622,3.621,0,0,0,0,6.88,73.76,739.97463883667,19.028872,6,P-GPS,,5.8
589900,2026-01-07 12:42:34,,,740.95889083667,18.04462,0.0,0.96228349536,2.55040362492,19,5,7.266,740.95889083667,20.013124,0.447388,1.18829072044,0.0,0.0,-4.47388,26.8,7.4,0.5,0,0,1024,1024,1684,1024,0,0,100,0,0,0,0,57,3.622,3.621,0,0,0,0,6.88,73.76,740.95889083667,20.013124,6,P-GPS,,6.1
590000,2026-01-07 12:42:34,,,741.61505883667,18.700788,0.0,0.96009189424,2.56981307436,19,5,7.266,741.61505883667,20.669292,0.447388,1.18829072044,0.0,0.0,-4.47388,26.9,7.7,0.2,0,0,1024,1024,1684,1024,0,0,100,0,0,0,0,57,3.622,3.621,0,0,0,0,6.88,73.76,741.61505883667,20.669292,6,P-GPS,,6.3
590100,2026-01-07 12:42:34,,,742.27122683667,19.68504,0.0,0.92938979352,2.60435703872,19,5,7.266,742.27122683667,21.32546,0.447388,1.18829072044,0.0,0.0,-4.47388,26.9,7.3,0.4,0,0,1024,1024,1684,1024,0,0,100,0,0,0,0,57,3.622,3.621,0,0,0,0,6.88,73.76,742.27122683667,21.32546,6,P-GPS,,6.5
590200,2026-01-07 12:42:35,,,743.25547883667,20.669292,0.0,0.81866472436,2.7548557312,19,5,7.266,743.25547883667,22.309712,0.447388,1.18829072044,0.0,0.0,-4.47388,26.8,7.7,0.8,0,0,1024,1024,1684,1024,0,0,100,0,0,0,0,57,3.622,3.621,0,0,0,0,6.88,73.76,743.25547883667,22.309712,6,P-GPS,,6.8
590300,2026-01-07 12:42:35,,,743.91164683667,21.32546,0.0,0.81461944864,2.7701116372,19,5,7.229,743.91164683667,22.96588,0.447388,1.18829072044,0.0,0.0,-4.47388,26.9,7.7,0.7,0,0,1024,1024,1684,1024,0,0,100,0,0,0,0,57,3.617,3.612,0,0,0,0,7.536,73.76,743.91164683667,22.96588,6,P-GPS,,7.0
590400,2026-01-07 12:42:35,,,744.56781483667,22.309712,0.0,0.81669293952,2.7735729234,19,5,7.229,744.56781483667,23.622048,0.447388,1.18829072044,0.0,0.0,-4.47388,26.7,7.0,0.4,0,0,1024,1024,1684,1024,0,0,100,0,0,0,0,57,3.617,3.612,0,0,0,0,7.536,73.76,744.56781483667,23.622048,6,P-GPS,,7.2
590500,2026-01-07 12:42:35,,,745.22398283667,22.96588,0.0,0.8410925466,2.83683079944,19,5,7.229,745.22398283667,24.278216,0.447388,1.18829072044,0.0,0.0,-4.47388,26.8,6.4,0.6,0,0,1024,1024,1684,1024,0,0,100,0,0,0,0,57,3.617,3.612,0,0,0,0,7.536,73.76,745.22398283667,24.278216,6,P-GPS,,7.4
590600,2026-01-07 12:42:35,,,746.20823483667,23.950132,0.0,0.87860239032,2.90979011936,19,5,7.229,746.20823483667,25.262468,0.447388,1.18829072044,0.0,0.0,-4.47388,26.8,5.3,0.5,0,0,1024,1024,1684,1024,0,0,100,0,0,0,0,57,3.617,3.612,0,0,0,0,7.536,73.76,746.20823483667,25.262468,6,P-GPS,,7.7
590700,2026-01-07 12:42:35,,,746.86440283667,24.6063,0.0,0.98421262992,3.06354340512,19,5,7.229,746.86440283667,25.918636,0.447388,1.18829072044,0.0,0.0,-4.697574,26.6,5.7,0.4,0,0,1024,1024,1684,1024,0,0,100,0,0,0,0,57,3.617,3.612,0,0,0,0,7.536,73.76,746.86440283667,25.918636,6,P-GPS,,7.9
590800,2026-01-07 12:42:35,,,747.52057083667,25.262468,0.0,1.07624019192,3.19036755616,19,5,7.229,747.52057083667,26.574804,0.447388,1.18829072044,0.0,0.0,-4.47388,26.6,7.2,0.8,0,0,1024,1024,1684,1024,0,0,100,0,0,0,0,57,3.617,3.612,0,0,0,0,7.536,73.76,747.52057083667,26.574804,6,P-GPS,,8.1
590900,2026-01-07 12:42:35,,,748.17673883667,25.918636,0.0,1.07020344632,3.20911427592,19,5,7.229,748.17673883667,27.230972,0.447388,1.18829072044,0.0,0.0,-4.47388,26.7,8.0,0.8,0,0,1024,1024,1684,1024,0,0,100,0,0,0,0,57,3.617,3.612,0,0,0,0,7.536,73.76,748.17673883667,27.230972,6,P-GPS,,8.3
591000,2026-01-07 12:42:35,,,748.83290683667,26.574804,0.0,1.06706696328,3.2295440666,19,5,7.229,748.83290683667,27.88714,0.447388,1.18829072044,0.0,0.0,-4.47388,26.7,7.9,0.7,0,0,1024,1024,1684,1024,0,0,100,0,0,0,0,57,3.617,3.612,0,0,0,0,7.536,73.76,748.83290683667,27.88714,6,P-GPS,,8.5
591100,2026-01-07 12:42:35,,,749.48907483667,26.902888,0.0,0.989501344,3.309875434,19,5,7.229,749.48907483667,28.543308,0.447388,1.18829072044,0.0,0.0,-4.47388,26.8,8.6,0.3,0,0,1024,1024,1684,1024,0,0,100,0,0,0,0,57,3.617,3.612,0,0,0,0,7.536,73.76,749.48907483667,28.543308,6,P-GPS,,8.7
591200,2026-01-07 12:42:36,,,750.14524283667,31.496064,0.0,1.00415685628,3.3409449888,19,5,7.229,750.14524283667,29.199476,0.447388,1.18829072044,0.0,0.0,-4.47388,26.8,7.9,0.0,0,0,1024,1024,1684,1024,0,0,100,0,0,0,0,57,3.617,3.612,0,0,0,0,7.536,73.76,750.14524283667,29.199476,6,P-GPS,,8.9
591300,2026-01-07 12:42:36,,,750.80141083667,32.152232,0.0,1.05357286836,3.4083662508,19,5,7.229,750.80141083667,29.855644,0.447388,1.18829072044,0.0,0.0,-4.47388,26.6,7.4,-0.3,0,0,1024,1024,1684,1024,0,0,100,0,0,0,0,57,3.617,3.612,0,0,0,0,7.536,73.76,750.80141083667,29.855644,6,P-GPS,,9.1
591400,2026-01-07 12:42:36,,,751.45757883667,32.8084,0.0,1.10250331612,3.47030851,19,5,7.234,751.45757883667,30.511812,0.447388,1.18829072044,0.0,0.0,-4.47388,26.6,7.3,-0.4,0,0,1024,1024,1684,1024,0,0,100,0,0,0,0,57,3.622,3.62,0,0,0,0,7.133,73.76,751.45757883667,30.511812,6,P-GPS,,9.3
591500,2026-01-07 12:42:36,,,752.11374683667,33.464568,0.0,1.18775922436,3.562007988,19,5,7.234,752.11374683667,31.16798,0.447388,1.18829072044,0.0,0.0,-4.47388,26.7,7.3,-0.5,0,0,1024,1024,1684,1024,0,0,100,0,0,0,0,57,3.622,3.62,0,0,0,0,7.133,73.76,752.11374683667,31.16798,6,P-GPS,,9.5
591600,2026-01-07 12:42:36,,,752.76991483667,34.44882,0.0,1.22533796572,3.5997048396,19,5,7.234,752.76991483667,31.824148,0.447388,1.22533796572,0.0,0.0,-4.47388,26.6,7.0,-0.6,0,0,1024,1024,1684,1024,0,0,100,0,0,0,0,57,3.622,3.62,0,0,0,0,7.133,73.76,752.76991483667,31.824148,6,P-GPS,,9.7
591700,2026-01-07 12:42:36,,,753.42608283667,35.104988,0.0,1.26139111648,3.6397310876,19,5,7.234,753.42608283667,32.480316,0.447388,1.26139111648,0.0,0.0,-4.47388,26.6,6.9,-0.4,0,0,1024,1024,1024,1024,0,0,0,0,0,0,0,57,3.622,3.62,0,0,0,0,7.133,73.76,753.42608283667,32.480316,6,P-GPS,,9.9
591800,2026-01-07 12:42:36,,,754.08225083667,35.761156,0.0,1.29158140616,3.6708334508,19,5,7.234,754.08225083667,33.136484,0.447388,1.29158140616,0.0,0.0,-4.47388,26.7,7.6,0.0,0,0,1024,1024,1024,1024,0,0,0,0,0,0,0,57,3.622,3.62,0,0,0,0,7.133,73.76,754.08225083667,33.136484,6,P-GPS,,10.1
591900,2026-01-07 12:42:36,,,754.41033483667,36.417324,0.0,1.33688324488,3.755085422,19,5,7.234,754.41033483667,33.464568,0.447388,1.33688324488,0.0,0.0,-4.47388,26.7,8.4,0.3,0,0,1024,1024,1024,1024,0,0,0,0,0,0,0,57,3.622,3.62,0,0,0,0,7.133,73.76,754.41033483667,33.464568,6,P-GPS,,10.2
592000,2026-01-07 12:42:36,,,755.06650283667,37.073492,0.0,1.37180778668,3.7944226936,19,5,7.234,755.06650283667,34.120736,0.447388,1.37180778668,0.0,0.0,-4.026492,26.8,8.8,0.5,0,0,1024,1024,1024,1024,0,0,0,0,0,0,0,57,3.622,3.62,0,0,0,0,7.133,73.76,755.06650283667,34.120736,6,P-GPS,,10.4
592100,2026-01-07 12:42:36,,,755.72267083667,37.401576,0.0,1.40833665924,3.831528994,19,5,7.234,755.72267083667,34.776904,0.447388,1.40833665924,0.0,0.0,-3.35541,26.8,9.2,0.8,0,0,1024,1024,1024,1024,0,0,0,0,0,0,0,57,3.622,3.62,0,0,0,0,7.133,73.76,755.72267083667,34.776904,6,P-GPS,,10.6
592200,2026-01-07 12:42:37,,,756.05075483667,38.057744,0.0,1.44232616164,3.8663387064,19,5,7.234,756.05075483667,35.104988,0.447388,1.44232616164,0.0,0.0,-2.684328,26.8,9.2,0.6,0,0,1024,1024,1024,1024,0,0,0,0,0,0,0,57,3.622,3.62,0,0,0,0,7.133,73.76,756.05075483667,35.104988,6,P-GPS,,10.7
592300,2026-01-07 12:42:37,,,756.37883883667,38.385828,0.0,1.44583994128,3.8701772892,19,5,7.234,756.37883883667,35.433072,0.447388,1.44583994128,0.0,0.0,-2.013246,26.7,9.0,0.3,0,0,1024,1024,1024,1024,0,0,0,0,0,0,0,57,3.622,3.62,0,0,0,0,7.133,73.76,756.37883883667,35.433072,6,P-GPS,,10.8
592400,2026-01-07 12:42:37,,,756.37883883667,38.385828,0.0,1.46192261896,3.8862862136,19,5,7.234,756.37883883667,35.433072,0.447388,1.46192261896,0.0,0.0,-1.11847,26.6,9.0,-0.2,0,0,1024,1024,1024,1024,0,0,0,0,0,0,0,57,3.622,3.62,0,0,0,0,7.133,73.76,756.37883883667,35.433072,6,P-GPS,,10.8
592500,2026-01-07 12:42:37,,,756.37883883667,38.385828,0.0,1.47229663504,3.9017061616,19,5,7.234,756.37883883667,35.433072,0.447388,1.47229663504,0.0,0.0,-0.671082,26.6,8.8,-0.3,0,0,1024,1024,1024,1024,0,0,0,0,0,0,0,57,3.68,3.682,0,0,0,0,7.133,73.76,756.37883883667,35.433072,6,P-GPS,,10.8
592600,2026-01-07 12:42:37,,,756.37883883667,38.385828,0.0,1.48284453564,3.9158793904,19,5,7.234,756.37883883667,35.433072,0.447388,1.48284453564,0.0,0.0,-0.223694,26.7,8.7,-0.1,0,0,1024,1024,1024,1024,0,0,0,0,0,0,0,57,3.68,3.682,0,0,0,0,7.133,73.76,756.37883883667,35.433072,6,P-GPS,,10.8
592700,2026-01-07 12:42:37,,,756.37883883667,38.385828,0.0,1.49318902416,3.9384515696,19,5,7.234,756.37883883667,35.433072,0.447388,1.49318902416,0.0,0.0,0.0,26.7,8.9,0.2,0,0,1024,1024,1024,1024,0,0,0,0,0,0,0,57,3.68,3.682,0,0,0,0,7.133,73.76,756.37883883667,35.433072,6,P-GPS,,10.8
592800,2026-01-07 12:42:37,,,756.37883883667,38.385828,0.0,1.45923233016,4.015256034,19,5,7.234,756.37883883667,35.433072,0.447388,1.49318902416,0.0,0.0,0.0,26.8,8.9,0.6,0,0,1024,1024,1024,1024,0,0,0,0,0,0,0,57,3.68,3.682,0,0,0,0,7.133,73.76,756.37883883667,35.433072,6,P-GPS,,10.8
592900,2026-01-07 12:42:37,,,756.37883883667,38.385828,0.0,1.48958010016,4.046424014,19,5,7.234,756.37883883667,35.433072,0.447388,1.49318902416,0.0,0.0,0.0,26.8,8.7,0.5,0,0,1024,1024,1024,1024,0,0,0,0,0,0,0,57,3.68,3.682,0,0,0,0,7.133,73.76,756.37883883667,35.433072,6,P-GPS,,10.8
593000,2026-01-07 12:42:37,,,756.37883883667,38.385828,0.0,1.5224902062,4.0799870072,19,5,7.234,756.37883883667,35.433072,0.447388,1.5224902062,0.0,0.0,0.0,26.7,8.7,0.8,0,0,1024,1024,1024,1024,0,0,0,0,0,0,0,57,3.68,3.682,0,0,0,0,7.133,73.76,756.37883883667,35.433072,6,P-GPS,,10.8
593100,2026-01-07 12:42:37,,,756.37883883667,38.385828,0.0,1.54951120444,4.1072179792,19,5,7.234,756.37883883667,35.433072,0.447388,1.54951120444,0.0,0.0,0.0,26.7,8.0,0.7,0,0,1024,1024,1024,1024,0,0,0,0,0,0,0,57,3.68,3.682,0,0,0,0,7.133,73.76,756.37883883667,35.433072,6,P-GPS,,10.8
593200,2026-01-07 12:42:38,,,756.37883883667,38.385828,0.223694,1.5477690784,4.1226379272,19,5,7.234,756.37883883667,35.433072,0.447388,1.54951120444,-0.223694,0.0,0.0,26.7,7.1,0.8,0,0,1024,1024,1024,1024,0,0,0,0,0,0,0,57,3.68,3.682,0,0,0,0,7.133,73.76,756.37883883667,35.433072,6,P-GPS,,10.8
593300,2026-01-07 12:42:38,,,756.37883883667,38.385828,0.223694,1.59055779368,4.165518506,19,5,7.234,756.37883883667,35.433072,0.447388,1.59055779368,-0.223694,0.0,0.0,26.7,7.1,0.6,0,0,1024,1024,1024,1024,0,0,0,0,0,0,0,57,3.68,3.682,0,0,0,0,7.133,73.76,756.37883883667,35.433072,6,P-GPS,,10.8
593400,2026-01-07 12:42:38,,,756.05075483667,38.385828,0.223694,1.63017065584,4.2051510532,19,5,7.234,756.37883883667,35.433072,0.447388,1.63017065584,-0.223694,0.0,0.0,26.7,7.0,0.3,0,0,1024,1024,1024,1024,0,0,0,0,0,0,0,57,3.68,3.682,0,0,0,0,7.133,73.76,756.05075483667,35.104988,6,P-GPS,,10.7
593500,2026-01-07 12:42:38,,,756.05075483667,38.385828,0.223694,1.67800858388,4.253937144,19,5,7.234,756.37883883667,35.433072,0.447388,1.67800858388,-0.223694,0.0,0.0,26.7,7.0,-0.1,0,0,1024,1024,1024,1024,0,0,0,0,0,0,0,57,3.68,3.682,0,0,0,0,7.133,73.76,756.05075483667,35.104988,6,P-GPS,,10.7
593600,2026-01-07 12:42:38,,,756.05075483667,38.385828,0.0,1.7403051738,4.3163059124,19,5,7.363,756.37883883667,35.433072,0.447388,1.7403051738,0.0,0.0,0.0,26.7,6.9,-0.1,0,0,1024,1024,1024,1024,0,0,0,0,0,0,0,57,3.65,3.646,0,0,0,0,5.177,73.76,756.05075483667,35.104988,6,P-GPS,,10.7
593700,2026-01-07 12:42:38,,,756.05075483667,38.385828,0.0,1.78313982084,4.3604988272,19,5,7.363,756.37883883667,35.433072,0.447388,1.78313982084,0.0,0.0,0.0,26.8,6.4,0.2,0,0,1024,1024,1024,1024,0,0,0,0,0,0,0,57,3.65,3.646,0,0,0,0,5.177,73.76,756.05075483667,35.104988,6,P-GPS,,10.7
593800,2026-01-07 12:42:38,,,756.05075483667,38.385828,0.0,1.8237697434,4.4036090648,19,5,7.363,756.37883883667,35.433072,0.447388,1.8237697434,0.0,0.0,0.0,26.7,6.1,0.2,0,0,1024,1024,1024,1024,0,0,0,0,0,0,0,57,3.65,3.646,0,0,0,0,5.177,73.76,756.05075483667,35.104988,6,P-GPS,,10.7
593900,2026-01-07 12:42:38,,,756.05075483667,38.385828,0.0,1.86098759236,4.4440946304,19,5,7.363,756.37883883667,35.433072,0.447388,1.86098759236,0.0,0.0,0.0,26.6,5.1,0.9,0,0,1024,1024,1024,1024,0,0,0,0,0,0,0,57,3.65,3.646,0,0,0,0,5.177,73.76,756.05075483667,35.104988,6,P-GPS,,10.7
594000,2026-01-07 12:42:38,,,756.05075483667,38.385828,0.0,1.89577433888,4.483595944,19,5,7.363,756.37883883667,35.433072,0.447388,1.89577433888,0.0,0.0,0.0,26.5,5.1,1.0,0,0,1024,1024,1024,1024,0,0,0,0,0,0,0,57,3.65,3.646,0,0,0,0,5.177,73.76,756.05075483667,35.104988,6,P-GPS,,10.7
594100,2026-01-07 12:42:38,,,755.72267083667,38.385828,0.0,1.9289534738,4.52263794,19,5,7.363,756.37883883667,35.433072,0.447388,1.9289534738,0.0,0.0,0.0,26.5,4.9,1.2,0,0,1024,1024,1024,1024,0,0,0,0,0,0,0,57,3.65,3.646,0,0,0,0,5.177,73.76,755.72267083667,34.776904,6,P-GPS,,10.6
594200,2026-01-07 12:42:39,,,755.72267083667,38.385828,0.223694,1.9594160732,4.560695684,19,5,7.363,756.37883883667,35.433072,0.447388,1.9594160732,0.0,-0.223694,0.0,26.5,5.2,1.2,0,0,1024,1024,1024,1024,0,0,0,0,0,0,0,57,3.65,3.646,0,0,0,0,5.177,73.76,755.72267083667,34.776904,6,P-GPS,,10.6
594300,2026-01-07 12:42:39,,,755.72267083667,38.385828,0.223694,2.00365163892,4.6144030348,19,5,7.363,756.37883883667,35.433072,0.447388,2.00365163892,0.0,-0.223694,0.0,26.5,5.0,1.4,0,0,1024,1024,1024,1024,0,0,0,0,0,0,0,57,3.65,3.646,0,0,0,0,5.177,73.76,755.72267083667,34.776904,6,P-GPS,,10.6
594400,2026-01-07 12:42:39,,,755.72267083667,38.385828,0.223694,2.04561686336,4.669127446,19,5,7.363,756.37883883667,35.433072,0.447388,2.04561686336,0.0,-0.223694,0.0,26.5,5.0,2.1,0,0,1024,1024,1024,1024,0,0,0,0,0,0,0,57,3.65,3.646,0,0,0,0,5.177,73.76,755.72267083667,34.776904,6,P-GPS,,10.6
594500,2026-01-07 12:42:39,,,755.72267083667,38.385828,0.223694,2.1253609604,4.7587928032,19,5,7.363,756.37883883667,35.433072,0.447388,2.1253609604,0.0,-0.223694,0.0,26.7,5.0,2.7,0,0,1024,1024,1024,1024,0,0,0,0,0,0,0,57,3.65,3.646,0,0,0,0,5.177,73.76,755.72267083667,34.776904,6,P-GPS,,10.6
594600,2026-01-07 12:42:39,,,755.72267083667,38.385828,0.223694,2.16917001692,4.8160762696,18,5,7.363,756.37883883667,35.433072,0.447388,2.16917001692,0.0,-0.223694,0.0,26.7,5.0,2.8,0,0,1024,1024,1024,1024,0,0,0,0,0,0,0,57,3.65,3.646,0,0,0,0,5.177,73.76,755.72267083667,34.776904,6,P-GPS,,10.6
594700,2026-01-07 12:42:39,,,755.72267083667,38.385828,0.223694,2.20858930952,4.8589896568,18,5,7.363,756.37883883667,35.433072,0.447388,2.20858930952,0.0,-0.223694,0.0,26.8,5.1,2.9,0,0,1024,1024,1024,1024,0,0,0,0,0,0,0,57,3.65,3.646,0,0,0,0,5.177,73.76,755.72267083667,34.776904,6,P-GPS,,10.6
594800,2026-01-07 12:42:39,,,755.72267083667,38.385828,0.0,2.24482946816,4.897801994,18,5,7.307,756.37883883667,35.433072,0.447388,2.24482946816,0.0,0.0,0.0,26.7,5.2,2.9,0,0,1024,1024,1024,1024,0,0,0,0,0,0,0,57,3.652,3.655,0,0,0,0,4.935,73.76,755.72267083667,34.776904,6,P-GPS,,10.6
594900,2026-01-07 12:42:39,,,755.72267083667,38.385828,0.0,2.27735571592,4.9406825728,18,5,7.307,756.37883883667,35.433072,0.447388,2.27735571592,0.0,0.0,0.0,26.7,5.2,2.9,0,0,1024,1024,1024,1024,0,0,0,0,0,0,0,57,3.652,3.655,0,0,0,0,4.935,73.76,755.72267083667,34.776904,6,P-GPS,,10.6
595000,2026-01-07 12:42:39,,,755.72267083667,38.385828,0.0,2.30619758036,4.9754594768,18,5,7.307,756.37883883667,35.433072,0.447388,2.30619758036,0.0,0.0,0.0,26.7,5.2,3.2,0,0,1024,1024,1024,1024,0,0,0,0,0,0,0,57,3.652,3.655,0,0,0,0,4.935,73.76,755.72267083667,34.776904,6,P-GPS,,10.6
595100,2026-01-07 12:42:39,,,755.72267083667,38.385828,0.0,2.3248688408,5.0059384804,18,5,7.307,756.37883883667,35.433072,0.447388,2.3248688408,0.0,0.0,0.0,26.7,5.0,3.0,0,0,1024,1024,1024,1024,0,0,0,0,0,0,0,57,3.652,3.655,0,0,0,0,4.935,73.76,755.72267083667,34.776904,6,P-GPS,,10.6
595200,2026-01-07 12:42:40,,,755.72267083667,38.385828,0.0,2.33961293576,5.0315290324,19,5,7.307,756.37883883667,35.433072,0.447388,2.33961293576,0.0,0.0,0.0,26.7,5.3,3.3,0,0,1024,1024,1024,1024,0,0,0,0,0,0,0,57,3.652,3.655,0,0,0,0,4.935,73.76,755.72267083667,34.776904,6,P-GPS,,10.6
595300,2026-01-07 12:42:40,,,755.72267083667,38.385828,0.0,2.29626319684,5.0756563304,19,5,7.307,756.37883883667,35.433072,0.447388,2.33961293576,0.0,0.0,0.0,26.8,5.2,3.2,0,0,1024,1024,1024,1024,0,0,0,0,0,0,0,57,3.652,3.655,0,0,0,0,4.935,73.76,755.72267083667,34.776904,6,P-GPS,,10.6
595400,2026-01-07 12:42:40,,,755.72267083667,38.385828,0.0,2.29348104452,5.0847114488,18,5,7.307,756.37883883667,35.433072,0.447388,2.33961293576,0.0,0.0,0.0,26.9,5.7,3.0,0,0,1024,1024,1024,1024,0,0,0,0,0,0,0,57,3.652,3.655,0,0,0,0,4.935,73.76,755.72267083667,34.776904,6,P-GPS,,10.6
595500,2026-01-07 12:42:40,,,755.72267083667,38.385828,0.0,2.28817920708,5.0917980632,18,5,7.307,756.37883883667,35.433072,0.447388,2.33961293576,0.0,0.0,0.0,26.9,5.9,2.8,0,0,1024,1024,1024,1024,0,0,0,0,0,0,0,57,3.652,3.655,0,0,0,0,4.935,73.76,755.72267083667,34.776904,6,P-GPS,,10.6
595600,2026-01-07 12:42:40,,,755.72267083667,38.385828,0.0,2.284038787,5.0960303468,18,5,7.307,756.37883883667,35.433072,0.447388,2.33961293576,0.0,0.0,0.0,26.8,5.9,2.8,0,0,1024,1024,1024,1024,0,0,0,0,0,0,0,57,3.652,3.655,0,0,0,0,4.935,73.76,755.72267083667,34.776904,6,P-GPS,,10.6
595700,2026-01-07 12:42:40,,,755.72267083667,38.385828,0.0,2.29003944336,5.1327757548,18,5,7.307,756.37883883667,35.433072,0.447388,2.33961293576,0.0,0.0,0.0,26.8,5.9,2.3,0,0,1024,1024,1024,1024,0,0,0,0,0,0,0,57,3.652,3.655,0,0,0,0,4.935,73.76,755.72267083667,34.776904,6,P-GPS,,10.6
595800,2026-01-07 12:42:40,,,755.72267083667,38.385828,0.0,2.2913878686,5.1521327108,18,5,7.307,756.37883883667,35.433072,0.447388,2.33961293576,0.0,0.0,0.0,26.8,5.9,1.6,0,0,1024,1024,1024,1024,0,0,0,0,0,0,0,57,3.652,3.655,0,0,0,0,4.935,73.76,755.72267083667,34.776904,6,P-GPS,SD card speed low. Normal use may be affected. Replace SD card (Code: 10028). Gimbal stuck. Make sure gimbal cover is removed and manually check whether gimbal can rotate freely (Code: 40002),10.6
595900,2026-01-07 12:42:40,,,755.39458683667,38.385828,0.0,2.2720145084,5.1747376984,18,5,7.31,756.37883883667,35.433072,0.447388,2.33961293576,0.0,0.0,0.0,26.8,6.0,1.4,0,0,1024,1024,1024,1024,0,0,0,0,0,0,0,57,3.656,3.654,0,0,0,0,4.947,73.76,755.39458683667,34.44882,6,P-GPS,,10.5
596000,2026-01-07 12:42:40,,,755.39458683667,38.385828,0.0,2.256725794,5.1959647332,18,5,7.31,756.37883883667,35.433072,0.447388,2.33961293576,0.0,0.0,0.0,26.8,6.1,0.8,0,0,1024,1024,1024,1024,0,0,0,0,0,0,0,57,3.656,3.654,0,0,0,0,4.947,73.76,755.39458683667,34.44882,6,P-GPS,,10.5
596100,2026-01-07 12:42:40,,,755.39458683667,38.385828,0.0,2.2615322246,5.227854498,18,5,7.31,756.37883883667,35.433072,0.447388,2.33961293576,0.0,0.0,0.0,26.7,5.6,0.6,0,0,1024,1024,1024,1024,0,0,0,0,0,0,0,57,3.656,3.654,0,0,0,0,4.947,73.76,755.39458683667,34.44882,6,P-GPS,,10.5
596200,2026-01-07 12:42:41,,,755.39458683667,38.385828,0.0,2.25997710644,5.2653544992,18,5,7.31,756.37883883667,35.433072,0.447388,2.33961293576,0.0,0.0,0.0,26.7,5.6,0.8,0,0,1024,1024,1024,1024,0,0,0,0,0,0,0,57,3.656,3.654,0,0,0,0,4.947,73.76,755.39458683667,34.44882,6,P-GPS,,10.5
596300,2026-01-07 12:42:41,,,755.39458683667,38.385828,0.0,2.25988524292,5.28953429,18,5,7.31,756.37883883667,35.433072,0.447388,2.33961293576,0.0,0.0,0.0,26.8,5.5,0.3,0,0,1024,1024,1024,1024,0,0,0,0,0,0,0,57,3.656,3.654,0,0,0,0,4.947,73.76,755.39458683667,34.44882,6,P-GPS,,10.5
596400,2026-01-07 12:42:41,,,755.39458683667,38.385828,0.0,2.26016739516,5.306594658,18,5,7.31,756.37883883667,35.433072,0.447388,2.33961293576,0.0,0.0,0.0,26.8,5.6,0.7,0,0,1024,1024,1024,1024,0,0,0,0,0,0,0,57,3.656,3.654,0,0,0,0,4.947,73.76,755.39458683667,34.44882,6,P-GPS,,10.5
596500,2026-01-07 12:42:41,,,755.39458683667,38.385828,0.0,2.25391739496,5.3177167056,18,5,7.31,756.37883883667,35.433072,0.447388,2.33961293576,0.0,0.0,0.0,26.8,5.7,1.2,0,0,1024,1024,1024,1024,0,0,0,0,0,0,0,57,3.656,3.654,0,0,0,0,4.947,73.76,755.39458683667,34.44882,6,P-GPS,,10.5
596600,2026-01-07 12:42:41,,,755.39458683667,38.385828,0.0,2.2282973154,5.3461943968,18,5,7.31,756.37883883667,35.433072,0.447388,2.33961293576,0.0,0.0,0.0,26.8,5.2,1.6,0,0,1024,1024,1024,1024,0,0,0,0,0,0,0,57,3.656,3.654,0,0,0,0,4.947,73.76,755.39458683667,34.44882,6,P-GPS,,10.5
596700,2026-01-07 12:42:41,,,755.39458683667,38.385828,0.0,2.240649678,5.3591209064,18,5,7.31,756.37883883667,35.433072,0.447388,2.33961293576,0.0,0.0,0.0,26.8,5.9,1.2,0,0,1024,1024,1024,1024,0,0,0,0,0,0,0,57,3.656,3.654,0,0,0,0,4.947,73.76,755.39458683667,34.44882,6,P-GPS,,10.5
596800,2026-01-07 12:42:41,,,755.39458683667,38.385828,0.0,2.25008865468,5.3691274684,18,5,7.31,756.37883883667,35.433072,0.447388,2.33961293576,0.0,0.0,0.0,26.8,6.4,1.4,0,0,1024,1024,1024,1024,0,0,0,0,0,0,0,57,3.656,3.654,0,0,0,0,4.947,73.76,755.39458683667,34.44882,6,P-GPS,,10.5
596900,2026-01-07 12:42:41,,,755.06650283667,38.385828,0.0,2.2541339304,5.3736222192,18,5,7.31,756.37883883667,35.433072,0.447388,2.33961293576,0.0,0.0,0.0,27.0,6.2,1.7,0,0,1024,1024,1024,1024,0,0,0,0,0,0,0,57,3.656,3.654,0,0,0,0,4.947,73.76,755.06650283667,34.120736,6,P-GPS,,10.4
597000,2026-01-07 12:42:41,,,755.06650283667,38.385828,0.0,2.26534784152,5.3872705136,18,5,7.31,756.37883883667,35.433072,0.447388,2.33961293576,0.0,0.0,0.0,27.0,5.9,1.4,0,0,1024,1024,1024,1024,0,0,0,0,0,0,0,57,3.656,3.654,0,0,0,0,4.947,73.76,755.06650283667,34.120736,6,P-GPS,,10.4
597100,2026-01-07 12:42:41,,,755.06650283667,38.385828,0.0,2.27790689704,5.42486894,18,5,7.311,756.37883883667,35.433072,0.447388,2.33961293576,0.0,0.0,0.0,27.0,5.7,0.5,0,0,1024,1024,1024,1024,0,0,0,0,0,0,0,57,3.657,3.655,0,0,0,0,4.704,73.76,755.06650283667,34.120736,6,P-GPS,,10.4
597200,2026-01-07 12:42:42,,,755.06650283667,38.385828,0.0,2.28790033568,5.4638781276,18,5,7.311,756.37883883667,35.433072,0.447388,2.33961293576,0.0,0.0,0.0,27.0,5.8,0.0,0,0,1024,1024,1024,1024,0,0,0,0,0,0,0,57,3.657,3.655,0,0,0,0,4.704,73.76,755.06650283667,34.120736,6,P-GPS,,10.4
597300,2026-01-07 12:42:42,,,755.06650283667,38.385828,0.0,2.29072185808,5.4948164488,18,5,7.311,756.37883883667,35.433072,0.447388,2.33961293576,0.0,0.0,0.0,27.0,5.9,-0.3,0,0,1024,1024,1024,1024,0,0,0,0,0,0,0,57,3.657,3.655,0,0,0,0,4.704,73.76,755.06650283667,34.120736,6,P-GPS,,10.4
597400,2026-01-07 12:42:42,,,755.06650283667,38.385828,0.0,2.28857290788,5.560859758,18,5,7.311,756.37883883667,35.433072,0.447388,2.33961293576,0.0,0.0,0.0,27.0,6.1,-0.3,0,0,1024,1024,1024,1024,0,0,0,0,0,0,0,57,3.657,3.655,0,0,0,0,4.704,73.76,755.06650283667,34.120736,6,P-GPS,,10.4
597500,2026-01-07 12:42:42,,,755.06650283667,38.385828,0.0,2.291994824,5.6011812816,18,5,7.311,756.37883883667,35.433072,0.447388,2.33961293576,0.0,0.0,0.0,26.9,6.4,-1.3,0,0,1024,1024,1024,1024,0,0,0,0,0,0,0,57,3.657,3.655,0,0,0,0,4.704,73.76,755.06650283667,34.120736,6,P-GPS,,10.4
597600,2026-01-07 12:42:42,,,755.06650283667,38.385828,0.0,2.29752632024,5.635826952,18,5,7.311,756.37883883667,35.433072,0.447388,2.33961293576,0.0,0.0,0.0,26.8,6.4,-1.4,0,0,1024,1024,1024,1024,0,0,0,0,0,0,0,57,3.657,3.655,0,0,0,0,4.704,73.76,755.06650283667,34.120736,6,P-GPS,,10.4
597700,2026-01-07 12:42:42,,,755.06650283667,38.385828,0.0,2.31182422096,5.6711615988,18,5,7.311,756.37883883667,35.433072,0.447388,2.33961293576,0.0,0.0,0.0,26.7,6.7,-0.9,0,0,1024,1024,1024,1024,0,0,0,0,0,0,0,57,3.657,3.655,0,0,0,0,4.704,73.76,755.06650283667,34.120736,6,P-GPS,,10.4
597800,2026-01-07 12:42:42,,,755.06650283667,38.385828,0.0,2.32549548124,5.6938650116,18,5,7.311,756.37883883667,35.433072,0.447388,2.33961293576,0.0,0.0,0.0,26.8,6.7,0.2,0,0,1024,1024,1024,1024,0,0,0,0,0,0,0,57,3.657,3.655,0,0,0,0,4.704,73.76,755.06650283667,34.120736,6,P-GPS,,10.4
597900,2026-01-07 12:42:42,,,755.06650283667,38.385828,0.0,2.34000335572,5.7224739364,18,5,7.311,756.37883883667,35.433072,0.447388,2.34000335572,0.0,0.0,0.0,26.9,6.8,0.7,0,0,1024,1024,1024,1024,0,0,0,0,0,0,0,57,3.657,3.655,0,0,0,0,4.704,73.76,755.06650283667,34.120736,6,P-GPS,,10.4
598000,2026-01-07 12:42:42,,,755.06650283667,38.385828,0.0,2.35281831676,5.73654874,19,5,7.311,756.37883883667,35.433072,0.447388,2.35281831676,0.0,0.0,0.0,27.0,6.4,0.2,0,0,1024,1024,1024,1024,0,0,0,0,0,0,0,57,3.657,3.655,0,0,0,0,4.704,73.76,755.06650283667,34.120736,6,P-GPS,,10.4
598100,2026-01-07 12:42:42,,,755.06650283667,38.385828,0.0,2.37287737252,5.7566274808,19,5,7.311,756.37883883667,35.433072,0.447388,2.37287737252,0.0,0.0,0.0,26.9,5.9,-0.2,0,0,1024,1024,1024,1024,0,0,0,0,0,0,0,57,3.657,3.655,0,0,0,0,4.704,73.76,755.06650283667,34.120736,6,P-GPS,,10.4
598200,2026-01-07 12:42:43,,,755.06650283667,38.385828,0.0,2.38841214992,5.7722442792,19,5,7.307,756.37883883667,35.433072,0.447388,2.38841214992,0.0,0.0,0.0,26.8,6.0,0.0,0,0,1024,1024,1024,1024,0,0,0,0,0,0,0,56,3.653,3.654,0,0,0,0,4.896,73.76,755.06650283667,34.120736,6,P-GPS,,10.4
598300,2026-01-07 12:42:43,,,755.06650283667,38.385828,0.0,2.37377304184,5.8058072724,19,5,7.307,756.37883883667,35.433072,0.447388,2.38841214992,0.0,0.0,0.0,27.0,6.5,-0.1,0,0,1024,1024,1024,1024,0,0,0,0,0,0,0,56,3.653,3.654,0,0,0,0,4.896,73.76,755.06650283667,34.120736,6,P-GPS,,10.4
598400,2026-01-07 12:42:43,,,755.06650283667,38.385828,0.0,2.3798065066,5.8121064852,19,5,7.307,756.37883883667,35.433072,0.447388,2.38841214992,0.0,0.0,0.0,26.9,6.4,-0.3,0,0,1024,1024,1024,1024,0,0,0,0,0,0,0,56,3.653,3.654,0,0,0,0,4.896,73.76,755.06650283667,34.120736,6,P-GPS,,10.4
598500,2026-01-07 12:42:43,,,755.06650283667,38.385828,0.0,2.41326123208,5.8492784024,19,5,7.307,756.37883883667,35.433072,0.447388,2.41326123208,0.0,0.0,0.0,26.8,5.6,-0.6,0,0,1024,1024,1024,1024,0,0,0,0,0,0,0,56,3.653,3.654,0,0,0,0,4.896,73.76,755.06650283667,34.120736,6,P-GPS,,10.4
598600,2026-01-07 12:42:43,,,755.06650283667,38.385828,0.0,2.44076779464,5.8782482196,19,5,7.307,756.37883883667,35.433072,0.447388,2.44076779464,0.0,0.0,0.0,26.7,5.9,-0.4,0,0,1024,1024,1024,1024,0,0,0,0,0,0,0,56,3.653,3.654,0,0,0,0,4.896,73.76,755.06650283667,34.120736,6,P-GPS,,10.4
598700,2026-01-07 12:42:43,,,755.06650283667,38.385828,0.0,2.48800204812,5.9269030768,19,5,7.307,756.37883883667,35.433072,0.447388,2.48800204812,0.0,0.0,0.0,26.7,6.0,0.1,0,0,1024,1024,1024,1024,0,0,0,0,0,0,0,56,3.653,3.654,0,0,0,0,4.896,73.76,755.06650283667,34.120736,6,P-GPS,,10.4
598800,2026-01-07 12:42:43,,,755.06650283667,38.385828,0.0,2.49482291448,5.9453085892,19,5,7.307,756.37883883667,35.433072,0.447388,2.49482291448,0.0,0.0,0.0,26.8,6.9,1.4,0,0,1024,1024,1024,1024,0,0,0,0,0,0,0,56,3.653,3.654,0,0,0,0,4.896,73.76,755.06650283667,34.120736,6,P-GPS,,10.4
598900,2026-01-07 12:42:43,,,755.06650283667,38.385828,0.0,2.48478026324,5.9733925796,19,5,7.307,756.37883883667,35.433072,0.447388,2.49482291448,0.0,0.0,0.0,26.9,6.9,0.8,0,0,1024,1024,1024,1024,0,0,0,0,0,0,0,56,3.653,3.654,0,0,0,0,4.896,73.76,755.06650283667,34.120736,6,P-GPS,,10.4
599000,2026-01-07 12:42:43,,,755.06650283667,38.385828,0.0,2.47748367508,5.9940290632,19,5,7.307,756.37883883667,35.433072,0.447388,2.49482291448,0.0,0.0,0.0,26.9,7.0,1.3,0,0,1024,1024,1024,1024,0,0,0,0,0,0,0,56,3.653,3.654,0,0,0,0,4.896,73.76,755.06650283667,34.120736,6,P-GPS,,10.4
599100,2026-01-07 12:42:43,,,755.06650283667,38.385828,0.0,2.412401652,6.0658466508,19,5,7.307,756.37883883667,35.433072,0.447388,2.49482291448,0.0,0.0,0.0,26.8,7.1,0.8,0,0,1024,1024,1024,1024,0,0,0,0,0,0,0,56,3.653,3.654,0,0,0,0,4.896,73.76,755.06650283667,34.120736,6,P-GPS,,10.4
599200,2026-01-07 12:42:44,,,755.06650283667,38.385828,0.0,2.4062172686,6.0723099056,19,5,7.307,756.37883883667,35.433072,0.447388,2.49482291448,0.0,0.0,0.0,26.8,6.9,0.4,0,0,1024,1024,1024,1024,0,0,0,0,0,0,0,56,3.653,3.654,0,0,0,0,4.896,73.76,755.06650283667,34.120736,6,P-GPS,,10.4
599300,2026-01-07 12:42:44,,,755.06650283667,38.385828,0.0,2.40158800336,6.0770671236,19,5,7.312,756.37883883667,35.433072,0.447388,2.49482291448,0.0,0.0,0.0,26.8,6.2,0.4,0,0,1024,1024,1024,1024,0,0,0,0,0,0,0,56,3.66,3.652,0,0,0,0,4.795,73.76,755.06650283667,34.120736,6,P-GPS,,10.4
599400,2026-01-07 12:42:44,,,755.06650283667,38.385828,0.0,2.39869430248,6.088910956,19,5,7.312,756.37883883667,35.433072,0.447388,2.49482291448,0.0,0.0,0.0,27.0,5.7,-0.6,0,0,1024,1024,1024,1024,0,0,0,0,0,0,0,56,3.66,3.652,0,0,0,0,4.795,73.76,755.06650283667,34.120736,6,P-GPS,,10.4
599500,2026-01-07 12:42:44,,,755.06650283667,38.385828,0.0,2.4099738304,6.1236550516,19,5,7.312,756.37883883667,35.433072,0.447388,2.49482291448,0.0,0.0,0.0,27.1,6.0,-2.0,0,0,1024,1024,1024,1024,0,0,0,0,0,0,0,56,3.66,3.652,0,0,0,0,4.795,73.76,755.06650283667,34.120736,6,P-GPS,,10.4
599600,2026-01-07 12:42:44,,,755.06650283667,38.385828,0.0,2.41879929,6.1649280188,19,5,7.312,756.37883883667,35.433072,0.447388,2.49482291448,0.0,0.0,0.0,27.2,5.3,-2.4,0,0,1024,1024,1024,1024,0,0,0,0,0,0,0,56,3.66,3.652,0,0,0,0,4.795,73.76,755.06650283667,34.120736,6,P-GPS,,10.4
599700,2026-01-07 12:42:44,,,755.06650283667,38.385828,0.223694,2.43542986796,6.2166668656,19,5,7.312,756.37883883667,35.433072,0.447388,2.49482291448,0.0,0.223694,0.0,27.2,5.9,-2.7,0,0,1024,1024,1024,1024,0,0,0,0,0,0,0,56,3.66,3.652,0,0,0,0,4.795,73.76,755.06650283667,34.120736,6,P-GPS,,10.4
599800,2026-01-07 12:42:44,,,755.06650283667,38.385828,0.223694,2.4464075586,6.2651576808,19,5,7.312,756.37883883667,35.433072,0.447388,2.49482291448,0.0,0.223694,0.0,27.1,6.7,-3.4,0,0,1024,1024,1024,1024,0,0,0,0,0,0,0,56,3.66,3.652,0,0,0,0,4.795,73.76,755.06650283667,34.120736,6,P-GPS,,10.4
599900,2026-01-07 12:42:44,,,755.06650283667,38.385828,0.223694,2.42973761056,6.3099411468,19,5,7.312,756.37883883667,35.433072,0.447388,2.49482291448,0.0,0.223694,0.0,27.0,7.4,-3.9,0,0,1024,1024,1024,1024,0,0,0,0,0,0,0,56,3.66,3.652,0,0,0,0,4.795,73.76,755.06650283667,34.120736,6,P-GPS,,10.4
600000,2026-01-07 12:42:44,,,755.06650283667,38.385828,0.0,2.41734915872,6.3742456108,19,5,7.312,756.37883883667,35.433072,0.447388,2.49482291448,0.0,0.0,0.0,26.9,7.5,-3.9,0,0,1024,1024,1024,1024,0,0,0,0,0,0,0,56,3.66,3.652,0,0,0,0,4.795,73.76,755.06650283667,34.120736,6,P-GPS,,10.4
600100,2026-01-07 12:42:44,,,755.06650283667,38.385828,0.0,2.41003616636,6.4049870816,19,5,7.312,756.37883883667,35.433072,0.447388,2.49482291448,0.0,0.0,0.0,26.9,7.2,-3.9,0,0,1024,1024,1024,1024,0,0,0,0,0,0,0,56,3.66,3.652,0,0,0,0,4.795,73.76,755.06650283667,34.120736,6,P-GPS,,10.4
600200,2026-01-07 12:42:44,,,755.06650283667,38.385828,0.0,2.40623039196,6.429134064,19,5,7.312,756.37883883667,35.433072,0.447388,2.49482291448,0.0,0.0,0.0,26.8,7.1,-3.8,0,0,1024,1024,1024,1024,0,0,0,0,0,0,0,56,3.66,3.652,0,0,0,0,4.795,73.76,755.06650283667,34.120736,6,P-GPS,,10.4
600300,2026-01-07 12:42:45,,,755.06650283667,38.385828,0.0,2.4089895784,6.453576322,19,5,7.312,756.37883883667,35.433072,0.447388,2.49482291448,0.0,0.0,0.0,26.8,6.8,-3.7,0,0,1024,1024,1024,1024,0,0,0,0,0,0,0,56,3.66,3.652,0,0,0,0,4.795,73.76,755.06650283667,34.120736,6,P-GPS,,10.4
600400,2026-01-07 12:42:45,,,755.06650283667,38.385828,0.0,2.4002297356,6.4769030944,19,5,7.318,756.37883883667,35.433072,0.447388,2.49482291448,0.0,0.0,0.0,26.8,6.6,-3.9,0,0,1024,1024,1024,1024,0,0,0,0,0,0,0,56,3.659,3.658,0,0,0,0,4.533,73.76,755.06650283667,34.120736,6,P-GPS,,10.4
600500,2026-01-07 12:42:45,,,755.06650283667,38.385828,0.0,2.3941765858,6.4874345908,19,5,7.318,756.37883883667,35.433072,0.447388,2.49482291448,0.0,0.0,0.0,26.8,6.5,-3.1,0,0,1024,1024,1024,1024,0,0,0,0,0,0,0,56,3.659,3.658,0,0,0,0,4.533,73.76,755.06650283667,34.120736,6,P-GPS,,10.4
600600,2026-01-07 12:42:45,,,755.06650283667,38.385828,0.0,2.38838262236,6.5021983708,19,5,7.318,756.37883883667,35.433072,0.447388,2.49482291448,0.0,0.0,0.0,26.9,6.6,-3.0,0,0,1024,1024,1024,1024,0,0,0,0,0,0,0,56,3.659,3.658,0,0,0,0,4.533,73.76,755.06650283667,34.120736,6,P-GPS,,10.4
600700,2026-01-07 12:42:45,,,755.06650283667,38.385828,0.0,2.39322186136,6.5120408908,19,5,7.318,756.37883883667,35.433072,0.447388,2.49482291448,0.0,0.0,0.0,26.8,6.7,-2.6,0,0,1024,1024,1024,1024,0,0,0,0,0,0,0,56,3.659,3.658,0,0,0,0,4.533,73.76,755.06650283667,34.120736,6,P-GPS,,10.4
600800,2026-01-07 12:42:45,,,755.06650283667,38.385828,0.0,2.40012802956,6.5290684504,19,5,7.318,756.37883883667,35.433072,0.447388,2.49482291448,0.0,0.0,0.0,26.9,7.1,-2.2,0,0,1024,1024,1024,1024,0,0,0,0,0,0,0,56,3.659,3.658,0,0,0,0,4.533,73.76,755.06650283667,34.120736,6,P-GPS,,10.4
600900,2026-01-07 12:42:45,,,755.06650283667,38.385828,0.0,2.431020419,6.5796590032,19,5,7.318,756.37883883667,35.433072,0.447388,2.49482291448,0.0,0.0,0.0,27.0,6.8,-1.4,0,0,1024,1024,1024,1024,0,0,0,0,0,0,0,56,3.659,3.658,0,0,0,0,4.533,73.76,755.06650283667,34.120736,6,P-GPS,,10.4
601000,2026-01-07 12:42:45,,,755.06650283667,38.385828,0.0,2.45863524928,6.6219490308,19,5,7.318,756.37883883667,35.433072,0.447388,2.49482291448,0.0,0.0,0.0,27.1,7.2,-2.0,0,0,1024,1024,1024,1024,0,0,0,0,0,0,0,56,3.659,3.658,0,0,0,0,4.533,73.76,755.06650283667,34.120736,6,P-GPS,,10.4
601100,2026-01-07 12:42:45,,,755.06650283667,38.385828,0.0,2.46308734916,6.6432744908,19,5,7.318,756.37883883667,35.433072,0.447388,2.49482291448,0.0,0.0,0.0,27.1,7.6,-2.1,0,0,1024,1024,1024,1024,0,0,0,0,0,0,0,56,3.659,3.658,0,0,0,0,4.533,73.76,755.06650283667,34.120736,6,P-GPS,,10.4
601200,2026-01-07 12:42:46,,,754.73841883667,38.385828,0.0,2.46756569576,6.6595146488,19,5,7.318,756.37883883667,35.433072,0.447388,2.49482291448,0.0,0.0,0.0,27.0,7.7,-2.5,0,0,1024,1024,1024,1024,0,0,0,0,0,0,0,56,3.659,3.658,0,0,0,0,4.533,73.76,754.73841883667,33.792652,6,P-GPS,,10.3
601300,2026-01-07 12:42:46,,,754.73841883667,38.385828,0.0,2.48340559128,6.6856629436,19,5,7.318,756.37883883667,35.433072,0.447388,2.49482291448,0.0,0.0,0.0,26.9,7.2,-2.6,0,0,1024,1024,1024,1024,0,0,0,0,0,0,0,56,3.659,3.658,0,0,0,0,4.533,73.76,754.73841883667,33.792652,6,P-GPS,,10.3
601400,2026-01-07 12:42:46,,,754.73841883667,38.385828,0.0,2.48838262556,6.6953414216,19,5,7.318,756.37883883667,35.433072,0.447388,2.49482291448,0.0,0.0,0.0,26.7,7.2,-2.9,0,0,1024,1024,1024,1024,0,0,0,0,0,0,0,56,3.659,3.658,0,0,0,0,4.533,73.76,754.73841883667,33.792652,6,P-GPS,,10.3
601500,2026-01-07 12:42:46,,,754.73841883667,38.385828,0.0,2.49301845248,6.704068456,19,5,7.317,756.37883883667,35.433072,0.447388,2.49482291448,0.0,0.0,0.0,26.7,7.2,-2.3,0,0,1024,1024,1024,1024,0,0,0,0,0,0,0,56,3.656,3.661,0,0,0,0,4.454,73.76,754.73841883667,33.792652,6,P-GPS,,10.3
601600,2026-01-07 12:42:46,,,754.41033483667,38.385828,0.0,2.49503288824,6.7151576952,19,5,7.317,756.37883883667,35.433072,0.447388,2.49503288824,0.0,0.0,0.0,26.7,7.7,-2.2,0,0,1024,1024,1024,1024,0,0,0,0,0,0,0,56,3.656,3.661,0,0,0,0,4.454,73.76,754.41033483667,33.464568,6,P-GPS,,10.2
601700,2026-01-07 12:42:46,,,754.41033483667,38.385828,0.0,2.49225073592,6.7320540212,19,5,7.317,756.37883883667,35.433072,0.447388,2.49503288824,0.0,0.0,0.0,26.8,7.5,-1.4,0,0,1024,1024,1024,1024,0,0,0,0,0,0,0,56,3.656,3.661,0,0,0,0,4.454,73.76,754.41033483667,33.464568,6,P-GPS,,10.2
601800,2026-01-07 12:42:46,,,754.41033483667,38.385828,0.0,2.4896326256,6.742782368,19,5,7.317,756.37883883667,35.433072,0.447388,2.49503288824,0.0,0.0,0.0,26.8,7.9,-1.4,0,0,1024,1024,1024,1024,0,0,0,0,0,0,0,56,3.656,3.661,0,0,0,0,4.454,73.76,754.41033483667,33.464568,6,P-GPS,,10.2
601900,2026-01-07 12:42:46,,,754.41033483667,38.385828,0.0,2.4890748828,6.7635828936,19,5,7.317,756.37883883667,35.433072,0.447388,2.49503288824,0.0,0.0,0.0,26.8,7.9,-1.4,0,0,1024,1024,1024,1024,0,0,0,0,0,0,0,56,3.656,3.661,0,0,0,0,4.454,73.76,754.41033483667,33.464568,6,P-GPS,,10.2
602000,2026-01-07 12:42:46,,,754.41033483667,38.385828,0.0,2.48939968596,6.7830054664,19,5,7.317,756.37883883667,35.433072,0.447388,2.49503288824,0.0,0.0,0.0,26.7,7.8,-1.5,0,0,1024,1024,1024,1024,0,0,0,0,0,0,0,56,3.656,3.661,0,0,0,0,4.454,73.76,754.41033483667,33.464568,6,P-GPS,,10.2
602100,2026-01-07 12:42:46,,,754.41033483667,38.385828,0.0,2.4734088718,6.8616143928,19,5,7.317,756.37883883667,35.433072,0.447388,2.49503288824,0.0,0.0,0.0,26.6,7.8,-1.5,0,0,1024,1024,1024,1024,0,0,0,0,0,0,0,56,3.656,3.661,0,0,0,0,4.454,73.76,754.41033483667,33.464568,6,P-GPS,,10.2
602200,2026-01-07 12:42:47,,,754.41033483667,38.385828,0.0,2.47126320244,6.893372924,19,5,7.317,756.37883883667,35.433072,0.447388,2.49503288824,0.0,0.0,0.0,26.6,7.5,-1.3,0,0,1024,1024,1024,1024,0,0,0,0,0,0,0,56,3.656,3.661,0,0,0,0,4.454,73.76,754.41033483667,33.464568,6,P-GPS,,10.2
602300,2026-01-07 12:42:47,,,754.41033483667,38.385828,0.0,2.46483931772,6.9146327672,19,5,7.317,756.37883883667,35.433072,0.447388,2.49503288824,0.0,0.0,0.0,26.6,7.0,-1.5,0,0,1024,1024,1024,1024,0,0,0,0,0,0,0,56,3.656,3.661,0,0,0,0,4.454,73.76,754.41033483667,33.464568,6,P-GPS,,10.2
602400,2026-01-07 12:42:47,,,754.41033483667,38.385828,0.0,2.45969167976,6.936844054,19,5,7.317,756.37883883667,35.433072,0.447388,2.49503288824,0.0,0.0,0.0,26.6,7.2,-0.7,0,0,1024,1024,1024,1024,0,0,0,0,0,0,0,56,3.656,3.661,0,0,0,0,4.454,73.76,754.41033483667,33.464568,6,P-GPS,,10.2
602500,2026-01-07 12:42:47,,,754.41033483667,38.385828,0.0,2.48470480392,6.9736222704,19,5,7.317,756.37883883667,35.433072,0.447388,2.49503288824,0.0,0.0,0.0,26.6,6.9,-0.8,0,0,1024,1024,1024,1024,0,0,0,0,0,0,0,56,3.656,3.661,0,0,0,0,4.454,73.76,754.41033483667,33.464568,6,P-GPS,,10.2
602600,2026-01-07 12:42:47,,,754.08225083667,38.385828,0.0,2.499836038,7.001804686,19,5,7.317,756.37883883667,35.433072,0.447388,2.499836038,0.0,0.0,0.0,26.6,6.7,-0.5,0,0,1024,1024,1024,1024,0,0,0,0,0,0,0,56,3.649,3.647,0,0,0,0,4.454,73.76,754.08225083667,33.136484,6,P-GPS,,10.1
602700,2026-01-07 12:42:47,,,754.08225083667,38.385828,0.0,2.51771005432,7.0337600676,19,5,7.317,756.37883883667,35.433072,0.447388,2.51771005432,0.0,0.0,0.0,26.6,7.3,-0.3,0,0,1024,1024,1024,1024,0,0,0,0,0,0,0,56,3.649,3.647,0,0,0,0,4.454,73.76,754.08225083667,33.136484,6,P-GPS,,10.1
602800,2026-01-07 12:42:47,,,754.08225083667,38.385828,0.0,2.53450467428,7.0602364464,19,5,7.317,756.37883883667,35.433072,0.447388,2.53450467428,0.0,0.0,0.0,26.7,7.3,-0.1,0,0,1024,1024,1024,1024,0,0,0,0,0,0,0,56,3.649,3.647,0,0,0,0,4.454,73.76,754.08225083667,33.136484,6,P-GPS,,10.1
602900,2026-01-07 12:42:47,,,754.08225083667,38.385828,0.0,2.5410597926,7.0688650556,19,5,7.317,756.37883883667,35.433072,0.447388,2.5410597926,0.0,0.0,0.0,26.8,7.4,0.0,0,0,1024,1024,1024,1024,0,0,0,0,0,0,0,56,3.649,3.647,0,0,0,0,4.454,73.76,754.08225083667,33.136484,6,P-GPS,,10.1
603000,2026-01-07 12:42:47,,,754.08225083667,38.385828,0.0,2.56870415044,7.0983926156,19,5,7.317,756.37883883667,35.433072,0.447388,2.56870415044,0.0,0.0,0.0,26.9,7.3,-0.1,0,0,1024,1024,1024,1024,0,0,0,0,0,0,0,56,3.649,3.647,0,0,0,0,4.454,73.76,754.08225083667,33.136484,6,P-GPS,,10.1
603100,2026-01-07 12:42:47,,,754.41033483667,38.385828,0.0,2.59168643464,7.128609152,19,5,7.317,756.37883883667,35.433072,0.447388,2.59168643464,0.0,0.0,0.0,26.6,7.1,-1.4,0,0,1024,1024,1024,1024,0,0,0,0,0,0,0,56,3.649,3.647,0,0,0,0,4.454,73.76,754.41033483667,33.464568,6,P-GPS,,10.2
603200,2026-01-07 12:42:48,,,754.41033483667,38.385828,0.0,2.61237541168,7.1580710952,19,5,7.317,756.37883883667,35.433072,0.447388,2.61237541168,0.0,0.0,0.0,26.5,7.0,-1.8,0,0,1024,1024,1024,1024,0,0,0,0,0,0,0,56,3.649,3.647,0,0,0,0,4.454,73.76,754.41033483667,33.464568,6,P-GPS,,10.2
603300,2026-01-07 12:42:48,,,754.41033483667,38.385828,0.0,2.61442921752,7.164206266,19,5,7.317,756.37883883667,35.433072,0.447388,2.61442921752,0.0,0.0,0.0,26.6,6.6,-1.9,0,0,1024,1024,1024,1024,0,0,0,0,0,0,0,56,3.649,3.647,0,0,0,0,4.454,73.76,754.41033483667,33.464568,6,P-GPS,,10.2
603400,2026-01-07 12:42:48,,,754.41033483667,38.385828,0.0,2.62120415212,7.1712272636,19,5,7.317,756.37883883667,35.433072,0.447388,2.62120415212,0.0,0.0,0.0,26.6,7.0,-2.4,0,0,1024,1024,1024,1024,0,0,0,0,0,0,0,56,3.649,3.647,0,0,0,0,4.454,73.76,754.41033483667,33.464568,6,P-GPS,,10.2
603500,2026-01-07 12:42:48,,,754.41033483667,38.385828,0.0,2.61870415204,7.1923558732,19,5,7.317,756.37883883667,35.433072,0.447388,2.62120415212,0.0,0.0,0.0,26.5,7.0,-2.2,0,0,1024,1024,1024,1024,0,0,0,0,0,0,0,56,3.649,3.647,0,0,0,0,4.454,73.76,754.41033483667,33.464568,6,P-GPS,,10.2
603600,2026-01-07 12:42:48,,,754.41033483667,38.385828,0.0,2.61751648796,7.2105317268,19,5,7.317,756.37883883667,35.433072,0.447388,2.62120415212,0.0,0.0,0.0,26.5,6.7,-1.9,0,0,1024,1024,1024,1024,0,0,0,0,0,0,0,56,3.649,3.647,0,0,0,0,4.454,73.76,754.41033483667,33.464568,6,P-GPS,,10.2
603700,2026-01-07 12:42:48,,,754.41033483667,38.385828,0.0,2.614993522,7.2291340896,19,5,7.3,756.37883883667,35.433072,0.447388,2.62120415212,0.0,0.0,0.0,26.6,6.7,-2.2,0,0,1024,1024,1024,1024,0,0,0,0,0,0,0,56,3.646,3.648,0,0,0,0,4.889,73.76,754.41033483667,33.464568,6,P-GPS,,10.2
603800,2026-01-07 12:42:48,,,754.41033483667,38.385828,0.0,2.57638459688,7.2784123064,19,5,7.3,756.37883883667,35.433072,0.447388,2.62120415212,0.0,0.0,0.0,26.6,6.5,-2.0,0,0,1024,1024,1024,1024,0,0,0,0,0,0,0,56,3.646,3.648,0,0,0,0,4.889,73.76,754.41033483667,33.464568,6,P-GPS,,10.2
603900,2026-01-07 12:42:48,,,754.41033483667,38.385828,0.0,2.56634194564,7.2902233304,19,5,7.3,756.37883883667,35.433072,0.447388,2.62120415212,0.0,0.0,0.0,26.6,6.5,-2.0,0,0,1024,1024,1024,1024,0,0,0,0,0,0,0,56,3.646,3.648,0,0,0,0,4.889,73.76,754.41033483667,33.464568,6,P-GPS,,10.2
604000,2026-01-07 12:42:48,,,754.73841883667,38.385828,0.0,2.55280848064,7.3041997088,19,5,7.3,756.37883883667,35.433072,0.447388,2.62120415212,0.0,0.0,0.0,26.7,6.8,-1.9,0,0,1024,1024,1024,1024,0,0,0,0,0,0,0,56,3.646,3.648,0,0,0,0,4.889,73.76,754.73841883667,33.792652,6,P-GPS,,10.3
604100,2026-01-07 12:42:48,,,754.73841883667,38.385828,0.0,2.53902239096,7.3207679508,19,5,7.3,756.37883883667,35.433072,0.447388,2.62120415212,0.0,0.0,0.0,26.6,7.1,-1.9,0,0,1024,1024,1024,1024,0,0,0,0,0,0,0,56,3.646,3.648,0,0,0,0,4.889,73.76,754.73841883667,33.792652,6,P-GPS,,10.3
604200,2026-01-07 12:42:49,,,754.73841883667,38.385828,0.0,2.52118446388,7.3414044344,19,5,7.3,756.37883883667,35.433072,0.447388,2.62120415212,0.0,0.0,0.0,26.7,7.2,-1.7,0,0,1024,1024,1024,1024,0,0,0,0,0,0,0,56,3.646,3.648,0,0,0,0,4.889,73.76,754.73841883667,33.792652,6,P-GPS,,10.3
604300,2026-01-07 12:42:49,,,754.73841883667,38.385828,0.0,2.48035769092,7.384186588,19,5,7.3,756.37883883667,35.433072,0.447388,2.62120415212,0.0,0.0,0.0,26.7,7.5,-1.7,0,0,1024,1024,1024,1024,0,0,0,0,0,0,0,56,3.646,3.648,0,0,0,0,4.889,73.76,754.73841883667,33.792652,6,P-GPS,,10.3
604400,2026-01-07 12:42:49,,,754.73841883667,38.385828,0.0,2.44341215168,7.423064542,19,5,7.3,756.37883883667,35.433072,0.447388,2.62120415212,0.0,0.0,0.0,26.7,7.6,-1.8,0,0,1024,1024,1024,1024,0,0,0,0,0,0,0,56,3.646,3.648,0,0,0,0,4.889,73.76,754.73841883667,33.792652,6,P-GPS,,10.3
604500,2026-01-07 12:42:49,,,754.73841883667,38.385828,0.0,2.43035112764,7.4365487944,19,5,7.3,756.37883883667,35.433072,0.447388,2.62120415212,0.0,0.0,0.0,26.7,7.7,-1.8,0,0,1024,1024,1024,1024,0,0,0,0,0,0,0,56,3.646,3.648,0,0,0,0,4.889,73.76,754.73841883667,33.792652,6,P-GPS,,10.3
604600,2026-01-07 12:42:49,,,754.73841883667,38.385828,0.0,2.41909784644,7.4491144116,19,5,7.3,756.37883883667,35.433072,0.447388,2.62120415212,0.0,0.0,0.0,26.6,7.7,-1.8,0,0,1024,1024,1024,1024,0,0,0,0,0,0,0,56,3.646,3.648,0,0,0,0,4.889,73.76,754.73841883667,33.792652,6,P-GPS,,10.3
604700,2026-01-07 12:42:49,,,754.73841883667,38.385828,0.0,2.41417658644,7.48769709,19,5,7.3,756.37883883667,35.433072,0.447388,2.62120415212,0.0,0.0,0.0,26.6,7.7,-1.6,0,0,1024,1024,1024,1024,0,0,0,0,0,0,0,56,3.646,3.648,0,0,0,0,4.889,73.76,754.73841883667,33.792652,6,P-GPS,,10.3
604800,2026-01-07 12:42:49,,,754.73841883667,38.385828,0.0,2.4027559824,7.5051511588,19,5,7.3,756.37883883667,35.433072,0.447388,2.62120415212,0.0,0.0,0.0,26.7,7.5,-1.1,0,0,1024,1024,1024,1024,0,0,0,0,0,0,0,56,3.646,3.648,0,0,0,0,4.889,73.76,754.73841883667,33.792652,6,P-GPS,,10.3
