time(millisecond),timestamp,height_above_ground_at_drone_location(feet),ground_elevation_at_drone_location(feet),altitude_above_seaLevel(feet),height_sonar(feet),speed(mph),distance(feet),mileage(feet),satellites,gpslevel,voltage(v),max_altitude(feet),max_ascent(feet),max_speed(mph),max_distance(feet), xSpeed(mph), ySpeed(mph), zSpeed(mph), compass_heading(degrees), pitch(degrees), roll(degrees),isPhoto,isVideo,rc_elevator,rc_aileron,rc_throttle,rc_rudder,rc_elevator(percent),rc_aileron(percent),rc_throttle(percent),rc_rudder(percent),gimbal_heading(degrees),gimbal_pitch(degrees),gimbal_roll(degrees),battery_percent,voltageCell1,voltageCell2,voltageCell3,voltageCell4,voltageCell5,voltageCell6,current(A),battery_temperature(f),altitude(feet),ascent(feet),flycStateRaw,flycState,message,height_above_takeoff(meters)
446200,2026-01-07 12:37:27,Available with any HD 360 subscription,Available with any HD 360 subscription,720.94576683667,0.328084,0.0,0.0,0.0,18,5,0.0,720.94576683667,0.0,0.0,0.0,0.0,0.0,0.0,0.3,1.9,0.7,0,0,1024,1024,1024,1024,0,0,0,0,0,0,0,68,3.853,3.854,0,0,0,0,0.0,72.68,720.94576683667,0.0,41,Motors_Started,SD card speed low SD card speed low. Normal use may be affected. Replace SD card (Code: 10028). Gimbal stuck. Make sure gimbal cover is removed and manually check whether gimbal can rotate freely (Code: 40002),0.0
446300,2026-01-07 12:37:27,,,720.94576683667,0.328084,0.0,0.0042950132608,0.0042950132608,18,5,0.0,720.94576683667,0.0,0.0,0.0042950132608,0.0,0.0,0.0,0.2,1.9,0.7,0,0,1024,1024,1024,1024,0,0,0,0,0,0,0,68,3.853,3.854,0,0,0,0,0.0,72.68,720.94576683667,0.0,41,Motors_Started,,0.0
446400,2026-01-07 12:37:27,,,720.94576683667,0.328084,0.0,0.0103711289408,0.0176241475456,18,5,0.0,720.94576683667,0.0,0.0,0.0103711289408,0.0,0.0,0.0,0.2,1.9,0.7,0,0,1024,1024,1024,1024,0,0,0,0,0,0,0,68,3.853,3.854,0,0,0,0,0.0,72.68,720.94576683667,0.0,41,Motors_Started,,0.0
446500,2026-01-07 12:37:27,,,720.94576683667,0.328084,0.0,0.0206367460672,0.0279854339664,18,5,0.0,720.94576683667,0.0,0.0,0.0206367460672,0.0,0.0,0.0,0.2,1.9,0.7,0,0,1024,1024,1024,1024,0,0,0,0,0,0,0,68,3.853,3.854,0,0,0,0,0.0,72.68,720.94576683667,0.0,41,Motors_Started,,0.0
446600,2026-01-07 12:37:27,,,720.94576683667,0.328084,0.0,0.0260896333808,0.03351214018,18,5,0.0,720.94576683667,0.0,0.0,0.0260896333808,0.0,0.0,0.0,0.2,1.9,0.7,0,0,1024,1024,1024,1024,0,0,0,0,0,0,0,68,3.853,3.854,0,0,0,0,0.0,72.68,720.94576683667,0.0,41,Motors_Started,,0.0
446700,2026-01-07 12:37:28,,,720.94576683667,0.328084,0.0,0.048027232508,0.055453741932,18,5,0.0,720.94576683667,0.0,0.0,0.048027232508,0.0,0.0,0.0,0.2,1.9,0.7,0,0,1024,1024,1024,1024,0,0,0,0,0,0,0,68,3.853,3.854,0,0,0,0,0.0,72.68,720.94576683667,0.0,41,Motors_Started,,0.0
446800,2026-01-07 12:37:28,,,720.94576683667,0.328084,0.0,0.049143374276,0.057310697372,18,5,0.0,720.94576683667,0.0,0.0,0.049143374276,0.0,0.0,0.0,0.0,1.9,0.7,0,0,1024,1024,1024,1024,0,0,0,0,0,0,0,68,3.853,3.854,0,0,0,0,0.0,72.68,720.94576683667,0.0,41,Motors_Started,,0.0
446900,2026-01-07 12:37:28,,,720.94576683667,0.328084,0.0,0.04899442414,0.058786747288,18,5,0.0,720.94576683667,0.0,0.0,0.049143374276,0.0,0.0,0.0,0.0,1.9,0.7,0,0,1024,1024,1024,1024,0,0,0,0,0,0,0,68,3.853,3.854,0,0,0,0,0.0,72.68,720.94576683667,0.0,41,Motors_Started,,0.0
447000,2026-01-07 12:37:28,,,720.94576683667,0.328084,0.0,0.048989174796,0.060714240788,18,5,0.0,720.94576683667,0.0,0.0,0.049143374276,0.0,0.0,0.0,359.9,1.9,0.7,0,0,1024,1024,1024,1024,0,0,0,0,0,0,0,68,3.853,3.854,0,0,0,0,0.0,72.68,720.94576683667,0.0,41,Motors_Started,Setting new Return-To-Home altitude to 500m (1640 ft). Data Recorder File Index is 26. Setting new Maximum Flight Altitude to 500m (1640 ft),0.0
447100,2026-01-07 12:37:28,,,720.94576683667,0.328084,0.0,0.67001970648,0.075803480116,18,5,0.0,720.94576683667,0.0,0.0,0.67001970648,0.0,0.0,0.0,0.0,1.9,0.7,0,0,1024,1024,1024,1024,0,0,0,0,0,0,0,68,3.853,3.854,0,0,0,0,0.0,72.68,720.94576683667,0.0,41,Motors_Started,SD card speed low. Normal use may be affected. Replace SD card (Code: 10028),0.0
447200,2026-01-07 12:37:28,,,720.94576683667,0.328084,0.0,0.684629287,0.090948821808,18,5,0.0,720.94576683667,0.0,0.0,0.684629287,0.0,0.0,0.0,359.9,2.0,0.7,0,0,1024,1024,1024,1024,0,0,0,0,0,0,0,68,3.853,3.854,0,0,0,0,0.0,72.68,720.94576683667,0.0,41,Motors_Started,,0.0
447300,2026-01-07 12:37:28,,,720.94576683667,0.328084,0.0,0.69578742384,0.10249672244,18,5,0.0,720.94576683667,0.0,0.0,0.69578742384,0.0,0.0,0.0,359.9,1.9,0.7,0,0,1024,1024,1024,1024,0,0,0,0,0,0,0,68,3.853,3.854,0,0,0,0,0.0,72.68,720.94576683667,0.0,11,AutoTakeoff,,0.0
447400,2026-01-07 12:37:28,,,720.94576683667,0.328084,0.0,0.70118768648,0.108021657,18,5,0.0,720.94576683667,0.0,0.0,0.70118768648,0.0,0.0,0.0,359.9,1.9,0.7,0,0,1024,1024,1024,1024,0,0,0,0,0,0,0,68,3.853,3.854,0,0,0,0,0.0,72.68,720.94576683667,0.0,11,AutoTakeoff,,0.0
447500,2026-01-07 12:37:28,,,720.94576683667,0.328084,0.0,0.70722115124,0.122412733576,18,5,0.0,720.94576683667,0.0,0.0,0.70722115124,0.0,0.0,0.0,359.9,1.9,0.7,0,0,1024,1024,1024,1024,0,0,0,0,0,0,0,68,3.853,3.854,0,0,0,0,0.0,72.68,720.94576683667,0.0,11,AutoTakeoff,,0.0
447600,2026-01-07 12:37:28,,,720.94576683667,0.328084,0.0,0.7076607838,0.122853022304,18,5,0.0,720.94576683667,0.0,0.0,0.7076607838,0.0,0.0,0.0,359.9,1.9,0.7,0,0,1024,1024,1024,1024,0,0,0,0,0,0,0,68,3.853,3.854,0,0,0,0,0.0,72.68,720.94576683667,0.0,11,AutoTakeoff,,0.0
447700,2026-01-07 12:37:29,,,720.94576683667,0.328084,0.0,0.70753939272,0.123271985572,18,5,7.682,720.94576683667,0.0,0.0,0.7076607838,0.0,0.0,0.0,359.8,1.9,0.7,0,0,1024,1024,1024,1024,0,0,0,0,0,0,0,68,3.843,3.84,0,0,0,0,0.922,72.68,720.94576683667,0.0,11,AutoTakeoff,,0.0
447800,2026-01-07 12:37:29,,,720.94576683667,0.328084,0.0,0.70690290976,0.124400922616,18,5,7.682,720.94576683667,0.0,0.0,0.7076607838,0.0,0.0,0.0,359.8,1.9,0.7,0,0,1024,1024,1024,1024,0,0,0,0,0,0,0,68,3.843,3.84,0,0,0,0,0.922,72.68,720.94576683667,0.0,11,AutoTakeoff,,0.0
447900,2026-01-07 12:37:29,,,720.94576683667,0.328084,0.0,0.69892390688,0.16748032032,18,5,7.682,720.94576683667,0.0,0.0,0.7076607838,0.0,0.0,0.0,359.8,2.0,0.7,0,0,1024,1024,1024,1024,0,0,0,0,0,0,0,68,3.843,3.84,0,0,0,0,0.922,72.68,720.94576683667,0.0,11,AutoTakeoff,,0.0
448000,2026-01-07 12:37:29,,,720.94576683667,0.328084,0.0,0.70464897268,0.189051515236,18,5,7.682,720.94576683667,0.0,0.0,0.7076607838,0.0,0.0,0.0,0.0,1.8,0.7,0,0,1024,1024,1024,1024,0,0,0,0,0,0,0,68,3.843,3.84,0,0,0,0,0.922,72.68,720.94576683667,0.0,11,AutoTakeoff,,0.0
448100,2026-01-07 12:37:29,,,720.94576683667,0.328084,0.0,0.71493112524,0.20474738188,18,5,7.682,720.94576683667,0.0,0.0,0.71493112524,0.0,0.0,0.0,359.9,0.2,1.2,0,0,1024,1024,1024,1024,0,0,0,0,0,0,0,68,3.843,3.84,0,0,0,0,0.922,72.68,720.94576683667,0.0,11,AutoTakeoff,,0.0
448200,2026-01-07 12:37:29,,,720.94576683667,0.328084,0.0,0.72863847476,0.218591870512,18,5,7.682,720.94576683667,0.0,0.0,0.72863847476,0.0,0.0,-0.223694,0.0,-0.2,0.8,0,0,1024,1024,1024,1024,0,0,0,0,0,0,0,68,3.843,3.84,0,0,0,0,0.922,72.68,720.94576683667,0.0,11,AutoTakeoff,,0.0
448300,2026-01-07 12:37:29,,,720.94576683667,0.328084,0.223694,0.739993462,0.244279207292,18,5,7.682,720.94576683667,0.0,0.223694,0.739993462,0.223694,0.0,-0.671082,0.0,1.0,-0.2,0,0,1024,1024,1024,1024,0,0,0,0,0,0,0,68,3.843,3.84,0,0,0,0,0.922,72.68,720.94576683667,0.0,11,AutoTakeoff,,0.0
448400,2026-01-07 12:37:29,,,720.94576683667,0.656168,0.223694,0.76641078568,0.280435048344,18,5,7.682,720.94576683667,0.0,0.223694,0.76641078568,0.223694,0.0,-0.894776,359.8,1.5,-0.6,0,0,1024,1158,1024,1024,0,20,0,0,0,0,0,68,3.843,3.84,0,0,0,0,0.922,72.68,720.94576683667,0.0,11,AutoTakeoff,,0.0
448500,2026-01-07 12:37:29,,,721.27385083667,0.656168,0.223694,0.8018208918,0.33818570636,18,5,7.682,721.27385083667,0.328084,0.223694,0.8018208918,0.223694,0.0,-1.11847,0.0,2.3,0.8,0,0,1024,1669,1024,1024,0,98,0,0,0,0,0,68,3.843,3.84,0,0,0,0,0.922,72.68,721.27385083667,0.328084,11,AutoTakeoff,,0.1
448600,2026-01-07 12:37:29,,,721.27385083667,0.656168,0.223694,0.84539372784,0.403625341,18,5,7.682,721.27385083667,0.328084,0.223694,0.84539372784,0.223694,0.0,-1.565858,0.1,3.2,2.0,0,0,1024,1165,1024,1024,0,21,0,0,0,0,0,68,3.843,3.84,0,0,0,0,0.922,72.68,721.27385083667,0.328084,11,AutoTakeoff,,0.1
448700,2026-01-07 12:37:30,,,721.60193483667,0.984252,0.447388,0.88930777124,0.47889109144,17,5,7.574,721.60193483667,0.656168,0.447388,0.88930777124,0.447388,0.0,-1.789552,0.3,4.2,9.4,0,0,1024,1024,1024,1024,0,0,0,0,0,0,0,68,3.789,3.785,0,0,0,0,2.727,72.68,721.60193483667,0.656168,11,AutoTakeoff,,0.2
448800,2026-01-07 12:37:30,,,721.93001883667,1.312336,0.6263432,0.91490488492,0.60916012448,17,5,7.574,721.93001883667,0.984252,0.6263432,0.91490488492,0.447388,0.447388,-1.789552,1.1,4.4,16.9,0,0,1024,1024,1024,1024,0,0,0,0,0,0,0,68,3.789,3.785,0,0,0,0,2.727,72.68,721.93001883667,0.984252,11,AutoTakeoff,,0.3
448900,2026-01-07 12:37:30,,,722.25810283667,1.64042,1.006623,0.88669950344,0.74774280608,18,5,7.574,722.25810283667,1.312336,1.006623,0.91490488492,0.447388,0.894776,-2.013246,0.4,4.9,2.4,0,0,1024,1532,1024,1024,0,77,0,0,0,0,0,68,3.789,3.785,0,0,0,0,2.727,72.68,722.25810283667,1.312336,11,AutoTakeoff,,0.4
449000,2026-01-07 12:37:30,,,722.58618683667,1.64042,1.2079476,0.84371393776,0.90619097388,18,5,7.574,722.58618683667,1.64042,1.2079476,0.91490488492,0.447388,1.11847,-2.23694,359.9,4.1,-4.3,0,0,1024,1024,1024,1024,0,0,0,0,0,0,0,68,3.789,3.785,0,0,0,0,2.727,72.68,722.58618683667,1.64042,11,AutoTakeoff,,0.5
449100,2026-01-07 12:37:30,,,722.91427083667,1.968504,1.006623,0.85820868888,1.05868113624,18,5,7.574,722.91427083667,1.968504,1.2079476,0.91490488492,0.447388,0.894776,-2.23694,0.0,3.8,-2.7,0,0,1024,1024,1024,1024,0,0,0,0,0,0,0,68,3.789,3.785,0,0,0,0,2.727,72.68,722.91427083667,1.968504,11,AutoTakeoff,Home Point updated. RTH altitude adjusted to 500 m (Code: 120852),0.6
449200,2026-01-07 12:37:30,,,723.24235483667,2.296588,1.006623,1.02011814288,1.28480319072,18,5,7.574,723.24235483667,2.296588,1.2079476,1.02011814288,0.447388,0.671082,-2.460634,0.4,4.2,6.6,0,0,1024,1024,1024,1024,0,0,0,0,0,0,0,68,3.789,3.785,0,0,0,0,2.727,72.68,723.24235483667,2.296588,11,AutoTakeoff,,0.7
449300,2026-01-07 12:37:30,,,723.57043883667,2.624672,1.006623,1.1277395374,1.46690949576,18,5,7.574,723.57043883667,2.624672,1.2079476,1.1277395374,0.447388,0.894776,-2.23694,0.2,5.3,0.6,0,0,1024,1024,1024,1024,0,0,0,0,0,0,0,68,3.789,3.785,0,0,0,0,2.727,72.68,723.57043883667,2.624672,11,AutoTakeoff,,0.8
449400,2026-01-07 12:37:30,,,723.89852283667,2.952756,0.9395148,1.23521657496,1.66068246784,18,5,7.574,723.89852283667,2.952756,1.2079476,1.23521657496,0.671082,0.671082,-2.013246,0.0,6.5,-3.0,0,0,1024,1024,1024,364,0,0,0,-100,0,0,0,68,3.789,3.785,0,0,0,0,2.727,72.68,723.89852283667,2.952756,6,P-GPS,,0.9
449500,2026-01-07 12:37:30,,,724.22660683667,3.28084,0.8052984,1.34248035792,1.84021659432,18,5,7.574,724.22660683667,3.28084,1.2079476,1.34248035792,0.447388,0.671082,-1.565858,359.9,6.5,-3.8,0,0,1024,1024,1024,584,0,0,0,-67,0,0,0,68,3.789,3.785,0,0,0,0,2.727,72.68,724.22660683667,3.28084,6,P-GPS,,1.0
449600,2026-01-07 12:37:30,,,724.55469083667,3.608924,0.8052984,1.43538062336,2.13429468772,18,5,7.574,724.55469083667,3.608924,1.2079476,1.43538062336,0.447388,0.671082,-1.11847,350.9,5.7,-3.6,0,0,1024,1024,1024,1587,0,0,0,85,0,0,0,68,3.789,3.785,0,0,0,0,2.727,72.68,724.55469083667,3.608924,6,P-GPS,,1.1
449700,2026-01-07 12:37:31,,,724.55469083667,3.608924,0.6263432,1.53352039028,2.26288721152,18,5,7.388,724.55469083667,3.608924,1.2079476,1.53352039028,0.447388,0.447388,-0.671082,343.1,4.9,-5.8,0,0,1024,1024,1024,1684,0,0,0,100,0,0,0,68,3.727,3.712,0,0,0,0,6.364,72.68,724.55469083667,3.608924,6,P-GPS,,1.1
449800,2026-01-07 12:37:31,,,724.55469083667,3.937008,0.4921268,1.59280844992,2.33450138704,18,5,7.388,724.55469083667,3.608924,1.2079476,1.59280844992,0.447388,0.223694,-0.223694,346.1,5.3,-4.8,0,0,1024,1024,1024,1684,0,0,0,100,0,0,0,68,3.727,3.712,0,0,0,0,6.364,72.68,724.55469083667,3.608924,6,P-GPS,,1.1
449900,2026-01-07 12:37:31,,,724.88277483667,4.265092,0.447388,1.64937013152,2.39284128392,18,5,7.388,724.88277483667,3.937008,1.2079476,1.64937013152,0.447388,0.0,0.0,359.0,6.5,-1.9,0,0,1024,1024,1024,1024,0,0,0,0,0,0,0,68,3.727,3.712,0,0,0,0,6.364,72.68,724.88277483667,3.937008,6,P-GPS,,1.2
450000,2026-01-07 12:37:31,,,724.88277483667,4.265092,0.447388,1.72993443856,2.4734416802,18,5,7.388,724.88277483667,3.937008,1.2079476,1.72993443856,0.447388,0.0,0.0,12.1,6.6,0.3,0,0,1024,1024,1024,1024,0,0,0,0,0,0,0,68,3.727,3.712,0,0,0,0,6.364,72.68,724.88277483667,3.937008,6,P-GPS,,1.2
450100,2026-01-07 12:37:31,,,724.88277483667,4.593176,0.447388,1.71548890004,2.49402567036,18,5,7.388,724.88277483667,3.937008,1.2079476,1.72993443856,0.447388,0.0,0.0,23.1,6.2,1.7,0,0,1024,1024,1024,1024,0,0,0,0,0,0,0,68,3.727,3.712,0,0,0,0,6.364,72.68,724.88277483667,3.937008,6,P-GPS,,1.2
450200,2026-01-07 12:37:31,,,724.88277483667,4.593176,0.223694,1.77564638228,2.55774614484,18,5,7.388,724.88277483667,3.937008,1.2079476,1.77564638228,0.223694,0.0,0.0,22.8,5.5,1.5,0,0,1024,1024,1024,1024,0,0,0,0,0,0,0,68,3.727,3.712,0,0,0,0,6.364,72.68,724.88277483667,3.937008,6,P-GPS,,1.2
450300,2026-01-07 12:37:31,,,724.88277483667,4.593176,0.223694,1.82528549148,2.61723761656,18,5,7.388,724.88277483667,3.937008,1.2079476,1.82528549148,0.223694,0.0,0.0,22.9,5.2,1.6,0,0,1024,1024,1684,1024,0,0,100,0,0,0,0,68,3.727,3.712,0,0,0,0,6.364,72.68,724.88277483667,3.937008,6,P-GPS,,1.2
450400,2026-01-07 12:37:31,,,724.88277483667,4.593176,0.223694,1.87162407564,2.69512147732,18,5,7.388,724.88277483667,3.937008,1.2079476,1.87162407564,0.223694,0.0,0.0,22.9,5.0,2.1,0,0,1024,1024,1684,1024,0,0,100,0,0,0,0,68,3.727,3.712,0,0,0,0,6.364,72.68,724.88277483667,3.937008,6,P-GPS,,1.2
450500,2026-01-07 12:37:31,,,724.88277483667,4.593176,0.223694,1.9160433684,2.83392069436,18,5,7.388,724.88277483667,3.937008,1.2079476,1.9160433684,0.223694,0.0,0.0,23.0,4.2,2.4,0,0,1024,1024,1684,1024,0,0,100,0,0,0,0,68,3.727,3.712,0,0,0,0,6.364,72.68,724.88277483667,3.937008,6,P-GPS,,1.2
450600,2026-01-07 12:37:31,,,724.88277483667,4.593176,0.223694,1.95463588932,2.8964731898,18,5,7.388,724.88277483667,3.937008,1.2079476,1.95463588932,0.223694,0.0,-0.223694,22.9,4.2,2.7,0,0,1024,1024,1684,1024,0,0,100,0,0,0,0,68,3.727,3.712,0,0,0,0,6.364,72.68,724.88277483667,3.937008,6,P-GPS,,1.2
450700,2026-01-07 12:37:32,,,725.21085883667,4.92126,0.0,1.98100071956,2.94606636724,18,5,7.426,725.21085883667,4.265092,1.2079476,1.98100071956,0.0,0.0,-0.894776,22.9,4.1,3.1,0,0,1024,1024,1684,1024,0,0,100,0,0,0,0,68,3.728,3.697,0,0,0,0,5.421,72.68,725.21085883667,4.265092,6,P-GPS,,1.3
450800,2026-01-07 12:37:32,,,725.21085883667,4.92126,0.0,1.99631568068,2.98193251012,18,5,7.426,725.21085883667,4.265092,1.2079476,1.99631568068,0.0,0.0,-1.565858,22.9,4.4,2.0,0,0,1024,1024,1684,1024,0,0,100,0,0,0,0,68,3.728,3.697,0,0,0,0,5.421,72.68,725.21085883667,4.265092,6,P-GPS,,1.3
450900,2026-01-07 12:37:32,,,725.53894283667,5.249344,0.0,2.01885833232,3.05160442836,18,5,7.426,725.53894283667,4.593176,1.2079476,2.01885833232,0.0,0.0,-2.23694,22.9,4.5,1.8,0,0,1024,1024,1684,1024,0,0,100,0,0,0,0,68,3.728,3.697,0,0,0,0,5.421,72.68,725.53894283667,4.593176,6,P-GPS,,1.4
451000,2026-01-07 12:37:32,,,725.86702683667,5.577428,0.0,2.05761489524,3.09360902288,18,5,7.426,725.86702683667,4.92126,1.2079476,2.05761489524,0.0,0.0,-2.908022,22.9,4.3,2.1,0,0,1024,1024,1684,1024,0,0,100,0,0,0,0,68,3.728,3.697,0,0,0,0,5.421,72.68,725.86702683667,4.92126,6,P-GPS,,1.5
451100,2026-01-07 12:37:32,,,726.52319483667,6.233596,0.0,2.08942591988,3.12592857772,18,5,7.426,726.52319483667,5.577428,1.2079476,2.08942591988,0.0,0.0,-3.579104,22.8,4.9,1.9,0,0,1024,1024,1684,1024,0,0,100,0,0,0,0,68,3.728,3.697,0,0,0,0,5.421,72.68,726.52319483667,5.577428,6,P-GPS,,1.7
451200,2026-01-07 12:37:32,,,727.17936283667,6.889764,0.0,2.11346463456,3.15074157064,18,5,7.426,727.17936283667,6.233596,1.2079476,2.11346463456,0.0,0.0,-3.802798,22.7,5.2,1.5,0,0,1024,1024,1684,1024,0,0,100,0,0,0,0,68,3.728,3.697,0,0,0,0,5.421,72.68,727.17936283667,6.233596,6,P-GPS,,1.9
451300,2026-01-07 12:37:32,,,727.83553083667,7.545932,0.0,2.0850722452,3.27971139104,18,5,7.426,727.83553083667,6.889764,1.2079476,2.11346463456,0.0,0.0,-4.250186,22.7,5.3,1.5,0,0,1024,1024,1684,1024,0,0,100,0,0,0,0,68,3.728,3.697,0,0,0,0,5.421,72.68,727.83553083667,6.889764,6,P-GPS,,2.1
451400,2026-01-07 12:37:32,,,728.49169883667,8.2021,0.0,2.08949153668,3.3248688728,18,5,7.426,728.49169883667,7.545932,1.2079476,2.11346463456,0.0,0.0,-4.47388,22.9,5.7,2.7,0,0,1024,1024,1684,1024,0,0,100,0,0,0,0,68,3.728,3.697,0,0,0,0,5.421,72.68,728.49169883667,7.545932,6,P-GPS,,2.3
451500,2026-01-07 12:37:32,,,729.14786683667,8.858268,0.0,2.09093182544,3.3619751732,18,5,7.426,729.14786683667,8.2021,1.2079476,2.11346463456,0.0,0.0,-4.47388,22.8,5.7,2.0,0,0,1024,1024,1684,1024,0,0,100,0,0,0,0,68,3.728,3.697,0,0,0,0,5.421,72.68,729.14786683667,8.2021,6,P-GPS,,2.5
451600,2026-01-07 12:37:32,,,729.80403483667,9.514436,0.0,2.09208340028,3.3825132316,18,5,7.426,729.80403483667,8.858268,1.2079476,2.11346463456,0.0,0.0,-4.47388,22.7,5.2,1.7,0,0,1024,1024,1684,1024,0,0,100,0,0,0,0,68,3.728,3.697,0,0,0,0,5.421,72.68,729.80403483667,8.858268,6,P-GPS,,2.7
451700,2026-01-07 12:37:33,,,730.46020283667,10.170604,0.0,2.0924213268,3.3983924972,18,5,7.338,730.46020283667,9.514436,1.2079476,2.11346463456,0.0,0.0,-4.47388,22.7,5.5,2.2,0,0,1024,1024,1684,1024,0,0,100,0,0,0,0,68,3.672,3.666,0,0,0,0,7.498,72.68,730.46020283667,9.514436,6,P-GPS,,2.9
451800,2026-01-07 12:37:33,,,731.11637083667,10.826772,0.0,2.09669954216,3.4028216312,18,5,7.338,731.11637083667,10.170604,1.2079476,2.11346463456,0.0,0.0,-4.47388,22.7,6.7,2.0,0,0,1024,1024,1684,1024,0,0,100,0,0,0,0,68,3.672,3.666,0,0,0,0,7.498,72.68,731.11637083667,10.170604,6,P-GPS,,3.1
451900,2026-01-07 12:37:33,,,732.10062283667,11.48294,0.0,2.1030512484,3.4095801616,18,5,7.338,732.10062283667,11.154856,1.2079476,2.11346463456,0.0,0.0,-4.250186,22.7,7.0,2.8,0,0,1024,1024,1684,1024,0,0,100,0,0,0,0,68,3.672,3.666,0,0,0,0,7.498,72.68,732.10062283667,11.154856,6,P-GPS,,3.4
452000,2026-01-07 12:37:33,,,732.75679083667,12.139108,0.0,2.115813716,3.4280512908,18,5,7.338,732.75679083667,11.811024,1.2079476,2.115813716,0.0,0.0,-4.250186,22.9,6.1,3.6,0,0,1024,1024,1684,1024,0,0,100,0,0,0,0,68,3.672,3.666,0,0,0,0,7.498,72.68,732.75679083667,11.811024,6,P-GPS,,3.6
452100,2026-01-07 12:37:33,,,733.41295883667,12.467192,0.0,2.13442264048,3.4531169084,18,5,7.338,733.41295883667,12.467192,1.2079476,2.13442264048,0.0,0.0,-4.250186,22.8,6.4,3.5,0,0,1024,1024,1684,1024,0,0,100,0,0,0,0,68,3.672,3.666,0,0,0,0,7.498,72.68,733.41295883667,12.467192,6,P-GPS,,3.8
452200,2026-01-07 12:37:33,,,734.06912683667,13.12336,0.0,2.24349416628,3.5753610068,18,5,7.338,734.06912683667,13.12336,1.2079476,2.24349416628,0.0,0.0,-4.250186,22.8,6.9,4.0,0,0,1024,1024,1684,1024,0,0,100,0,0,0,0,68,3.672,3.666,0,0,0,0,7.498,72.68,734.06912683667,13.12336,6,P-GPS,,4.0
452300,2026-01-07 12:37:33,,,735.05337883667,13.779528,0.0,2.26837605684,3.602690404,18,5,7.338,735.05337883667,14.107612,1.2079476,2.26837605684,0.0,0.0,-4.47388,22.7,6.9,4.2,0,0,1024,1024,1684,1024,0,0,100,0,0,0,0,68,3.672,3.666,0,0,0,0,7.498,72.68,735.05337883667,14.107612,6,P-GPS,,4.3
452400,2026-01-07 12:37:33,,,735.70954683667,14.435696,0.0,2.28989180556,3.6244423732,18,5,7.338,735.70954683667,14.76378,1.2079476,2.28989180556,0.0,0.0,-4.47388,22.8,7.6,4.5,0,0,1024,1024,1684,1024,0,0,100,0,0,0,0,68,3.672,3.666,0,0,0,0,7.498,72.68,735.70954683667,14.76378,6,P-GPS,,4.5
452500,2026-01-07 12:37:33,,,736.36571483667,15.091864,0.0,2.3069390502,3.6416011664,18,5,7.338,736.36571483667,15.419948,1.2079476,2.3069390502,0.0,0.0,-4.250186,22.9,8.3,4.5,0,0,1024,1024,1684,1024,0,0,100,0,0,0,0,68,3.672,3.666,0,0,0,0,7.498,72.68,736.36571483667,15.419948,6,P-GPS,,4.7
452600,2026-01-07 12:37:33,,,737.34996683667,16.076116,0.0,2.33708340812,3.6766077292,18,5,7.366,737.34996683667,16.4042,1.2079476,2.33708340812,0.0,0.0,-4.250186,22.9,7.5,4.1,0,0,1024,1024,1684,1024,0,0,100,0,0,0,0,68,3.685,3.681,0,0,0,0,7.16,72.68,737.34996683667,16.4042,6,P-GPS,,5.0
452700,2026-01-07 12:37:34,,,738.00613483667,16.732284,0.0,2.34818905152,3.6879266272,18,5,7.366,738.00613483667,17.060368,1.2079476,2.34818905152,0.0,0.0,-4.47388,22.9,7.7,4.3,0,0,1024,1024,1684,1024,0,0,100,0,0,0,0,68,3.685,3.681,0,0,0,0,7.16,72.68,738.00613483667,17.060368,6,P-GPS,,5.2
452800,2026-01-07 12:37:34,,,738.66230283667,17.388452,0.0,2.37430125708,3.7160106176,18,5,7.366,738.66230283667,17.716536,1.2079476,2.37430125708,0.0,0.0,-4.47388,23.0,8.0,4.1,0,0,1024,1024,1684,1024,0,0,100,0,0,0,0,68,3.685,3.681,0,0,0,0,7.16,72.68,738.66230283667,17.716536,6,P-GPS,,5.4
452900,2026-01-07 12:37:34,,,739.64655483667,18.04462,0.0,2.37626976108,3.7333990696,18,5,7.366,739.64655483667,18.700788,1.2079476,2.37626976108,0.0,0.0,-4.47388,22.8,6.1,3.7,0,0,1024,1024,1684,1024,0,0,100,0,0,0,0,68,3.685,3.681,0,0,0,0,7.16,72.68,739.64655483667,18.700788,6,P-GPS,,5.7
453000,2026-01-07 12:37:34,,,740.30272283667,19.028872,0.0,2.2805446924,3.8487862124,18,5,7.366,740.30272283667,19.356956,1.2079476,2.37626976108,0.0,0.0,-4.697574,22.9,7.3,4.5,0,0,1024,1024,1684,1024,0,0,100,0,0,0,0,68,3.685,3.681,0,0,0,0,7.16,72.68,740.30272283667,19.356956,6,P-GPS,,5.9
453100,2026-01-07 12:37:34,,,740.95889083667,19.68504,0.0,2.26250991492,3.8834974996,18,5,7.366,740.95889083667,20.013124,1.2079476,2.37626976108,0.0,0.0,-4.47388,23.0,8.6,4.1,0,0,1024,1024,1684,1024,0,0,100,0,0,0,0,68,3.685,3.681,0,0,0,0,7.16,72.68,740.95889083667,20.013124,6,P-GPS,,6.1
453200,2026-01-07 12:37:34,,,741.61505883667,20.669292,0.0,2.26477369452,3.912565742,18,5,7.366,741.61505883667,20.669292,1.2079476,2.37626976108,0.0,0.0,-4.250186,23.0,8.9,3.5,0,0,1024,1024,1684,1024,0,0,100,0,0,0,0,68,3.685,3.681,0,0,0,0,7.16,72.68,741.61505883667,20.669292,6,P-GPS,,6.3
453300,2026-01-07 12:37:34,,,742.27122683667,21.32546,0.0,2.27816280256,3.9411418584,18,5,7.366,742.27122683667,21.32546,1.2079476,2.37626976108,0.0,0.0,-4.47388,23.0,9.2,3.5,0,0,1024,1024,1684,1024,0,0,100,0,0,0,0,68,3.685,3.681,0,0,0,0,7.16,72.68,742.27122683667,21.32546,6,P-GPS,,6.5
453400,2026-01-07 12:37:34,,,742.92739483667,21.981628,0.0,2.31176844668,3.9801182376,18,5,7.366,742.92739483667,21.981628,1.2079476,2.37626976108,0.0,0.0,-4.47388,23.0,8.9,3.7,0,0,1024,1024,1684,1024,0,0,100,0,0,0,0,68,3.685,3.681,0,0,0,0,7.16,72.68,742.92739483667,21.981628,6,P-GPS,,6.7
453500,2026-01-07 12:37:34,,,743.91164683667,22.637796,0.0,2.38207356704,4.0567914684,18,5,7.366,743.91164683667,22.96588,1.2079476,2.38207356704,0.0,0.0,-4.47388,23.0,9.0,3.8,0,0,1024,1024,1684,1024,0,0,100,0,0,0,0,68,3.685,3.681,0,0,0,0,7.16,72.68,743.91164683667,22.96588,6,P-GPS,,7.0
453600,2026-01-07 12:37:34,,,744.56781483667,23.293964,0.0,2.3908957458,4.0794948812,18,5,7.366,744.56781483667,23.622048,1.2079476,2.3908957458,0.0,0.0,-4.250186,23.0,8.5,4.1,0,0,1024,1024,1684,1024,0,0,100,0,0,0,0,68,3.685,3.681,0,0,0,0,7.16,72.68,744.56781483667,23.622048,6,P-GPS,,7.2
453700,2026-01-07 12:37:35,,,744.89589883667,23.293964,0.0,2.38224417072,4.1074804464,18,5,7.366,744.89589883667,23.950132,1.2079476,2.3908957458,0.0,0.0,-4.47388,22.9,8.0,4.3,0,0,1024,1024,1684,1024,0,0,100,0,0,0,0,68,3.678,3.671,0,0,0,0,7.16,72.68,744.89589883667,23.950132,6,P-GPS,,7.3
453800,2026-01-07 12:37:35,,,745.55206683667,25.918636,0.0,2.34783143996,4.161909582,18,5,7.366,745.55206683667,24.6063,1.2079476,2.3908957458,0.0,0.0,-4.47388,22.9,8.1,4.1,0,0,1024,1024,1684,1024,0,0,100,0,0,0,0,68,3.678,3.671,0,0,0,0,7.16,72.68,745.55206683667,24.6063,6,P-GPS,,7.5
453900,2026-01-07 12:37:35,,,746.20823483667,26.902888,0.0,2.29678156956,4.244750792,18,5,7.366,746.20823483667,25.262468,1.2079476,2.3908957458,0.0,0.0,-4.47388,23.0,8.2,3.4,0,0,1024,1024,1684,1024,0,0,100,0,0,0,0,68,3.678,3.671,0,0,0,0,7.16,72.68,746.20823483667,25.262468,6,P-GPS,,7.7
454000,2026-01-07 12:37:35,,,746.86440283667,27.230972,0.0,2.25339902224,4.3067914764,18,5,7.366,746.86440283667,25.918636,1.2079476,2.3908957458,0.0,0.0,-4.47388,22.9,8.3,3.1,0,0,1024,1024,1684,1024,0,0,100,0,0,0,0,68,3.678,3.671,0,0,0,0,7.16,72.68,746.86440283667,25.918636,6,P-GPS,,7.9
454100,2026-01-07 12:37:35,,,747.52057083667,27.88714,0.0,2.21652238064,4.3633203496,18,5,7.366,747.52057083667,26.574804,1.2079476,2.3908957458,0.0,0.0,-4.47388,23.0,7.8,3.2,0,0,1024,1024,1684,1024,0,0,100,0,0,0,0,68,3.678,3.671,0,0,0,0,7.16,72.68,747.52057083667,26.574804,6,P-GPS,,8.1
454200,2026-01-07 12:37:35,,,747.84865483667,28.543308,0.0,2.1904200176,4.4147639208,18,5,7.366,747.84865483667,26.902888,1.2079476,2.3908957458,0.0,0.0,-4.47388,22.9,7.5,2.8,0,0,1024,1024,1684,1024,0,0,100,0,0,0,0,68,3.678,3.671,0,0,0,0,7.16,72.68,747.84865483667,26.902888,6,P-GPS,,8.2
454300,2026-01-07 12:37:35,,,748.50482283667,29.199476,0.0,2.1230479682,4.489665498,18,5,7.366,748.50482283667,27.559056,1.2079476,2.3908957458,0.0,0.0,-4.47388,22.9,8.2,2.8,0,0,1024,1024,1684,1024,0,0,100,0,0,0,0,68,3.678,3.671,0,0,0,0,7.16,72.68,748.50482283667,27.559056,6,P-GPS,,8.4
454400,2026-01-07 12:37:35,,,749.16099083667,29.855644,0.0,2.09595479148,4.5397639248,18,5,7.366,749.16099083667,28.215224,1.2079476,2.3908957458,0.0,0.0,-4.47388,23.1,8.1,3.3,0,0,1024,1024,1684,1024,0,0,100,0,0,0,0,68,3.678,3.671,0,0,0,0,7.16,72.68,749.16099083667,28.215224,6,P-GPS,,8.6
454500,2026-01-07 12:37:35,,,749.81715883667,30.511812,0.0,2.06501647028,4.5893046088,18,5,7.366,749.81715883667,28.871392,1.2079476,2.3908957458,0.0,0.0,-4.47388,23.1,7.5,2.4,0,0,1024,1024,1684,1024,0,0,100,0,0,0,0,68,3.678,3.671,0,0,0,0,7.16,72.68,749.81715883667,28.871392,6,P-GPS,,8.8
454600,2026-01-07 12:37:35,,,750.14524283667,31.16798,0.0,2.02129927728,4.646161566,18,5,7.366,750.14524283667,29.199476,1.2079476,2.3908957458,0.0,0.0,-4.47388,23.0,7.8,2.2,0,0,1024,1024,1684,1024,0,0,100,0,0,0,0,68,3.678,3.671,0,0,0,0,7.16,72.68,750.14524283667,29.199476,6,P-GPS,,8.9
454700,2026-01-07 12:37:36,,,750.80141083667,31.824148,0.0,1.90548562528,4.7625001524,18,5,7.366,750.80141083667,29.855644,1.2079476,2.3908957458,0.0,0.0,-4.47388,23.0,7.9,1.3,0,0,1024,1024,1684,1024,0,0,100,0,0,0,0,68,3.678,3.671,0,0,0,0,7.16,72.68,750.80141083667,29.855644,6,P-GPS,,9.1
454800,2026-01-07 12:37:36,,,751.12949483667,32.480316,0.0,1.86668641144,4.8128610464,18,5,7.348,751.12949483667,30.183728,1.2079476,2.3908957458,0.0,0.0,-4.250186,22.9,8.0,1.3,0,0,1024,1024,1684,1024,0,0,100,0,0,0,0,68,3.695,3.689,0,0,0,0,7.224,72.68,751.12949483667,30.183728,6,P-GPS,,9.2
454900,2026-01-07 12:37:36,,,751.78566283667,33.136484,0.0,1.83510832644,4.8487206276,18,5,7.348,751.78566283667,30.839896,1.2079476,2.3908957458,0.0,0.0,-4.250186,22.8,7.7,1.6,0,0,1024,1024,1684,1024,0,0,100,0,0,0,0,68,3.695,3.689,0,0,0,0,7.224,72.68,751.78566283667,30.839896,6,P-GPS,,9.4
455000,2026-01-07 12:37:36,,,752.44183083667,33.792652,0.0,1.8109252548,4.8729332268,18,5,7.348,752.44183083667,31.496064,1.2079476,2.3908957458,0.0,0.0,-4.250186,22.8,7.7,2.0,0,0,1024,1024,1684,1024,0,0,100,0,0,0,0,68,3.695,3.689,0,0,0,0,7.224,72.68,752.44183083667,31.496064,6,P-GPS,,9.6
455100,2026-01-07 12:37:36,,,752.76991483667,34.44882,0.0,1.79523299708,4.889107768,18,5,7.348,752.76991483667,31.824148,1.2079476,2.3908957458,0.0,0.0,-4.47388,22.8,7.9,2.6,0,0,1024,1024,1684,1024,0,0,100,0,0,0,0,68,3.695,3.689,0,0,0,0,7.224,72.68,752.76991483667,31.824148,6,P-GPS,,9.7
455200,2026-01-07 12:37:36,,,753.42608283667,35.104988,0.0,1.88171593948,4.9764109204,18,5,7.348,753.42608283667,32.480316,1.2079476,2.3908957458,0.0,0.0,-4.47388,22.9,7.8,2.6,0,0,1024,1024,1684,1024,0,0,100,0,0,0,0,68,3.695,3.689,0,0,0,0,7.224,72.68,753.42608283667,32.480316,6,P-GPS,,9.9
455300,2026-01-07 12:37:36,,,754.08225083667,35.761156,0.223694,1.85128286764,5.0072836248,18,5,7.348,754.08225083667,33.136484,1.2079476,2.3908957458,-0.223694,0.0,-4.47388,22.9,6.2,2.7,0,0,1024,1024,1024,1024,0,0,0,0,0,0,0,68,3.695,3.689,0,0,0,0,7.224,72.68,754.08225083667,33.136484,6,P-GPS,,10.1
455400,2026-01-07 12:37:36,,,754.73841883667,36.417324,0.223694,1.77751974192,5.083497538,18,5,7.348,754.73841883667,33.792652,1.2079476,2.3908957458,-0.223694,0.0,-4.47388,22.9,6.1,2.8,0,0,1024,1024,1024,1024,0,0,0,0,0,0,0,68,3.695,3.689,0,0,0,0,7.224,72.68,754.73841883667,33.792652,6,P-GPS,,10.3
455500,2026-01-07 12:37:36,,,755.06650283667,37.073492,0.0,1.72268050132,5.1393374348,18,5,7.348,755.06650283667,34.120736,1.2079476,2.3908957458,0.0,0.0,-4.47388,22.9,5.8,2.8,0,0,1024,1024,1024,1024,0,0,0,0,0,0,0,68,3.695,3.689,0,0,0,0,7.224,72.68,755.06650283667,34.120736,6,P-GPS,,10.4
455600,2026-01-07 12:37:36,,,755.72267083667,37.72966,0.0,1.72235569816,5.1691602704,18,5,7.348,755.72267083667,34.776904,1.2079476,2.3908957458,0.0,0.0,-4.026492,22.9,6.4,2.5,0,0,1024,1024,1024,1024,0,0,0,0,0,0,0,68,3.695,3.689,0,0,0,0,7.224,72.68,755.72267083667,34.776904,6,P-GPS,,10.6
455700,2026-01-07 12:37:37,,,756.05075483667,38.385828,0.0,1.70343181304,5.1908794312,17,5,7.348,756.05075483667,35.104988,1.2079476,2.3908957458,0.0,0.0,-3.131716,23.0,6.5,2.9,0,0,1024,1024,1024,1024,0,0,0,0,0,0,0,68,3.695,3.689,0,0,0,0,7.224,72.68,756.05075483667,35.104988,6,P-GPS,,10.7
455800,2026-01-07 12:37:37,,,756.37883883667,38.713912,0.0,1.67410110344,5.2240487236,17,5,7.348,756.37883883667,35.433072,1.2079476,2.3908957458,0.0,0.0,-2.460634,23.1,6.9,3.2,0,0,1024,1024,1024,1024,0,0,0,0,0,0,0,68,3.695,3.689,0,0,0,0,7.224,72.68,756.37883883667,35.433072,6,P-GPS,,10.8
455900,2026-01-07 12:37:37,,,756.70692283667,39.041996,0.0,1.64369099748,5.2610565988,18,5,7.462,756.70692283667,35.761156,1.2079476,2.3908957458,0.0,0.0,-1.789552,23.1,6.7,3.5,0,0,1024,1024,1024,1024,0,0,0,0,0,0,0,68,3.731,3.731,0,0,0,0,5.562,72.68,756.70692283667,35.761156,6,P-GPS,,10.9
456000,2026-01-07 12:37:37,,,756.70692283667,39.041996,0.0,1.58979991964,5.3225723488,18,5,7.462,756.70692283667,35.761156,1.2079476,2.3908957458,0.0,0.0,-0.894776,23.1,6.8,3.5,0,0,1024,1024,1024,1024,0,0,0,0,0,0,0,68,3.731,3.731,0,0,0,0,5.562,72.68,756.70692283667,35.761156,6,P-GPS,,10.9
456100,2026-01-07 12:37:37,,,756.70692283667,39.041996,0.0,1.55976382944,5.3660434788,18,5,7.462,756.70692283667,35.761156,1.2079476,2.3908957458,0.0,0.0,-0.447388,23.1,6.7,3.6,0,0,1024,1024,1024,1024,0,0,0,0,0,0,0,68,3.731,3.731,0,0,0,0,5.562,72.68,756.70692283667,35.761156,6,P-GPS,,10.9
456200,2026-01-07 12:37:37,,,756.70692283667,39.041996,0.0,1.53272970784,5.4149279948,18,5,7.462,756.70692283667,35.761156,1.2079476,2.3908957458,0.0,0.0,-0.223694,23.1,6.5,3.9,0,0,1024,1024,1024,1024,0,0,0,0,0,0,0,68,3.731,3.731,0,0,0,0,5.562,72.68,756.70692283667,35.761156,6,P-GPS,,10.9
456300,2026-01-07 12:37:37,,,756.70692283667,39.041996,0.0,1.50992130816,5.464403062,18,5,7.462,756.70692283667,35.761156,1.2079476,2.3908957458,0.0,0.0,0.0,23.0,6.4,4.0,0,0,1024,1024,1024,1024,0,0,0,0,0,0,0,68,3.731,3.731,0,0,0,0,5.562,72.68,756.70692283667,35.761156,6,P-GPS,,10.9
456400,2026-01-07 12:37:37,,,756.37883883667,39.041996,0.0,1.51151907724,5.5468833796,18,5,7.462,756.70692283667,35.761156,1.2079476,2.3908957458,0.0,0.0,0.0,23.0,6.3,4.0,0,0,1024,1024,1024,1024,0,0,0,0,0,0,0,68,3.731,3.731,0,0,0,0,5.562,72.68,756.37883883667,35.433072,6,P-GPS,,10.8
456500,2026-01-07 12:37:37,,,756.37883883667,39.041996,0.0,1.48873364344,5.5855644832,18,5,7.462,756.70692283667,35.761156,1.2079476,2.3908957458,0.0,0.0,0.0,23.0,6.3,3.9,0,0,1024,1024,1024,1024,0,0,0,0,0,0,0,68,3.731,3.731,0,0,0,0,5.562,72.68,756.37883883667,35.433072,6,P-GPS,,10.8
456600,2026-01-07 12:37:37,,,756.37883883667,39.041996,0.0,1.45151579448,5.6228020172,18,5,7.462,756.70692283667,35.761156,1.2079476,2.3908957458,0.0,0.0,0.0,23.0,6.2,3.9,0,0,1024,1024,1024,1024,0,0,0,0,0,0,0,68,3.731,3.731,0,0,0,0,5.562,72.68,756.37883883667,35.433072,6,P-GPS,,10.8
456700,2026-01-07 12:37:38,,,756.37883883667,39.041996,0.0,1.42318902192,5.6511156664,18,5,7.462,756.70692283667,35.761156,1.2079476,2.3908957458,0.0,0.0,0.0,23.0,6.1,4.0,0,0,1024,1024,1024,1024,0,0,0,0,0,0,0,68,3.731,3.731,0,0,0,0,5.562,72.68,756.37883883667,35.433072,6,P-GPS,,10.8
456800,2026-01-07 12:37:38,,,756.37883883667,39.041996,0.0,1.40783797156,5.6668965068,18,5,7.462,756.70692283667,35.761156,1.2079476,2.3908957458,0.0,0.0,0.0,23.0,6.4,4.2,0,0,1024,1024,1024,1024,0,0,0,0,0,0,0,68,3.731,3.731,0,0,0,0,5.562,72.68,756.37883883667,35.433072,6,P-GPS,,10.8
456900,2026-01-07 12:37:38,,,756.05075483667,39.041996,0.0,1.39108928336,5.75131252,18,5,7.462,756.70692283667,35.761156,1.2079476,2.3908957458,0.0,0.0,0.0,23.0,5.9,4.1,0,0,1024,1024,1024,1024,0,0,0,0,0,0,0,68,3.731,3.731,0,0,0,0,5.562,72.68,756.05075483667,35.104988,6,P-GPS,,10.7
457000,2026-01-07 12:37:38,,,756.05075483667,39.041996,0.0,1.3873524066,5.7565946724,18,5,7.462,756.70692283667,35.761156,1.2079476,2.3908957458,0.0,0.0,0.0,23.0,5.9,4.0,0,0,1024,1024,1024,1024,0,0,0,0,0,0,0,68,3.731,3.731,0,0,0,0,5.562,72.68,756.05075483667,35.104988,6,P-GPS,,10.7
457100,2026-01-07 12:37:38,,,756.05075483667,39.041996,0.0,1.38696526748,5.7600395544,18,5,7.429,756.70692283667,35.761156,1.2079476,2.3908957458,0.0,0.0,0.0,22.9,5.9,3.9,0,0,1024,1024,1024,1024,0,0,0,0,0,0,0,67,3.716,3.714,0,0,0,0,4.969,72.68,756.05075483667,35.104988,6,P-GPS,SD card speed low. Normal use may be affected. Replace SD card (Code: 10028). Gimbal stuck. Make sure gimbal cover is removed and manually check whether gimbal can rotate freely (Code: 40002),10.7
457200,2026-01-07 12:37:38,,,756.05075483667,39.041996,0.0,1.38847773472,5.7666996596,18,5,7.429,756.70692283667,35.761156,1.2079476,2.3908957458,0.0,0.0,0.0,22.9,5.7,3.8,0,0,1024,1024,1024,1024,0,0,0,0,0,0,0,67,3.716,3.714,0,0,0,0,4.969,72.68,756.05075483667,35.104988,6,P-GPS,,10.7
457300,2026-01-07 12:37:38,,,756.05075483667,39.041996,0.0,1.423638497,5.8031826004,18,5,7.429,756.70692283667,35.761156,1.2079476,2.3908957458,0.0,0.0,0.0,22.9,5.5,3.7,0,0,1024,1024,1024,1024,0,0,0,0,0,0,0,67,3.716,3.714,0,0,0,0,4.969,72.68,756.05075483667,35.104988,6,P-GPS,,10.7
457400,2026-01-07 12:37:38,,,755.72267083667,39.041996,0.0,1.41150266984,5.8159122596,18,5,7.429,756.70692283667,35.761156,1.2079476,2.3908957458,0.0,0.0,0.0,23.0,5.5,3.7,0,0,1024,1024,1024,1024,0,0,0,0,0,0,0,67,3.716,3.714,0,0,0,0,4.969,72.68,755.72267083667,34.776904,6,P-GPS,,10.6
457500,2026-01-07 12:37:38,,,755.72267083667,39.041996,0.0,1.39599742,5.8316931,18,5,7.429,756.70692283667,35.761156,1.2079476,2.3908957458,0.0,0.0,0.0,23.0,5.6,3.8,0,0,1024,1024,1024,1024,0,0,0,0,0,0,0,67,3.716,3.714,0,0,0,0,4.969,72.68,755.72267083667,34.776904,6,P-GPS,,10.6
457600,2026-01-07 12:37:38,,,755.72267083667,39.041996,0.0,1.370078784,5.8617784028,18,5,7.429,756.70692283667,35.761156,1.2079476,2.3908957458,0.0,0.0,0.0,23.0,5.7,3.9,0,0,1024,1024,1024,1024,0,0,0,0,0,0,0,67,3.716,3.714,0,0,0,0,4.969,72.68,755.72267083667,34.776904,6,P-GPS,,10.6
457700,2026-01-07 12:37:39,,,755.72267083667,39.041996,0.0,1.28334321692,5.9671261752,18,5,7.429,756.70692283667,35.761156,1.2079476,2.3908957458,0.0,0.0,0.0,23.0,5.8,3.7,0,0,1024,1024,1024,1024,0,0,0,0,0,0,0,67,3.716,3.714,0,0,0,0,4.969,72.68,755.72267083667,34.776904,6,P-GPS,,10.6
457800,2026-01-07 12:37:39,,,755.39458683667,39.041996,0.0,1.27779859732,5.9889765696,18,5,7.429,756.70692283667,35.761156,1.2079476,2.3908957458,0.0,0.0,0.0,22.9,5.7,3.4,0,0,1024,1024,1024,1024,0,0,0,0,0,0,0,67,3.716,3.714,0,0,0,0,4.969,72.68,755.39458683667,34.44882,6,P-GPS,,10.5
457900,2026-01-07 12:37:39,,,755.39458683667,39.041996,0.0,1.27229662864,6.0052167276,18,5,7.429,756.70692283667,35.761156,1.2079476,2.3908957458,0.0,0.0,0.0,22.9,5.6,3.3,0,0,1024,1024,1024,1024,0,0,0,0,0,0,0,67,3.716,3.714,0,0,0,0,4.969,72.68,755.39458683667,34.44882,6,P-GPS,,10.5
458000,2026-01-07 12:37:39,,,755.39458683667,39.041996,0.0,1.26462274388,6.0147967804,18,5,7.429,756.70692283667,35.761156,1.2079476,2.3908957458,0.0,0.0,0.0,22.9,5.6,3.3,0,0,1024,1024,1024,1024,0,0,0,0,0,0,0,67,3.716,3.714,0,0,0,0,4.969,72.68,755.39458683667,34.44882,6,P-GPS,,10.5
458100,2026-01-07 12:37:39,,,755.39458683667,39.041996,0.0,1.24743442312,6.0443571488,18,5,7.429,756.70692283667,35.761156,1.2079476,2.3908957458,0.0,0.0,0.0,22.9,5.4,3.2,0,0,1024,1024,1024,1024,0,0,0,0,0,0,0,67,3.716,3.714,0,0,0,0,4.969,72.68,755.39458683667,34.44882,6,P-GPS,,10.5
458200,2026-01-07 12:37:39,,,755.39458683667,39.041996,0.0,1.2510335046,6.0632875956,18,5,7.435,756.70692283667,35.761156,1.2079476,2.3908957458,0.0,0.0,0.0,22.9,5.0,3.3,0,0,1024,1024,1024,1024,0,0,0,0,0,0,0,67,3.719,3.716,0,0,0,0,4.997,72.68,755.39458683667,34.44882,6,P-GPS,,10.5
458300,2026-01-07 12:37:39,,,755.06650283667,39.041996,0.0,1.2543799614,6.0777561,18,5,7.435,756.70692283667,35.761156,1.2079476,2.3908957458,0.0,0.0,0.0,22.9,5.1,3.4,0,0,1024,1024,1024,1024,0,0,0,0,0,0,0,67,3.719,3.716,0,0,0,0,4.997,72.68,755.06650283667,34.120736,6,P-GPS,,10.4
458400,2026-01-07 12:37:39,,,755.06650283667,39.041996,0.0,1.25490161496,6.0849411396,18,5,7.435,756.70692283667,35.761156,1.2079476,2.3908957458,0.0,0.0,0.0,22.9,5.1,3.5,0,0,1024,1024,1024,1024,0,0,0,0,0,0,0,67,3.719,3.716,0,0,0,0,4.997,72.68,755.06650283667,34.120736,6,P-GPS,,10.4
458500,2026-01-07 12:37:39,,,755.06650283667,39.041996,0.0,1.26011486972,6.0901576752,18,5,7.435,756.70692283667,35.761156,1.2079476,2.3908957458,0.0,0.0,0.0,22.9,5.6,3.3,0,0,1024,1024,1024,1024,0,0,0,0,0,0,0,67,3.719,3.716,0,0,0,0,4.997,72.68,755.06650283667,34.120736,6,P-GPS,,10.4
458600,2026-01-07 12:37:40,,,755.06650283667,39.041996,0.0,1.2662730064,6.1294621384,18,5,7.435,756.70692283667,35.761156,1.2079476,2.3908957458,0.0,0.0,0.0,22.9,5.8,3.5,0,0,1024,1024,1024,1024,0,0,0,0,0,0,0,67,3.719,3.716,0,0,0,0,4.997,72.68,755.06650283667,34.120736,6,P-GPS,,10.4
458700,2026-01-07 12:37:40,,,755.06650283667,39.041996,0.0,1.2750492534,6.1395671256,18,5,7.435,756.70692283667,35.761156,1.2079476,2.3908957458,0.0,0.0,0.0,23.0,6.1,3.6,0,0,1024,1024,1024,1024,0,0,0,0,0,0,0,67,3.719,3.716,0,0,0,0,4.997,72.68,755.06650283667,34.120736,6,P-GPS,,10.4
458800,2026-01-07 12:37:40,,,755.06650283667,39.041996,0.0,1.27822838736,6.148950328,18,5,7.435,756.70692283667,35.761156,1.2079476,2.3908957458,0.0,0.0,0.0,23.0,6.1,3.7,0,0,1024,1024,1024,1024,0,0,0,0,0,0,0,67,3.719,3.716,0,0,0,0,4.997,72.68,755.06650283667,34.120736,6,P-GPS,,10.4
458900,2026-01-07 12:37:40,,,755.06650283667,39.041996,0.0,1.28196526412,6.1602036092,18,5,7.435,756.70692283667,35.761156,1.2079476,2.3908957458,0.0,0.0,0.0,23.0,6.0,3.3,0,0,1024,1024,1024,1024,0,0,0,0,0,0,0,67,3.719,3.716,0,0,0,0,4.997,72.68,755.06650283667,34.120736,6,P-GPS,,10.4
459000,2026-01-07 12:37:40,,,755.06650283667,39.041996,0.0,1.27866145824,6.2013453428,18,5,7.435,756.70692283667,35.761156,1.2079476,2.3908957458,0.0,0.0,0.0,23.0,6.1,3.7,0,0,1024,1024,1024,1024,0,0,0,0,0,0,0,67,3.719,3.716,0,0,0,0,4.997,72.68,755.06650283667,34.120736,6,P-GPS,,10.4
459100,2026-01-07 12:37:40,,,755.06650283667,39.041996,0.0,1.27642392536,6.213254792,18,5,7.435,756.70692283667,35.761156,1.2079476,2.3908957458,0.0,0.0,0.0,23.0,5.8,3.7,0,0,1024,1024,1024,1024,0,0,0,0,0,0,0,67,3.719,3.716,0,0,0,0,4.997,72.68,755.06650283667,34.120736,6,P-GPS,,10.4
459200,2026-01-07 12:37:40,,,755.06650283667,39.041996,0.0,1.2595472844,6.2369752652,18,5,7.435,756.70692283667,35.761156,1.2079476,2.3908957458,0.0,0.0,0.0,22.9,5.5,3.3,0,0,1024,1024,1024,1024,0,0,0,0,0,0,0,67,3.719,3.716,0,0,0,0,4.997,72.68,755.06650283667,34.120736,6,P-GPS,,10.4
459300,2026-01-07 12:37:40,,,755.06650283667,39.041996,0.0,1.248523662,6.25738209,18,5,7.434,756.70692283667,35.761156,1.2079476,2.3908957458,0.0,0.0,0.0,22.9,5.6,3.3,0,0,1024,1024,1024,1024,0,0,0,0,0,0,0,67,3.711,3.711,0,0,0,0,5.04,72.68,755.06650283667,34.120736,6,P-GPS,,10.4
459400,2026-01-07 12:37:40,,,755.06650283667,39.041996,0.0,1.21473101,6.3125658188,18,5,7.434,756.70692283667,35.761156,1.2079476,2.3908957458,0.0,0.0,0.0,23.0,6.2,3.5,0,0,1024,1024,1024,1024,0,0,0,0,0,0,0,67,3.711,3.711,0,0,0,0,5.04,72.68,755.06650283667,34.120736,6,P-GPS,,10.4
459500,2026-01-07 12:37:40,,,755.06650283667,39.041996,0.0,1.20435043224,6.330216738,18,5,7.434,756.70692283667,35.761156,1.2079476,2.3908957458,0.0,0.0,0.0,23.1,6.0,3.5,0,0,1024,1024,1024,1024,0,0,0,0,0,0,0,67,3.711,3.711,0,0,0,0,5.04,72.68,755.06650283667,34.120736,6,P-GPS,,10.4
459600,2026-01-07 12:37:40,,,755.06650283667,39.041996,0.0,1.18096132388,6.357775794,18,5,7.434,756.70692283667,35.761156,1.2079476,2.3908957458,0.0,0.0,0.0,23.0,5.5,3.7,0,0,1024,1024,1024,1024,0,0,0,0,0,0,0,67,3.711,3.711,0,0,0,0,5.04,72.68,755.06650283667,34.120736,6,P-GPS,,10.4
459700,2026-01-07 12:37:41,,,755.06650283667,39.041996,0.0,1.15794295044,6.3862206768,18,5,7.434,756.70692283667,35.761156,1.2079476,2.3908957458,0.0,0.0,0.0,23.0,5.2,3.8,0,0,1024,1024,1024,1024,0,0,0,0,0,0,0,67,3.711,3.711,0,0,0,0,5.04,72.68,755.06650283667,34.120736,6,P-GPS,,10.4
459800,2026-01-07 12:37:41,,,755.06650283667,39.041996,0.0,1.11270344768,6.4497049308,18,5,7.434,756.70692283667,35.761156,1.2079476,2.3908957458,0.0,0.0,0.0,23.0,4.9,3.7,0,0,1024,1024,1024,1024,0,0,0,0,0,0,0,67,3.711,3.711,0,0,0,0,5.04,72.68,755.06650283667,34.120736,6,P-GPS,,10.4
459900,2026-01-07 12:37:41,,,755.06650283667,39.041996,0.0,1.0907808748,6.47883879,18,5,7.434,756.70692283667,35.761156,1.2079476,2.3908957458,0.0,0.0,0.0,22.9,4.3,3.7,0,0,1024,1024,1024,1024,0,0,0,0,0,0,0,67,3.711,3.711,0,0,0,0,5.04,72.68,755.06650283667,34.120736,6,P-GPS,,10.4
460000,2026-01-07 12:37:41,,,755.06650283667,39.041996,0.0,1.06744425988,6.5058072948,18,5,7.434,756.70692283667,35.761156,1.2079476,2.3908957458,0.0,0.0,0.0,22.9,4.9,3.7,0,0,1024,1024,1024,1024,0,0,0,0,0,0,0,67,3.711,3.711,0,0,0,0,5.04,72.68,755.06650283667,34.120736,6,P-GPS,,10.4
460100,2026-01-07 12:37:41,,,755.06650283667,39.041996,0.0,1.05020344568,6.525262676,18,5,7.434,756.70692283667,35.761156,1.2079476,2.3908957458,0.0,0.0,0.0,22.9,5.3,3.7,0,0,1024,1024,1024,1024,0,0,0,0,0,0,0,67,3.711,3.711,0,0,0,0,5.04,72.68,755.06650283667,34.120736,6,P-GPS,,10.4
460200,2026-01-07 12:37:41,,,755.06650283667,39.041996,0.0,1.0373523954,6.5389109704,18,5,7.434,756.70692283667,35.761156,1.2079476,2.3908957458,0.0,0.0,0.0,23.0,5.2,4.0,0,0,1024,1024,1024,1024,0,0,0,0,0,0,0,67,3.711,3.711,0,0,0,0,5.04,72.68,755.06650283667,34.120736,6,P-GPS,,10.4
460300,2026-01-07 12:37:41,,,755.06650283667,39.041996,0.0,1.01605318212,6.5605973228,18,5,7.434,756.70692283667,35.761156,1.2079476,2.3908957458,0.0,0.0,0.0,23.0,4.9,3.9,0,0,1024,1024,1024,1024,0,0,0,0,0,0,0,67,3.711,3.711,0,0,0,0,5.04,72.68,755.06650283667,34.120736,6,P-GPS,,10.4
460400,2026-01-07 12:37:41,,,755.06650283667,39.041996,0.0,0.99714898204,6.5835303944,18,5,7.429,756.70692283667,35.761156,1.2079476,2.3908957458,0.0,0.0,0.0,23.0,4.8,3.8,0,0,1024,1024,1024,1024,0,0,0,0,0,0,0,67,3.717,3.712,0,0,0,0,4.987,72.68,755.06650283667,34.120736,6,P-GPS,,10.4
460500,2026-01-07 12:37:41,,,755.06650283667,39.041996,0.0,0.9772966192,6.6038059856,18,5,7.429,756.70692283667,35.761156,1.2079476,2.3908957458,0.0,0.0,0.0,23.1,4.7,4.2,0,0,1024,1024,1024,1024,0,0,0,0,0,0,0,67,3.717,3.712,0,0,0,0,4.987,72.68,755.06650283667,34.120736,6,P-GPS,,10.4
460600,2026-01-07 12:37:41,,,755.06650283667,39.041996,0.0,0.95373362632,6.6285763276,18,5,7.429,756.70692283667,35.761156,1.2079476,2.3908957458,0.0,0.0,0.0,23.0,4.7,4.3,0,0,1024,1024,1024,1024,0,0,0,0,0,0,0,67,3.717,3.712,0,0,0,0,4.987,72.68,755.06650283667,34.120736,6,P-GPS,,10.4
460700,2026-01-07 12:37:42,,,755.06650283667,39.041996,0.0,0.91949478008,6.6627954888,18,5,7.429,756.70692283667,35.761156,1.2079476,2.3908957458,0.0,0.0,0.0,22.9,4.2,4.2,0,0,1024,1024,1024,1024,0,0,0,0,0,0,0,67,3.717,3.712,0,0,0,0,4.987,72.68,755.06650283667,34.120736,6,P-GPS,,10.4
460800,2026-01-07 12:37:42,,,755.39458683667,39.041996,0.0,0.90432417592,6.6782810536,18,5,7.429,756.70692283667,35.761156,1.2079476,2.3908957458,0.0,0.0,0.0,22.9,3.9,4.1,0,0,1024,1024,1024,1024,0,0,0,0,0,0,0,67,3.717,3.712,0,0,0,0,4.987,72.68,755.39458683667,34.44882,6,P-GPS,,10.5
460900,2026-01-07 12:37:42,,,755.39458683667,39.041996,0.0,0.887303178,6.6954070384,18,5,7.429,756.70692283667,35.761156,1.2079476,2.3908957458,0.0,0.0,0.0,23.0,3.9,4.3,0,0,1024,1024,1024,1024,0,0,0,0,0,0,0,67,3.717,3.712,0,0,0,0,4.987,72.68,755.39458683667,34.44882,6,P-GPS,,10.5
461000,2026-01-07 12:37:42,,,755.39458683667,39.041996,0.0,0.86315291476,6.7214897164,18,5,7.429,756.70692283667,35.761156,1.2079476,2.3908957458,0.0,0.0,0.0,23.0,4.3,4.3,0,0,1024,1024,1024,1024,0,0,0,0,0,0,0,67,3.717,3.712,0,0,0,0,4.987,72.68,755.39458683667,34.44882,6,P-GPS,,10.5
461100,2026-01-07 12:37:42,,,755.72267083667,39.041996,0.0,0.84861879356,6.7543637332,18,5,7.429,756.70692283667,35.761156,1.2079476,2.3908957458,0.0,0.0,0.0,23.0,4.6,4.5,0,0,1024,1024,1024,1024,0,0,0,0,0,0,0,67,3.717,3.712,0,0,0,0,4.987,72.68,755.72267083667,34.776904,6,P-GPS,,10.6
461200,2026-01-07 12:37:42,,,755.72267083667,39.041996,0.0,0.86056105116,6.7756235764,18,5,7.429,756.70692283667,35.761156,1.2079476,2.3908957458,0.0,0.0,0.0,23.0,5.0,4.3,0,0,1024,1024,1024,1024,0,0,0,0,0,0,0,67,3.717,3.712,0,0,0,0,4.987,72.68,755.72267083667,34.776904,6,P-GPS,,10.6
461300,2026-01-07 12:37:42,,,755.72267083667,39.041996,0.0,0.87061026408,6.789042212,18,5,7.429,756.70692283667,35.761156,1.2079476,2.3908957458,0.0,0.0,0.0,23.1,5.6,4.2,0,0,1024,1024,1024,1024,0,0,0,0,0,0,0,67,3.717,3.712,0,0,0,0,4.987,72.68,755.72267083667,34.776904,6,P-GPS,,10.6
461400,2026-01-07 12:37:42,,,755.72267083667,39.041996,0.0,0.86887141888,6.7961944432,18,5,7.429,756.70692283667,35.761156,1.2079476,2.3908957458,0.0,0.0,0.0,23.1,5.4,4.1,0,0,1024,1024,1024,1024,0,0,0,0,0,0,0,67,3.717,3.712,0,0,0,0,4.987,72.68,755.72267083667,34.776904,6,P-GPS,,10.6
461500,2026-01-07 12:37:42,,,756.05075483667,39.041996,0.0,0.87291997544,6.8465881456,18,5,7.45,756.70692283667,35.761156,1.2079476,2.3908957458,0.0,0.0,0.0,23.1,5.3,4.1,0,0,1024,1024,1024,1024,0,0,0,0,0,0,0,67,3.726,3.721,0,0,0,0,4.648,72.68,756.05075483667,35.104988,6,P-GPS,,10.7
461600,2026-01-07 12:37:42,,,756.05075483667,39.041996,0.0,0.89306433304,6.8670605872,18,5,7.45,756.70692283667,35.761156,1.2079476,2.3908957458,0.0,0.0,0.0,23.1,6.1,4.3,0,0,1024,1024,1024,1024,0,0,0,0,0,0,0,67,3.726,3.721,0,0,0,0,4.648,72.68,756.05075483667,35.104988,6,P-GPS,,10.7
461700,2026-01-07 12:37:43,,,756.05075483667,39.041996,0.0,0.91347771952,6.8895015328,18,5,7.45,756.70692283667,35.761156,1.2079476,2.3908957458,0.0,0.0,0.0,23.2,7.2,4.0,0,0,1024,1024,1024,1024,0,0,0,0,0,0,0,67,3.726,3.721,0,0,0,0,4.648,72.68,756.05075483667,35.104988,6,P-GPS,,10.7
461800,2026-01-07 12:37:43,,,756.05075483667,39.041996,0.0,0.93065291692,6.9150592764,18,5,7.45,756.70692283667,35.761156,1.2079476,2.3908957458,0.0,0.0,0.0,23.2,7.4,3.5,0,0,1024,1024,1024,1024,0,0,0,0,0,0,0,67,3.726,3.721,0,0,0,0,4.648,72.68,756.05075483667,35.104988,6,P-GPS,,10.7
461900,2026-01-07 12:37:43,,,755.72267083667,39.041996,0.0,0.93560698532,6.931102584,18,5,7.45,756.70692283667,35.761156,1.2079476,2.3908957458,0.0,0.0,0.0,23.1,6.3,3.4,0,0,1024,1024,1024,1024,0,0,0,0,0,0,0,67,3.726,3.721,0,0,0,0,4.648,72.68,755.72267083667,34.776904,6,P-GPS,,10.6
462000,2026-01-07 12:37:43,,,755.72267083667,39.041996,0.0,0.94582680192,6.9458335556,18,5,7.45,756.70692283667,35.761156,1.2079476,2.3908957458,0.0,0.0,0.0,22.9,5.6,3.0,0,0,1024,1024,1024,1024,0,0,0,0,0,0,0,67,3.726,3.721,0,0,0,0,4.648,72.68,755.72267083667,34.776904,6,P-GPS,,10.6
462100,2026-01-07 12:37:43,,,755.72267083667,39.041996,0.0,0.92873690636,6.9636813252,18,5,7.45,756.70692283667,35.761156,1.2079476,2.3908957458,0.0,0.0,0.0,23.0,4.9,3.6,0,0,1024,1024,1024,1024,0,0,0,0,0,0,0,67,3.726,3.721,0,0,0,0,4.648,72.68,755.72267083667,34.776904,6,P-GPS,,10.6
462200,2026-01-07 12:37:43,,,755.72267083667,39.041996,0.0,0.90504267988,6.9888781764,18,5,7.45,756.70692283667,35.761156,1.2079476,2.3908957458,0.0,0.0,0.0,23.0,4.8,3.8,0,0,1024,1024,1024,1024,0,0,0,0,0,0,0,67,3.726,3.721,0,0,0,0,4.648,72.68,755.72267083667,34.776904,6,P-GPS,,10.6
462300,2026-01-07 12:37:43,,,755.72267083667,39.041996,0.0,0.88155842716,7.014928046,18,5,7.45,756.70692283667,35.761156,1.2079476,2.3908957458,0.0,0.0,0.0,23.0,4.9,3.9,0,0,1024,1024,1024,1024,0,0,0,0,0,0,0,67,3.726,3.721,0,0,0,0,4.648,72.68,755.72267083667,34.776904,6,P-GPS,,10.6
462400,2026-01-07 12:37:43,,,755.39458683667,39.041996,0.0,0.83202758568,7.088910988,18,5,7.45,756.70692283667,35.761156,1.2079476,2.3908957458,0.0,0.0,0.0,23.0,4.4,3.8,0,0,1024,1024,1024,1024,0,0,0,0,0,0,0,67,3.726,3.721,0,0,0,0,4.648,72.68,755.39458683667,34.44882,6,P-GPS,,10.5
462500,2026-01-07 12:37:43,,,755.39458683667,39.041996,0.0,0.8049048814,7.1212928788,18,5,7.45,756.70692283667,35.761156,1.2079476,2.3908957458,0.0,0.0,0.0,22.9,3.7,4.2,0,0,1024,1024,1024,1024,0,0,0,0,0,0,0,67,3.726,3.721,0,0,0,0,4.648,72.68,755.39458683667,34.44882,6,P-GPS,,10.5
462600,2026-01-07 12:37:43,,,755.39458683667,39.041996,0.0,0.77642062852,7.1519687328,18,5,7.418,756.70692283667,35.761156,1.2079476,2.3908957458,0.0,0.0,0.0,22.9,3.7,3.6,0,0,1024,1024,1024,1024,0,0,0,0,0,0,0,67,3.71,3.708,0,0,0,0,5.227,72.68,755.39458683667,34.44882,6,P-GPS,,10.5
462700,2026-01-07 12:37:44,,,755.39458683667,39.041996,0.0,0.75433401364,7.1809713584,18,5,7.418,756.70692283667,35.761156,1.2079476,2.3908957458,0.0,0.0,0.0,22.9,3.9,3.4,0,0,1024,1024,1024,1024,0,0,0,0,0,0,0,67,3.71,3.708,0,0,0,0,5.227,72.68,755.39458683667,34.44882,6,P-GPS,,10.5
462800,2026-01-07 12:37:44,,,755.39458683667,39.041996,0.0,0.70706695176,7.2441931452,18,5,7.418,756.70692283667,35.761156,1.2079476,2.3908957458,0.0,0.0,0.0,23.0,3.7,3.1,0,0,1024,1024,1024,1024,0,0,0,0,0,0,0,67,3.71,3.708,0,0,0,0,5.227,72.68,755.39458683667,34.44882,6,P-GPS,,10.5
462900,2026-01-07 12:37:44,,,755.06650283667,39.041996,0.0,0.6995243006,7.2772968208,18,5,7.418,756.70692283667,35.761156,1.2079476,2.3908957458,0.0,0.0,0.0,22.9,3.6,2.8,0,0,1024,1024,1024,1024,0,0,0,0,0,0,0,67,3.71,3.708,0,0,0,0,5.227,72.68,755.06650283667,34.120736,6,P-GPS,,10.4
463000,2026-01-07 12:37:44,,,755.06650283667,39.041996,0.0,0.7029855868,7.307907058,18,5,7.418,756.70692283667,35.761156,1.2079476,2.3908957458,0.0,0.0,0.0,23.0,3.3,2.3,0,0,1024,1024,1024,1024,0,0,0,0,0,0,0,67,3.71,3.708,0,0,0,0,5.227,72.68,755.06650283667,34.120736,6,P-GPS,,10.4
463100,2026-01-07 12:37:44,,,755.06650283667,39.041996,0.0,0.71575461608,7.3381235944,18,5,7.418,756.70692283667,35.761156,1.2079476,2.3908957458,0.0,0.0,0.0,23.0,3.4,1.7,0,0,1024,1024,1024,1024,0,0,0,0,0,0,0,67,3.71,3.708,0,0,0,0,5.227,72.68,755.06650283667,34.120736,6,P-GPS,,10.4
463200,2026-01-07 12:37:44,,,755.06650283667,39.041996,0.0,0.7654527804,7.3903873756,18,5,7.418,756.70692283667,35.761156,1.2079476,2.3908957458,0.0,0.0,0.0,23.1,3.7,1.0,0,0,1024,1024,1024,1024,0,0,0,0,0,0,0,67,3.71,3.708,0,0,0,0,5.227,72.68,755.06650283667,34.120736,6,P-GPS,,10.4
463300,2026-01-07 12:37:44,,,754.73841883667,39.041996,0.0,0.788385852,7.4233270092,18,5,7.418,756.70692283667,35.761156,1.2079476,2.3908957458,0.0,0.0,0.0,23.0,3.5,0.5,0,0,1024,1024,1024,1024,0,0,0,0,0,0,0,67,3.71,3.708,0,0,0,0,5.227,72.68,754.73841883667,33.792652,6,P-GPS,,10.3
463400,2026-01-07 12:37:44,,,754.73841883667,39.041996,0.0,0.80919950096,7.4564634932,18,5,7.418,756.70692283667,35.761156,1.2079476,2.3908957458,0.0,0.0,0.0,22.9,3.5,0.6,0,0,1024,1024,1024,1024,0,0,0,0,0,0,0,67,3.71,3.708,0,0,0,0,5.227,72.68,754.73841883667,33.792652,6,P-GPS,,10.3
463500,2026-01-07 12:37:44,,,754.73841883667,39.041996,0.0,0.81786091856,7.4739503704,18,5,7.418,756.70692283667,35.761156,1.2079476,2.3908957458,0.0,0.0,0.0,22.9,3.5,1.0,0,0,1024,1024,1024,1024,0,0,0,0,0,0,0,67,3.71,3.708,0,0,0,0,5.227,72.68,754.73841883667,33.792652,6,P-GPS,,10.3
463600,2026-01-07 12:37:44,,,754.73841883667,39.041996,0.0,0.81346131212,7.4807745176,18,5,7.418,756.70692283667,35.761156,1.2079476,2.3908957458,0.0,0.0,0.0,22.9,3.5,1.6,0,0,1024,1024,1024,1024,0,0,0,0,0,0,0,67,3.71,3.708,0,0,0,0,5.227,72.68,754.73841883667,33.792652,6,P-GPS,,10.3
463700,2026-01-07 12:37:45,,,755.06650283667,39.041996,0.0,0.81196524908,7.5169621828,18,5,7.418,756.70692283667,35.761156,1.2079476,2.3908957458,0.0,0.0,0.0,22.9,4.2,2.0,0,0,1024,1024,1024,1024,0,0,0,0,0,0,0,67,3.702,3.697,0,0,0,0,5.227,72.68,755.06650283667,34.120736,6,P-GPS,,10.4
463800,2026-01-07 12:37:45,,,755.06650283667,39.041996,0.0,0.79559713832,7.5336616584,18,5,7.418,756.70692283667,35.761156,1.2079476,2.3908957458,0.0,0.0,0.0,22.8,3.7,1.9,0,0,1024,1024,1024,1024,0,0,0,0,0,0,0,67,3.702,3.697,0,0,0,0,5.227,72.68,755.06650283667,34.120736,6,P-GPS,,10.4
463900,2026-01-07 12:37:45,,,755.06650283667,39.041996,0.0,0.77835632412,7.5608270136,18,5,7.418,756.70692283667,35.761156,1.2079476,2.3908957458,0.0,0.0,0.0,22.8,3.4,3.4,0,0,1024,1024,1024,1024,0,0,0,0,0,0,0,67,3.702,3.697,0,0,0,0,5.227,72.68,755.06650283667,34.120736,6,P-GPS,,10.4
464000,2026-01-07 12:37:45,,,755.06650283667,39.041996,0.223694,0.77355317436,7.6087272776,18,5,7.418,756.70692283667,35.761156,1.2079476,2.3908957458,0.223694,0.0,-0.223694,22.9,4.2,3.4,0,0,1024,1024,1024,1024,0,0,0,0,0,0,0,67,3.702,3.697,0,0,0,0,5.227,72.68,755.06650283667,34.120736,6,P-GPS,,10.4
464100,2026-01-07 12:37:45,,,755.06650283667,39.041996,0.223694,0.78931104888,7.6664700616,18,5,7.418,756.70692283667,35.761156,1.2079476,2.3908957458,0.223694,0.0,0.0,22.9,5.4,2.1,0,0,1024,1024,1024,1024,0,0,0,0,0,0,0,67,3.702,3.697,0,0,0,0,5.227,72.68,755.06650283667,34.120736,6,P-GPS,,10.4
464200,2026-01-07 12:37:45,,,755.06650283667,39.041996,0.223694,0.81168309684,7.710138042,18,5,7.418,756.70692283667,35.761156,1.2079476,2.3908957458,0.223694,0.0,0.0,22.9,6.1,1.7,0,0,1024,1024,1024,1024,0,0,0,0,0,0,0,67,3.702,3.697,0,0,0,0,5.227,72.68,755.06650283667,34.120736,6,P-GPS,,10.4
464300,2026-01-07 12:37:45,,,755.39458683667,39.041996,0.223694,0.83208992164,7.7501970984,18,5,7.418,756.70692283667,35.761156,1.2079476,2.3908957458,0.223694,0.0,0.0,23.0,6.4,1.8,0,0,1024,1024,1024,1024,0,0,0,0,0,0,0,67,3.702,3.697,0,0,0,0,5.227,72.68,755.39458683667,34.44882,6,P-GPS,,10.5
464400,2026-01-07 12:37:45,,,755.39458683667,39.041996,0.223694,0.85238519788,7.7911419816,18,5,7.418,756.70692283667,35.761156,1.2079476,2.3908957458,0.223694,0.0,0.0,23.0,7.0,1.7,0,0,1024,1024,1024,1024,0,0,0,0,0,0,0,67,3.702,3.697,0,0,0,0,5.227,72.68,755.39458683667,34.44882,6,P-GPS,,10.5
464500,2026-01-07 12:37:45,,,755.39458683667,39.041996,0.0,0.90782811304,7.8473427708,18,5,7.418,756.70692283667,35.761156,1.2079476,2.3908957458,0.0,0.0,0.0,22.9,6.7,1.4,0,0,1024,1024,1024,1024,0,0,0,0,0,0,0,67,3.702,3.697,0,0,0,0,5.227,72.68,755.39458683667,34.44882,6,P-GPS,,10.5
464600,2026-01-07 12:37:45,,,755.39458683667,39.041996,0.0,0.93201774636,7.8728348976,18,5,7.418,756.70692283667,35.761156,1.2079476,2.3908957458,0.0,0.0,0.0,22.9,6.6,1.6,0,0,1024,1024,1024,1024,0,0,0,0,0,0,0,67,3.702,3.697,0,0,0,0,5.227,72.68,755.39458683667,34.44882,6,P-GPS,,10.5
464700,2026-01-07 12:37:46,,,755.39458683667,39.041996,0.0,0.95596787836,7.9011485468,18,5,7.418,756.70692283667,35.761156,1.2079476,2.3908957458,0.0,0.0,0.0,23.0,6.4,2.0,0,0,1024,1024,1024,1024,0,0,0,0,0,0,0,67,3.702,3.697,0,0,0,0,5.227,72.68,755.39458683667,34.44882,6,P-GPS,,10.5
464800,2026-01-07 12:37:46,,,755.39458683667,39.041996,0.0,0.98560370608,7.9434713828,18,5,7.418,756.70692283667,35.761156,1.2079476,2.3908957458,0.0,0.0,0.0,22.9,6.7,2.2,0,0,1024,1024,1024,1024,0,0,0,0,0,0,0,67,3.702,3.697,0,0,0,0,5.227,72.68,755.39458683667,34.44882,6,P-GPS,,10.5
464900,2026-01-07 12:37:46,,,755.39458683667,39.041996,0.0,1.0277067258,7.9879267648,18,5,7.399,756.70692283667,35.761156,1.2079476,2.3908957458,0.0,0.0,0.0,23.0,6.3,2.3,0,0,1024,1024,1024,1024,0,0,0,0,0,0,0,67,3.702,3.697,0,0,0,0,5.112,72.68,755.39458683667,34.44882,6,P-GPS,,10.5
465000,2026-01-07 12:37:46,,,755.39458683667,39.041996,0.0,1.02516079396,8.0004267652,18,5,7.399,756.70692283667,35.761156,1.2079476,2.3908957458,0.0,0.0,0.0,23.0,5.9,2.7,0,0,1024,1024,1024,1024,0,0,0,0,0,0,0,67,3.702,3.697,0,0,0,0,5.112,72.68,755.39458683667,34.44882,6,P-GPS,,10.5
465100,2026-01-07 12:37:46,,,755.39458683667,39.041996,0.0,1.01866473076,8.0186354272,18,5,7.399,756.70692283667,35.761156,1.2079476,2.3908957458,0.0,0.0,0.0,23.0,5.9,3.0,0,0,1024,1024,1024,1024,0,0,0,0,0,0,0,67,3.702,3.697,0,0,0,0,5.112,72.68,755.39458683667,34.44882,6,P-GPS,,10.5
465200,2026-01-07 12:37:46,,,755.72267083667,39.041996,0.0,1.01032483548,8.0472771604,18,5,7.399,756.70692283667,35.761156,1.2079476,2.3908957458,0.0,0.0,0.0,23.0,5.9,3.2,0,0,1024,1024,1024,1024,0,0,0,0,0,0,0,67,3.702,3.697,0,0,0,0,5.112,72.68,755.72267083667,34.776904,6,P-GPS,,10.6
465300,2026-01-07 12:37:46,,,755.72267083667,39.041996,0.0,0.99759517628,8.0724740116,18,5,7.399,756.70692283667,35.761156,1.2079476,2.3908957458,0.0,0.0,0.0,23.0,5.6,3.2,0,0,1024,1024,1024,1024,0,0,0,0,0,0,0,67,3.702,3.697,0,0,0,0,5.112,72.68,755.72267083667,34.776904,6,P-GPS,,10.6
465400,2026-01-07 12:37:46,,,755.72267083667,39.041996,0.0,0.95049543724,8.132054066,18,5,7.399,756.70692283667,35.761156,1.2079476,2.3908957458,0.0,0.0,0.0,23.0,5.5,3.2,0,0,1024,1024,1024,1024,0,0,0,0,0,0,0,67,3.702,3.697,0,0,0,0,5.112,72.68,755.72267083667,34.776904,6,P-GPS,,10.6
465500,2026-01-07 12:37:46,,,755.72267083667,39.041996,0.0,0.925771027,8.1593178464,18,5,7.399,756.70692283667,35.761156,1.2079476,2.3908957458,0.0,0.0,0.0,23.0,5.4,3.0,0,0,1024,1024,1024,1024,0,0,0,0,0,0,0,67,3.702,3.697,0,0,0,0,5.112,72.68,755.72267083667,34.776904,6,P-GPS,,10.6
465600,2026-01-07 12:37:46,,,755.72267083667,39.041996,0.0,0.89059057968,8.1946524932,18,5,7.399,756.70692283667,35.761156,1.2079476,2.3908957458,0.0,0.0,0.0,23.0,5.4,3.2,0,0,1024,1024,1024,1024,0,0,0,0,0,0,0,67,3.702,3.697,0,0,0,0,5.112,72.68,755.72267083667,34.776904,6,P-GPS,,10.6
465700,2026-01-07 12:37:47,,,755.72267083667,39.041996,0.0,0.85969162856,8.2260173236,18,5,7.399,756.70692283667,35.761156,1.2079476,2.3908957458,0.0,0.0,0.0,23.0,5.3,3.1,0,0,1024,1024,1024,1024,0,0,0,0,0,0,0,67,3.702,3.697,0,0,0,0,5.112,72.68,755.72267083667,34.776904,6,P-GPS,,10.6
465800,2026-01-07 12:37:47,,,755.72267083667,39.041996,0.0,0.79256236132,8.2945868796,18,5,7.399,756.70692283667,35.761156,1.2079476,2.3908957458,0.0,0.0,0.0,23.0,4.6,3.3,0,0,1024,1024,1024,1024,0,0,0,0,0,0,0,67,3.702,3.697,0,0,0,0,5.112,72.68,755.72267083667,34.776904,6,P-GPS,,10.6
465900,2026-01-07 12:37:47,,,755.72267083667,39.041996,0.0,0.77146656012,8.3162404236,18,5,7.399,756.70692283667,35.761156,1.2079476,2.3908957458,0.0,0.0,0.0,23.0,4.4,3.1,0,0,1024,1024,1024,1024,0,0,0,0,0,0,0,67,3.702,3.697,0,0,0,0,5.112,72.68,755.72267083667,34.776904,6,P-GPS,,10.6
466000,2026-01-07 12:37:47,,,755.72267083667,39.041996,0.0,0.75707679588,8.3311026288,18,5,7.411,756.70692283667,35.761156,1.2079476,2.3908957458,0.0,0.0,0.0,22.9,4.3,3.0,0,0,1024,1024,1024,1024,0,0,0,0,0,0,0,67,3.706,3.704,0,0,0,0,5.28,72.68,755.72267083667,34.776904,6,P-GPS,,10.6
466100,2026-01-07 12:37:47,,,755.72267083667,39.041996,0.0,0.74884844916,8.3396656212,18,5,7.411,756.70692283667,35.761156,1.2079476,2.3908957458,0.0,0.0,0.0,22.9,4.4,2.9,0,0,1024,1024,1024,1024,0,0,0,0,0,0,0,67,3.706,3.704,0,0,0,0,5.28,72.68,755.72267083667,34.776904,6,P-GPS,,10.6
466200,2026-01-07 12:37:47,,,756.05075483667,39.041996,0.0,0.76941931596,8.3637141784,18,5,7.411,756.70692283667,35.761156,1.2079476,2.3908957458,0.0,0.0,0.0,22.7,5.1,3.1,0,0,1024,1024,1024,1024,0,0,0,0,0,0,0,67,3.706,3.704,0,0,0,0,5.28,72.68,756.05075483667,35.104988,6,P-GPS,,10.7
466300,2026-01-07 12:37:47,,,756.05075483667,39.041996,0.0,0.7687664288,8.3734910816,18,5,7.411,756.70692283667,35.761156,1.2079476,2.3908957458,0.0,0.0,0.0,22.8,4.9,4.0,0,0,1024,1024,1024,1024,0,0,0,0,0,0,0,67,3.706,3.704,0,0,0,0,5.28,72.68,756.05075483667,35.104988,6,P-GPS,,10.7
466400,2026-01-07 12:37:47,,,756.05075483667,39.041996,0.0,0.77493768884,8.3885501372,18,5,7.411,756.70692283667,35.761156,1.2079476,2.3908957458,0.0,0.0,0.0,23.0,5.5,3.0,0,0,1024,1024,1024,1024,0,0,0,0,0,0,0,67,3.706,3.704,0,0,0,0,5.28,72.68,756.05075483667,35.104988,6,P-GPS,,10.7
466500,2026-01-07 12:37:47,,,756.05075483667,39.041996,0.0,0.78876971028,8.4041013188,18,5,7.411,756.70692283667,35.761156,1.2079476,2.3908957458,0.0,0.0,0.0,23.0,6.0,2.5,0,0,1024,1024,1024,1024,0,0,0,0,0,0,0,67,3.706,3.704,0,0,0,0,5.28,72.68,756.05075483667,35.104988,6,P-GPS,,10.7
