time(millisecond),timestamp,height_above_ground_at_drone_location(feet),ground_elevation_at_drone_location(feet),altitude_above_seaLevel(feet),height_sonar(feet),speed(mph),distance(feet),mileage(feet),satellites,gpslevel,voltage(v),max_altitude(feet),max_ascent(feet),max_speed(mph),max_distance(feet), xSpeed(mph), ySpeed(mph), zSpeed(mph), compass_heading(degrees), pitch(degrees), roll(degrees),isPhoto,isVideo,rc_elevator,rc_aileron,rc_throttle,rc_rudder,rc_elevator(percent),rc_aileron(percent),rc_throttle(percent),rc_rudder(percent),gimbal_heading(degrees),gimbal_pitch(degrees),gimbal_roll(degrees),battery_percent,voltageCell1,voltageCell2,voltageCell3,voltageCell4,voltageCell5,voltageCell6,current(A),battery_temperature(f),altitude(feet),ascent(feet),flycStateRaw,flycState,message,height_above_takeoff(meters)
0,2026-01-07 12:28:01,Available with any HD 360 subscription,Available with any HD 360 subscription,721.21394696336,0.328084,0.0,0.0,0.0,16,5,0.0,721.21394696336,0.0,0.0,0.0,0.0,0.0,0.0,315.0,2.2,0.8,0,0,1024,1024,1024,1024,0,0,0,0,0,0,0,94,4.024,4.036,0,0,0,0,0.0,66.02,721.21394696336,0.0,41,Motors_Started,SD card speed low SD card speed low. Normal use may be affected. Replace SD card (Code: 10028). Gimbal stuck. Make sure gimbal cover is removed and manually check whether gimbal can rotate freely (Code: 40002),0.0
100,2026-01-07 12:28:01,,,721.21394696336,0.328084,0.0,0.0133501972776,0.0133501972776,16,5,0.0,721.21394696336,0.0,0.0,0.0133501972776,0.0,0.0,0.0,315.0,2.2,0.8,0,0,1024,1024,1024,1024,0,0,0,0,0,0,0,94,4.024,4.036,0,0,0,0,0.0,66.02,721.21394696336,0.0,41,Motors_Started,SD card speed low. Normal use may be affected. Replace SD card (Code: 40112),0.0
200,2026-01-07 12:28:01,,,721.21394696336,0.328084,0.0,0.033284777968,0.033374672984,16,5,0.0,721.21394696336,0.0,0.0,0.033284777968,0.0,0.0,0.0,315.0,2.2,0.8,0,0,1024,1024,1024,1024,0,0,0,0,0,0,0,94,4.024,4.036,0,0,0,0,0.0,66.02,721.21394696336,0.0,41,Motors_Started,Setting new Return-To-Home altitude to 500m (1640 ft). Data Recorder File Index is 26. Setting new Maximum Flight Altitude to 500m (1640 ft),0.0
300,2026-01-07 12:28:01,,,721.21394696336,0.328084,0.0,0.061518046588,0.06982611772,16,5,0.0,721.21394696336,0.0,0.0,0.061518046588,0.0,0.0,0.0,315.0,2.2,0.8,0,0,1024,1024,1024,1024,0,0,0,0,0,0,0,94,4.024,4.036,0,0,0,0,0.0,66.02,721.21394696336,0.0,41,Motors_Started,,0.0
400,2026-01-07 12:28:01,,,721.21394696336,0.328084,0.0,0.078508204612,0.087012141892,16,5,0.0,721.21394696336,0.0,0.0,0.078508204612,0.0,0.0,0.0,314.9,2.2,0.9,0,0,1024,1024,1024,1024,0,0,0,0,0,0,0,94,4.024,4.036,0,0,0,0,0.0,66.02,721.21394696336,0.0,41,Motors_Started,,0.0
500,2026-01-07 12:28:01,,,721.21394696336,0.328084,0.0,0.090046918892,0.10077592186,16,5,0.0,721.21394696336,0.0,0.0,0.090046918892,0.0,0.0,0.0,315.1,2.1,0.9,0,0,1024,1024,1024,1024,0,0,0,0,0,0,0,94,4.024,4.036,0,0,0,0,0.0,66.02,721.21394696336,0.0,41,Motors_Started,,0.0
600,2026-01-07 12:28:01,,,721.21394696336,0.328084,0.0,0.101396328704,0.11843996442,16,5,0.0,721.21394696336,0.0,0.0,0.101396328704,0.0,0.0,0.0,315.4,2.1,0.9,0,0,1024,1024,1024,1024,0,0,0,0,0,0,0,94,4.024,4.036,0,0,0,0,0.0,66.02,721.21394696336,0.0,41,Motors_Started,,0.0
700,2026-01-07 12:28:01,,,721.21394696336,0.328084,0.0,0.114492129648,0.131717851984,16,5,0.0,721.21394696336,0.0,0.0,0.114492129648,0.0,0.0,0.0,315.6,2.2,0.9,0,0,1024,1024,1024,1024,0,0,0,0,0,0,0,94,4.024,4.036,0,0,0,0,0.0,66.02,721.21394696336,0.0,41,Motors_Started,,0.0
800,2026-01-07 12:28:01,,,721.21394696336,0.328084,0.0,0.117560043132,0.141943246012,16,5,0.0,721.21394696336,0.0,0.0,0.117560043132,0.0,0.0,0.0,315.6,2.2,0.9,0,0,1024,1024,1024,1024,0,0,0,0,0,0,0,94,4.024,4.036,0,0,0,0,0.0,66.02,721.21394696336,0.0,41,Motors_Started,,0.0
900,2026-01-07 12:28:01,,,721.21394696336,0.328084,0.0,0.137451776052,0.161837603604,16,5,0.0,721.21394696336,0.0,0.0,0.137451776052,0.0,0.0,0.0,315.6,2.2,0.8,0,0,1024,1024,1024,1024,0,0,0,0,0,0,0,94,4.024,4.036,0,0,0,0,0.0,66.02,721.21394696336,0.0,41,Motors_Started,,0.0
1000,2026-01-07 12:28:02,,,721.21394696336,0.328084,0.0,0.162442262416,0.186908142464,16,5,8.14,721.21394696336,0.0,0.0,0.162442262416,0.0,0.0,0.0,315.7,2.1,0.9,0,0,1024,1024,1024,1024,0,0,0,0,0,0,0,94,4.024,4.036,0,0,0,0,0.576,66.02,721.21394696336,0.0,41,Motors_Started,,0.0
1100,2026-01-07 12:28:02,,,721.21394696336,0.328084,0.0,0.1742044019,0.19912566254,16,5,8.14,721.21394696336,0.0,0.0,0.1742044019,0.0,0.0,0.0,315.7,2.2,0.8,0,0,1024,1024,1024,1024,0,0,0,0,0,0,0,94,4.024,4.036,0,0,0,0,0.576,66.02,721.21394696336,0.0,11,AutoTakeoff,,0.0
1200,2026-01-07 12:28:02,,,721.21394696336,0.328084,0.0,0.170296265292,0.21177330074,16,5,8.14,721.21394696336,0.0,0.0,0.1742044019,0.0,0.0,0.0,315.6,2.2,0.9,0,0,1024,1024,1024,1024,0,0,0,0,0,0,0,94,4.024,4.036,0,0,0,0,0.576,66.02,721.21394696336,0.0,11,AutoTakeoff,,0.0
1300,2026-01-07 12:28:02,,,721.21394696336,0.328084,0.0,0.177841869208,0.219618117264,16,5,8.14,721.21394696336,0.0,0.0,0.177841869208,0.0,0.0,0.0,315.7,2.2,0.9,0,0,1024,1024,1024,1024,0,0,0,0,0,0,0,94,4.024,4.036,0,0,0,0,0.576,66.02,721.21394696336,0.0,11,AutoTakeoff,SD card speed low. Normal use may be affected. Replace SD card (Code: 10028),0.0
1400,2026-01-07 12:28:02,,,721.21394696336,0.328084,0.0,0.188971134656,0.231880584848,16,5,8.14,721.21394696336,0.0,0.0,0.188971134656,0.0,0.0,0.0,315.7,2.1,0.9,0,0,1024,1024,1024,1024,0,0,0,0,0,0,0,94,4.024,4.036,0,0,0,0,0.576,66.02,721.21394696336,0.0,11,AutoTakeoff,,0.0
1500,2026-01-07 12:28:02,,,721.21394696336,0.328084,0.0,0.197393707104,0.242524285976,16,5,8.14,721.21394696336,0.0,0.0,0.197393707104,0.0,0.0,0.0,316.0,2.2,0.9,0,0,1024,1024,1024,1024,0,0,0,0,0,0,0,94,4.024,4.036,0,0,0,0,0.576,66.02,721.21394696336,0.0,11,AutoTakeoff,,0.0
1600,2026-01-07 12:28:02,,,721.21394696336,0.328084,0.0,0.189431436508,0.252057422764,16,5,8.14,721.21394696336,0.0,0.0,0.197393707104,0.0,0.0,0.0,316.8,2.1,0.9,0,0,1024,1024,1024,1024,0,0,0,0,0,0,0,94,4.024,4.036,0,0,0,0,0.576,66.02,721.21394696336,0.0,11,AutoTakeoff,,0.0
1700,2026-01-07 12:28:02,,,721.21394696336,0.328084,0.0,0.198207355424,0.263726714476,16,5,8.14,721.21394696336,0.0,0.0,0.198207355424,0.0,0.0,0.0,317.8,1.3,0.7,0,0,1024,1024,1024,1024,0,0,0,0,0,0,0,94,4.024,4.036,0,0,0,0,0.576,66.02,721.21394696336,0.0,11,AutoTakeoff,,0.0
1800,2026-01-07 12:28:02,,,721.21394696336,0.328084,0.0,0.203717854288,0.26985401126,16,5,8.14,721.21394696336,0.0,0.0,0.203717854288,0.0,0.0,0.0,318.4,0.9,-1.1,0,0,1024,1024,1024,1024,0,0,0,0,0,0,0,94,4.024,4.036,0,0,0,0,0.576,66.02,721.21394696336,0.0,11,AutoTakeoff,,0.0
1900,2026-01-07 12:28:02,,,721.21394696336,0.328084,0.0,0.20087599068,0.2737943001,16,5,8.14,721.21394696336,0.0,0.0,0.203717854288,0.0,0.0,-0.447388,318.5,0.1,-0.5,0,0,1024,1024,1024,1024,0,0,0,0,0,0,0,94,4.024,4.036,0,0,0,0,0.576,66.02,721.21394696336,0.0,11,AutoTakeoff,,0.0
2000,2026-01-07 12:28:02,,,721.21394696336,0.328084,0.0,0.191884192492,0.291675534268,16,5,8.14,721.21394696336,0.0,0.0,0.203717854288,0.0,0.0,-0.671082,318.5,1.0,0.2,0,0,1024,1073,1024,1024,0,7,0,0,0,0,0,94,4.024,4.036,0,0,0,0,0.576,66.02,721.21394696336,0.0,11,AutoTakeoff,,0.0
2100,2026-01-07 12:28:03,,,721.21394696336,0.656168,0.0,0.179700793152,0.315260508776,16,5,8.14,721.21394696336,0.0,0.0,0.203717854288,0.0,0.0,-0.894776,318.7,1.9,0.9,0,0,1024,1024,1024,1024,0,0,0,0,0,0,0,94,4.024,4.036,0,0,0,0,0.576,66.02,721.21394696336,0.0,11,AutoTakeoff,,0.0
2200,2026-01-07 12:28:03,,,721.54203096336,0.656168,0.0,0.167724414816,0.34559056224,16,5,7.808,721.54203096336,0.328084,0.0,0.203717854288,0.0,0.0,-1.342164,318.8,2.6,0.7,0,0,1024,1024,1024,1024,0,0,0,0,0,0,0,94,3.904,3.904,0,0,0,0,4.379,66.02,721.54203096336,0.328084,11,AutoTakeoff,,0.1
2300,2026-01-07 12:28:03,,,721.87011496336,0.984252,0.0,0.15549049054,0.36562665212,16,5,7.808,721.87011496336,0.656168,0.0,0.203717854288,0.0,0.0,-1.565858,318.8,2.5,0.5,0,0,1024,1024,1024,1024,0,0,0,0,0,0,0,94,3.904,3.904,0,0,0,0,4.379,66.02,721.87011496336,0.656168,11,AutoTakeoff,,0.2
2400,2026-01-07 12:28:03,,,721.87011496336,0.984252,0.223694,0.1380577472,0.38470473672,18,5,7.808,721.87011496336,0.656168,0.223694,0.203717854288,0.223694,0.0,-1.789552,318.9,1.9,3.7,0,0,1024,1024,1024,1024,0,0,0,0,0,0,0,94,3.904,3.904,0,0,0,0,4.379,66.02,721.87011496336,0.656168,11,AutoTakeoff,,0.2
2500,2026-01-07 12:28:03,,,722.19819896336,1.312336,0.223694,0.116868770144,0.4129265224,18,5,7.808,722.19819896336,0.984252,0.223694,0.203717854288,0.223694,0.0,-2.013246,318.6,2.2,-0.4,0,0,1024,1193,1024,1024,0,26,0,0,0,0,0,94,3.904,3.904,0,0,0,0,4.379,66.02,722.19819896336,0.984252,11,AutoTakeoff,,0.3
2600,2026-01-07 12:28:03,,,722.52628296336,1.64042,0.223694,0.05761483124,0.4722277054,18,5,7.808,722.52628296336,1.312336,0.223694,0.203717854288,0.223694,0.0,-2.23694,318.5,2.6,-1.2,0,0,1024,1193,1024,1024,0,26,0,0,0,0,0,94,3.904,3.904,0,0,0,0,4.379,66.02,722.52628296336,1.312336,11,AutoTakeoff,,0.4
2700,2026-01-07 12:28:03,,,722.85436696336,1.968504,0.223694,0.0124262143084,0.51817915044,18,5,7.808,722.85436696336,1.64042,0.223694,0.203717854288,0.223694,0.0,-2.23694,318.5,2.9,-1.4,0,0,1024,1261,1024,1024,0,36,0,0,0,0,0,94,3.904,3.904,0,0,0,0,4.379,66.02,722.85436696336,1.64042,11,AutoTakeoff,,0.5
2800,2026-01-07 12:28:03,,,723.18245096336,2.296588,0.447388,0.0282910442124,0.55703413856,18,5,7.808,723.18245096336,1.968504,0.447388,0.203717854288,0.447388,0.0,-2.23694,318.5,3.2,-1.2,0,0,1024,1261,1024,1024,0,36,0,0,0,0,0,94,3.904,3.904,0,0,0,0,4.379,66.02,723.18245096336,1.968504,11,AutoTakeoff,,0.6
2900,2026-01-07 12:28:03,,,723.51053496336,2.624672,0.447388,0.13046096218,0.65983269828,18,5,7.808,723.51053496336,2.296588,0.447388,0.203717854288,0.447388,0.0,-2.23694,318.8,3.8,4.9,0,0,1024,1024,1024,1024,0,0,0,0,0,0,0,94,3.904,3.904,0,0,0,0,4.379,66.02,723.51053496336,2.296588,11,AutoTakeoff,,0.7
3000,2026-01-07 12:28:04,,,723.83861896336,2.952756,0.447388,0.199298234724,0.72997705748,18,5,7.808,723.83861896336,2.624672,0.447388,0.203717854288,0.447388,0.0,-2.23694,318.9,3.2,9.6,0,0,1024,1024,1024,1024,0,0,0,0,0,0,0,94,3.904,3.904,0,0,0,0,4.379,66.02,723.83861896336,2.624672,6,P-GPS,Home Point updated. RTH altitude adjusted to 500 m (Code: 120852),0.8
3100,2026-01-07 12:28:04,,,724.16670296336,2.952756,0.7158208,0.301316938776,0.83260829436,18,5,7.808,724.16670296336,2.952756,0.7158208,0.301316938776,0.671082,0.223694,-2.013246,318.7,3.2,3.9,0,0,1024,1024,1024,1024,0,0,0,0,0,0,0,94,3.904,3.904,0,0,0,0,4.379,66.02,724.16670296336,2.952756,6,P-GPS,,0.9
3200,2026-01-07 12:28:04,,,724.49478696336,3.28084,1.006623,0.43220801908,0.96471131696,18,5,7.808,724.49478696336,3.28084,1.006623,0.43220801908,0.894776,0.447388,-1.565858,318.4,3.5,-2.1,0,0,1024,1024,1024,1024,0,0,0,0,0,0,0,94,3.904,3.904,0,0,0,0,4.379,66.02,724.49478696336,3.28084,6,P-GPS,,1.0
3300,2026-01-07 12:28:04,,,724.82287096336,3.608924,0.7158208,0.60778545252,1.14030187376,18,5,7.808,724.82287096336,3.608924,1.006623,0.60778545252,0.671082,0.223694,-1.11847,318.4,3.8,-4.4,0,0,1024,1024,1024,1024,0,0,0,0,0,0,0,94,3.904,3.904,0,0,0,0,4.379,66.02,724.82287096336,3.608924,6,P-GPS,,1.1
3400,2026-01-07 12:28:04,,,724.82287096336,3.608924,0.671082,0.7417487114,1.27484256048,18,5,7.795,724.82287096336,3.608924,1.006623,0.7417487114,0.671082,0.0,-0.671082,318.3,3.7,-4.5,0,0,1024,1024,1024,1024,0,0,0,0,0,0,0,94,3.909,3.915,0,0,0,0,5.822,66.02,724.82287096336,3.608924,6,P-GPS,,1.1
3500,2026-01-07 12:28:04,,,724.82287096336,3.608924,0.447388,0.82978021028,1.365075503,18,5,7.795,724.82287096336,3.608924,1.006623,0.82978021028,0.447388,0.0,-0.223694,318.3,3.6,-3.5,0,0,1024,1024,1024,1024,0,0,0,0,0,0,0,94,3.909,3.915,0,0,0,0,5.822,66.02,724.82287096336,3.608924,6,P-GPS,,1.1
3600,2026-01-07 12:28:04,,,724.82287096336,3.937008,0.447388,0.89434386064,1.43932747388,18,5,7.795,724.82287096336,3.608924,1.006623,0.89434386064,0.447388,0.0,0.0,318.3,3.5,-2.4,0,0,1024,1024,1024,1024,0,0,0,0,0,0,0,94,3.909,3.915,0,0,0,0,5.822,66.02,724.82287096336,3.608924,6,P-GPS,,1.1
3700,2026-01-07 12:28:04,,,724.82287096336,3.937008,0.3131716,0.86242784912,1.61939637728,18,5,7.795,724.82287096336,3.608924,1.006623,0.89434386064,0.223694,-0.223694,0.0,318.5,3.6,-1.6,0,0,1024,1024,1024,1024,0,0,0,0,0,0,0,94,3.909,3.915,0,0,0,0,5.822,66.02,724.82287096336,3.608924,6,P-GPS,,1.1
3800,2026-01-07 12:28:04,,,724.82287096336,3.937008,0.4921268,0.87208336124,1.6446358794,18,5,7.795,724.82287096336,3.608924,1.006623,0.89434386064,0.223694,-0.447388,0.0,318.5,3.9,-0.6,0,0,1024,1024,1024,1024,0,0,0,0,0,0,0,94,3.909,3.915,0,0,0,0,5.822,66.02,724.82287096336,3.608924,6,P-GPS,,1.1
3900,2026-01-07 12:28:04,,,724.82287096336,3.937008,0.447388,0.86830055272,1.65648627348,18,5,7.795,724.82287096336,3.608924,1.006623,0.89434386064,0.0,-0.447388,0.0,318.5,4.2,-0.2,0,0,1024,1024,1024,1024,0,0,0,0,0,0,0,94,3.909,3.915,0,0,0,0,5.822,66.02,724.82287096336,3.608924,6,P-GPS,,1.1
4000,2026-01-07 12:28:05,,,724.82287096336,3.937008,0.447388,0.8601378228,1.68952433228,18,5,7.795,724.82287096336,3.608924,1.006623,0.89434386064,0.0,-0.447388,0.0,318.6,4.1,0.0,0,0,1024,1024,1024,1024,0,0,0,0,0,0,0,94,3.909,3.915,0,0,0,0,5.822,66.02,724.82287096336,3.608924,6,P-GPS,,1.1
4100,2026-01-07 12:28:05,,,724.82287096336,3.937008,0.447388,0.85622049984,1.74030845464,18,5,7.795,724.82287096336,3.608924,1.006623,0.89434386064,0.0,-0.447388,0.0,318.6,4.6,0.5,0,0,1024,1024,1024,1024,0,0,0,0,0,0,0,94,3.909,3.915,0,0,0,0,5.822,66.02,724.82287096336,3.608924,6,P-GPS,,1.1
4200,2026-01-07 12:28:05,,,724.82287096336,4.265092,0.223694,0.81890750652,1.94785767388,17,5,7.795,724.82287096336,3.608924,1.006623,0.89434386064,0.0,-0.223694,0.0,318.7,4.4,1.4,0,0,1024,1024,1024,1024,0,0,0,0,0,0,0,94,3.909,3.915,0,0,0,0,5.822,66.02,724.82287096336,3.608924,6,P-GPS,,1.1
4300,2026-01-07 12:28:05,,,724.82287096336,4.265092,0.223694,0.85903546056,2.01193247908,17,5,7.795,724.82287096336,3.608924,1.006623,0.89434386064,0.0,-0.223694,0.0,318.7,4.4,1.5,0,0,1024,1024,1204,1024,0,0,27,0,0,0,0,94,3.909,3.915,0,0,0,0,5.822,66.02,724.82287096336,3.608924,6,P-GPS,,1.1
4400,2026-01-07 12:28:05,,,724.82287096336,4.593176,0.223694,0.91881236536,2.08446857064,17,5,7.795,724.82287096336,3.608924,1.006623,0.91881236536,0.0,-0.223694,0.0,318.7,4.3,1.2,0,0,1024,1024,1441,1024,0,0,63,0,0,0,0,94,3.909,3.915,0,0,0,0,5.822,66.02,724.82287096336,3.608924,6,P-GPS,,1.1
4500,2026-01-07 12:28:05,,,724.82287096336,4.593176,0.0,0.9803642046,2.1533465256,17,5,7.823,724.82287096336,3.608924,1.006623,0.9803642046,0.0,0.0,0.0,318.7,4.3,1.1,0,0,1024,1024,1526,1024,0,0,76,0,0,0,0,94,3.914,3.908,0,0,0,0,4.912,66.02,724.82287096336,3.608924,6,P-GPS,,1.1
4600,2026-01-07 12:28:05,,,724.82287096336,4.593176,0.0,1.13928153252,2.349573566,17,5,7.823,724.82287096336,3.608924,1.006623,1.13928153252,0.0,0.0,0.0,318.7,4.0,1.0,0,0,1024,1024,1526,1024,0,0,76,0,0,0,0,94,3.914,3.908,0,0,0,0,4.912,66.02,724.82287096336,3.608924,6,P-GPS,,1.1
4700,2026-01-07 12:28:05,,,724.82287096336,4.593176,0.0,1.19691932964,2.40730650748,17,5,7.823,724.82287096336,3.608924,1.006623,1.19691932964,0.0,0.0,-0.223694,318.6,4.0,0.5,0,0,1024,1024,1532,1024,0,0,77,0,0,0,0,94,3.914,3.908,0,0,0,0,4.912,66.02,724.82287096336,3.608924,6,P-GPS,,1.1
4800,2026-01-07 12:28:05,,,724.82287096336,4.92126,0.0,1.25036749408,2.46321858276,17,5,7.823,724.82287096336,3.608924,1.006623,1.25036749408,0.0,0.0,-0.894776,318.7,4.4,0.9,0,0,1024,1024,1532,1024,0,0,77,0,0,0,0,94,3.914,3.908,0,0,0,0,4.912,66.02,724.82287096336,3.608924,6,P-GPS,,1.1
4900,2026-01-07 12:28:05,,,725.15095496336,5.249344,0.0,1.29254925396,2.5060532298,17,5,7.823,725.15095496336,3.937008,1.006623,1.29254925396,0.0,0.0,-1.565858,318.7,4.5,0.9,0,0,1024,1024,1532,1024,0,0,77,0,0,0,0,94,3.914,3.908,0,0,0,0,4.912,66.02,725.15095496336,3.937008,6,P-GPS,,1.2
5000,2026-01-07 12:28:06,,,725.47903896336,5.577428,0.0,1.30621395256,2.52161097308,17,5,7.823,725.47903896336,4.265092,1.006623,1.30621395256,0.0,0.0,-2.23694,318.8,4.2,1.0,0,0,1024,1024,1532,1024,0,0,77,0,0,0,0,94,3.914,3.908,0,0,0,0,4.912,66.02,725.47903896336,4.265092,6,P-GPS,,1.3
5100,2026-01-07 12:28:06,,,725.80712296336,5.905512,0.0,1.33738849424,2.55338918932,17,5,7.823,725.80712296336,4.593176,1.006623,1.33738849424,0.0,0.0,-2.684328,318.7,4.1,1.1,0,0,1024,1024,1532,1024,0,0,77,0,0,0,0,94,3.914,3.908,0,0,0,0,4.912,66.02,725.80712296336,4.593176,6,P-GPS,,1.4
5200,2026-01-07 12:28:06,,,726.13520696336,6.233596,0.0,1.37021657928,2.58752632952,18,5,7.823,726.13520696336,4.92126,1.006623,1.37021657928,0.0,0.0,-2.908022,318.7,4.3,0.9,0,0,1024,1024,1532,1024,0,0,77,0,0,0,0,94,3.914,3.908,0,0,0,0,4.912,66.02,726.13520696336,4.92126,6,P-GPS,,1.5
5300,2026-01-07 12:28:06,,,726.79137496336,6.56168,0.0,1.39161093692,2.61471793144,18,5,7.823,726.79137496336,5.577428,1.006623,1.39161093692,0.0,0.0,-3.131716,318.8,4.1,0.6,0,0,1024,1024,1532,1024,0,0,77,0,0,0,0,94,3.914,3.908,0,0,0,0,4.912,66.02,726.79137496336,5.577428,6,P-GPS,,1.7
5400,2026-01-07 12:28:06,,,727.11945896336,7.217848,0.0,1.3386811452,2.66898302504,18,5,7.823,727.11945896336,5.905512,1.006623,1.39161093692,0.0,0.0,-3.131716,318.7,4.1,0.4,0,0,1024,1024,1527,1024,0,0,76,0,0,0,0,94,3.914,3.908,0,0,0,0,4.912,66.02,727.11945896336,5.905512,6,P-GPS,,1.8
5500,2026-01-07 12:28:06,,,727.44754296336,7.545932,0.0,1.35223429524,2.68506242188,18,5,7.823,727.44754296336,6.233596,1.006623,1.39161093692,0.0,0.0,-3.131716,318.7,4.3,0.8,0,0,1024,1024,1527,1024,0,0,76,0,0,0,0,94,3.914,3.908,0,0,0,0,4.912,66.02,727.44754296336,6.233596,6,P-GPS,,1.9
5600,2026-01-07 12:28:06,,,727.77562696336,7.874016,0.0,1.36705384952,2.69989509952,18,5,7.751,727.77562696336,6.56168,1.006623,1.39161093692,0.0,0.0,-2.908022,318.7,4.7,1.1,0,0,1024,1024,1527,1024,0,0,76,0,0,0,0,94,3.896,3.89,0,0,0,0,6.257,66.02,727.77562696336,6.56168,6,P-GPS,,2.0
5700,2026-01-07 12:28:06,,,728.43179496336,8.530184,0.0,1.39300529392,2.73445874892,18,5,7.751,728.43179496336,7.217848,1.006623,1.39300529392,0.0,0.0,-2.908022,318.7,5.1,1.0,0,0,1024,1024,1529,1024,0,0,77,0,0,0,0,94,3.896,3.89,0,0,0,0,6.257,66.02,728.43179496336,7.217848,6,P-GPS,,2.2
5800,2026-01-07 12:28:06,,,728.75987896336,8.858268,0.0,1.42956697488,2.78151583704,18,5,7.751,728.75987896336,7.545932,1.006623,1.42956697488,0.0,0.0,-2.908022,318.7,5.2,1.1,0,0,1024,1024,1531,1024,0,0,77,0,0,0,0,94,3.896,3.89,0,0,0,0,6.257,66.02,728.75987896336,7.545932,6,P-GPS,,2.3
5900,2026-01-07 12:28:06,,,729.08796296336,9.186352,0.0,1.45599742192,2.8982776518,18,5,7.751,729.08796296336,7.874016,1.006623,1.45599742192,0.0,0.0,-2.908022,318.7,6.0,1.2,0,0,1024,1024,1532,1024,0,0,77,0,0,0,0,94,3.896,3.89,0,0,0,0,6.257,66.02,729.08796296336,7.874016,6,P-GPS,,2.4
6000,2026-01-07 12:28:07,,,729.74413096336,9.514436,0.0,1.52727039008,2.97294628936,18,5,7.751,729.74413096336,8.530184,1.006623,1.52727039008,0.0,0.0,-2.908022,318.7,5.6,1.0,0,0,1024,1024,1534,1024,0,0,77,0,0,0,0,94,3.896,3.89,0,0,0,0,6.257,66.02,729.74413096336,8.530184,6,P-GPS,,2.6
6100,2026-01-07 12:28:07,,,730.07221496336,10.170604,0.0,1.57557091656,3.05733605584,18,5,7.751,730.07221496336,8.858268,1.006623,1.57557091656,0.0,0.0,-2.908022,318.8,6.3,1.0,0,0,1024,1024,1534,1024,0,0,77,0,0,0,0,94,3.896,3.89,0,0,0,0,6.257,66.02,730.07221496336,8.858268,6,P-GPS,,2.7
6200,2026-01-07 12:28:07,,,730.72838296336,10.498688,0.0,1.61601383124,3.1688157182,18,5,7.751,730.72838296336,9.514436,1.006623,1.61601383124,0.0,0.0,-2.908022,318.8,7.2,0.9,0,0,1024,1024,1534,1024,0,0,77,0,0,0,0,94,3.896,3.89,0,0,0,0,6.257,66.02,730.72838296336,9.514436,6,P-GPS,,2.9
6300,2026-01-07 12:28:07,,,731.05646696336,10.826772,0.0,1.64450136496,3.23919629788,18,5,7.751,731.05646696336,9.84252,1.006623,1.64450136496,0.0,0.0,-2.908022,318.7,7.1,0.9,0,0,1024,1024,1567,1024,0,0,82,0,0,0,0,94,3.896,3.89,0,0,0,0,6.257,66.02,731.05646696336,9.84252,6,P-GPS,,3.0
6400,2026-01-07 12:28:07,,,731.38455096336,11.154856,0.0,1.66956370172,3.26431440892,18,5,7.751,731.38455096336,10.170604,1.006623,1.66956370172,0.0,0.0,-2.908022,318.7,6.7,1.1,0,0,1024,1024,1567,1024,0,0,82,0,0,0,0,94,3.896,3.89,0,0,0,0,6.257,66.02,731.38455096336,10.170604,6,P-GPS,,3.1
6500,2026-01-07 12:28:07,,,732.04071896336,11.811024,0.0,1.68022971256,3.2749837006,18,5,7.751,732.04071896336,10.826772,1.006623,1.68022971256,0.0,0.0,-2.908022,318.7,6.7,0.9,0,0,1024,1024,1573,1024,0,0,83,0,0,0,0,94,3.896,3.89,0,0,0,0,6.257,66.02,732.04071896336,10.826772,6,P-GPS,,3.3
6600,2026-01-07 12:28:07,,,732.36880296336,12.139108,0.0,1.68355320348,3.28066939632,18,5,7.751,732.36880296336,11.154856,1.006623,1.68355320348,0.0,0.0,-3.131716,318.7,6.6,0.9,0,0,1024,1024,1574,1024,0,0,83,0,0,0,0,94,3.896,3.89,0,0,0,0,6.257,66.02,732.36880296336,11.154856,6,P-GPS,,3.4
6700,2026-01-07 12:28:07,,,732.69688696336,12.467192,0.0,1.60894362104,3.3703413152,18,5,7.77,732.69688696336,11.48294,1.006623,1.68355320348,0.0,0.0,-3.131716,318.8,6.2,1.1,0,0,1024,1024,1577,1024,0,0,84,0,0,0,0,94,3.89,3.88,0,0,0,0,5.605,66.02,732.69688696336,11.48294,6,P-GPS,,3.5
6800,2026-01-07 12:28:07,,,733.35305496336,12.795276,0.0,1.61245411984,3.4209974848,18,5,7.77,733.35305496336,12.139108,1.006623,1.68355320348,0.0,0.0,-3.35541,318.9,6.5,1.2,0,0,1024,1024,1579,1024,0,0,84,0,0,0,0,94,3.89,3.88,0,0,0,0,5.605,66.02,733.35305496336,12.139108,6,P-GPS,,3.7
6900,2026-01-07 12:28:07,,,733.68113896336,13.451444,0.0,1.61014768932,3.4645014232,18,5,7.77,733.68113896336,12.467192,1.006623,1.68355320348,0.0,0.0,-3.35541,318.9,7.0,1.2,0,0,1024,1024,1582,1024,0,0,85,0,0,0,0,94,3.89,3.88,0,0,0,0,5.605,66.02,733.68113896336,12.467192,6,P-GPS,,3.8
7000,2026-01-07 12:28:07,,,734.33730696336,13.779528,0.0,1.60669624564,3.5077757028,18,5,7.77,734.33730696336,13.12336,1.006623,1.68355320348,0.0,0.0,-3.35541,318.9,7.6,1.4,0,0,1024,1024,1615,1024,0,0,90,0,0,0,0,94,3.89,3.88,0,0,0,0,5.605,66.02,734.33730696336,13.12336,6,P-GPS,,4.0
7100,2026-01-07 12:28:08,,,734.99347496336,14.435696,0.0,1.53930123036,3.5768045764,18,5,7.77,734.99347496336,13.779528,1.006623,1.68355320348,0.0,0.0,-3.35541,318.8,8.2,0.9,0,0,1024,1024,1615,1024,0,0,90,0,0,0,0,94,3.89,3.88,0,0,0,0,5.605,66.02,734.99347496336,13.779528,6,P-GPS,,4.2
7200,2026-01-07 12:28:08,,,735.32155896336,14.76378,0.0,1.53627957672,3.60564316,18,5,7.77,735.32155896336,14.107612,1.006623,1.68355320348,0.0,0.0,-3.35541,318.9,8.0,1.2,0,0,1024,1024,1684,1024,0,0,100,0,0,0,0,94,3.89,3.88,0,0,0,0,5.605,66.02,735.32155896336,14.107612,6,P-GPS,,4.3
7300,2026-01-07 12:28:08,,,735.97772696336,15.419948,0.0,1.53629270008,3.6320211136,18,5,7.77,735.97772696336,14.76378,1.006623,1.68355320348,0.0,0.0,-3.35541,319.0,7.3,1.3,0,0,1024,1024,1684,1024,0,0,100,0,0,0,0,94,3.89,3.88,0,0,0,0,5.605,66.02,735.97772696336,14.76378,6,P-GPS,,4.5
7400,2026-01-07 12:28:08,,,736.30581096336,15.748032,0.0,1.54205713596,3.6648295136,18,5,7.77,736.30581096336,15.091864,1.006623,1.68355320348,0.0,0.0,-3.579104,319.3,7.4,0.7,0,0,1024,1024,1684,1024,0,0,100,0,0,0,0,94,3.89,3.88,0,0,0,0,5.605,66.02,736.30581096336,15.091864,6,P-GPS,,4.6
7500,2026-01-07 12:28:08,,,736.96197896336,16.4042,0.223694,1.54502301532,3.6953413256,18,5,7.77,736.96197896336,15.748032,1.006623,1.68355320348,0.0,0.223694,-4.026492,319.4,6.9,0.3,0,0,1024,1024,1684,1024,0,0,100,0,0,0,0,94,3.89,3.88,0,0,0,0,5.605,66.02,736.96197896336,15.748032,6,P-GPS,,4.8
7600,2026-01-07 12:28:08,,,737.61814696336,17.060368,0.0,1.52419296216,3.7669292544,18,5,7.77,737.61814696336,16.4042,1.006623,1.68355320348,0.0,0.0,-4.250186,319.3,5.8,0.5,0,0,1024,1024,1684,1024,0,0,100,0,0,0,0,94,3.89,3.88,0,0,0,0,5.605,66.02,737.61814696336,16.4042,6,P-GPS,,5.0
7700,2026-01-07 12:28:08,,,738.27431496336,17.716536,0.0,1.50373036308,3.7994423788,18,5,7.77,738.27431496336,17.060368,1.006623,1.68355320348,0.0,0.0,-4.47388,319.3,7.2,0.1,0,0,1024,1024,1684,1024,0,0,100,0,0,0,0,94,3.89,3.88,0,0,0,0,5.605,66.02,738.27431496336,17.060368,6,P-GPS,,5.2
7800,2026-01-07 12:28:08,,,738.93048296336,18.700788,0.0,1.47254925972,3.840059178,18,5,7.695,738.93048296336,17.716536,1.006623,1.68355320348,0.0,0.0,-4.250186,319.4,7.6,-0.3,0,0,1024,1024,1684,1024,0,0,100,0,0,0,0,94,3.878,3.87,0,0,0,0,6.182,66.02,738.93048296336,17.716536,6,P-GPS,,5.4
7900,2026-01-07 12:28:08,,,739.58665096336,19.356956,0.0,1.4304134316,3.8949148228,18,5,7.695,739.58665096336,18.372704,1.006623,1.68355320348,0.0,0.0,-4.250186,319.4,7.5,-0.4,0,0,1024,1024,1684,1024,0,0,100,0,0,0,0,94,3.878,3.87,0,0,0,0,6.182,66.02,739.58665096336,18.372704,6,P-GPS,,5.6
8000,2026-01-07 12:28:09,,,740.24281896336,20.013124,0.0,1.23165030188,4.0937009184,18,5,7.695,740.24281896336,19.028872,1.006623,1.68355320348,0.0,0.0,-4.250186,319.3,7.7,-0.3,0,0,1024,1024,1684,1024,0,0,100,0,0,0,0,94,3.878,3.87,0,0,0,0,6.182,66.02,740.24281896336,19.028872,6,P-GPS,,5.8
8100,2026-01-07 12:28:09,,,740.89898696336,20.997376,0.0,1.1970308782,4.1315946204,18,5,7.695,740.89898696336,19.68504,1.006623,1.68355320348,0.0,0.0,-4.250186,319.4,7.9,-0.3,0,0,1024,1024,1684,1024,0,0,100,0,0,0,0,94,3.878,3.87,0,0,0,0,6.182,66.02,740.89898696336,19.68504,6,P-GPS,,6.0
8200,2026-01-07 12:28:09,,,741.55515496336,21.653544,0.0,1.17016407944,4.1584647,18,5,7.695,741.55515496336,20.341208,1.006623,1.68355320348,0.0,0.0,-4.250186,319.4,8.1,-0.2,0,0,1024,1024,1684,1024,0,0,100,0,0,0,0,94,3.878,3.87,0,0,0,0,6.182,66.02,741.55515496336,20.341208,6,P-GPS,,6.2
8300,2026-01-07 12:28:09,,,742.21132296336,22.309712,0.0,1.12354334304,4.2051510532,18,5,7.695,742.21132296336,20.997376,1.006623,1.68355320348,0.0,0.0,-4.47388,319.4,8.5,0.0,0,0,1024,1024,1684,1024,0,0,100,0,0,0,0,94,3.878,3.87,0,0,0,0,6.182,66.02,742.21132296336,20.997376,6,P-GPS,,6.4
8400,2026-01-07 12:28:09,,,742.86749096336,22.96588,0.0,1.00804137084,4.3537731052,18,5,7.695,742.86749096336,21.653544,1.006623,1.68355320348,0.0,0.0,-4.47388,319.5,8.8,0.2,0,0,1024,1024,1684,1024,0,0,100,0,0,0,0,94,3.878,3.87,0,0,0,0,6.182,66.02,742.86749096336,21.653544,6,P-GPS,,6.6
8500,2026-01-07 12:28:09,,,743.52365896336,23.622048,0.0,0.97610239344,4.3877626076,18,5,7.695,743.52365896336,22.309712,1.006623,1.68355320348,0.0,0.0,-4.47388,319.6,9.1,0.5,0,0,1024,1024,1684,1024,0,0,100,0,0,0,0,94,3.878,3.87,0,0,0,0,6.182,66.02,743.52365896336,22.309712,6,P-GPS,,6.8
8600,2026-01-07 12:28:09,,,744.17982696336,24.6063,0.0,0.95881892832,4.4093177264,18,5,7.695,744.17982696336,22.96588,1.006623,1.68355320348,0.0,0.0,-4.250186,319.6,9.2,0.4,0,0,1024,1024,1684,1024,0,0,100,0,0,0,0,94,3.878,3.87,0,0,0,0,6.182,66.02,744.17982696336,22.96588,6,P-GPS,,7.0
8700,2026-01-07 12:28:09,,,744.83599496336,25.262468,0.0,0.92913060716,4.4515093288,18,5,7.695,744.83599496336,23.622048,1.006623,1.68355320348,0.0,0.0,-4.250186,319.6,8.9,0.3,0,0,1024,1024,1684,1024,0,0,100,0,0,0,0,94,3.878,3.87,0,0,0,0,6.182,66.02,744.83599496336,23.622048,6,P-GPS,,7.2
8800,2026-01-07 12:28:09,,,745.49216296336,25.918636,0.0,0.916830738,4.5364830848,18,5,7.695,745.49216296336,24.278216,1.006623,1.68355320348,0.0,0.0,-4.250186,319.6,8.7,0.3,0,0,1024,1024,1684,1024,0,0,100,0,0,0,0,94,3.878,3.87,0,0,0,0,6.182,66.02,745.49216296336,24.278216,6,P-GPS,,7.4
8900,2026-01-07 12:28:09,,,746.14833096336,26.574804,0.0,0.87987863708,4.5977363676,18,5,7.718,746.14833096336,24.934384,1.006623,1.68355320348,0.0,0.0,-4.47388,319.6,8.8,0.7,0,0,1024,1024,1684,1024,0,0,100,0,0,0,0,94,3.86,3.859,0,0,0,0,6.226,66.2,746.14833096336,24.934384,6,P-GPS,,7.6
9000,2026-01-07 12:28:09,,,746.80449896336,27.559056,0.0,0.84104661484,4.6573820388,18,5,7.718,746.80449896336,25.590552,1.006623,1.68355320348,0.0,0.0,-4.47388,319.7,8.8,0.8,0,0,1024,1024,1684,1024,0,0,100,0,0,0,0,94,3.86,3.859,0,0,0,0,6.226,66.2,746.80449896336,25.590552,6,P-GPS,,7.8
9100,2026-01-07 12:28:10,,,747.46066696336,28.215224,0.0,0.8158464828,4.697014586,18,5,7.718,747.46066696336,26.24672,1.006623,1.68355320348,0.0,0.0,-4.47388,319.7,8.7,0.7,0,0,1024,1024,1684,1024,0,0,100,0,0,0,0,94,3.86,3.859,0,0,0,0,6.226,66.2,747.46066696336,26.24672,6,P-GPS,,8.0
9200,2026-01-07 12:28:10,,,748.11683496336,28.871392,0.0,0.797490183,4.7282481828,18,5,7.718,748.11683496336,26.902888,1.006623,1.68355320348,0.0,0.0,-4.47388,319.7,8.6,0.7,0,0,1024,1024,1684,1024,0,0,100,0,0,0,0,94,3.86,3.859,0,0,0,0,6.226,66.2,748.11683496336,26.902888,6,P-GPS,,8.2
9300,2026-01-07 12:28:10,,,748.77300296336,29.52756,0.0,0.782972466,4.7597442468,18,5,7.718,748.77300296336,27.559056,1.006623,1.68355320348,0.0,0.0,-4.250186,319.7,8.8,1.0,0,0,1024,1024,1684,1024,0,0,100,0,0,0,0,94,3.86,3.859,0,0,0,0,6.226,66.2,748.77300296336,27.559056,6,P-GPS,,8.4
9400,2026-01-07 12:28:10,,,749.42917096336,30.183728,0.0,0.78096131108,4.782152384,18,5,7.718,749.42917096336,28.215224,1.006623,1.68355320348,0.0,0.0,-4.250186,319.7,8.6,0.8,0,0,1024,1024,1684,1024,0,0,100,0,0,0,0,94,3.86,3.859,0,0,0,0,6.226,66.2,749.42917096336,28.215224,6,P-GPS,,8.6
9500,2026-01-07 12:28:10,,,750.08533896336,30.839896,0.0,0.7655348014,4.8156825688,18,5,7.718,750.08533896336,28.871392,1.006623,1.68355320348,0.0,0.0,-4.250186,319.8,8.7,0.7,0,0,1024,1024,1684,1024,0,0,100,0,0,0,0,94,3.86,3.859,0,0,0,0,6.226,66.2,750.08533896336,28.871392,6,P-GPS,,8.8
9600,2026-01-07 12:28:10,,,750.74150696336,31.824148,0.0,0.7422736458,4.8611878196,18,5,7.718,750.74150696336,29.52756,1.006623,1.68355320348,0.0,0.0,-4.250186,319.8,8.7,0.8,0,0,1024,1024,1684,1024,0,0,100,0,0,0,0,94,3.86,3.859,0,0,0,0,6.226,66.2,750.74150696336,29.52756,6,P-GPS,,9.0
9700,2026-01-07 12:28:10,,,751.39767496336,32.480316,0.0,0.62552167356,5.0417980616,18,5,7.718,751.39767496336,30.183728,1.006623,1.68355320348,0.0,0.0,-4.47388,319.9,8.8,1.2,0,0,1024,1024,1684,1024,0,0,100,0,0,0,0,94,3.86,3.859,0,0,0,0,6.226,66.2,751.39767496336,30.183728,6,P-GPS,,9.2
9800,2026-01-07 12:28:10,,,752.05384296336,33.136484,0.0,0.5772966064,5.09514452,18,5,7.718,752.05384296336,30.839896,1.006623,1.68355320348,0.0,0.0,-4.47388,319.9,8.8,1.0,0,0,1024,1024,1684,1024,0,0,100,0,0,0,0,94,3.86,3.859,0,0,0,0,6.226,66.2,752.05384296336,30.839896,6,P-GPS,,9.4
9900,2026-01-07 12:28:10,,,752.71001096336,33.792652,0.0,0.54019358684,5.1344817916,18,5,7.718,752.71001096336,31.496064,1.006623,1.68355320348,0.0,0.0,-4.47388,319.9,8.7,0.8,0,0,1024,1024,1684,1024,0,0,100,0,0,0,0,94,3.86,3.859,0,0,0,0,6.226,66.2,752.71001096336,31.496064,6,P-GPS,,9.6
10000,2026-01-07 12:28:11,,,753.36617896336,34.44882,0.0,0.50937337588,5.1655841548,18,5,7.718,753.36617896336,32.152232,1.006623,1.68355320348,0.0,0.0,-4.250186,319.9,9.0,0.6,0,0,1024,1024,1684,1024,0,0,100,0,0,0,0,94,3.863,3.858,0,0,0,0,6.226,66.2,753.36617896336,32.152232,6,P-GPS,,9.8
10100,2026-01-07 12:28:11,,,754.02234696336,35.104988,0.0,0.47627626196,5.1986878304,18,5,7.718,754.02234696336,32.8084,1.006623,1.68355320348,0.0,0.0,-4.250186,319.9,8.7,0.7,0,0,1024,1024,1684,1024,0,0,100,0,0,0,0,94,3.863,3.858,0,0,0,0,6.226,66.2,754.02234696336,32.8084,6,P-GPS,,10.0
10200,2026-01-07 12:28:11,,,754.67851496336,35.761156,0.0,0.46358925368,5.2375657844,18,5,7.718,754.67851496336,33.464568,1.006623,1.68355320348,0.0,0.0,-4.250186,319.9,8.6,0.6,0,0,1024,1024,1684,1024,0,0,100,0,0,0,0,94,3.863,3.858,0,0,0,0,6.226,66.2,754.67851496336,33.464568,6,P-GPS,,10.2
10300,2026-01-07 12:28:11,,,755.33468296336,36.417324,0.0,0.44384515856,5.2840552872,18,5,7.718,755.33468296336,34.120736,1.006623,1.68355320348,0.0,0.0,-4.250186,319.9,8.7,0.5,0,0,1024,1024,1684,1024,0,0,100,0,0,0,0,94,3.863,3.858,0,0,0,0,6.226,66.2,755.33468296336,34.120736,6,P-GPS,,10.4
10400,2026-01-07 12:28:11,,,755.99085096336,37.073492,0.0,0.42223754632,5.3391733992,18,5,7.718,755.99085096336,34.776904,1.006623,1.68355320348,0.0,0.0,-4.250186,319.9,8.6,0.3,0,0,1024,1024,1564,1024,0,0,82,0,0,0,0,94,3.863,3.858,0,0,0,0,6.226,66.2,755.99085096336,34.776904,6,P-GPS,,10.6
10500,2026-01-07 12:28:11,,,756.64701896336,37.72966,0.0,0.48960303404,5.5223426964,18,5,7.718,756.64701896336,35.433072,1.006623,1.68355320348,0.0,0.0,-4.250186,319.9,8.6,0.3,0,0,1024,1024,1024,1024,0,0,0,0,0,0,0,94,3.863,3.858,0,0,0,0,6.226,66.2,756.64701896336,35.433072,6,P-GPS,,10.8
10600,2026-01-07 12:28:11,,,757.30318696336,38.385828,0.0,0.55357941404,5.6179135656,18,5,7.718,757.30318696336,36.08924,1.006623,1.68355320348,0.0,0.0,-4.47388,319.9,8.5,0.3,0,0,1024,1024,1024,1024,0,0,0,0,0,0,0,94,3.863,3.858,0,0,0,0,6.226,66.2,757.30318696336,36.08924,6,P-GPS,,11.0
10700,2026-01-07 12:28:11,,,757.95935496336,39.041996,0.0,0.58275592416,5.6710303652,18,5,7.718,757.95935496336,36.745408,1.006623,1.68355320348,0.0,0.0,-4.250186,320.0,8.6,0.4,0,0,1024,1024,1024,1024,0,0,0,0,0,0,0,94,3.863,3.858,0,0,0,0,6.226,66.2,757.95935496336,36.745408,6,P-GPS,,11.2
10800,2026-01-07 12:28:11,,,758.28743896336,39.698164,0.0,0.5880741658,5.7037731484,18,5,7.718,758.28743896336,37.073492,1.006623,1.68355320348,0.0,0.0,-3.579104,320.0,9.1,0.4,0,0,1024,1024,1024,1024,0,0,0,0,0,0,0,94,3.863,3.858,0,0,0,0,6.226,66.2,758.28743896336,37.073492,6,P-GPS,,11.3
10900,2026-01-07 12:28:11,,,758.94360696336,39.698164,0.0,0.57784122584,5.7307088448,18,5,7.718,758.94360696336,37.72966,1.006623,1.68355320348,0.0,0.0,-2.908022,320.0,9.2,0.6,0,0,1024,1024,1024,1024,0,0,0,0,0,0,0,94,3.863,3.858,0,0,0,0,6.226,66.2,758.94360696336,37.72966,6,P-GPS,,11.5
11000,2026-01-07 12:28:11,,,759.27169096336,39.698164,0.0,0.44753610356,5.8613190852,18,5,7.718,759.27169096336,38.057744,1.006623,1.68355320348,0.0,0.0,-2.23694,320.0,9.5,0.7,0,0,1024,1024,1024,1024,0,0,0,0,0,0,0,94,3.863,3.858,0,0,0,0,6.226,66.2,759.27169096336,38.057744,6,P-GPS,,11.6
11100,2026-01-07 12:28:12,,,759.27169096336,39.698164,0.0,0.4311187802,5.8788715792,18,5,7.721,759.27169096336,38.057744,1.006623,1.68355320348,0.0,0.0,-1.342164,320.0,9.6,0.5,0,0,1024,1024,1024,1024,0,0,0,0,0,0,0,94,3.943,3.941,0,0,0,0,6.251,66.2,759.27169096336,38.057744,6,P-GPS,,11.6
11200,2026-01-07 12:28:12,,,759.59977496336,39.698164,0.0,0.41206694232,5.8979988764,18,5,7.721,759.59977496336,38.385828,1.006623,1.68355320348,0.0,0.0,-0.671082,320.0,9.5,0.5,0,0,1024,1024,1024,1024,0,0,0,0,0,0,0,94,3.943,3.941,0,0,0,0,6.251,66.2,759.59977496336,38.385828,6,P-GPS,,11.7
11300,2026-01-07 12:28:12,,,759.59977496336,39.698164,0.0,0.38514436928,5.9262141004,18,5,7.721,759.59977496336,38.385828,1.006623,1.68355320348,0.0,0.0,-0.223694,320.0,9.3,0.5,0,0,1024,1024,1024,1024,0,0,0,0,0,0,0,94,3.943,3.941,0,0,0,0,6.251,66.2,759.59977496336,38.385828,6,P-GPS,SD card speed low. Normal use may be affected. Replace SD card (Code: 10028). Gimbal stuck. Make sure gimbal cover is removed and manually check whether gimbal can rotate freely (Code: 40002),11.7
11400,2026-01-07 12:28:12,,,759.59977496336,39.698164,0.0,0.253900598676,6.0580054432,18,5,7.721,759.59977496336,38.385828,1.006623,1.68355320348,0.0,0.0,-0.223694,320.0,9.3,0.8,0,0,1024,1024,1024,1024,0,0,0,0,0,0,0,94,3.943,3.941,0,0,0,0,6.251,66.2,759.59977496336,38.385828,6,P-GPS,,11.7
11500,2026-01-07 12:28:12,,,759.59977496336,39.698164,0.0,0.23727691048,6.0838912708,18,5,7.721,759.59977496336,38.385828,1.006623,1.68355320348,0.0,0.0,0.0,320.0,9.1,0.8,0,0,1024,1024,1024,1024,0,0,0,0,0,0,0,94,3.943,3.941,0,0,0,0,6.251,66.2,759.59977496336,38.385828,6,P-GPS,,11.7
11600,2026-01-07 12:28:12,,,759.59977496336,39.698164,0.0,0.23427822272,6.1086288044,18,5,7.721,759.59977496336,38.385828,1.006623,1.68355320348,0.0,0.0,0.0,320.0,8.8,0.7,0,0,1024,1024,1024,1024,0,0,0,0,0,0,0,94,3.943,3.941,0,0,0,0,6.251,66.2,759.59977496336,38.385828,6,P-GPS,,11.7
11700,2026-01-07 12:28:12,,,759.59977496336,39.698164,0.0,0.243102369984,6.1375330048,18,5,7.721,759.59977496336,38.385828,1.006623,1.68355320348,0.0,0.0,0.0,320.0,8.7,0.6,0,0,1024,1024,1024,1024,0,0,0,0,0,0,0,94,3.943,3.941,0,0,0,0,6.251,66.2,759.59977496336,38.385828,6,P-GPS,,11.7
11800,2026-01-07 12:28:12,,,759.59977496336,39.698164,0.0,0.269471137232,6.1827757884,18,5,7.721,759.59977496336,38.385828,1.006623,1.68355320348,0.0,0.0,0.0,320.0,8.6,0.9,0,0,1024,1024,1024,1024,0,0,0,0,0,0,0,94,3.943,3.941,0,0,0,0,6.251,66.2,759.59977496336,38.385828,6,P-GPS,,11.7
11900,2026-01-07 12:28:12,,,759.27169096336,39.698164,0.0,0.281435048376,6.2282482308,18,5,7.721,759.59977496336,38.385828,1.006623,1.68355320348,0.0,0.0,0.0,320.0,8.5,1.2,0,0,1024,1024,1024,1024,0,0,0,0,0,0,0,94,3.943,3.941,0,0,0,0,6.251,66.2,759.27169096336,38.057744,6,P-GPS,,11.6
12000,2026-01-07 12:28:13,,,759.27169096336,39.698164,0.0,0.297881243128,6.2842193612,18,5,7.721,759.59977496336,38.385828,1.006623,1.68355320348,0.0,0.0,0.0,320.0,8.5,1.3,0,0,1024,1024,1024,1024,0,0,0,0,0,0,0,94,3.943,3.941,0,0,0,0,6.251,66.2,759.27169096336,38.057744,6,P-GPS,,11.6
12100,2026-01-07 12:28:13,,,759.27169096336,39.698164,0.0,0.32823491864,6.3482285496,18,5,7.721,759.59977496336,38.385828,1.006623,1.68355320348,0.0,0.0,0.0,320.0,8.4,1.4,0,0,1024,1024,1024,1024,0,0,0,0,0,0,0,94,3.943,3.941,0,0,0,0,6.251,66.2,759.27169096336,38.057744,6,P-GPS,,11.6
12200,2026-01-07 12:28:13,,,759.27169096336,39.698164,0.0,0.41496720488,6.5107941716,18,5,7.721,759.59977496336,38.385828,1.006623,1.68355320348,0.0,0.0,0.0,320.0,8.5,1.7,0,0,1024,1024,1024,1024,0,0,0,0,0,0,0,94,3.943,3.941,0,0,0,0,6.251,66.2,759.27169096336,38.057744,6,P-GPS,,11.6
12300,2026-01-07 12:28:13,,,759.27169096336,39.698164,0.0,0.44670933188,6.5549214696,18,5,7.821,759.59977496336,38.385828,1.006623,1.68355320348,0.0,0.0,0.0,320.1,8.4,2.0,0,0,1024,1024,1024,1024,0,0,0,0,0,0,0,94,3.912,3.908,0,0,0,0,4.517,66.2,759.27169096336,38.057744,6,P-GPS,,11.6
12400,2026-01-07 12:28:13,,,759.27169096336,39.698164,0.0,0.46353676024,6.582513334,18,5,7.821,759.59977496336,38.385828,1.006623,1.68355320348,0.0,0.0,0.0,320.1,8.3,1.9,0,0,1024,1024,1024,1024,0,0,0,0,0,0,0,94,3.912,3.908,0,0,0,0,4.517,66.2,759.27169096336,38.057744,6,P-GPS,,11.6
12500,2026-01-07 12:28:13,,,758.94360696336,39.698164,0.0,0.47438977896,6.6098755396,18,5,7.821,759.59977496336,38.385828,1.006623,1.68355320348,0.0,0.0,0.0,319.9,8.0,1.6,0,0,1024,1024,1024,1024,0,0,0,0,0,0,0,94,3.912,3.908,0,0,0,0,4.517,66.2,758.94360696336,37.72966,6,P-GPS,,11.5
12600,2026-01-07 12:28:13,,,758.94360696336,39.698164,0.0,0.48447508112,6.6428479816,18,5,7.821,759.59977496336,38.385828,1.006623,1.68355320348,0.0,0.0,0.0,319.9,7.9,1.7,0,0,1024,1024,1024,1024,0,0,0,0,0,0,0,94,3.912,3.908,0,0,0,0,4.517,66.2,758.94360696336,37.72966,6,P-GPS,,11.5
12700,2026-01-07 12:28:13,,,758.94360696336,39.698164,0.0,0.43008203476,6.7396983784,18,5,7.821,759.59977496336,38.385828,1.006623,1.68355320348,0.0,0.0,0.0,320.0,7.8,2.2,0,0,1024,1024,1024,1024,0,0,0,0,0,0,0,94,3.912,3.908,0,0,0,0,4.517,66.2,758.94360696336,37.72966,6,P-GPS,,11.5
12800,2026-01-07 12:28:13,,,758.94360696336,39.698164,0.0,0.42643702152,6.7735238388,18,5,7.821,759.59977496336,38.385828,1.006623,1.68355320348,0.0,0.0,0.0,320.1,8.2,2.4,0,0,1024,1024,1024,1024,0,0,0,0,0,0,0,94,3.912,3.908,0,0,0,0,4.517,66.2,758.94360696336,37.72966,6,P-GPS,,11.5
12900,2026-01-07 12:28:13,,,758.61552296336,39.698164,0.0,0.42362534164,6.8114175408,18,5,7.821,759.59977496336,38.385828,1.006623,1.68355320348,0.0,0.0,0.0,320.1,8.1,2.5,0,0,1024,1024,1024,1024,0,0,0,0,0,0,0,94,3.912,3.908,0,0,0,0,4.517,66.2,758.61552296336,37.401576,6,P-GPS,,11.4
13000,2026-01-07 12:28:13,,,758.61552296336,39.698164,0.0,0.42108269064,6.8510172796,18,5,7.821,759.59977496336,38.385828,1.006623,1.68355320348,0.0,0.0,0.0,320.2,7.8,2.1,0,0,1024,1024,1024,1024,0,0,0,0,0,0,0,94,3.912,3.908,0,0,0,0,4.517,66.2,758.61552296336,37.401576,6,P-GPS,,11.4
13100,2026-01-07 12:28:14,,,758.61552296336,39.698164,0.0,0.3921588052,7.0169293584,18,5,7.821,759.59977496336,38.385828,1.006623,1.68355320348,0.0,0.0,0.0,320.2,7.7,2.1,0,0,1024,1024,1024,1024,0,0,0,0,0,0,0,94,3.912,3.908,0,0,0,0,4.517,66.2,758.61552296336,37.401576,6,P-GPS,,11.4
13200,2026-01-07 12:28:14,,,758.61552296336,39.698164,0.0,0.39674213868,7.0664700424,18,5,7.821,759.59977496336,38.385828,1.006623,1.68355320348,0.0,0.0,0.0,320.1,7.7,1.9,0,0,1024,1024,1024,1024,0,0,0,0,0,0,0,94,3.912,3.908,0,0,0,0,4.517,66.2,758.61552296336,37.401576,6,P-GPS,,11.4
13300,2026-01-07 12:28:14,,,758.61552296336,39.698164,0.0,0.39049213848,7.1174871044,18,5,7.821,759.59977496336,38.385828,1.006623,1.68355320348,0.0,0.0,0.0,320.1,7.7,1.8,0,0,1024,1024,1024,1024,0,0,0,0,0,0,0,94,3.912,3.908,0,0,0,0,4.517,66.2,758.61552296336,37.401576,6,P-GPS,,11.4
13400,2026-01-07 12:28:14,,,758.61552296336,39.698164,0.0,0.38081694132,7.1759844816,18,5,7.812,759.59977496336,38.385828,1.006623,1.68355320348,0.0,0.0,0.0,320.1,7.9,1.8,0,0,1024,1024,1024,1024,0,0,0,0,0,0,0,94,3.907,3.906,0,0,0,0,4.484,66.2,758.61552296336,37.401576,6,P-GPS,,11.4
13500,2026-01-07 12:28:14,,,758.61552296336,39.698164,0.0,0.3663549986,7.2445212292,18,5,7.812,759.59977496336,38.385828,1.006623,1.68355320348,0.0,0.0,0.0,320.1,8.0,1.9,0,0,1024,1024,1024,1024,0,0,0,0,0,0,0,94,3.907,3.906,0,0,0,0,4.484,66.2,758.61552296336,37.401576,6,P-GPS,,11.4
13600,2026-01-07 12:28:14,,,758.61552296336,39.698164,0.0,0.37873360792,7.2874346164,18,5,7.812,759.59977496336,38.385828,1.006623,1.68355320348,0.0,0.0,0.0,320.1,8.4,2.2,0,0,1024,1024,1024,1024,0,0,0,0,0,0,0,94,3.907,3.906,0,0,0,0,4.484,66.2,758.61552296336,37.401576,6,P-GPS,,11.4
13700,2026-01-07 12:28:14,,,758.61552296336,39.698164,0.0,0.38547245328,7.3254267436,18,5,7.812,759.59977496336,38.385828,1.006623,1.68355320348,0.0,0.0,0.0,320.1,8.4,2.0,0,0,1024,1024,1024,1024,0,0,0,0,0,0,0,94,3.907,3.906,0,0,0,0,4.484,66.2,758.61552296336,37.401576,6,P-GPS,,11.4
13800,2026-01-07 12:28:14,,,758.61552296336,39.698164,0.0,0.38923229592,7.3657810756,18,5,7.812,759.59977496336,38.385828,1.006623,1.68355320348,0.0,0.0,0.0,320.1,8.5,1.9,0,0,1024,1024,1024,1024,0,0,0,0,0,0,0,94,3.907,3.906,0,0,0,0,4.484,66.2,758.61552296336,37.401576,6,P-GPS,,11.4
13900,2026-01-07 12:28:14,,,758.61552296336,39.698164,0.0,0.38970801772,7.4073821268,18,5,7.812,759.59977496336,38.385828,1.006623,1.68355320348,0.0,0.0,0.0,320.1,8.7,1.8,0,0,1024,1024,1024,1024,0,0,0,0,0,0,0,94,3.907,3.906,0,0,0,0,4.484,66.2,758.61552296336,37.401576,6,P-GPS,,11.4
14000,2026-01-07 12:28:15,,,758.28743896336,39.698164,0.0,0.41198820216,7.462434622,18,5,7.812,759.59977496336,38.385828,1.006623,1.68355320348,0.0,0.0,0.0,320.2,9.0,2.2,0,0,1024,1024,1024,1024,0,0,0,0,0,0,0,94,3.907,3.906,0,0,0,0,4.484,66.2,758.28743896336,37.073492,6,P-GPS,,11.3
14100,2026-01-07 12:28:15,,,758.28743896336,39.698164,0.0,0.41767061704,7.5009516836,18,5,7.812,759.59977496336,38.385828,1.006623,1.68355320348,0.0,0.0,0.0,320.2,9.1,2.2,0,0,1024,1024,1024,1024,0,0,0,0,0,0,0,94,3.907,3.906,0,0,0,0,4.484,66.2,758.28743896336,37.073492,6,P-GPS,,11.3
14200,2026-01-07 12:28:15,,,758.28743896336,39.698164,0.0,0.41125985568,7.5380251756,18,5,7.812,759.59977496336,38.385828,1.006623,1.68355320348,0.0,0.0,0.0,320.2,9.1,2.2,0,0,1024,1024,1024,1024,0,0,0,0,0,0,0,94,3.907,3.906,0,0,0,0,4.484,66.2,758.28743896336,37.073492,6,P-GPS,,11.3
14300,2026-01-07 12:28:15,,,758.28743896336,39.698164,0.0,0.40952429132,7.5771655968,18,5,7.812,759.59977496336,38.385828,1.006623,1.68355320348,0.0,0.0,0.0,320.2,9.1,2.2,0,0,1024,1024,1024,1024,0,0,0,0,0,0,0,94,3.907,3.906,0,0,0,0,4.484,66.2,758.28743896336,37.073492,6,P-GPS,,11.3
14400,2026-01-07 12:28:15,,,758.28743896336,39.698164,0.0,0.36352363368,7.6270999816,18,5,7.812,759.59977496336,38.385828,1.006623,1.68355320348,0.0,0.0,0.0,320.2,9.4,2.4,0,0,1024,1024,1024,1024,0,0,0,0,0,0,0,94,3.907,3.906,0,0,0,0,4.484,66.2,758.28743896336,37.073492,6,P-GPS,,11.3
14500,2026-01-07 12:28:15,,,758.28743896336,39.698164,0.0,0.3733431878,7.6762797732,18,5,7.815,759.59977496336,38.385828,1.006623,1.68355320348,0.0,0.0,0.0,320.2,9.4,2.2,0,0,1024,1024,1024,1024,0,0,0,0,0,0,0,93,3.91,3.905,0,0,0,0,4.562,66.2,758.28743896336,37.073492,6,P-GPS,,11.3
14600,2026-01-07 12:28:15,,,758.28743896336,39.698164,0.0,0.39275263724,7.7359582528,18,5,7.815,759.59977496336,38.385828,1.006623,1.68355320348,0.0,0.0,0.0,320.3,9.3,2.2,0,0,1024,1024,1024,1024,0,0,0,0,0,0,0,93,3.91,3.905,0,0,0,0,4.562,66.2,758.28743896336,37.073492,6,P-GPS,,11.3
14700,2026-01-07 12:28:15,,,758.28743896336,39.698164,0.0,0.39875657444,7.781988438,18,5,7.815,759.59977496336,38.385828,1.006623,1.68355320348,0.0,0.0,0.0,320.2,9.1,1.7,0,0,1024,1024,1024,1024,0,0,0,0,0,0,0,93,3.91,3.905,0,0,0,0,4.562,66.2,758.28743896336,37.073492,6,P-GPS,,11.3
14800,2026-01-07 12:28:15,,,758.28743896336,39.698164,0.0,0.39902232248,7.79937689,18,5,7.815,759.59977496336,38.385828,1.006623,1.68355320348,0.0,0.0,0.0,320.2,9.4,1.8,0,0,1024,1024,1024,1024,0,0,0,0,0,0,0,93,3.91,3.905,0,0,0,0,4.562,66.2,758.28743896336,37.073492,6,P-GPS,,11.3
14900,2026-01-07 12:28:15,,,758.28743896336,39.698164,0.0,0.40431759824,7.8435369964,18,5,7.815,759.59977496336,38.385828,1.006623,1.68355320348,0.0,0.0,0.0,320.3,9.6,1.7,0,0,1024,1024,1024,1024,0,0,0,0,0,0,0,93,3.91,3.905,0,0,0,0,4.562,66.2,758.28743896336,37.073492,6,P-GPS,,11.3
15000,2026-01-07 12:28:15,,,758.28743896336,39.698164,0.0,0.41798885852,7.89452125,18,5,7.815,759.59977496336,38.385828,1.006623,1.68355320348,0.0,0.0,0.0,320.3,9.6,1.4,0,0,1024,1024,1024,1024,0,0,0,0,0,0,0,93,3.91,3.905,0,0,0,0,4.562,66.2,758.28743896336,37.073492,6,P-GPS,,11.3
15100,2026-01-07 12:28:16,,,758.28743896336,39.698164,0.0,0.42683072232,7.940617052,18,5,7.815,759.59977496336,38.385828,1.006623,1.68355320348,0.0,0.0,0.0,320.2,9.6,1.2,0,0,1024,1024,1024,1024,0,0,0,0,0,0,0,93,3.91,3.905,0,0,0,0,4.562,66.2,758.28743896336,37.073492,6,P-GPS,,11.3
15200,2026-01-07 12:28:16,,,758.28743896336,39.698164,0.0,0.40543964552,7.9620081288,18,5,7.815,759.59977496336,38.385828,1.006623,1.68355320348,0.0,0.0,0.0,320.2,9.6,1.1,0,0,1024,1024,1024,1024,0,0,0,0,0,0,0,93,3.91,3.905,0,0,0,0,4.562,66.2,758.28743896336,37.073492,6,P-GPS,,11.3
15300,2026-01-07 12:28:16,,,757.95935496336,39.698164,0.0,0.41286418644,7.994914954,18,5,7.815,759.59977496336,38.385828,1.006623,1.68355320348,0.0,0.0,0.0,320.2,9.8,1.0,0,0,1024,1024,1024,1024,0,0,0,0,0,0,0,93,3.91,3.905,0,0,0,0,4.562,66.2,757.95935496336,36.745408,6,P-GPS,,11.2
15400,2026-01-07 12:28:16,,,757.95935496336,39.698164,0.0,0.4212270476,8.0224083932,18,5,7.815,759.59977496336,38.385828,1.006623,1.68355320348,0.0,0.0,0.0,320.2,9.9,0.8,0,0,1024,1024,1024,1024,0,0,0,0,0,0,0,93,3.91,3.905,0,0,0,0,4.562,66.2,757.95935496336,36.745408,6,P-GPS,,11.2
15500,2026-01-07 12:28:16,,,757.95935496336,39.698164,0.0,0.43789043396,8.0574477644,18,5,7.815,759.59977496336,38.385828,1.006623,1.68355320348,0.0,0.0,0.0,320.2,10.0,0.9,0,0,1024,1024,1024,1024,0,0,0,0,0,0,0,93,3.91,3.905,0,0,0,0,4.562,66.2,757.95935496336,36.745408,6,P-GPS,,11.2
15600,2026-01-07 12:28:16,,,757.95935496336,39.698164,0.0,0.45189633992,8.09465249,18,5,7.815,759.59977496336,38.385828,1.006623,1.68355320348,0.0,0.0,0.0,320.2,10.2,1.1,0,0,1024,1024,1024,1024,0,0,0,0,0,0,0,93,3.91,3.905,0,0,0,0,4.562,66.2,757.95935496336,36.745408,6,P-GPS,,11.2
15700,2026-01-07 12:28:16,,,757.95935496336,39.698164,0.0,0.46320867624,8.1202758504,18,5,7.818,759.59977496336,38.385828,1.006623,1.68355320348,0.0,0.0,0.0,320.2,10.4,1.4,0,0,1024,1024,1024,1024,0,0,0,0,0,0,0,93,3.911,3.907,0,0,0,0,4.539,66.38,757.95935496336,36.745408,6,P-GPS,,11.2
15800,2026-01-07 12:28:16,,,757.95935496336,39.698164,0.0,0.46843505436,8.1406170584,18,5,7.818,759.59977496336,38.385828,1.006623,1.68355320348,0.0,0.0,0.0,320.3,10.5,1.8,0,0,1024,1024,1024,1024,0,0,0,0,0,0,0,93,3.911,3.907,0,0,0,0,4.539,66.38,757.95935496336,36.745408,6,P-GPS,,11.2
15900,2026-01-07 12:28:16,,,757.95935496336,39.698164,0.0,0.47055119616,8.166666928,18,5,7.818,759.59977496336,38.385828,1.006623,1.68355320348,0.0,0.0,0.0,320.3,10.2,1.8,0,0,1024,1024,1024,1024,0,0,0,0,0,0,0,93,3.911,3.907,0,0,0,0,4.539,66.38,757.95935496336,36.745408,6,P-GPS,,11.2
16000,2026-01-07 12:28:17,,,757.95935496336,39.698164,0.0,0.47426510704,8.204396588,18,5,7.818,759.59977496336,38.385828,1.006623,1.68355320348,0.0,0.0,0.0,320.2,9.8,1.1,0,0,1024,1024,1024,1024,0,0,0,0,0,0,0,93,3.911,3.907,0,0,0,0,4.539,66.38,757.95935496336,36.745408,6,P-GPS,,11.2
16100,2026-01-07 12:28:17,,,757.95935496336,39.698164,0.0,0.44447836068,8.2471459332,18,5,7.818,759.59977496336,38.385828,1.006623,1.68355320348,0.0,0.0,0.0,320.1,10.2,1.1,0,0,1024,1024,1024,1024,0,0,0,0,0,0,0,93,3.911,3.907,0,0,0,0,4.539,66.38,757.95935496336,36.745408,6,P-GPS,,11.2
16200,2026-01-07 12:28:17,,,757.63127096336,39.698164,0.0,0.4234908272,8.2744753304,18,5,7.818,759.59977496336,38.385828,1.006623,1.68355320348,0.0,0.0,0.0,320.1,10.3,1.7,0,0,1024,1024,1024,1024,0,0,0,0,0,0,0,93,3.911,3.907,0,0,0,0,4.539,66.38,757.63127096336,36.417324,6,P-GPS,,11.1
16300,2026-01-07 12:28:17,,,757.63127096336,39.698164,0.0,0.4108103806,8.3017391108,18,5,7.818,759.59977496336,38.385828,1.006623,1.68355320348,0.0,0.0,0.0,320.2,9.5,2.2,0,0,1024,1024,1024,1024,0,0,0,0,0,0,0,93,3.911,3.907,0,0,0,0,4.539,66.38,757.63127096336,36.417324,6,P-GPS,,11.1
16400,2026-01-07 12:28:17,,,757.63127096336,39.698164,0.0,0.4071850524,8.3376643088,18,5,7.818,759.59977496336,38.385828,1.006623,1.68355320348,0.0,0.223694,0.0,320.2,8.8,1.8,0,0,1024,1024,1024,1024,0,0,0,0,0,0,0,93,3.911,3.907,0,0,0,0,4.539,66.38,757.63127096336,36.417324,6,P-GPS,,11.1
16500,2026-01-07 12:28:17,,,757.63127096336,39.698164,0.223694,0.37326772848,8.4066931824,18,5,7.818,759.59977496336,38.385828,1.006623,1.68355320348,0.0,0.223694,0.0,320.1,8.8,1.6,0,0,1024,1024,1024,1024,0,0,0,0,0,0,0,93,3.911,3.907,0,0,0,0,4.539,66.38,757.63127096336,36.417324,6,P-GPS,,11.1
16600,2026-01-07 12:28:17,,,757.63127096336,39.698164,0.223694,0.3561187778,8.4450790104,18,5,7.818,759.59977496336,38.385828,1.006623,1.68355320348,0.0,0.223694,0.0,320.1,8.7,2.1,0,0,1024,1024,1024,1024,0,0,0,0,0,0,0,93,3.911,3.907,0,0,0,0,4.539,66.38,757.63127096336,36.417324,6,P-GPS,,11.1
16700,2026-01-07 12:28:17,,,757.30318696336,39.698164,0.223694,0.34026247808,8.4662404284,18,5,7.818,759.59977496336,38.385828,1.006623,1.68355320348,0.0,0.223694,0.0,320.1,8.6,2.2,0,0,1024,1024,1024,1024,0,0,0,0,0,0,0,93,3.911,3.907,0,0,0,0,4.539,66.38,757.30318696336,36.08924,6,P-GPS,,11.0
16800,2026-01-07 12:28:17,,,757.30318696336,39.698164,0.223694,0.324918973652,8.4825462032,18,5,7.828,759.59977496336,38.385828,1.006623,1.68355320348,0.0,0.223694,0.0,320.1,8.6,2.0,0,0,1024,1024,1024,1024,0,0,0,0,0,0,0,93,3.915,3.913,0,0,0,0,4.408,66.38,757.30318696336,36.08924,6,P-GPS,,11.0
16900,2026-01-07 12:28:17,,,757.30318696336,39.698164,0.223694,0.262909129148,8.5856958128,18,5,7.828,759.59977496336,38.385828,1.006623,1.68355320348,0.0,0.223694,0.0,320.1,8.6,2.1,0,0,1024,1024,1024,1024,0,0,0,0,0,0,0,93,3.915,3.913,0,0,0,0,4.408,66.38,757.30318696336,36.08924,6,P-GPS,,11.0
17000,2026-01-07 12:28:17,,,757.30318696336,39.698164,0.223694,0.223537080644,8.6275921396,18,5,7.828,759.59977496336,38.385828,1.006623,1.68355320348,0.0,0.223694,0.0,320.2,8.4,2.3,0,0,1024,1024,1024,1024,0,0,0,0,0,0,0,93,3.915,3.913,0,0,0,0,4.408,66.38,757.30318696336,36.08924,6,P-GPS,,11.0
17100,2026-01-07 12:28:18,,,757.30318696336,39.698164,0.223694,0.197840557512,8.6533139252,18,5,7.828,759.59977496336,38.385828,1.006623,1.68355320348,0.0,0.223694,0.0,320.1,8.2,2.0,0,0,1024,1024,1024,1024,0,0,0,0,0,0,0,93,3.915,3.913,0,0,0,0,4.408,66.38,757.30318696336,36.08924,6,P-GPS,,11.0
17200,2026-01-07 12:28:18,,,757.30318696336,39.698164,0.223694,0.17904692174,8.6733270492,18,5,7.828,759.59977496336,38.385828,1.006623,1.68355320348,0.0,0.223694,0.0,320.1,8.1,1.8,0,0,1024,1024,1024,1024,0,0,0,0,0,0,0,93,3.915,3.913,0,0,0,0,4.408,66.38,757.30318696336,36.08924,6,P-GPS,,11.0
17300,2026-01-07 12:28:18,,,757.30318696336,39.698164,0.223694,0.177193903308,8.7773296772,18,5,7.828,759.59977496336,38.385828,1.006623,1.68355320348,0.0,0.223694,0.0,320.2,8.1,1.9,0,0,1024,1024,1024,1024,0,0,0,0,0,0,0,93,3.915,3.913,0,0,0,0,4.408,66.38,757.30318696336,36.08924,6,P-GPS,,11.0
17400,2026-01-07 12:28:18,,,757.30318696336,39.698164,0.223694,0.163691606288,8.8003939824,18,5,7.828,759.59977496336,38.385828,1.006623,1.68355320348,0.0,0.223694,0.0,320.2,8.1,2.0,0,0,1024,1024,1024,1024,0,0,0,0,0,0,0,93,3.915,3.913,0,0,0,0,4.408,66.38,757.30318696336,36.08924,6,P-GPS,,11.0
17500,2026-01-07 12:28:18,,,757.30318696336,39.698164,0.0,0.153416671576,8.8236223296,18,5,7.828,759.59977496336,38.385828,1.006623,1.68355320348,0.0,0.0,0.0,320.2,8.3,1.9,0,0,1024,1024,1024,1024,0,0,0,0,0,0,0,93,3.915,3.913,0,0,0,0,4.408,66.38,757.30318696336,36.08924,6,P-GPS,,11.0
17600,2026-01-07 12:28:18,,,757.30318696336,39.698164,0.0,0.146909781604,8.8476708868,18,5,7.828,759.59977496336,38.385828,1.006623,1.68355320348,0.0,0.0,0.0,320.1,8.2,2.1,0,0,1024,1024,1024,1024,0,0,0,0,0,0,0,93,3.915,3.913,0,0,0,0,4.408,66.38,757.30318696336,36.08924,6,P-GPS,,11.0
17700,2026-01-07 12:28:18,,,757.30318696336,39.698164,0.0,0.151338915604,8.8635501524,18,5,7.828,759.59977496336,38.385828,1.006623,1.68355320348,0.0,0.0,0.0,320.1,8.4,2.1,0,0,1024,1024,1024,1024,0,0,0,0,0,0,0,93,3.915,3.913,0,0,0,0,4.408,66.38,757.30318696336,36.08924,6,P-GPS,,11.0
17800,2026-01-07 12:28:18,,,757.30318696336,39.698164,0.0,0.189157158284,8.9128611776,18,5,7.828,759.59977496336,38.385828,1.006623,1.68355320348,0.0,0.0,0.0,320.2,8.6,2.5,0,0,1024,1024,1024,1024,0,0,0,0,0,0,0,93,3.915,3.913,0,0,0,0,4.408,66.38,757.30318696336,36.08924,6,P-GPS,,11.0
17900,2026-01-07 12:28:18,,,757.30318696336,39.698164,0.0,0.19767389084,8.9216538288,18,5,7.81,759.59977496336,38.385828,1.006623,1.68355320348,0.0,0.0,0.0,320.2,8.7,2.4,0,0,1024,1024,1024,1024,0,0,0,0,0,0,0,93,3.909,3.906,0,0,0,0,4.565,66.38,757.30318696336,36.08924,6,P-GPS,,11.0
18000,2026-01-07 12:28:19,,,757.30318696336,39.698164,0.0,0.201864835856,8.92634543,18,5,7.81,759.59977496336,38.385828,1.006623,1.68355320348,0.0,0.0,0.0,320.2,8.7,2.1,0,0,1024,1024,1024,1024,0,0,0,0,0,0,0,93,3.909,3.906,0,0,0,0,4.565,66.38,757.30318696336,36.08924,6,P-GPS,,11.0
18100,2026-01-07 12:28:19,,,757.30318696336,39.698164,0.0,0.201275925076,8.9390750892,18,5,7.81,759.59977496336,38.385828,1.006623,1.68355320348,0.0,0.0,0.0,320.2,8.6,1.9,0,0,1024,1024,1024,1024,0,0,0,0,0,0,0,93,3.909,3.906,0,0,0,0,4.565,66.38,757.30318696336,36.08924,6,P-GPS,,11.0
18200,2026-01-07 12:28:19,,,757.30318696336,39.698164,0.0,0.209024284904,8.9812666916,17,5,7.81,759.59977496336,38.385828,1.006623,1.68355320348,0.0,0.0,0.0,320.2,8.4,1.8,0,0,1024,1024,1024,1024,0,0,0,0,0,0,0,93,3.909,3.906,0,0,0,0,4.565,66.38,757.30318696336,36.08924,6,P-GPS,,11.0
18300,2026-01-07 12:28:19,,,757.30318696336,39.698164,0.0,0.212757880824,9.0119425456,17,5,7.81,759.59977496336,38.385828,1.006623,1.68355320348,0.0,0.0,0.0,320.2,8.4,1.7,0,0,1024,1024,1024,1024,0,0,0,0,0,0,0,93,3.909,3.906,0,0,0,0,4.565,66.38,757.30318696336,36.08924,6,P-GPS,,11.0
18400,2026-01-07 12:28:19,,,756.97510296336,39.698164,0.0,0.223780518972,9.0525921532,18,5,7.81,759.59977496336,38.385828,1.006623,1.68355320348,0.0,0.0,0.0,320.3,8.6,1.6,0,0,1024,1024,1024,1024,0,0,0,0,0,0,0,93,3.909,3.906,0,0,0,0,4.565,66.38,756.97510296336,35.761156,6,P-GPS,,10.9
18500,2026-01-07 12:28:19,,,756.97510296336,39.698164,0.0,0.21621391768,9.08218533,18,5,7.81,759.59977496336,38.385828,1.006623,1.68355320348,0.0,0.0,0.0,320.3,8.5,1.5,0,0,1024,1024,1024,1024,0,0,0,0,0,0,0,93,3.909,3.906,0,0,0,0,4.565,66.38,756.97510296336,35.761156,6,P-GPS,,10.9
18600,2026-01-07 12:28:19,,,756.97510296336,39.698164,0.0,0.184780517724,9.1484254896,17,5,7.81,759.59977496336,38.385828,1.006623,1.68355320348,0.0,0.0,0.0,320.3,8.4,1.4,0,0,1024,1024,1024,1024,0,0,0,0,0,0,0,93,3.909,3.906,0,0,0,0,4.565,66.38,756.97510296336,35.761156,6,P-GPS,,10.9
18700,2026-01-07 12:28:19,,,757.30318696336,39.698164,0.0,0.17417651476,9.181922866,17,5,7.81,759.59977496336,38.385828,1.006623,1.68355320348,0.0,0.0,0.0,320.2,8.1,1.3,0,0,1024,1024,1024,1024,0,0,0,0,0,0,0,93,3.909,3.906,0,0,0,0,4.565,66.38,757.30318696336,36.08924,6,P-GPS,,11.0
18800,2026-01-07 12:28:19,,,757.30318696336,39.698164,0.223694,0.172790687944,9.2172247044,17,5,7.81,759.59977496336,38.385828,1.006623,1.68355320348,0.0,0.223694,0.0,320.3,8.0,1.0,0,0,1024,1024,1024,1024,0,0,0,0,0,0,0,93,3.909,3.906,0,0,0,0,4.565,66.38,757.30318696336,36.08924,6,P-GPS,,11.0
18900,2026-01-07 12:28:19,,,757.30318696336,39.698164,0.223694,0.179373693404,9.2473428156,17,5,7.81,759.59977496336,38.385828,1.006623,1.68355320348,0.0,0.223694,0.0,320.2,8.0,0.9,0,0,1024,1024,1024,1024,0,0,0,0,0,0,0,93,3.909,3.906,0,0,0,0,4.565,66.38,757.30318696336,36.08924,6,P-GPS,,11.0
19000,2026-01-07 12:28:20,,,757.30318696336,39.698164,0.0,0.156344821276,9.2915357304,18,5,7.802,759.59977496336,38.385828,1.006623,1.68355320348,0.0,0.0,0.0,320.2,7.9,0.7,0,0,1024,1024,1024,1024,0,0,0,0,0,0,0,93,3.902,3.9,0,0,0,0,4.598,66.38,757.30318696336,36.08924,6,P-GPS,,11.0
19100,2026-01-07 12:28:20,,,756.97510296336,39.698164,0.0,0.170324480516,9.3139110592,18,5,7.802,759.59977496336,38.385828,1.006623,1.68355320348,0.0,0.0,0.0,320.2,8.2,0.8,0,0,1024,1024,1024,1024,0,0,0,0,0,0,0,93,3.902,3.9,0,0,0,0,4.598,66.38,756.97510296336,35.761156,6,P-GPS,,10.9
19200,2026-01-07 12:28:20,,,756.97510296336,39.698164,0.0,0.1847851109,9.3343835008,18,5,7.802,759.59977496336,38.385828,1.006623,1.68355320348,0.0,0.0,0.0,320.2,8.3,0.6,0,0,1024,1024,1024,1024,0,0,0,0,0,0,0,93,3.902,3.9,0,0,0,0,4.598,66.38,756.97510296336,35.761156,6,P-GPS,,10.9
19300,2026-01-07 12:28:20,,,756.97510296336,39.698164,0.0,0.190846790884,9.3594491184,18,5,7.802,759.59977496336,38.385828,1.006623,1.68355320348,0.0,0.0,0.0,320.2,8.1,0.7,0,0,1024,1024,1024,1024,0,0,0,0,0,0,0,93,3.902,3.9,0,0,0,0,4.598,66.38,756.97510296336,35.761156,6,P-GPS,,10.9
19400,2026-01-07 12:28:20,,,756.97510296336,39.698164,0.0,0.197353352772,9.3926512192,18,5,7.802,759.59977496336,38.385828,1.006623,1.68355320348,0.0,0.0,0.0,320.2,8.3,0.8,0,0,1024,1024,1024,1024,0,0,0,0,0,0,0,93,3.902,3.9,0,0,0,0,4.598,66.38,756.97510296336,35.761156,6,P-GPS,,10.9
19500,2026-01-07 12:28:20,,,756.97510296336,39.698164,0.0,0.178115819348,9.4530186752,18,5,7.802,759.59977496336,38.385828,1.006623,1.68355320348,0.0,0.0,0.0,320.2,8.4,0.8,0,0,1024,1024,1024,1024,0,0,0,0,0,0,0,93,3.902,3.9,0,0,0,0,4.598,66.38,756.97510296336,35.761156,6,P-GPS,,10.9
19600,2026-01-07 12:28:20,,,756.97510296336,39.698164,0.0,0.20269521646,9.4838913796,18,5,7.802,759.59977496336,38.385828,1.006623,1.68355320348,0.0,0.0,0.0,320.2,8.1,0.5,0,0,1024,1024,1024,1024,0,0,0,0,0,0,0,93,3.902,3.9,0,0,0,0,4.598,66.38,756.97510296336,35.761156,6,P-GPS,,10.9
19700,2026-01-07 12:28:20,,,756.97510296336,39.698164,0.0,0.211383536948,9.499836262,18,5,7.802,759.59977496336,38.385828,1.006623,1.68355320348,0.0,0.0,0.0,320.1,8.1,0.7,0,0,1024,1024,1024,1024,0,0,0,0,0,0,0,93,3.902,3.9,0,0,0,0,4.598,66.38,756.97510296336,35.761156,6,P-GPS,,10.9
19800,2026-01-07 12:28:20,,,756.97510296336,39.698164,0.0,0.210827762652,9.513943874,18,5,7.802,759.59977496336,38.385828,1.006623,1.68355320348,0.0,0.0,0.0,320.2,8.0,0.8,0,0,1024,1024,1024,1024,0,0,0,0,0,0,0,93,3.902,3.9,0,0,0,0,4.598,66.38,756.97510296336,35.761156,6,P-GPS,,10.9
19900,2026-01-07 12:28:20,,,756.97510296336,39.698164,0.0,0.160339243976,9.5832024064,18,5,7.802,759.59977496336,38.385828,1.006623,1.68355320348,0.0,0.0,0.0,320.1,8.0,1.1,0,0,1024,1024,1024,1024,0,0,0,0,0,0,0,93,3.902,3.9,0,0,0,0,4.598,66.38,756.97510296336,35.761156,6,P-GPS,,10.9
20000,2026-01-07 12:28:20,,,756.97510296336,39.698164,0.0,0.176993772068,9.6155514888,18,5,7.802,759.59977496336,38.385828,1.006623,1.68355320348,0.0,0.0,0.0,320.1,8.0,1.3,0,0,1024,1024,1024,1024,0,0,0,0,0,0,0,93,3.902,3.9,0,0,0,0,4.598,66.38,756.97510296336,35.761156,6,P-GPS,,10.9
20100,2026-01-07 12:28:21,,,756.97510296336,39.698164,0.0,0.1823408851,9.6258533264,18,5,7.802,759.59977496336,38.385828,1.006623,1.68355320348,0.0,0.0,0.0,320.2,8.2,1.4,0,0,1024,1024,1024,1024,0,0,0,0,0,0,0,93,3.916,3.913,0,0,0,0,4.598,66.38,756.97510296336,35.761156,6,P-GPS,,10.9
20200,2026-01-07 12:28:21,,,756.97510296336,39.698164,0.0,0.181185701336,9.6286748488,18,5,7.802,759.59977496336,38.385828,1.006623,1.68355320348,0.0,0.0,0.0,320.2,8.3,1.3,0,0,1024,1024,1024,1024,0,0,0,0,0,0,0,93,3.916,3.913,0,0,0,0,4.598,66.38,756.97510296336,35.761156,6,P-GPS,,10.9
20300,2026-01-07 12:28:21,,,756.97510296336,39.698164,0.0,0.125715883288,9.685367764,18,5,7.802,759.59977496336,38.385828,1.006623,1.68355320348,0.0,0.0,0.0,320.2,8.2,1.4,0,0,1024,1024,1024,1024,0,0,0,0,0,0,0,93,3.916,3.913,0,0,0,0,4.598,66.38,756.97510296336,35.761156,6,P-GPS,,10.9
