time(millisecond),timestamp,altitude_above_seaLevel(feet),height_sonar(feet),speed(mph),distance(feet),mileage(feet),satellites,gpslevel,voltage(v),max_altitude(feet),max_ascent(feet),max_speed(mph),max_distance(feet), xSpeed(mph), ySpeed(mph), zSpeed(mph), compass_heading(degrees), pitch(degrees), roll(degrees),isPhoto,isVideo,rc_elevator,rc_aileron,rc_throttle,rc_rudder,rc_elevator(percent),rc_aileron(percent),rc_throttle(percent),rc_rudder(percent),gimbal_heading(degrees),gimbal_pitch(degrees),gimbal_roll(degrees),battery_percent,voltageCell1,voltageCell2,voltageCell3,voltageCell4,voltageCell5,voltageCell6,current(A),battery_temperature(f),altitude(feet),ascent(feet),flycStateRaw,flycState,message,height_above_takeoff(meters)
149800,2026-01-07 15:35:33,720.81025010005,0.328084,0.0,0.0,0.0,16,5,0.0,720.81025010005,0.0,0.0,0.0,0.0,0.0,0.0,32.5,2.9,0.7,0,0,1024,1024,1024,1024,0,0,0,0,0,0,0,69,3.849,3.848,0,0,0,0,0.0,67.1,720.81025010005,0.0,41,Motors_Started,SD card speed low SD card speed low. Normal use may be affected. Replace SD card (Code: 10028). Gimbal stuck. Make sure gimbal cover is removed and manually check whether gimbal can rotate freely (Code: 40002),0.0
149900,2026-01-07 15:35:33,720.81025010005,0.328084,0.0,0.0204352368744,0.0204352368744,16,5,7.697,720.81025010005,0.0,0.0,0.0204352368744,0.0,0.0,0.0,32.5,2.9,0.7,0,0,1024,1024,1024,1024,0,0,0,0,0,0,0,69,3.849,3.848,0,0,0,0,0.653,67.1,720.81025010005,0.0,41,Motors_Started,,0.0
150000,2026-01-07 15:35:33,720.81025010005,0.328084,0.0,0.045048885956,0.047244752168,16,5,7.697,720.81025010005,0.0,0.0,0.045048885956,0.0,0.0,0.0,32.5,2.9,0.7,0,0,1024,1024,1024,1024,0,0,0,0,0,0,0,69,3.849,3.848,0,0,0,0,0.653,67.1,720.81025010005,0.0,41,Motors_Started,,0.0
150100,2026-01-07 15:35:33,720.81025010005,0.328084,0.0,0.070442259472,0.073271983972,16,5,7.697,720.81025010005,0.0,0.0,0.070442259472,0.0,0.0,0.0,32.5,2.9,0.7,0,0,1024,1024,1024,1024,0,0,0,0,0,0,0,69,3.849,3.848,0,0,0,0,0.653,67.1,720.81025010005,0.0,41,Motors_Started,,0.0
150200,2026-01-07 15:35:33,720.81025010005,0.328084,0.0,0.097673559556,0.100880580656,16,5,7.697,720.81025010005,0.0,0.0,0.097673559556,0.0,0.0,0.0,32.5,2.9,0.7,0,0,1024,1024,1024,1024,0,0,0,0,0,0,0,69,3.849,3.848,0,0,0,0,0.653,67.1,720.81025010005,0.0,41,Motors_Started,,0.0
150300,2026-01-07 15:35:33,720.81025010005,0.328084,0.0,0.147091212056,0.152248036368,16,5,7.697,720.81025010005,0.0,0.0,0.147091212056,0.0,0.0,0.0,32.4,2.9,0.7,0,0,1024,1024,1024,1024,0,0,0,0,0,0,0,69,3.849,3.848,0,0,0,0,0.653,67.1,720.81025010005,0.0,41,Motors_Started,Setting new Return-To-Home altitude to 500m (1640 ft). Data Recorder File Index is 27. Setting new Maximum Flight Altitude to 500m (1640 ft),0.0
150400,2026-01-07 15:35:33,720.81025010005,0.328084,0.0,7.2141078424,0.178698496532,16,5,7.697,720.81025010005,0.0,0.0,7.2141078424,0.0,0.0,0.0,32.5,3.0,0.6,0,0,1024,1024,1024,1024,0,0,0,0,0,0,0,69,3.849,3.848,0,0,0,0,0.653,67.1,720.81025010005,0.0,41,Motors_Started,,0.0
150500,2026-01-07 15:35:34,720.81025010005,0.328084,0.0,7.1951445872,0.199958011648,16,5,7.697,720.81025010005,0.0,0.0,7.2141078424,0.0,0.0,0.0,32.6,2.9,0.7,0,0,1024,1024,1024,1024,0,0,0,0,0,0,0,69,3.849,3.848,0,0,0,0,0.653,67.1,720.81025010005,0.0,41,Motors_Started,,0.0
150600,2026-01-07 15:35:34,720.81025010005,0.328084,0.0,7.1895343508,0.215063327092,16,5,7.697,720.81025010005,0.0,0.0,7.2141078424,0.0,0.0,0.0,33.0,2.9,0.7,0,0,1024,1024,1024,1024,0,0,0,0,0,0,0,69,3.849,3.848,0,0,0,0,0.653,67.1,720.81025010005,0.0,41,Motors_Started,,0.0
150700,2026-01-07 15:35:34,720.81025010005,0.328084,0.0,7.1814962928,0.230756897148,16,5,7.697,720.81025010005,0.0,0.0,7.2141078424,0.0,0.0,0.0,33.2,2.8,0.6,0,0,1024,1024,1024,1024,0,0,0,0,0,0,0,69,3.849,3.848,0,0,0,0,0.653,67.1,720.81025010005,0.0,41,Motors_Started,,0.0
150800,2026-01-07 15:35:34,720.81025010005,0.328084,0.0,7.1948165032,0.251605323012,16,5,7.697,720.81025010005,0.0,0.0,7.2141078424,0.0,0.0,0.0,33.3,2.9,0.6,0,0,1024,1024,1024,1024,0,0,0,0,0,0,0,69,3.849,3.848,0,0,0,0,0.653,67.1,720.81025010005,0.0,41,Motors_Started,,0.0
150900,2026-01-07 15:35:34,720.81025010005,0.328084,0.0,7.1782154528,0.270680454856,16,5,7.697,720.81025010005,0.0,0.0,7.2141078424,0.0,0.0,0.0,33.3,2.8,0.5,0,0,1024,1024,1024,1024,0,0,0,0,0,0,0,69,3.849,3.848,0,0,0,0,0.653,67.1,720.81025010005,0.0,11,AutoTakeoff,,0.0
151000,2026-01-07 15:35:34,720.81025010005,0.328084,0.0,7.1565947172,0.293787082892,16,5,7.679,720.81025010005,0.0,0.0,7.2141078424,0.0,0.0,0.0,33.3,2.9,0.5,0,0,1024,1024,1024,1024,0,0,0,0,0,0,0,69,3.844,3.844,0,0,0,0,1.189,67.1,720.81025010005,0.0,11,AutoTakeoff,,0.0
151100,2026-01-07 15:35:34,720.81025010005,0.328084,0.0,7.1349411732,0.316630259476,16,5,7.679,720.81025010005,0.0,0.0,7.2141078424,0.0,0.0,0.0,33.6,2.7,0.5,0,0,1024,1024,1024,1024,0,0,0,0,0,0,0,69,3.844,3.844,0,0,0,0,1.189,67.1,720.81025010005,0.0,11,AutoTakeoff,,0.0
151200,2026-01-07 15:35:34,720.81025010005,0.328084,0.0,7.0917981272,0.35992783304,16,5,7.679,720.81025010005,0.0,0.0,7.2141078424,0.0,0.0,0.0,33.6,2.8,0.5,0,0,1024,1024,1024,1024,0,0,0,0,0,0,0,69,3.844,3.844,0,0,0,0,1.189,67.1,720.81025010005,0.0,11,AutoTakeoff,,0.0
151300,2026-01-07 15:35:34,720.81025010005,0.328084,0.0,7.0687994388,0.38374016976,16,5,7.679,720.81025010005,0.0,0.0,7.2141078424,0.0,0.0,0.0,33.6,2.8,0.5,0,0,1024,1024,1024,1024,0,0,0,0,0,0,0,69,3.844,3.844,0,0,0,0,1.189,67.1,720.81025010005,0.0,11,AutoTakeoff,,0.0
151400,2026-01-07 15:35:34,720.81025010005,0.328084,0.0,7.0452430076,0.40846458,16,5,7.679,720.81025010005,0.0,0.0,7.2141078424,0.0,0.0,0.0,33.7,2.8,0.5,0,0,1024,1024,1024,1024,0,0,0,0,0,0,0,69,3.844,3.844,0,0,0,0,1.189,67.1,720.81025010005,0.0,11,AutoTakeoff,,0.0
151500,2026-01-07 15:35:35,720.81025010005,0.328084,0.0,7.0288059992,0.42564633908,16,5,7.679,720.81025010005,0.0,0.0,7.2141078424,0.0,0.0,0.0,34.0,2.8,0.5,0,0,1024,1024,1024,1024,0,0,0,0,0,0,0,69,3.844,3.844,0,0,0,0,1.189,67.1,720.81025010005,0.0,11,AutoTakeoff,,0.0
151600,2026-01-07 15:35:35,720.81025010005,0.328084,0.0,7.0570212232,0.45658137944,16,5,7.679,720.81025010005,0.0,0.0,7.2141078424,0.0,0.0,0.0,34.5,2.2,0.6,0,0,1024,1024,1024,1024,0,0,0,0,0,0,0,69,3.844,3.844,0,0,0,0,1.189,67.1,720.81025010005,0.0,11,AutoTakeoff,,0.0
151700,2026-01-07 15:35:35,720.81025010005,0.328084,0.0,7.05462621,0.46019686512,16,5,7.679,720.81025010005,0.0,0.0,7.2141078424,0.0,0.0,-0.223694,35.4,0.9,1.2,0,0,1024,1024,1024,1024,0,0,0,0,0,0,0,69,3.844,3.844,0,0,0,0,1.189,67.1,720.81025010005,0.0,11,AutoTakeoff,,0.0
151800,2026-01-07 15:35:35,720.81025010005,0.328084,0.0,7.0396655796,0.48014765316,16,5,7.679,720.81025010005,0.0,0.0,7.2141078424,0.0,0.0,-0.447388,35.9,0.7,0.7,0,0,1024,1024,1024,1024,0,0,0,0,0,0,0,69,3.844,3.844,0,0,0,0,1.189,67.1,720.81025010005,0.0,11,AutoTakeoff,,0.0
151900,2026-01-07 15:35:35,720.81025010005,0.656168,0.0,7.0205382824,0.50672901884,16,5,7.679,720.81025010005,0.0,0.0,7.2141078424,0.0,0.0,-0.894776,35.7,1.1,-1.1,0,0,1024,1024,1024,1024,0,0,0,0,0,0,0,69,3.844,3.844,0,0,0,0,1.189,67.1,720.81025010005,0.0,11,AutoTakeoff,,0.0
152000,2026-01-07 15:35:35,720.81025010005,0.656168,0.0,6.9821852628,0.5520997552,16,5,7.679,720.81025010005,0.0,0.0,7.2141078424,0.0,0.0,-0.894776,35.8,1.3,-1.0,0,0,1024,1024,1024,1024,0,0,0,0,0,0,0,69,3.844,3.844,0,0,0,0,1.189,67.1,720.81025010005,0.0,11,AutoTakeoff,,0.0
152100,2026-01-07 15:35:35,721.13833410005,0.656168,0.0,6.9456695136,0.59111878532,17,5,7.452,721.13833410005,0.328084,0.0,7.2141078424,0.0,0.0,-1.342164,35.8,1.4,-0.1,0,0,1024,1024,1024,1024,0,0,0,0,0,0,0,69,3.73,3.722,0,0,0,0,4.173,67.1,721.13833410005,0.328084,11,AutoTakeoff,,0.1
152200,2026-01-07 15:35:35,721.13833410005,0.984252,0.0,6.8950789608,0.64595474508,17,5,7.452,721.13833410005,0.328084,0.0,7.2141078424,0.0,0.0,-1.565858,35.8,1.7,0.7,0,0,1024,1024,1024,1024,0,0,0,0,0,0,0,69,3.73,3.722,0,0,0,0,4.173,67.1,721.13833410005,0.328084,11,AutoTakeoff,,0.1
152300,2026-01-07 15:35:35,721.46641810005,0.984252,0.0,6.8502954948,0.69504267316,17,5,7.452,721.46641810005,0.656168,0.0,7.2141078424,0.0,0.0,-1.789552,35.8,1.7,0.6,0,0,1024,1024,1070,1024,0,0,7,0,0,0,0,69,3.73,3.722,0,0,0,0,4.173,67.1,721.46641810005,0.656168,11,AutoTakeoff,Home Point updated. RTH altitude adjusted to 500 m (Code: 120852),0.2
152400,2026-01-07 15:35:36,721.79450210005,1.312336,0.0,6.81922594,0.73083335672,17,5,7.452,721.79450210005,0.984252,0.0,7.2141078424,0.0,0.0,-2.013246,35.7,1.9,0.0,0,0,1024,1024,1070,1024,0,0,7,0,0,0,0,69,3.73,3.722,0,0,0,0,4.173,67.1,721.79450210005,0.984252,11,AutoTakeoff,,0.3
152500,2026-01-07 15:35:36,722.12258610005,1.64042,0.0,6.7963584852,0.77256236068,18,5,7.452,722.12258610005,1.312336,0.0,7.2141078424,0.0,0.0,-2.013246,35.5,2.3,0.1,0,0,1024,1024,1176,1024,0,0,23,0,0,0,0,69,3.73,3.722,0,0,0,0,4.173,67.1,722.12258610005,1.312336,11,AutoTakeoff,,0.4
152600,2026-01-07 15:35:36,722.12258610005,1.968504,0.223694,6.776082894,0.79442915928,18,5,7.452,722.12258610005,1.312336,0.223694,7.2141078424,0.223694,0.0,-2.23694,35.6,2.4,0.6,0,0,1024,1024,1320,1024,0,0,45,0,0,0,0,69,3.73,3.722,0,0,0,0,4.173,67.1,722.12258610005,1.312336,11,AutoTakeoff,,0.4
152700,2026-01-07 15:35:36,722.45067010005,2.296588,0.223694,6.7526905048,0.81889110232,17,5,7.452,722.45067010005,1.64042,0.223694,7.2141078424,0.223694,0.0,-2.23694,35.7,3.3,0.8,0,0,1024,1024,1349,1024,0,0,49,0,0,0,0,69,3.73,3.722,0,0,0,0,4.173,67.1,722.45067010005,1.64042,11,AutoTakeoff,,0.5
152800,2026-01-07 15:35:36,722.77875410005,2.624672,0.223694,6.726050084,0.84713585388,17,5,7.452,722.77875410005,1.968504,0.223694,7.2141078424,0.223694,0.0,-2.23694,35.7,4.0,0.8,0,0,1024,1024,1367,1024,0,0,52,0,0,0,0,69,3.73,3.722,0,0,0,0,4.173,67.1,722.77875410005,1.968504,11,AutoTakeoff,,0.6
152900,2026-01-07 15:35:36,723.10683810005,2.624672,0.223694,6.7516734444,0.87386157652,18,5,7.452,723.10683810005,2.296588,0.223694,7.2141078424,0.223694,0.0,-2.23694,35.8,4.8,1.6,0,0,1024,1024,1370,1024,0,0,52,0,0,0,0,69,3.73,3.722,0,0,0,0,4.173,67.1,723.10683810005,2.296588,6,P-GPS,,0.7
153000,2026-01-07 15:35:36,723.76300610005,2.952756,0.223694,6.6982285608,0.9283300822,18,5,7.452,723.76300610005,2.952756,0.223694,7.2141078424,0.223694,0.0,-2.460634,35.8,4.8,1.7,0,0,1024,1024,1370,1024,0,0,52,0,0,0,0,69,3.73,3.722,0,0,0,0,4.173,67.1,723.76300610005,2.952756,6,P-GPS,,0.9
153100,2026-01-07 15:35:36,724.09109010005,3.28084,0.0,6.6598427328,0.96673559524,18,5,7.452,724.09109010005,3.28084,0.223694,7.2141078424,0.0,0.0,-2.23694,35.8,4.8,2.1,0,0,1024,1024,1370,1024,0,0,52,0,0,0,0,69,3.73,3.722,0,0,0,0,4.173,67.1,724.09109010005,3.28084,6,P-GPS,,1.0
153200,2026-01-07 15:35:36,724.41917410005,3.608924,0.0,6.6475723912,0.99997706612,18,5,7.41,724.41917410005,3.608924,0.223694,7.2141078424,0.0,0.0,-2.013246,35.8,4.8,2.0,0,0,1024,1024,1378,1024,0,0,54,0,0,0,0,69,3.706,3.725,0,0,0,0,5.416,67.1,724.41917410005,3.608924,6,P-GPS,,1.1
153300,2026-01-07 15:35:36,724.41917410005,3.937008,0.0,6.6031498176,1.10326119016,18,5,7.41,724.41917410005,3.608924,0.223694,7.2141078424,0.0,0.0,-1.789552,35.8,4.5,1.8,0,0,1024,1024,1439,1024,0,0,63,0,0,0,0,69,3.706,3.725,0,0,0,0,5.416,67.1,724.41917410005,3.608924,6,P-GPS,,1.1
153400,2026-01-07 15:35:36,724.74725810005,4.265092,0.0,6.5958663528,1.1166502982,18,5,7.41,724.74725810005,3.937008,0.223694,7.2141078424,0.0,0.0,-1.789552,35.7,4.3,1.4,0,0,1024,1024,1581,1024,0,0,84,0,0,0,0,69,3.706,3.725,0,0,0,0,5.416,67.1,724.74725810005,3.937008,6,P-GPS,,1.2
153500,2026-01-07 15:35:37,725.07534210005,4.593176,0.0,6.6102036236,1.14586945924,18,5,7.41,725.07534210005,4.265092,0.223694,7.2141078424,0.0,0.0,-1.565858,35.7,3.6,0.7,0,0,1024,1024,1684,1024,0,0,100,0,0,0,0,69,3.706,3.725,0,0,0,0,5.416,67.1,725.07534210005,4.265092,6,P-GPS,,1.3
153600,2026-01-07 15:35:37,725.40342610005,4.593176,0.0,6.6845802664,1.25430450208,18,5,7.41,725.40342610005,4.593176,0.223694,7.2141078424,0.0,0.0,-1.789552,35.6,3.3,0.4,0,0,1024,1024,1684,1024,0,0,100,0,0,0,0,69,3.706,3.725,0,0,0,0,5.416,67.1,725.40342610005,4.593176,6,P-GPS,,1.4
153700,2026-01-07 15:35:37,725.73151010005,4.92126,0.0,6.7561353868,1.48862865656,18,5,7.41,725.73151010005,4.92126,0.223694,7.2141078424,0.0,0.0,-2.013246,35.6,3.6,0.1,0,0,1024,1024,1684,1024,0,0,100,0,0,0,0,69,3.706,3.725,0,0,0,0,5.416,67.1,725.73151010005,4.92126,6,P-GPS,,1.5
153800,2026-01-07 15:35:37,726.05959410005,5.249344,0.0,6.764599954,1.54290031184,18,5,7.41,726.05959410005,5.249344,0.223694,7.2141078424,0.0,0.0,-2.684328,35.7,4.0,-0.4,0,0,1024,1024,1684,1024,0,0,100,0,0,0,0,69,3.706,3.725,0,0,0,0,5.416,67.1,726.05959410005,5.249344,6,P-GPS,,1.6
153900,2026-01-07 15:35:37,726.38767810005,5.905512,0.0,6.7815618968,1.58660110064,18,5,7.41,726.38767810005,5.577428,0.223694,7.2141078424,0.0,0.0,-3.35541,35.8,3.8,-0.4,0,0,1024,1024,1684,1024,0,0,100,0,0,0,0,69,3.706,3.725,0,0,0,0,5.416,67.1,726.38767810005,5.577428,6,P-GPS,,1.7
154000,2026-01-07 15:35:37,727.04384610005,6.233596,0.0,6.8260500872,1.63517393684,18,5,7.41,727.04384610005,6.233596,0.223694,7.2141078424,0.0,0.0,-3.802798,35.7,3.6,-0.2,0,0,1024,1024,1684,1024,0,0,100,0,0,0,0,69,3.706,3.725,0,0,0,0,5.416,67.1,727.04384610005,6.233596,6,P-GPS,,1.9
154100,2026-01-07 15:35:37,727.70001410005,6.889764,0.223694,6.871883422,1.68171921392,18,5,7.41,727.70001410005,6.889764,0.223694,7.2141078424,-0.223694,0.0,-4.026492,35.6,3.0,0.0,0,0,1024,1024,1684,1024,0,0,100,0,0,0,0,69,3.706,3.725,0,0,0,0,5.416,67.1,727.70001410005,6.889764,6,P-GPS,,2.1
154200,2026-01-07 15:35:37,728.35618210005,7.545932,0.223694,6.9543637396,1.77405189404,18,5,7.41,728.35618210005,7.545932,0.223694,7.2141078424,0.0,0.0,-4.250186,35.6,2.4,0.0,0,0,1024,1024,1684,1024,0,0,100,0,0,0,0,69,3.706,3.725,0,0,0,0,5.416,67.1,728.35618210005,7.545932,6,P-GPS,,2.3
154300,2026-01-07 15:35:37,729.01235010005,8.2021,0.0,6.9995737148,1.82096790604,17,5,7.373,729.01235010005,8.2021,0.223694,7.2141078424,0.0,0.0,-4.250186,35.6,2.5,0.0,0,0,1024,1024,1684,1024,0,0,100,0,0,0,0,69,3.688,3.685,0,0,0,0,6.395,67.28,729.01235010005,8.2021,6,P-GPS,,2.5
154400,2026-01-07 15:35:37,729.66851810005,8.858268,0.0,7.039206262,1.86259520396,17,5,7.373,729.66851810005,8.858268,0.223694,7.2141078424,0.0,0.0,-4.47388,35.6,2.6,0.1,0,0,1024,1024,1684,1024,0,0,100,0,0,0,0,69,3.688,3.685,0,0,0,0,6.395,67.28,729.66851810005,8.858268,6,P-GPS,,2.7
154500,2026-01-07 15:35:38,730.32468610005,9.514436,0.0,7.068077654,1.9004921868,18,5,7.373,730.32468610005,9.514436,0.223694,7.2141078424,0.0,0.0,-4.47388,35.6,2.5,0.5,0,0,1024,1024,1684,1024,0,0,100,0,0,0,0,69,3.688,3.685,0,0,0,0,6.395,67.28,730.32468610005,9.514436,6,P-GPS,,2.9
154600,2026-01-07 15:35:38,730.98085410005,10.170604,0.0,7.021653768,2.1000164714,18,5,7.373,730.98085410005,10.170604,0.223694,7.2141078424,0.0,0.0,-4.47388,35.6,2.6,0.8,0,0,1024,1024,1684,1024,0,0,100,0,0,0,0,69,3.688,3.685,0,0,0,0,6.395,67.28,730.98085410005,10.170604,6,P-GPS,,3.1
154700,2026-01-07 15:35:38,731.63702210005,10.826772,0.0,7.0193899884,2.16246069912,18,5,7.373,731.63702210005,10.826772,0.223694,7.2141078424,0.0,0.0,-4.250186,35.6,2.6,0.4,0,0,1024,1024,1684,1024,0,0,100,0,0,0,0,69,3.688,3.685,0,0,0,0,6.395,67.28,731.63702210005,10.826772,6,P-GPS,,3.3
154800,2026-01-07 15:35:38,732.29319010005,11.48294,0.0,7.004757442,2.2087271048,18,5,7.373,732.29319010005,11.48294,0.223694,7.2141078424,0.0,0.0,-4.250186,35.8,2.5,0.1,0,0,1024,1024,1684,1024,0,0,100,0,0,0,0,69,3.688,3.685,0,0,0,0,6.395,67.28,732.29319010005,11.48294,6,P-GPS,,3.5
154900,2026-01-07 15:35:38,732.94935810005,12.139108,0.0,6.9944884128,2.24275597728,18,5,7.373,732.94935810005,12.139108,0.223694,7.2141078424,0.0,0.0,-4.250186,35.8,2.7,0.0,0,0,1024,1024,1684,1024,0,0,100,0,0,0,0,69,3.688,3.685,0,0,0,0,6.395,67.28,732.94935810005,12.139108,6,P-GPS,,3.7
155000,2026-01-07 15:35:38,733.60552610005,12.795276,0.0,6.9783794884,2.25886162084,18,5,7.373,733.60552610005,12.795276,0.223694,7.2141078424,0.0,0.0,-4.250186,35.7,3.4,-0.3,0,0,1024,1024,1684,1024,0,0,100,0,0,0,0,69,3.688,3.685,0,0,0,0,6.395,67.28,733.60552610005,12.795276,6,P-GPS,,3.9
155100,2026-01-07 15:35:38,734.26169410005,13.451444,0.0,7.0005579668,2.28538721224,17,5,7.373,734.26169410005,13.451444,0.223694,7.2141078424,0.0,0.0,-4.250186,35.7,3.4,0.0,0,0,1024,1024,1684,1024,0,0,100,0,0,0,0,69,3.688,3.685,0,0,0,0,6.395,67.28,734.26169410005,13.451444,6,P-GPS,,4.1
155200,2026-01-07 15:35:38,734.91786210005,14.107612,0.0,7.0560041628,2.385662806,17,5,7.373,734.91786210005,14.107612,0.223694,7.2141078424,0.0,0.0,-4.250186,35.7,3.2,0.0,0,0,1024,1024,1684,1024,0,0,100,0,0,0,0,69,3.688,3.685,0,0,0,0,6.395,67.28,734.91786210005,14.107612,6,P-GPS,,4.3
155300,2026-01-07 15:35:38,735.57403010005,14.76378,0.0,7.1078414348,2.4772146462,17,5,7.373,735.57403010005,14.76378,0.223694,7.2141078424,0.0,0.0,-4.250186,35.7,3.0,-0.2,0,0,1024,1024,1684,1024,0,0,100,0,0,0,0,69,3.688,3.685,0,0,0,0,6.395,67.28,735.57403010005,14.76378,6,P-GPS,,4.5
155400,2026-01-07 15:35:38,736.23019810005,15.091864,0.0,7.259022542,2.78121071892,17,5,7.385,736.23019810005,15.419948,0.223694,7.259022542,0.0,0.0,-4.250186,35.6,3.5,0.0,0,0,1024,1024,1684,1024,0,0,100,0,0,0,0,69,3.695,3.69,0,0,0,0,5.97,67.28,736.23019810005,15.419948,6,P-GPS,,4.7
155500,2026-01-07 15:35:39,736.88636610005,15.748032,0.0,7.300853252,2.84017725624,18,5,7.385,736.88636610005,16.076116,0.223694,7.300853252,0.0,0.0,-4.250186,35.6,3.6,-0.2,0,0,1024,1024,1684,1024,0,0,100,0,0,0,0,69,3.695,3.69,0,0,0,0,5.97,67.28,736.88636610005,16.076116,6,P-GPS,,4.9
155600,2026-01-07 15:35:39,737.54253410005,16.4042,0.0,7.3416340932,2.88571859628,18,5,7.385,737.54253410005,16.732284,0.223694,7.3416340932,0.0,0.0,-4.250186,35.5,3.0,-0.3,0,0,1024,1024,1684,1024,0,0,100,0,0,0,0,69,3.695,3.69,0,0,0,0,5.97,67.28,737.54253410005,16.732284,6,P-GPS,,5.1
155700,2026-01-07 15:35:39,738.19870210005,17.060368,0.0,7.37778895,2.92651584168,18,5,7.385,738.19870210005,17.388452,0.223694,7.37778895,0.0,0.0,-4.47388,35.5,2.7,0.0,0,0,1024,1024,1684,1024,0,0,100,0,0,0,0,69,3.695,3.69,0,0,0,0,5.97,67.28,738.19870210005,17.388452,6,P-GPS,,5.3
155800,2026-01-07 15:35:39,738.85487010005,18.04462,0.0,7.4054792396,2.96846466192,18,5,7.385,738.85487010005,18.04462,0.223694,7.4054792396,0.0,0.0,-4.47388,35.5,2.8,0.2,0,0,1024,1024,1684,1024,0,0,100,0,0,0,0,69,3.695,3.69,0,0,0,0,5.97,67.28,738.85487010005,18.04462,6,P-GPS,,5.5
155900,2026-01-07 15:35:39,739.51103810005,18.700788,0.0,7.4343506316,3.03503290552,18,5,7.385,739.51103810005,18.700788,0.223694,7.4343506316,0.0,0.0,-4.47388,35.5,3.3,0.1,0,0,1024,1024,1684,1024,0,0,100,0,0,0,0,69,3.695,3.69,0,0,0,0,5.97,67.28,739.51103810005,18.700788,6,P-GPS,,5.7
156000,2026-01-07 15:35:39,740.16720610005,19.356956,0.0,7.4585632308,3.05958671208,18,5,7.385,740.16720610005,19.356956,0.223694,7.4585632308,0.0,0.0,-4.47388,35.5,3.3,0.2,0,0,1024,1024,1684,1024,0,0,100,0,0,0,0,69,3.695,3.69,0,0,0,0,5.97,67.28,740.16720610005,19.356956,6,P-GPS,,5.9
156100,2026-01-07 15:35:39,740.82337410005,20.013124,0.0,7.4828086384,3.085055873,18,5,7.385,740.82337410005,20.013124,0.223694,7.4828086384,0.0,0.0,-4.47388,35.5,3.2,0.3,0,0,1024,1024,1684,1024,0,0,100,0,0,0,0,69,3.695,3.69,0,0,0,0,5.97,67.28,740.82337410005,20.013124,6,P-GPS,,6.1
156200,2026-01-07 15:35:39,741.47954210005,20.997376,0.0,7.5198821304,3.12419301336,18,5,7.385,741.47954210005,20.669292,0.223694,7.5198821304,0.0,0.0,-4.250186,35.5,3.5,0.5,0,0,1024,1024,1684,1024,0,0,100,0,0,0,0,69,3.695,3.69,0,0,0,0,5.97,67.28,741.47954210005,20.669292,6,P-GPS,,6.3
156300,2026-01-07 15:35:39,742.13571010005,21.653544,0.0,7.5883860696,3.22246729472,18,5,7.385,742.13571010005,21.32546,0.223694,7.5883860696,0.0,0.0,-4.250186,35.5,2.7,0.8,0,0,1024,1024,1684,1024,0,0,100,0,0,0,0,69,3.695,3.69,0,0,0,0,5.97,67.28,742.13571010005,21.32546,6,P-GPS,,6.5
156400,2026-01-07 15:35:39,742.79187810005,22.637796,0.0,7.5936026052,3.25899616728,18,5,7.385,742.79187810005,21.981628,0.223694,7.5936026052,0.0,0.0,-4.250186,35.5,3.0,1.0,0,0,1024,1024,1684,1024,0,0,100,0,0,0,0,69,3.695,3.69,0,0,0,0,5.97,67.28,742.79187810005,21.981628,6,P-GPS,,6.7
156500,2026-01-07 15:35:40,743.77613010005,23.293964,0.0,7.5888125788,3.3004594232,18,5,7.398,743.77613010005,22.96588,0.223694,7.5936026052,0.0,0.0,-4.250186,35.6,4.0,1.5,0,0,1024,1024,1684,1024,0,0,100,0,0,0,0,69,3.694,3.692,0,0,0,0,5.93,67.28,743.77613010005,22.96588,6,P-GPS,,7.0
156600,2026-01-07 15:35:40,744.43229810005,23.950132,0.0,7.572342762,3.3779200556,18,5,7.398,744.43229810005,23.622048,0.223694,7.5936026052,0.0,0.0,-4.250186,35.6,4.0,1.6,0,0,1024,1024,1684,1024,0,0,100,0,0,0,0,69,3.694,3.692,0,0,0,0,5.93,67.28,744.43229810005,23.622048,6,P-GPS,,7.2
156700,2026-01-07 15:35:40,745.08846610005,24.6063,0.0,7.5179792432,3.6541667836,18,5,7.398,745.08846610005,24.278216,0.223694,7.5936026052,0.0,0.0,-4.47388,35.7,3.8,2.4,0,0,1024,1024,1684,1024,0,0,100,0,0,0,0,69,3.694,3.692,0,0,0,0,5.93,67.28,745.08846610005,24.278216,6,P-GPS,,7.4
156800,2026-01-07 15:35:40,745.74463410005,26.902888,0.0,7.49179814,3.7469817472,18,5,7.398,745.74463410005,24.934384,0.223694,7.5936026052,0.0,0.0,-4.250186,35.7,4.5,2.2,0,0,1024,1024,1684,1024,0,0,100,0,0,0,0,69,3.694,3.692,0,0,0,0,5.93,67.28,745.74463410005,24.934384,6,P-GPS,,7.6
156900,2026-01-07 15:35:40,746.40080210005,27.88714,0.0,7.4727364596,3.8192914608,18,5,7.398,746.40080210005,25.590552,0.223694,7.5936026052,0.0,0.0,-4.250186,35.7,4.5,2.1,0,0,1024,1024,1684,1024,0,0,100,0,0,0,0,69,3.694,3.692,0,0,0,0,5.93,67.28,746.40080210005,25.590552,6,P-GPS,,7.8
157000,2026-01-07 15:35:40,747.05697010005,28.871392,0.0,7.4713256984,3.85170616,18,5,7.398,747.05697010005,26.24672,0.223694,7.5936026052,0.0,0.0,-4.47388,35.7,4.6,1.6,0,0,1024,1024,1684,1024,0,0,100,0,0,0,0,69,3.694,3.692,0,0,0,0,5.93,67.28,747.05697010005,26.24672,6,P-GPS,,8.0
157100,2026-01-07 15:35:40,747.71313810005,29.52756,0.0,7.45734932,4.064468634,18,5,7.398,747.71313810005,26.902888,0.223694,7.5936026052,0.0,0.0,-4.47388,35.6,4.7,1.2,0,0,1024,1024,1684,1024,0,0,100,0,0,0,0,69,3.694,3.692,0,0,0,0,5.93,67.28,747.71313810005,26.902888,6,P-GPS,,8.2
157200,2026-01-07 15:35:40,748.36930610005,30.511812,0.0,7.4557417084,4.1192914704,18,5,7.398,748.36930610005,27.559056,0.223694,7.5936026052,0.0,0.0,-4.250186,35.8,4.6,1.3,0,0,1024,1024,1684,1024,0,0,100,0,0,0,0,69,3.694,3.692,0,0,0,0,5.93,67.28,748.36930610005,27.559056,6,P-GPS,,8.4
157300,2026-01-07 15:35:40,749.02547410005,31.496064,0.0,7.4569556192,4.1502297916,18,5,7.398,749.02547410005,28.215224,0.223694,7.5936026052,0.0,0.0,-4.250186,35.7,5.0,0.4,0,0,1024,1024,1684,1024,0,0,100,0,0,0,0,69,3.694,3.692,0,0,0,0,5.93,67.28,749.02547410005,28.215224,6,P-GPS,,8.6
157400,2026-01-07 15:35:40,749.68164210005,32.152232,0.0,7.4628939396,4.1735893724,18,5,7.398,749.68164210005,28.871392,0.223694,7.5936026052,0.0,0.223694,-4.250186,35.6,5.4,0.1,0,0,1024,1024,1684,1024,0,0,100,0,0,0,0,69,3.694,3.692,0,0,0,0,5.93,67.28,749.68164210005,28.871392,6,P-GPS,,8.8
157500,2026-01-07 15:35:41,750.33781010005,32.8084,0.223694,7.4587928896,4.2110237568,18,5,7.398,750.33781010005,29.52756,0.223694,7.5936026052,0.0,0.223694,-4.47388,35.6,6.1,-0.3,0,0,1024,1024,1684,1024,0,0,100,0,0,0,0,69,3.694,3.692,0,0,0,0,5.93,67.28,750.33781010005,29.52756,6,P-GPS,,9.0
157600,2026-01-07 15:35:41,750.99397810005,33.464568,0.223694,7.4116800272,4.5545277048,18,5,7.377,750.99397810005,30.183728,0.223694,7.5936026052,0.0,0.223694,-4.47388,35.5,6.6,-1.8,0,0,1024,1024,1684,1024,0,0,100,0,0,0,0,69,3.69,3.686,0,0,0,0,6.046,67.28,750.99397810005,30.183728,6,P-GPS,,9.2
157700,2026-01-07 15:35:41,751.65014610005,34.120736,0.0,7.3963913128,4.63254608,18,5,7.377,751.65014610005,30.839896,0.223694,7.5936026052,0.0,0.0,-4.47388,35.5,6.3,-1.6,0,0,1024,1024,1684,1024,0,0,100,0,0,0,0,69,3.69,3.686,0,0,0,0,6.046,67.28,751.65014610005,30.839896,6,P-GPS,,9.4
157800,2026-01-07 15:35:41,752.30631410005,34.44882,0.0,7.4086616544,4.6597442436,18,5,7.377,752.30631410005,31.496064,0.223694,7.5936026052,0.0,0.0,-4.250186,35.5,6.3,-1.0,0,0,1024,1024,1684,1024,0,0,100,0,0,0,0,69,3.69,3.686,0,0,0,0,6.046,67.28,752.30631410005,31.496064,6,P-GPS,,9.6
157900,2026-01-07 15:35:41,752.96248210005,34.776904,0.0,7.4200789776,4.6797573676,18,5,7.377,752.96248210005,32.152232,0.223694,7.5936026052,0.0,0.0,-4.250186,35.5,6.0,-1.1,0,0,1024,1024,1684,1024,0,0,100,0,0,0,0,69,3.69,3.686,0,0,0,0,6.046,67.28,752.96248210005,32.152232,6,P-GPS,,9.8
158000,2026-01-07 15:35:41,753.61865010005,35.433072,0.0,7.4448493196,4.7097114368,18,5,7.377,753.61865010005,32.8084,0.223694,7.5936026052,0.0,0.0,-4.250186,35.6,5.8,-0.2,0,0,1024,1024,1684,1024,0,0,100,0,0,0,0,69,3.69,3.686,0,0,0,0,6.046,67.28,753.61865010005,32.8084,6,P-GPS,,10.0
158100,2026-01-07 15:35:41,754.27481810005,36.08924,0.0,7.4504267476,4.7154857152,18,5,7.377,754.27481810005,33.464568,0.223694,7.5936026052,0.0,0.0,-4.250186,35.6,5.4,0.1,0,0,1024,1024,1024,1024,0,0,0,0,0,0,0,69,3.69,3.686,0,0,0,0,6.046,67.28,754.27481810005,33.464568,6,P-GPS,,10.2
158200,2026-01-07 15:35:41,754.93098610005,36.745408,0.0,7.470964806,4.7417652436,18,5,7.377,754.93098610005,34.120736,0.223694,7.5936026052,0.0,0.0,-4.250186,35.6,5.4,0.2,0,0,1024,1024,1024,1024,0,0,0,0,0,0,0,69,3.69,3.686,0,0,0,0,6.046,67.28,754.93098610005,34.120736,6,P-GPS,,10.4
158300,2026-01-07 15:35:41,755.58715410005,37.401576,0.0,7.486548796,4.7646655068,18,5,7.377,755.58715410005,34.776904,0.223694,7.5936026052,0.0,0.0,-4.47388,35.5,5.2,0.1,0,0,1024,1024,1024,1024,0,0,0,0,0,0,0,69,3.69,3.686,0,0,0,0,6.046,67.28,755.58715410005,34.776904,6,P-GPS,,10.6
158400,2026-01-07 15:35:41,756.24332210005,38.057744,0.0,7.4815947276,4.7955382112,18,5,7.377,756.24332210005,35.433072,0.223694,7.5936026052,0.0,0.0,-4.026492,35.4,5.8,0.9,0,0,1024,1024,1024,1024,0,0,0,0,0,0,0,69,3.69,3.686,0,0,0,0,6.046,67.28,756.24332210005,35.433072,6,P-GPS,,10.8
158500,2026-01-07 15:35:42,756.89949010005,38.713912,0.223694,7.462762706,4.8314962176,18,5,7.377,756.89949010005,36.08924,0.223694,7.5936026052,0.223694,0.0,-3.35541,35.6,6.1,1.8,0,0,1024,1024,1024,1024,0,0,0,0,0,0,0,69,3.69,3.686,0,0,0,0,6.046,67.28,756.89949010005,36.08924,6,P-GPS,,11.0
158600,2026-01-07 15:35:42,757.22757410005,39.041996,0.223694,7.4149936756,4.9256235172,18,5,7.377,757.22757410005,36.417324,0.223694,7.5936026052,0.223694,0.0,-2.684328,35.8,6.5,2.5,0,0,1024,1024,1024,1024,0,0,0,0,0,0,0,69,3.69,3.686,0,0,0,0,6.046,67.28,757.22757410005,36.417324,6,P-GPS,,11.1
158700,2026-01-07 15:35:42,757.55565810005,39.37008,0.223694,7.3731629656,5.0135828376,18,5,7.377,757.55565810005,36.745408,0.223694,7.5936026052,0.223694,0.0,-1.789552,35.8,7.1,2.6,0,0,1024,1024,1024,1024,0,0,0,0,0,0,0,69,3.741,3.731,0,0,0,0,6.046,67.28,757.55565810005,36.745408,6,P-GPS,,11.2
158800,2026-01-07 15:35:42,757.88374210005,39.698164,0.223694,7.3433073216,5.3026248416,18,5,7.377,757.88374210005,37.073492,0.223694,7.5936026052,0.223694,0.0,-1.11847,35.7,7.5,2.3,0,0,1024,1024,1024,1024,0,0,0,0,0,0,0,69,3.741,3.731,0,0,0,0,6.046,67.28,757.88374210005,37.073492,6,P-GPS,,11.3
158900,2026-01-07 15:35:42,757.88374210005,39.698164,0.0,7.3340225444,5.3791996472,18,5,7.377,757.88374210005,37.073492,0.223694,7.5936026052,0.0,0.0,-0.447388,35.7,7.8,2.1,0,0,1024,1024,1024,1024,0,0,0,0,0,0,0,69,3.741,3.731,0,0,0,0,6.046,67.28,757.88374210005,37.073492,6,P-GPS,,11.3
159000,2026-01-07 15:35:42,757.88374210005,39.698164,0.0,7.3110894728,5.4284122472,18,5,7.377,757.88374210005,37.073492,0.223694,7.5936026052,0.0,0.0,-0.223694,35.7,7.5,1.9,0,0,1024,1024,1024,1024,0,0,0,0,0,0,0,69,3.741,3.731,0,0,0,0,6.046,67.28,757.88374210005,37.073492,6,P-GPS,,11.3
159100,2026-01-07 15:35:42,757.88374210005,39.698164,0.0,7.3019687376,5.4497377072,18,5,7.377,757.88374210005,37.073492,0.223694,7.5936026052,0.0,0.0,0.0,35.6,6.7,1.5,0,0,1024,1024,1024,1024,0,0,0,0,0,0,0,69,3.741,3.731,0,0,0,0,6.046,67.28,757.88374210005,37.073492,6,P-GPS,,11.3
159200,2026-01-07 15:35:42,757.88374210005,39.698164,0.0,7.3166340924,5.5107285228,18,5,7.377,757.88374210005,37.073492,0.223694,7.5936026052,0.0,0.0,0.0,35.6,6.5,0.9,0,0,1024,1024,1024,1024,0,0,0,0,0,0,0,69,3.741,3.731,0,0,0,0,6.046,67.28,757.88374210005,37.073492,6,P-GPS,,11.3
159300,2026-01-07 15:35:42,757.88374210005,39.698164,0.0,7.3459976104,5.7010500512,18,5,7.377,757.88374210005,37.073492,0.223694,7.5936026052,0.0,0.0,0.0,35.6,6.1,0.0,0,0,1024,1024,1024,1024,0,0,0,0,0,0,0,68,3.741,3.731,0,0,0,0,6.046,67.28,757.88374210005,37.073492,6,P-GPS,,11.3
159400,2026-01-07 15:35:43,757.88374210005,39.698164,0.223694,7.4395015504,5.801837456,18,5,7.377,757.88374210005,37.073492,0.223694,7.5936026052,-0.223694,0.0,0.0,35.7,5.9,-0.5,0,0,1024,1024,1024,1024,0,0,0,0,0,0,0,68,3.741,3.731,0,0,0,0,6.046,67.28,757.88374210005,37.073492,6,P-GPS,,11.3
159500,2026-01-07 15:35:43,757.88374210005,39.698164,0.223694,7.5251642828,5.8942587188,18,5,7.377,757.88374210005,37.073492,0.223694,7.5936026052,-0.223694,0.0,0.0,35.7,6.2,-1.4,0,0,1024,1024,1024,1024,0,0,0,0,0,0,0,68,3.741,3.731,0,0,0,0,6.046,67.28,757.88374210005,37.073492,6,P-GPS,,11.3
159600,2026-01-07 15:35:43,757.88374210005,39.698164,0.223694,7.5823165156,5.9545277496,18,5,7.377,757.88374210005,37.073492,0.223694,7.5936026052,-0.223694,0.0,0.0,35.6,6.5,-1.2,0,0,1024,1024,1024,1024,0,0,0,0,0,0,0,68,3.741,3.731,0,0,0,0,6.046,67.28,757.88374210005,37.073492,6,P-GPS,,11.3
159700,2026-01-07 15:35:43,757.88374210005,39.698164,0.223694,7.7506236076,6.1357941596,18,5,7.377,757.88374210005,37.073492,0.223694,7.7506236076,-0.223694,0.0,0.0,35.7,5.7,-1.3,0,0,1024,1024,1024,1024,0,0,0,0,0,0,0,68,3.741,3.731,0,0,0,0,6.046,67.28,757.88374210005,37.073492,6,P-GPS,,11.3
159800,2026-01-07 15:35:43,757.88374210005,39.698164,0.0,7.7894031364,6.1799870744,18,5,7.472,757.88374210005,37.073492,0.223694,7.7894031364,0.0,0.0,0.0,35.6,5.8,-0.5,0,0,1024,1024,1024,1024,0,0,0,0,0,0,0,68,3.719,3.716,0,0,0,0,5.361,67.28,757.88374210005,37.073492,6,P-GPS,,11.3
159900,2026-01-07 15:35:43,757.88374210005,39.698164,0.0,7.8212600928,6.216863716,18,5,7.472,757.88374210005,37.073492,0.223694,7.8212600928,0.0,0.0,0.0,35.5,5.8,-0.1,0,0,1024,1024,1024,1024,0,0,0,0,0,0,0,68,3.719,3.716,0,0,0,0,5.361,67.28,757.88374210005,37.073492,6,P-GPS,,11.3
160000,2026-01-07 15:35:43,757.88374210005,39.698164,0.0,7.8496065504,6.2541996752,18,5,7.472,757.88374210005,37.073492,0.223694,7.8496065504,0.0,0.0,0.0,35.5,5.3,-0.2,0,0,1024,1024,1024,1024,0,0,0,0,0,0,0,68,3.719,3.716,0,0,0,0,5.361,67.28,757.88374210005,37.073492,6,P-GPS,,11.3
160100,2026-01-07 15:35:43,757.88374210005,39.698164,0.0,7.8566931648,6.3565618832,18,5,7.472,757.88374210005,37.073492,0.223694,7.8566931648,0.0,0.0,0.0,35.5,5.0,0.1,0,0,1024,1024,1024,1024,0,0,0,0,0,0,0,68,3.719,3.716,0,0,0,0,5.361,67.28,757.88374210005,37.073492,6,P-GPS,,11.3
160200,2026-01-07 15:35:43,757.88374210005,39.698164,0.0,7.8787076012,6.379265296,18,5,7.472,757.88374210005,37.073492,0.223694,7.8787076012,0.0,0.0,0.0,35.5,5.1,0.4,0,0,1024,1024,1024,1024,0,0,0,0,0,0,0,68,3.719,3.716,0,0,0,0,5.361,67.28,757.88374210005,37.073492,6,P-GPS,,11.3
160300,2026-01-07 15:35:43,757.88374210005,39.698164,0.0,7.8904530084,6.3964568976,18,5,7.472,757.88374210005,37.073492,0.223694,7.8904530084,0.0,0.0,0.0,35.5,4.4,1.0,0,0,1024,1024,1024,1024,0,0,0,0,0,0,0,68,3.719,3.716,0,0,0,0,5.361,67.28,757.88374210005,37.073492,6,P-GPS,,11.3
160400,2026-01-07 15:35:43,757.88374210005,39.698164,0.0,7.8799543204,6.4235238276,18,5,7.472,757.88374210005,37.073492,0.223694,7.8904530084,0.0,0.0,0.0,35.6,4.2,1.6,0,0,1024,1024,1024,1024,0,0,0,0,0,0,0,68,3.719,3.716,0,0,0,0,5.361,67.28,757.88374210005,37.073492,6,P-GPS,,11.3
160500,2026-01-07 15:35:44,757.88374210005,39.698164,0.0,7.8304792532,6.5128939092,18,5,7.472,757.88374210005,37.073492,0.223694,7.8904530084,0.0,0.0,0.0,35.7,3.5,1.2,0,0,1024,1024,1024,1024,0,0,0,0,0,0,0,68,3.719,3.716,0,0,0,0,5.361,67.28,757.88374210005,37.073492,6,P-GPS,,11.3
160600,2026-01-07 15:35:44,757.88374210005,39.698164,0.0,7.8264766284,6.5404529652,18,5,7.472,757.88374210005,37.073492,0.223694,7.8904530084,0.0,0.0,0.0,35.6,3.3,0.3,0,0,1024,1024,1024,1024,0,0,0,0,0,0,0,68,3.719,3.716,0,0,0,0,5.361,67.28,757.88374210005,37.073492,6,P-GPS,,11.3
160700,2026-01-07 15:35:44,757.88374210005,39.698164,0.0,7.8223099616,6.5576445668,18,5,7.472,757.88374210005,37.073492,0.223694,7.8904530084,0.0,0.0,0.0,35.6,3.6,0.0,0,0,1024,1024,1024,1024,0,0,0,0,0,0,0,68,3.719,3.716,0,0,0,0,5.361,67.28,757.88374210005,37.073492,6,P-GPS,,11.3
160800,2026-01-07 15:35:44,757.88374210005,39.698164,0.0,7.8219490692,6.5610566404,18,5,7.472,757.88374210005,37.073492,0.223694,7.8904530084,0.0,0.0,0.0,35.8,3.6,0.1,0,0,1024,1024,1024,1024,0,0,0,0,0,0,0,68,3.719,3.716,0,0,0,0,5.361,67.28,757.88374210005,37.073492,6,P-GPS,,11.3
160900,2026-01-07 15:35:44,757.88374210005,39.698164,0.0,7.8149280716,6.574967402,18,5,7.434,757.88374210005,37.073492,0.223694,7.8904530084,0.0,0.0,0.0,35.8,3.9,-0.4,0,0,1024,1024,1024,1024,0,0,0,0,0,0,0,68,3.721,3.714,0,0,0,0,5.006,67.64,757.88374210005,37.073492,6,P-GPS,,11.3
161000,2026-01-07 15:35:44,757.88374210005,39.698164,0.0,7.8046918508,6.6250986372,18,5,7.434,757.88374210005,37.073492,0.223694,7.8904530084,0.0,0.0,0.0,35.8,3.7,-0.8,0,0,1024,1024,1024,1024,0,0,0,0,0,0,0,68,3.721,3.714,0,0,0,0,5.006,67.64,757.88374210005,37.073492,6,P-GPS,,11.3
161100,2026-01-07 15:35:44,757.88374210005,39.698164,0.0,7.7761813512,6.662729872,18,5,7.434,757.88374210005,37.073492,0.223694,7.8904530084,0.0,0.0,0.0,35.6,4.1,-1.7,0,0,1024,1024,1024,1024,0,0,0,0,0,0,0,68,3.721,3.714,0,0,0,0,5.006,67.64,757.88374210005,37.073492,6,P-GPS,,11.3
161200,2026-01-07 15:35:44,757.88374210005,39.698164,0.0,7.7317259692,6.7115487712,18,5,7.434,757.88374210005,37.073492,0.223694,7.8904530084,0.0,0.0,0.0,35.6,4.9,-1.8,0,0,1024,1024,1024,1024,0,0,0,0,0,0,0,68,3.721,3.714,0,0,0,0,5.006,67.64,757.88374210005,37.073492,6,P-GPS,,11.3
161300,2026-01-07 15:35:44,757.88374210005,39.698164,0.223694,7.6735894844,6.7701117652,17,5,7.434,757.88374210005,37.073492,0.223694,7.8904530084,0.223694,0.0,0.0,35.6,6.0,-0.4,0,0,1024,1024,1024,1024,0,0,0,0,0,0,0,68,3.721,3.714,0,0,0,0,5.006,67.64,757.88374210005,37.073492,6,P-GPS,,11.3
161400,2026-01-07 15:35:44,758.21182610005,39.698164,0.223694,7.5667981424,6.8775592752,17,5,7.434,758.21182610005,37.401576,0.223694,7.8904530084,0.223694,0.0,0.0,35.5,6.1,0.0,0,0,1024,1024,1024,1024,0,0,0,0,0,0,0,68,3.721,3.714,0,0,0,0,5.006,67.64,758.21182610005,37.401576,6,P-GPS,,11.4
161500,2026-01-07 15:35:45,758.21182610005,39.698164,0.223694,7.4869753052,6.9585960232,17,5,7.434,758.21182610005,37.401576,0.223694,7.8904530084,0.223694,0.0,0.0,35.6,6.3,0.9,0,0,1024,1024,1024,1024,0,0,0,0,0,0,0,68,3.721,3.714,0,0,0,0,5.006,67.64,758.21182610005,37.401576,6,P-GPS,,11.4
161600,2026-01-07 15:35:45,758.21182610005,39.698164,0.223694,7.4006235964,7.0503939264,17,5,7.434,758.21182610005,37.401576,0.223694,7.8904530084,0.223694,0.0,0.0,35.7,6.3,1.4,0,0,1024,1024,1024,1024,0,0,0,0,0,0,0,68,3.721,3.714,0,0,0,0,5.006,67.64,758.21182610005,37.401576,6,P-GPS,,11.4
161700,2026-01-07 15:35:45,758.21182610005,39.698164,0.223694,7.3236878984,7.1345474724,17,5,7.434,758.21182610005,37.401576,0.223694,7.8904530084,0.223694,0.0,0.0,35.7,6.6,1.6,0,0,1024,1024,1024,1024,0,0,0,0,0,0,0,68,3.721,3.714,0,0,0,0,5.006,67.64,758.21182610005,37.401576,6,P-GPS,,11.4
161800,2026-01-07 15:35:45,758.21182610005,39.698164,0.0,7.2268375016,7.2814634876,17,5,7.434,758.21182610005,37.401576,0.223694,7.8904530084,0.0,0.0,0.0,35.9,6.3,2.2,0,0,1024,1024,1024,1024,0,0,0,0,0,0,0,68,3.721,3.714,0,0,0,0,5.006,67.64,758.21182610005,37.401576,6,P-GPS,,11.4
161900,2026-01-07 15:35:45,758.21182610005,39.698164,0.0,7.1720146652,7.3478676892,17,5,7.434,758.21182610005,37.401576,0.223694,7.8904530084,0.0,0.0,0.0,36.0,6.2,1.4,0,0,1024,1024,1024,1024,0,0,0,0,0,0,0,68,3.721,3.714,0,0,0,0,5.006,67.64,758.21182610005,37.401576,6,P-GPS,,11.4
162000,2026-01-07 15:35:45,758.21182610005,39.698164,0.0,7.1273624328,7.404363754,17,5,7.437,758.21182610005,37.401576,0.223694,7.8904530084,0.0,0.0,0.0,35.9,6.2,0.4,0,0,1024,1024,1024,1024,0,0,0,0,0,0,0,68,3.717,3.715,0,0,0,0,4.796,67.64,758.21182610005,37.401576,6,P-GPS,,11.4
162100,2026-01-07 15:35:45,758.21182610005,39.698164,0.0,7.095472668,7.4496065376,18,5,7.437,758.21182610005,37.401576,0.223694,7.8904530084,0.0,0.0,0.0,35.7,5.5,0.1,0,0,1024,1024,1024,1024,0,0,0,0,0,0,0,68,3.717,3.715,0,0,0,0,4.796,67.64,758.21182610005,37.401576,6,P-GPS,,11.4
162200,2026-01-07 15:35:45,758.21182610005,39.698164,0.0,7.129429362,7.5297246504,18,5,7.437,758.21182610005,37.401576,0.223694,7.8904530084,0.0,0.0,0.0,35.5,5.2,0.2,0,0,1024,1024,1024,1024,0,0,0,0,0,0,0,68,3.717,3.715,0,0,0,0,4.796,67.64,758.21182610005,37.401576,6,P-GPS,,11.4
162300,2026-01-07 15:35:45,758.21182610005,39.698164,0.0,7.1184057396,7.5669949928,18,5,7.437,758.21182610005,37.401576,0.223694,7.8904530084,0.0,0.0,0.0,35.5,4.4,0.9,0,0,1024,1024,1024,1024,0,0,0,0,0,0,0,68,3.717,3.715,0,0,0,0,4.796,67.64,758.21182610005,37.401576,6,P-GPS,,11.4
162400,2026-01-07 15:35:45,758.21182610005,39.698164,0.0,7.1119096764,7.5859254396,18,5,7.437,758.21182610005,37.401576,0.223694,7.8904530084,0.0,0.0,0.0,35.6,4.2,1.3,0,0,1024,1024,1024,1024,0,0,0,0,0,0,0,68,3.717,3.715,0,0,0,0,4.796,67.64,758.21182610005,37.401576,6,P-GPS,,11.4
162500,2026-01-07 15:35:46,758.21182610005,39.698164,0.0,7.098425424,7.604330952,18,5,7.437,758.21182610005,37.401576,0.223694,7.8904530084,0.0,0.0,0.0,35.6,4.4,1.3,0,0,1024,1024,1024,1024,0,0,0,0,0,0,0,68,3.717,3.715,0,0,0,0,4.796,67.64,758.21182610005,37.401576,6,P-GPS,,11.4
162600,2026-01-07 15:35:46,758.21182610005,39.698164,0.0,7.0657154492,7.6379267536,18,5,7.437,758.21182610005,37.401576,0.223694,7.8904530084,0.0,0.0,0.0,35.6,4.7,1.6,0,0,1024,1024,1024,1024,0,0,0,0,0,0,0,68,3.717,3.715,0,0,0,0,4.796,67.64,758.21182610005,37.401576,6,P-GPS,,11.4
162700,2026-01-07 15:35:46,758.21182610005,39.698164,0.0,7.0687994388,7.7120081208,18,5,7.437,758.21182610005,37.401576,0.223694,7.8904530084,0.0,0.0,0.0,35.4,4.8,1.6,0,0,1024,1024,1024,1024,0,0,0,0,0,0,0,68,3.717,3.715,0,0,0,0,4.796,67.64,758.21182610005,37.401576,6,P-GPS,,11.4
162800,2026-01-07 15:35:46,758.21182610005,39.698164,0.0,7.0474411704,7.7418309564,18,5,7.437,758.21182610005,37.401576,0.223694,7.8904530084,0.0,0.0,0.0,35.4,4.7,2.0,0,0,1024,1024,1024,1024,0,0,0,0,0,0,0,68,3.717,3.715,0,0,0,0,4.796,67.64,758.21182610005,37.401576,6,P-GPS,,11.4
162900,2026-01-07 15:35:46,758.21182610005,39.698164,0.0,7.02591886,7.7684713772,18,5,7.437,758.21182610005,37.401576,0.223694,7.8904530084,0.0,0.0,0.0,35.5,5.1,1.7,0,0,1024,1024,1024,1024,0,0,0,0,0,0,0,68,3.717,3.715,0,0,0,0,4.796,67.64,758.21182610005,37.401576,6,P-GPS,,11.4
163000,2026-01-07 15:35:46,758.21182610005,39.698164,0.0,6.9952758144,7.802001562,18,5,7.437,758.21182610005,37.401576,0.223694,7.8904530084,0.0,0.0,0.0,35.6,5.3,1.4,0,0,1024,1024,1024,1024,0,0,0,0,0,0,0,68,3.717,3.715,0,0,0,0,4.796,67.64,758.21182610005,37.401576,6,P-GPS,,11.4
163100,2026-01-07 15:35:46,758.21182610005,39.698164,0.0,6.9752954988,7.8227036624,18,5,7.455,758.21182610005,37.401576,0.223694,7.8904530084,0.0,0.0,0.0,35.6,5.3,1.1,0,0,1024,1024,1024,1024,0,0,0,0,0,0,0,68,3.73,3.725,0,0,0,0,4.604,67.64,758.21182610005,37.401576,6,P-GPS,,11.4
163200,2026-01-07 15:35:46,758.21182610005,39.698164,0.0,6.9573821124,7.8422574688,18,5,7.455,758.21182610005,37.401576,0.223694,7.8904530084,0.0,0.0,0.0,35.6,5.2,0.5,0,0,1024,1024,1024,1024,0,0,0,0,0,0,0,68,3.73,3.725,0,0,0,0,4.604,67.64,758.21182610005,37.401576,6,P-GPS,,11.4
163300,2026-01-07 15:35:46,758.21182610005,39.698164,0.0,6.9464569152,7.8535435584,18,5,7.455,758.21182610005,37.401576,0.223694,7.8904530084,0.0,0.0,0.0,35.7,4.8,0.5,0,0,1024,1024,1024,1024,0,0,0,0,0,0,0,68,3.73,3.725,0,0,0,0,4.604,67.64,758.21182610005,37.401576,6,P-GPS,,11.4
163400,2026-01-07 15:35:46,758.21182610005,39.698164,0.0,6.9506563904,7.8661747924,18,5,7.455,758.21182610005,37.401576,0.223694,7.8904530084,0.0,0.0,0.0,35.8,4.9,0.9,0,0,1024,1024,1024,1024,0,0,0,0,0,0,0,68,3.73,3.725,0,0,0,0,4.604,67.64,758.21182610005,37.401576,6,P-GPS,,11.4
163500,2026-01-07 15:35:47,758.21182610005,39.698164,0.0,6.9756563912,7.9156498596,18,5,7.455,758.21182610005,37.401576,0.223694,7.8904530084,0.0,0.0,0.0,35.7,5.3,-0.4,0,0,1024,1024,1024,1024,0,0,0,0,0,0,0,68,3.73,3.725,0,0,0,0,4.604,67.64,758.21182610005,37.401576,6,P-GPS,,11.4
163600,2026-01-07 15:35:47,758.21182610005,39.698164,0.0,6.98982962,7.9423230888,18,5,7.455,758.21182610005,37.401576,0.223694,7.8904530084,0.0,0.0,0.0,35.5,4.7,-0.6,0,0,1024,1024,1024,1024,0,0,0,0,0,0,0,68,3.73,3.725,0,0,0,0,4.604,67.64,758.21182610005,37.401576,6,P-GPS,,11.4
163700,2026-01-07 15:35:47,757.88374210005,39.698164,0.0,7.009186576,7.9674871316,18,5,7.455,758.21182610005,37.401576,0.223694,7.8904530084,0.0,0.0,0.0,35.7,3.9,-0.4,0,0,1024,1024,1024,1024,0,0,0,0,0,0,0,68,3.73,3.725,0,0,0,0,4.604,67.64,757.88374210005,37.073492,6,P-GPS,,11.3
163800,2026-01-07 15:35:47,757.88374210005,39.698164,0.0,7.0342521936,7.9936354264,18,5,7.455,758.21182610005,37.401576,0.223694,7.8904530084,0.0,0.0,0.0,35.8,4.0,-0.5,0,0,1024,1024,1024,1024,0,0,0,0,0,0,0,68,3.73,3.725,0,0,0,0,4.604,67.64,757.88374210005,37.073492,6,P-GPS,,11.3
163900,2026-01-07 15:35:47,757.88374210005,39.698164,0.0,7.0585304096,8.0689635128,18,5,7.455,758.21182610005,37.401576,0.223694,7.8904530084,0.0,0.0,0.0,35.7,4.4,-0.9,0,0,1024,1024,1024,1024,0,0,0,0,0,0,0,68,3.73,3.725,0,0,0,0,4.604,67.64,757.88374210005,37.073492,6,P-GPS,,11.3
164000,2026-01-07 15:35:47,757.88374210005,39.698164,0.0,7.0563322468,8.0994425164,18,5,7.455,758.21182610005,37.401576,0.223694,7.8904530084,0.0,0.0,0.0,35.6,5.2,-1.6,0,0,1024,1024,1024,1024,0,0,0,0,0,0,0,68,3.73,3.725,0,0,0,0,4.604,67.64,757.88374210005,37.073492,6,P-GPS,,11.3
164100,2026-01-07 15:35:47,757.88374210005,39.698164,0.0,7.0514109868,8.12664068,18,5,7.455,758.21182610005,37.401576,0.223694,7.8904530084,0.0,0.0,0.0,35.6,5.6,-1.5,0,0,1024,1024,1024,1024,0,0,0,0,0,0,0,68,3.73,3.725,0,0,0,0,4.604,67.64,757.88374210005,37.073492,6,P-GPS,,11.3
164200,2026-01-07 15:35:47,757.88374210005,39.698164,0.0,7.0482941888,8.14796614,18,5,7.446,758.21182610005,37.401576,0.223694,7.8904530084,0.0,0.0,0.0,35.7,5.6,-1.4,0,0,1024,1024,1024,1024,0,0,0,0,0,0,0,68,3.723,3.723,0,0,0,0,4.559,67.64,757.88374210005,37.073492,6,P-GPS,,11.3
164300,2026-01-07 15:35:47,757.88374210005,39.698164,0.0,7.0424214852,8.16437034,18,5,7.446,758.21182610005,37.401576,0.223694,7.8904530084,0.0,0.0,0.0,35.8,5.4,-1.1,0,0,1024,1024,1024,1024,0,0,0,0,0,0,0,68,3.723,3.723,0,0,0,0,4.559,67.64,757.88374210005,37.073492,6,P-GPS,,11.3
164400,2026-01-07 15:35:47,757.88374210005,39.698164,0.0,6.9882876252,8.2225396332,18,5,7.446,758.21182610005,37.401576,0.223694,7.8904530084,0.0,0.0,0.0,35.8,5.9,-1.2,0,0,1024,1024,1024,1024,0,0,0,0,0,0,0,68,3.723,3.723,0,0,0,0,4.559,67.64,757.88374210005,37.073492,6,P-GPS,,11.3
164500,2026-01-07 15:35:48,757.88374210005,39.698164,0.0,6.9656498292,8.2472443584,18,5,7.446,758.21182610005,37.401576,0.223694,7.8904530084,0.0,0.0,0.0,35.7,6.2,-1.4,0,0,1024,1024,1024,1024,0,0,0,0,0,0,0,68,3.723,3.723,0,0,0,0,4.559,67.64,757.88374210005,37.073492,6,P-GPS,,11.3
164600,2026-01-07 15:35:48,757.88374210005,39.698164,0.0,6.9441275188,8.2733926532,18,5,7.446,758.21182610005,37.401576,0.223694,7.8904530084,0.0,0.0,0.0,35.7,6.1,-1.4,0,0,1024,1024,1024,1024,0,0,0,0,0,0,0,68,3.723,3.723,0,0,0,0,4.559,67.64,757.88374210005,37.073492,6,P-GPS,,11.3
164700,2026-01-07 15:35:48,757.88374210005,39.698164,0.0,6.924868988,8.2968834676,18,5,7.446,758.21182610005,37.401576,0.223694,7.8904530084,0.0,0.0,0.0,35.8,6.2,-1.7,0,0,1024,1024,1024,1024,0,0,0,0,0,0,0,68,3.723,3.723,0,0,0,0,4.559,67.64,757.88374210005,37.073492,6,P-GPS,,11.3
164800,2026-01-07 15:35:48,757.88374210005,39.698164,0.0,6.9138453656,8.317257484,18,5,7.446,758.21182610005,37.401576,0.223694,7.8904530084,0.0,0.0,0.0,35.8,6.3,-1.8,0,0,1024,1024,1024,1024,0,0,0,0,0,0,0,68,3.723,3.723,0,0,0,0,4.559,67.64,757.88374210005,37.073492,6,P-GPS,,11.3
164900,2026-01-07 15:35:48,757.88374210005,39.698164,0.0,6.8995409032,8.3347115528,18,5,7.446,758.21182610005,37.401576,0.223694,7.8904530084,0.0,0.0,0.0,35.8,6.5,-2.0,0,0,1024,1024,1024,1024,0,0,0,0,0,0,0,68,3.723,3.723,0,0,0,0,4.559,67.64,757.88374210005,37.073492,6,P-GPS,,11.3
165000,2026-01-07 15:35:48,757.88374210005,39.698164,0.0,6.8729004824,8.3633204776,18,5,7.446,758.21182610005,37.401576,0.223694,7.8904530084,0.0,0.0,0.0,35.9,6.5,-1.9,0,0,1024,1024,1024,1024,0,0,0,0,0,0,0,68,3.723,3.723,0,0,0,0,4.559,67.64,757.88374210005,37.073492,6,P-GPS,,11.3
165100,2026-01-07 15:35:48,757.88374210005,39.698164,0.0,6.8455382768,8.3929464628,18,5,7.446,758.21182610005,37.401576,0.223694,7.8904530084,0.0,0.0,0.0,35.7,7.1,-2.5,0,0,1024,1024,1024,1024,0,0,0,0,0,0,0,68,3.723,3.723,0,0,0,0,4.559,67.64,757.88374210005,37.073492,6,P-GPS,,11.3
165200,2026-01-07 15:35:48,757.55565810005,39.698164,0.0,6.7867128156,8.451771924,18,5,7.446,758.21182610005,37.401576,0.223694,7.8904530084,0.0,0.0,0.0,35.5,7.3,-2.7,0,0,1024,1024,1024,1024,0,0,0,0,0,0,0,68,3.723,3.723,0,0,0,0,4.559,67.64,757.55565810005,36.745408,6,P-GPS,,11.2
165300,2026-01-07 15:35:48,757.55565810005,39.698164,0.0,6.7512469352,8.4872706128,18,5,7.461,758.21182610005,37.401576,0.223694,7.8904530084,0.0,0.0,0.0,35.4,7.5,-2.5,0,0,1024,1024,1024,1024,0,0,0,0,0,0,0,68,3.732,3.729,0,0,0,0,4.323,67.64,757.55565810005,36.745408,6,P-GPS,,11.2
165400,2026-01-07 15:35:48,757.55565810005,39.698164,0.0,6.7130579576,8.528215496,18,5,7.461,758.21182610005,37.401576,0.223694,7.8904530084,0.0,0.0,0.0,35.4,8.0,-2.1,0,0,1024,1024,1024,1024,0,0,0,0,0,0,0,68,3.732,3.729,0,0,0,0,4.323,67.64,757.55565810005,36.745408,6,P-GPS,,11.2
165500,2026-01-07 15:35:49,757.55565810005,39.698164,0.0,6.6766406336,8.5750002744,18,5,7.461,758.21182610005,37.401576,0.223694,7.8904530084,0.0,0.0,0.0,35.4,8.1,-1.0,0,0,1024,1024,1024,1024,0,0,0,0,0,0,0,68,3.732,3.729,0,0,0,0,4.323,67.64,757.55565810005,36.745408,6,P-GPS,,11.2
165600,2026-01-07 15:35:49,757.55565810005,39.698164,0.223694,6.6427495564,8.644685316,18,5,7.461,758.21182610005,37.401576,0.223694,7.8904530084,0.0,-0.223694,0.0,35.5,8.1,0.0,0,0,1024,1024,1024,1024,0,0,0,0,0,0,0,68,3.732,3.729,0,0,0,0,4.323,67.64,757.55565810005,36.745408,6,P-GPS,,11.2
165700,2026-01-07 15:35:49,757.55565810005,39.698164,0.223694,6.6138125476,8.717848048,18,5,7.461,758.21182610005,37.401576,0.223694,7.8904530084,0.0,-0.223694,0.0,35.5,7.3,2.1,0,0,1024,1024,1024,1024,0,0,0,0,0,0,0,68,3.732,3.729,0,0,0,0,4.323,67.64,757.55565810005,36.745408,6,P-GPS,,11.2
165800,2026-01-07 15:35:49,757.22757410005,39.698164,0.223694,6.5852364312,8.8072181296,18,5,7.461,758.21182610005,37.401576,0.223694,7.8904530084,0.0,-0.223694,0.0,35.5,6.8,2.8,0,0,1024,1024,1024,1024,0,0,0,0,0,0,0,68,3.732,3.729,0,0,0,0,4.323,67.64,757.22757410005,36.417324,6,P-GPS,,11.1
165900,2026-01-07 15:35:49,757.22757410005,39.698164,0.223694,6.5687666144,8.8841210192,18,5,7.461,758.21182610005,37.401576,0.223694,7.8904530084,0.0,-0.223694,0.0,35.6,6.2,2.8,0,0,1024,1024,1024,1024,0,0,0,0,0,0,0,68,3.732,3.729,0,0,0,0,4.323,67.64,757.22757410005,36.417324,6,P-GPS,,11.1
166000,2026-01-07 15:35:49,757.22757410005,39.698164,0.223694,6.567913596,8.9562338824,18,5,7.461,758.21182610005,37.401576,0.223694,7.8904530084,0.0,-0.223694,0.0,35.5,5.9,2.1,0,0,1024,1024,1024,1024,0,0,0,0,0,0,0,68,3.732,3.729,0,0,0,0,4.323,67.64,757.22757410005,36.417324,6,P-GPS,,11.1
166100,2026-01-07 15:35:49,757.22757410005,39.698164,0.223694,6.585302048,9.0729333612,18,5,7.461,758.21182610005,37.401576,0.223694,7.8904530084,0.0,-0.223694,0.0,35.5,5.6,1.5,0,0,1024,1024,1024,1024,0,0,0,0,0,0,0,68,3.732,3.729,0,0,0,0,4.323,67.64,757.22757410005,36.417324,6,P-GPS,,11.1
166200,2026-01-07 15:35:49,757.22757410005,39.698164,0.0,6.6038059856,9.1396984552,18,5,7.461,758.21182610005,37.401576,0.223694,7.8904530084,0.0,0.0,0.0,35.5,5.4,1.6,0,0,1024,1024,1024,1024,0,0,0,0,0,0,0,68,3.732,3.729,0,0,0,0,4.323,67.64,757.22757410005,36.417324,6,P-GPS,,11.1
166300,2026-01-07 15:35:49,757.22757410005,39.698164,0.0,6.6236550676,9.1897312652,18,5,7.461,758.21182610005,37.401576,0.223694,7.8904530084,0.0,0.0,0.0,35.6,5.3,1.1,0,0,1024,1024,1024,1024,0,0,0,0,0,0,0,68,3.732,3.729,0,0,0,0,4.323,67.64,757.22757410005,36.417324,6,P-GPS,,11.1
166400,2026-01-07 15:35:49,757.22757410005,39.698164,0.0,6.6548230476,9.22162103,18,5,7.45,758.21182610005,37.401576,0.223694,7.8904530084,0.0,0.0,0.0,35.5,5.7,0.4,0,0,1024,1024,1024,1024,0,0,0,0,0,0,0,68,3.726,3.724,0,0,0,0,4.438,67.64,757.22757410005,36.417324,6,P-GPS,,11.1
166500,2026-01-07 15:35:50,757.22757410005,39.698164,0.0,6.7549870928,9.3244425556,18,5,7.45,758.21182610005,37.401576,0.223694,7.8904530084,0.0,0.0,0.0,35.4,6.2,0.1,0,0,1024,1024,1024,1024,0,0,0,0,0,0,0,68,3.726,3.724,0,0,0,0,4.438,67.64,757.22757410005,36.417324,6,P-GPS,,11.1
166600,2026-01-07 15:35:50,757.22757410005,39.698164,0.0,6.761975282,9.3455711652,18,5,7.45,758.21182610005,37.401576,0.223694,7.8904530084,0.0,0.0,0.0,35.5,6.4,0.0,0,0,1024,1024,1024,1024,0,0,0,0,0,0,0,68,3.726,3.724,0,0,0,0,4.438,67.64,757.22757410005,36.417324,6,P-GPS,,11.1
166700,2026-01-07 15:35:50,757.22757410005,39.698164,0.0,6.7620408988,9.3656170976,18,5,7.45,758.21182610005,37.401576,0.223694,7.8904530084,0.0,0.0,0.0,35.6,6.9,0.5,0,0,1024,1024,1024,1024,0,0,0,0,0,0,0,68,3.726,3.724,0,0,0,0,4.438,67.64,757.22757410005,36.417324,6,P-GPS,,11.1
166800,2026-01-07 15:35:50,757.22757410005,39.698164,0.0,6.7383860424,9.3942588308,18,5,7.45,758.21182610005,37.401576,0.223694,7.8904530084,0.0,0.0,0.0,35.5,5.5,0.4,0,0,1024,1024,1024,1024,0,0,0,0,0,0,0,68,3.726,3.724,0,0,0,0,4.438,67.64,757.22757410005,36.417324,6,P-GPS,,11.1
166900,2026-01-07 15:35:50,757.55565810005,39.698164,0.0,6.6649280348,9.516732588,18,5,7.45,758.21182610005,37.401576,0.223694,7.8904530084,0.0,0.0,0.0,35.7,4.9,-0.4,0,0,1024,1024,1024,1024,0,0,0,0,0,0,0,68,3.726,3.724,0,0,0,0,4.438,67.64,757.55565810005,36.745408,6,P-GPS,,11.2
167000,2026-01-07 15:35:50,757.55565810005,39.698164,0.0,6.6303479812,9.5527234028,18,5,7.45,758.21182610005,37.401576,0.223694,7.8904530084,0.0,0.0,0.0,36.1,6.1,0.1,0,0,1024,1024,1024,1024,0,0,0,0,0,0,0,68,3.726,3.724,0,0,0,0,4.438,67.64,757.55565810005,36.745408,6,P-GPS,,11.2
167100,2026-01-07 15:35:50,757.88374210005,39.698164,0.0,6.6084975868,9.5824806216,18,5,7.45,758.21182610005,37.401576,0.223694,7.8904530084,0.0,0.0,0.0,35.7,5.8,1.4,0,0,1024,1024,1024,1024,0,0,0,0,0,0,0,68,3.726,3.724,0,0,0,0,4.438,67.64,757.88374210005,37.073492,6,P-GPS,,11.3
167200,2026-01-07 15:35:50,757.88374210005,39.698164,0.223694,6.6153545424,9.612697158,18,5,7.45,758.21182610005,37.401576,0.223694,7.8904530084,0.0,-0.223694,0.0,35.4,5.0,1.9,0,0,1024,1024,1024,1024,0,0,0,0,0,0,0,68,3.726,3.724,0,0,0,0,4.438,67.64,757.88374210005,37.073492,6,P-GPS,,11.3
167300,2026-01-07 15:35:50,757.88374210005,39.698164,0.0,6.6009516548,9.677985874,18,5,7.45,758.21182610005,37.401576,0.223694,7.8904530084,0.0,0.0,0.0,35.3,4.9,2.1,0,0,1024,1024,1024,1024,0,0,0,0,0,0,0,68,3.726,3.724,0,0,0,0,4.438,67.64,757.88374210005,37.073492,6,P-GPS,,11.3
167400,2026-01-07 15:35:50,757.88374210005,39.698164,0.0,6.6117784268,9.7214241956,18,5,7.45,758.21182610005,37.401576,0.223694,7.8904530084,0.0,0.0,0.0,35.2,4.6,1.9,0,0,1024,1024,1024,1024,0,0,0,0,0,0,0,68,3.726,3.724,0,0,0,0,4.438,67.64,757.88374210005,37.073492,6,P-GPS,,11.3
167500,2026-01-07 15:35:51,757.88374210005,39.698164,0.0,6.6221130728,9.7533795772,18,5,7.446,758.21182610005,37.401576,0.223694,7.8904530084,0.0,0.0,0.0,35.4,4.5,1.5,0,0,1024,1024,1024,1024,0,0,0,0,0,0,0,68,3.727,3.724,0,0,0,0,4.472,67.64,757.88374210005,37.073492,6,P-GPS,,11.3
167600,2026-01-07 15:35:51,757.88374210005,39.698164,0.0,6.6315290836,9.7699150108,18,5,7.446,758.21182610005,37.401576,0.223694,7.8904530084,0.0,0.0,0.0,35.5,4.8,0.9,0,0,1024,1024,1024,1024,0,0,0,0,0,0,0,68,3.727,3.724,0,0,0,0,4.472,67.64,757.88374210005,37.073492,6,P-GPS,,11.3
167700,2026-01-07 15:35:51,757.88374210005,39.698164,0.0,6.6469162232,9.7856958512,18,5,7.446,758.21182610005,37.401576,0.223694,7.8904530084,0.0,0.0,0.0,35.6,4.8,0.6,0,0,1024,1024,1024,1024,0,0,0,0,0,0,0,68,3.727,3.724,0,0,0,0,4.472,67.64,757.88374210005,37.073492,6,P-GPS,,11.3
167800,2026-01-07 15:35:51,757.55565810005,39.698164,0.0,6.7183729184,9.864009502,18,5,7.446,758.21182610005,37.401576,0.223694,7.8904530084,0.0,0.0,0.0,35.6,5.0,0.1,0,0,1024,1024,1024,1024,0,0,0,0,0,0,0,68,3.727,3.724,0,0,0,0,4.472,67.64,757.55565810005,36.745408,6,P-GPS,,11.2
167900,2026-01-07 15:35:51,757.55565810005,39.698164,0.0,6.7474411608,9.8983927052,18,5,7.446,758.21182610005,37.401576,0.223694,7.8904530084,0.0,0.0,0.0,35.6,4.7,0.0,0,0,1024,1024,1024,1024,0,0,0,0,0,0,0,68,3.727,3.724,0,0,0,0,4.472,67.64,757.55565810005,36.745408,6,P-GPS,,11.2
168000,2026-01-07 15:35:51,757.55565810005,39.698164,0.0,6.7604660956,9.927329714,18,5,7.446,758.21182610005,37.401576,0.223694,7.8904530084,0.0,0.0,0.0,35.6,4.7,-0.3,0,0,1024,1024,1024,1024,0,0,0,0,0,0,0,68,3.727,3.724,0,0,0,0,4.472,67.64,757.55565810005,36.745408,6,P-GPS,,11.2
168100,2026-01-07 15:35:51,757.55565810005,39.698164,0.0,6.7686353872,9.9500987436,18,5,7.446,758.21182610005,37.401576,0.223694,7.8904530084,0.0,0.0,0.0,35.7,4.5,-0.6,0,0,1024,1024,1024,1024,0,0,0,0,0,0,0,68,3.727,3.724,0,0,0,0,4.472,67.64,757.55565810005,36.745408,6,P-GPS,,11.2
168200,2026-01-07 15:35:51,757.55565810005,39.698164,0.0,6.7365815804,9.9859583248,18,5,7.446,758.21182610005,37.401576,0.223694,7.8904530084,0.0,0.0,0.0,35.7,4.8,-0.9,0,0,1024,1024,1024,1024,0,0,0,0,0,0,0,68,3.727,3.724,0,0,0,0,4.472,67.64,757.55565810005,36.745408,6,P-GPS,,11.2
168300,2026-01-07 15:35:51,757.55565810005,39.698164,0.0,6.7331695068,9.9941276164,18,5,7.446,758.21182610005,37.401576,0.223694,7.8904530084,0.0,0.0,0.0,35.7,4.9,-1.1,0,0,1024,1024,1024,1024,0,0,0,0,0,0,0,68,3.727,3.724,0,0,0,0,4.472,67.64,757.55565810005,36.745408,6,P-GPS,,11.2
168400,2026-01-07 15:35:51,757.55565810005,39.698164,0.0,6.7338256748,10.0092522888,18,5,7.446,758.21182610005,37.401576,0.223694,7.8904530084,0.0,0.0,0.0,35.6,5.1,-0.8,0,0,1024,1024,1024,1024,0,0,0,0,0,0,0,68,3.727,3.724,0,0,0,0,4.472,67.64,757.55565810005,36.745408,6,P-GPS,,11.2
168500,2026-01-07 15:35:52,757.55565810005,39.698164,0.0,6.7325461472,10.0191604256,18,5,7.446,758.21182610005,37.401576,0.223694,7.8904530084,0.0,0.0,0.0,35.6,5.1,-0.4,0,0,1024,1024,1024,1024,0,0,0,0,0,0,0,68,3.727,3.724,0,0,0,0,4.472,67.64,757.55565810005,36.745408,6,P-GPS,,11.2
168600,2026-01-07 15:35:52,757.55565810005,39.698164,0.0,6.6912075632,10.0640751252,18,5,7.449,758.21182610005,37.401576,0.223694,7.8904530084,0.0,0.0,0.0,35.7,4.8,-0.3,0,0,1024,1024,1024,1024,0,0,0,0,0,0,0,68,3.726,3.722,0,0,0,0,4.532,67.82,757.55565810005,36.745408,6,P-GPS,,11.2
168700,2026-01-07 15:35:52,757.55565810005,39.698164,0.0,6.6828414212,10.072834968,18,5,7.449,758.21182610005,37.401576,0.223694,7.8904530084,0.0,0.0,0.0,35.7,4.6,-0.7,0,0,1024,1024,1024,1024,0,0,0,0,0,0,0,68,3.726,3.722,0,0,0,0,4.532,67.82,757.55565810005,36.745408,6,P-GPS,,11.2
168800,2026-01-07 15:35:52,757.55565810005,39.698164,0.0,6.6740159616,10.0816604276,18,5,7.449,758.21182610005,37.401576,0.223694,7.8904530084,0.0,0.0,0.0,35.7,4.7,-0.6,0,0,1024,1024,1024,1024,0,0,0,0,0,0,0,68,3.726,3.722,0,0,0,0,4.532,67.82,757.55565810005,36.745408,6,P-GPS,,11.2
168900,2026-01-07 15:35:52,757.88374210005,39.698164,0.0,6.6615159612,10.0942260448,18,5,7.449,758.21182610005,37.401576,0.223694,7.8904530084,0.0,0.0,0.0,35.6,4.7,-0.7,0,0,1024,1024,1024,1024,0,0,0,0,0,0,0,68,3.726,3.722,0,0,0,0,4.532,67.82,757.88374210005,37.073492,6,P-GPS,,11.3
169000,2026-01-07 15:35:52,757.88374210005,39.698164,0.0,6.5964240956,10.159449144,18,5,7.449,758.21182610005,37.401576,0.223694,7.8904530084,0.0,0.0,0.0,35.6,4.8,-0.6,0,0,1024,1024,1024,1024,0,0,0,0,0,0,0,68,3.726,3.722,0,0,0,0,4.532,67.82,757.88374210005,37.073492,6,P-GPS,,11.3
169100,2026-01-07 15:35:52,757.88374210005,39.698164,0.0,6.575295486,10.1806761788,18,5,7.449,758.21182610005,37.401576,0.223694,7.8904530084,0.0,0.0,0.0,35.5,5.0,-0.8,0,0,1024,1024,1024,1024,0,0,0,0,0,0,0,68,3.726,3.722,0,0,0,0,4.532,67.82,757.88374210005,37.073492,6,P-GPS,,11.3
169200,2026-01-07 15:35:52,757.88374210005,39.698164,0.0,6.5671590028,10.1902562316,18,5,7.449,758.21182610005,37.401576,0.223694,7.8904530084,0.0,0.0,0.0,35.6,4.8,-0.6,0,0,1024,1024,1024,1024,0,0,0,0,0,0,0,68,3.726,3.722,0,0,0,0,4.532,67.82,757.88374210005,37.073492,6,P-GPS,,11.3
169300,2026-01-07 15:35:52,757.88374210005,39.698164,0.0,6.562008084,10.1984255232,18,5,7.449,758.21182610005,37.401576,0.223694,7.8904530084,0.0,0.0,0.0,35.6,4.7,-0.7,0,0,1024,1024,1024,1024,0,0,0,0,0,0,0,68,3.726,3.722,0,0,0,0,4.532,67.82,757.88374210005,37.073492,6,P-GPS,,11.3
169400,2026-01-07 15:35:52,757.88374210005,39.698164,0.0,6.5610894488,10.2061354972,18,5,7.449,758.21182610005,37.401576,0.223694,7.8904530084,0.0,0.0,0.0,35.7,4.7,-0.5,0,0,1024,1024,1024,1024,0,0,0,0,0,0,0,68,3.726,3.722,0,0,0,0,4.532,67.82,757.88374210005,37.073492,6,P-GPS,,11.3
169500,2026-01-07 15:35:53,757.88374210005,39.698164,0.0,6.5819555912,10.2291341856,18,5,7.449,758.21182610005,37.401576,0.223694,7.8904530084,0.0,0.0,0.0,35.7,4.6,-0.7,0,0,1024,1024,1024,1024,0,0,0,0,0,0,0,68,3.726,3.722,0,0,0,0,4.532,67.82,757.88374210005,37.073492,6,P-GPS,,11.3
169600,2026-01-07 15:35:53,757.88374210005,39.698164,0.0,6.5820868248,10.2369097764,18,5,7.449,758.21182610005,37.401576,0.223694,7.8904530084,0.0,0.0,0.0,35.7,4.4,-0.8,0,0,1024,1024,1024,1024,0,0,0,0,0,0,0,68,3.726,3.722,0,0,0,0,4.532,67.82,757.88374210005,37.073492,6,P-GPS,,11.3
169700,2026-01-07 15:35:53,757.88374210005,39.698164,0.0,6.5771655648,10.243274606,18,5,7.449,758.21182610005,37.401576,0.223694,7.8904530084,0.0,0.0,0.0,35.6,4.8,-0.6,0,0,1024,1024,1024,1024,0,0,0,0,0,0,0,68,3.723,3.72,0,0,0,0,4.532,67.82,757.88374210005,37.073492,6,P-GPS,,11.3
169800,2026-01-07 15:35:53,757.88374210005,39.698164,0.0,6.5596458792,10.2620082024,18,5,7.449,758.21182610005,37.401576,0.223694,7.8904530084,0.0,0.0,0.0,35.6,4.6,-0.4,0,0,1024,1024,1024,1024,0,0,0,0,0,0,0,68,3.723,3.72,0,0,0,0,4.532,67.82,757.88374210005,37.073492,6,P-GPS,,11.3
169900,2026-01-07 15:35:53,757.88374210005,39.698164,0.0,6.5374674008,10.2866801192,18,5,7.449,758.21182610005,37.401576,0.223694,7.8904530084,0.0,0.0,0.0,35.6,4.7,-0.4,0,0,1024,1024,1024,1024,0,0,0,0,0,0,0,68,3.723,3.72,0,0,0,0,4.532,67.82,757.88374210005,37.073492,6,P-GPS,,11.3
170000,2026-01-07 15:35:53,757.88374210005,39.698164,0.0,6.5307744872,10.293471458,18,5,7.449,758.21182610005,37.401576,0.223694,7.8904530084,0.0,0.0,0.0,35.6,4.9,-0.5,0,0,1024,1024,1024,1024,0,0,0,0,0,0,0,68,3.723,3.72,0,0,0,0,4.532,67.82,757.88374210005,37.073492,6,P-GPS,,11.3
170100,2026-01-07 15:35:53,757.88374210005,39.698164,0.0,6.5254923348,10.2988192272,18,5,7.449,758.21182610005,37.401576,0.223694,7.8904530084,0.0,0.0,0.0,35.6,5.0,-0.7,0,0,1024,1024,1024,1024,0,0,0,0,0,0,0,68,3.723,3.72,0,0,0,0,4.532,67.82,757.88374210005,37.073492,6,P-GPS,,11.3
170200,2026-01-07 15:35:53,757.88374210005,39.698164,0.0,6.5250330172,10.3013782824,18,5,7.449,758.21182610005,37.401576,0.223694,7.8904530084,0.0,0.0,0.0,35.5,5.0,-0.7,0,0,1024,1024,1024,1024,0,0,0,0,0,0,0,68,3.723,3.72,0,0,0,0,4.532,67.82,757.88374210005,37.073492,6,P-GPS,,11.3
170300,2026-01-07 15:35:53,757.88374210005,39.698164,0.0,6.5413059836,10.3185370756,18,5,7.449,758.21182610005,37.401576,0.223694,7.8904530084,0.0,0.0,0.0,35.5,4.8,-0.5,0,0,1024,1024,1024,1024,0,0,0,0,0,0,0,68,3.723,3.72,0,0,0,0,4.532,67.82,757.88374210005,37.073492,6,P-GPS,,11.3
170400,2026-01-07 15:35:53,757.88374210005,39.698164,0.0,6.533136692,10.3361551864,18,5,7.449,758.21182610005,37.401576,0.223694,7.8904530084,0.0,0.0,0.0,35.5,4.8,-0.5,0,0,1024,1024,1024,1024,0,0,0,0,0,0,0,68,3.723,3.72,0,0,0,0,4.532,67.82,757.88374210005,37.073492,6,P-GPS,,11.3
170500,2026-01-07 15:35:54,757.88374210005,39.698164,0.0,6.527067138,10.3473100424,18,5,7.449,758.21182610005,37.401576,0.223694,7.8904530084,0.0,0.0,0.0,35.5,4.6,-0.7,0,0,1024,1024,1024,1024,0,0,0,0,0,0,0,68,3.723,3.72,0,0,0,0,4.532,67.82,757.88374210005,37.073492,6,P-GPS,,11.3
