time(millisecond),timestamp,altitude_above_seaLevel(feet),height_sonar(feet),speed(mph),distance(feet),mileage(feet),satellites,gpslevel,voltage(v),max_altitude(feet),max_ascent(feet),max_speed(mph),max_distance(feet), xSpeed(mph), ySpeed(mph), zSpeed(mph), compass_heading(degrees), pitch(degrees), roll(degrees),isPhoto,isVideo,rc_elevator,rc_aileron,rc_throttle,rc_rudder,rc_elevator(percent),rc_aileron(percent),rc_throttle(percent),rc_rudder(percent),gimbal_heading(degrees),gimbal_pitch(degrees),gimbal_roll(degrees),battery_percent,voltageCell1,voltageCell2,voltageCell3,voltageCell4,voltageCell5,voltageCell6,current(A),battery_temperature(f),altitude(feet),ascent(feet),flycStateRaw,flycState,message,height_above_takeoff(meters)
304800,2026-01-07 15:38:20,720.56905291385,0.328084,0.0,0.0,0.0,16,5,0.0,720.56905291385,0.0,0.0,0.0,0.0,0.0,0.0,20.2,2.9,0.5,0,0,1024,1024,1024,1024,0,0,0,0,0,0,0,58,3.783,3.781,0,0,0,0,0.0,72.32,720.56905291385,0.0,41,Motors_Started,SD card speed low SD card speed low. Normal use may be affected. Replace SD card (Code: 10028). Gimbal stuck. Make sure gimbal cover is removed and manually check whether gimbal can rotate freely (Code: 40002),0.0
304900,2026-01-07 15:38:20,720.56905291385,0.328084,0.0,0.0183575793276,0.0183575793276,16,5,0.0,720.56905291385,0.0,0.0,0.0183575793276,0.0,0.0,0.0,20.2,2.9,0.5,0,0,1024,1024,1024,1024,0,0,0,0,0,0,0,58,3.783,3.781,0,0,0,0,0.0,72.32,720.56905291385,0.0,41,Motors_Started,,0.0
305000,2026-01-07 15:38:20,720.56905291385,0.328084,0.0,0.064721458764,0.066263781648,16,5,0.0,720.56905291385,0.0,0.0,0.064721458764,0.0,0.0,0.0,20.2,2.9,0.5,0,0,1024,1024,1024,1024,0,0,0,0,0,0,0,58,3.783,3.781,0,0,0,0,0.0,72.32,720.56905291385,0.0,41,Motors_Started,,0.0
305100,2026-01-07 15:38:20,720.56905291385,0.328084,0.0,0.085979005376,0.087739176036,16,5,0.0,720.56905291385,0.0,0.0,0.085979005376,0.0,0.0,0.0,20.2,2.9,0.5,0,0,1024,1024,1024,1024,0,0,0,0,0,0,0,58,3.783,3.781,0,0,0,0,0.0,72.32,720.56905291385,0.0,41,Motors_Started,,0.0
305200,2026-01-07 15:38:20,720.56905291385,0.328084,0.0,0.109664373588,0.111915029828,16,5,0.0,720.56905291385,0.0,0.0,0.109664373588,0.0,0.0,0.0,20.2,2.9,0.5,0,0,1024,1024,1024,1024,0,0,0,0,0,0,0,58,3.783,3.781,0,0,0,0,0.0,72.32,720.56905291385,0.0,41,Motors_Started,,0.0
305300,2026-01-07 15:38:20,720.56905291385,0.328084,0.0,0.134878285156,0.137620739312,16,5,0.0,720.56905291385,0.0,0.0,0.134878285156,0.0,0.0,0.0,20.2,2.9,0.5,0,0,1024,1024,1024,1024,0,0,0,0,0,0,0,58,3.783,3.781,0,0,0,0,0.0,72.32,720.56905291385,0.0,41,Motors_Started,,0.0
305400,2026-01-07 15:38:20,720.56905291385,0.328084,0.0,0.140392721028,0.143340555768,16,5,0.0,720.56905291385,0.0,0.0,0.140392721028,0.0,0.0,0.0,20.2,3.0,0.5,0,0,1024,1024,1024,1024,0,0,0,0,0,0,0,58,3.783,3.781,0,0,0,0,0.0,72.32,720.56905291385,0.0,41,Motors_Started,Setting new Return-To-Home altitude to 500m (1640 ft). Data Recorder File Index is 27. Setting new Maximum Flight Altitude to 500m (1640 ft),0.0
305500,2026-01-07 15:38:20,720.56905291385,0.328084,0.0,2.16233930804,0.153742130904,16,5,0.0,720.56905291385,0.0,0.0,2.16233930804,0.0,0.0,0.0,20.2,2.9,0.5,0,0,1024,1024,1024,1024,0,0,0,0,0,0,0,58,3.783,3.781,0,0,0,0,0.0,72.32,720.56905291385,0.0,41,Motors_Started,,0.0
305600,2026-01-07 15:38:21,720.56905291385,0.328084,0.0,2.17377303544,0.165190950168,16,5,0.0,720.56905291385,0.0,0.0,2.17377303544,0.0,0.0,0.0,20.2,2.8,0.5,0,0,1024,1024,1024,1024,0,0,0,0,0,0,0,58,3.783,3.781,0,0,0,0,0.0,72.32,720.56905291385,0.0,41,Motors_Started,,0.0
305700,2026-01-07 15:38:21,720.56905291385,0.328084,0.0,2.18736555556,0.178809717008,16,5,0.0,720.56905291385,0.0,0.0,2.18736555556,0.0,0.0,0.0,20.2,2.9,0.5,0,0,1024,1024,1024,1024,0,0,0,0,0,0,0,58,3.783,3.781,0,0,0,0,0.0,72.32,720.56905291385,0.0,41,Motors_Started,,0.0
305800,2026-01-07 15:38:21,720.56905291385,0.328084,0.0,2.18827762908,0.188146659564,16,5,7.567,720.56905291385,0.0,0.0,2.18827762908,0.0,0.0,0.0,20.1,2.9,0.5,0,0,1024,1024,1024,1024,0,0,0,0,0,0,0,58,3.785,3.781,0,0,0,0,0.7,72.32,720.56905291385,0.0,41,Motors_Started,,0.0
305900,2026-01-07 15:38:21,720.56905291385,0.328084,0.0,2.1736713294,0.206506568288,16,5,7.567,720.56905291385,0.0,0.0,2.18827762908,0.0,0.0,0.0,20.2,2.9,0.5,0,0,1024,1024,1024,1024,0,0,0,0,0,0,0,58,3.785,3.781,0,0,0,0,0.7,72.32,720.56905291385,0.0,41,Motors_Started,,0.0
306000,2026-01-07 15:38:21,720.56905291385,0.328084,0.0,2.18608602796,0.21983760546,16,5,7.567,720.56905291385,0.0,0.0,2.18827762908,0.0,0.0,0.0,20.2,2.9,0.5,0,0,1024,1024,1024,1024,0,0,0,0,0,0,0,58,3.785,3.781,0,0,0,0,0.7,72.32,720.56905291385,0.0,11,AutoTakeoff,,0.0
306100,2026-01-07 15:38:21,720.56905291385,0.328084,0.0,2.20119429616,0.235451779188,16,5,7.567,720.56905291385,0.0,0.0,2.20119429616,0.0,0.0,0.0,20.1,2.9,0.5,0,0,1024,1024,1024,1024,0,0,0,0,0,0,0,58,3.785,3.781,0,0,0,0,0.7,72.32,720.56905291385,0.0,11,AutoTakeoff,,0.0
306200,2026-01-07 15:38:21,720.56905291385,0.328084,0.0,2.2210630632,0.255343840192,16,5,7.567,720.56905291385,0.0,0.0,2.2210630632,0.0,0.0,0.0,20.1,2.9,0.5,0,0,1024,1024,1024,1024,0,0,0,0,0,0,0,58,3.785,3.781,0,0,0,0,0.7,72.32,720.56905291385,0.0,11,AutoTakeoff,,0.0
306300,2026-01-07 15:38:21,720.56905291385,0.328084,0.0,2.26729666048,0.302865495256,16,5,7.567,720.56905291385,0.0,0.0,2.26729666048,0.0,0.0,0.0,20.1,2.9,0.5,0,0,1024,1024,1024,1024,0,0,0,0,0,0,0,58,3.785,3.781,0,0,0,0,0.7,72.32,720.56905291385,0.0,11,AutoTakeoff,,0.0
306400,2026-01-07 15:38:21,720.56905291385,0.328084,0.0,2.27266083388,0.308311033488,16,5,7.567,720.56905291385,0.0,0.0,2.27266083388,0.0,0.0,0.0,20.1,2.9,0.5,0,0,1024,1024,1024,1024,0,0,0,0,0,0,0,58,3.785,3.781,0,0,0,0,0.7,72.32,720.56905291385,0.0,11,AutoTakeoff,,0.0
306500,2026-01-07 15:38:21,720.56905291385,0.328084,0.0,2.27653550592,0.312417004748,16,5,7.567,720.56905291385,0.0,0.0,2.27653550592,0.0,0.0,0.0,20.1,2.9,0.6,0,0,1024,1024,1024,1024,0,0,0,0,0,0,0,58,3.785,3.781,0,0,0,0,0.7,72.32,720.56905291385,0.0,11,AutoTakeoff,,0.0
306600,2026-01-07 15:38:22,720.56905291385,0.328084,0.0,2.29130256676,0.33240158544,16,5,7.567,720.56905291385,0.0,0.0,2.29130256676,0.0,0.0,0.0,20.6,2.6,0.5,0,0,1024,1024,1024,1024,0,0,0,0,0,0,0,58,3.785,3.781,0,0,0,0,0.7,72.32,720.56905291385,0.0,11,AutoTakeoff,,0.0
306700,2026-01-07 15:38:22,720.56905291385,0.328084,0.0,2.29847776384,0.3550853132,16,5,7.567,720.56905291385,0.0,0.0,2.29847776384,0.0,0.0,0.0,21.3,0.4,-0.5,0,0,1024,1024,1024,1024,0,0,0,0,0,0,0,58,3.785,3.781,0,0,0,0,0.7,72.32,720.56905291385,0.0,11,AutoTakeoff,,0.0
306800,2026-01-07 15:38:22,720.56905291385,0.328084,0.0,2.31549548092,0.37240158672,16,5,7.524,720.56905291385,0.0,0.0,2.31549548092,0.0,0.0,-0.223694,21.5,0.2,-0.8,0,0,1024,1024,1024,1024,0,0,0,0,0,0,0,58,3.763,3.76,0,0,0,0,1.49,72.32,720.56905291385,0.0,11,AutoTakeoff,,0.0
306900,2026-01-07 15:38:22,720.56905291385,0.328084,0.0,2.325377371,0.38409778132,15,5,7.524,720.56905291385,0.0,0.0,2.325377371,0.0,0.0,-0.671082,21.5,1.1,-0.5,0,0,1024,1024,1024,1024,0,0,0,0,0,0,0,58,3.763,3.76,0,0,0,0,1.49,72.32,720.56905291385,0.0,11,AutoTakeoff,,0.0
307000,2026-01-07 15:38:22,720.56905291385,0.656168,0.0,2.31322842048,0.40855644352,15,5,7.524,720.56905291385,0.0,0.0,2.325377371,0.0,0.0,-0.894776,21.5,1.9,0.5,0,0,1024,1024,1024,1024,0,0,0,0,0,0,0,58,3.763,3.76,0,0,0,0,1.49,72.32,720.56905291385,0.0,11,AutoTakeoff,,0.0
307100,2026-01-07 15:38:22,720.56905291385,0.656168,0.0,2.29616805248,0.43961943664,15,5,7.524,720.56905291385,0.0,0.0,2.325377371,0.0,0.0,-0.894776,21.7,1.4,0.7,0,0,1024,1024,1024,1024,0,0,0,0,0,0,0,58,3.763,3.76,0,0,0,0,1.49,72.32,720.56905291385,0.0,11,AutoTakeoff,,0.0
307200,2026-01-07 15:38:22,720.89713691385,0.656168,0.0,2.2709810438,0.47964568464,15,5,7.524,720.89713691385,0.328084,0.0,2.325377371,0.0,0.0,-1.342164,23.2,1.8,0.9,0,0,1024,1024,1024,1024,0,0,0,0,0,0,0,58,3.763,3.76,0,0,0,0,1.49,72.32,720.89713691385,0.328084,11,AutoTakeoff,,0.1
307300,2026-01-07 15:38:22,720.89713691385,0.984252,0.223694,2.25354994088,0.51118439956,17,5,7.524,720.89713691385,0.328084,0.223694,2.325377371,0.223694,0.0,-1.565858,34.9,2.4,1.0,0,0,1024,1024,1024,1024,0,0,0,0,0,0,0,58,3.763,3.76,0,0,0,0,1.49,72.32,720.89713691385,0.328084,11,AutoTakeoff,,0.1
307400,2026-01-07 15:38:22,721.22522091385,0.984252,0.0,2.21734259064,0.56159122532,17,5,7.524,721.22522091385,0.656168,0.223694,2.325377371,0.0,0.0,-1.789552,38.1,1.0,2.4,0,0,1024,1024,1024,1024,0,0,0,0,0,0,0,58,3.763,3.76,0,0,0,0,1.49,72.32,721.22522091385,0.656168,11,AutoTakeoff,,0.2
307500,2026-01-07 15:38:22,721.55330491385,1.312336,0.223694,2.17972776004,0.60896983576,18,5,7.524,721.55330491385,0.984252,0.223694,2.325377371,0.223694,0.0,-1.789552,38.1,1.5,1.7,0,0,1024,1024,1024,1024,0,0,0,0,0,0,0,58,3.763,3.76,0,0,0,0,1.49,72.32,721.55330491385,0.984252,11,AutoTakeoff,Home Point updated. RTH altitude adjusted to 500 m (Code: 120852),0.3
307600,2026-01-07 15:38:23,721.88138891385,1.64042,0.0,2.1910925898,0.63106629316,18,5,7.524,721.88138891385,1.312336,0.223694,2.325377371,0.0,0.0,-2.013246,38.1,1.0,1.6,0,0,1024,1024,1559,1024,0,0,81,0,0,0,0,58,3.763,3.76,0,0,0,0,1.49,72.32,721.88138891385,1.312336,11,AutoTakeoff,,0.4
307700,2026-01-07 15:38:23,722.20947291385,1.968504,0.0,2.1922736922,0.63805120152,18,5,7.524,722.20947291385,1.64042,0.223694,2.325377371,0.0,0.0,-2.23694,38.1,1.6,1.6,0,0,1024,1024,1684,1024,0,0,100,0,0,0,0,58,3.763,3.76,0,0,0,0,1.49,72.32,722.20947291385,1.64042,11,AutoTakeoff,,0.5
307800,2026-01-07 15:38:23,722.53755691385,2.296588,0.0,2.22116476924,0.68736222672,18,5,7.318,722.53755691385,1.968504,0.223694,2.325377371,0.0,0.0,-2.23694,38.2,1.6,1.1,0,0,1024,1024,1684,1024,0,0,100,0,0,0,0,58,3.661,3.658,0,0,0,0,4.888,72.32,722.53755691385,1.968504,11,AutoTakeoff,,0.6
307900,2026-01-07 15:38:23,722.86564091385,2.624672,0.0,2.25612868112,0.74791340976,18,5,7.318,722.86564091385,2.296588,0.223694,2.325377371,0.0,0.0,-2.460634,38.2,2.3,1.2,0,0,1024,1024,1684,1024,0,0,100,0,0,0,0,58,3.661,3.658,0,0,0,0,4.888,72.32,722.86564091385,2.296588,11,AutoTakeoff,,0.7
308000,2026-01-07 15:38:23,723.19372491385,2.952756,0.0,2.37942592916,0.91880580368,18,5,7.318,723.19372491385,2.624672,0.223694,2.37942592916,0.0,0.0,-2.908022,38.2,2.1,1.2,0,0,1024,1024,1684,1024,0,0,100,0,0,0,0,58,3.661,3.658,0,0,0,0,4.888,72.32,723.19372491385,2.624672,6,P-GPS,,0.8
308100,2026-01-07 15:38:23,723.84989291385,3.28084,0.223694,2.39244758312,0.95816276032,18,5,7.318,723.84989291385,3.28084,0.223694,2.39244758312,0.223694,0.0,-3.35541,38.2,2.3,1.5,0,0,1024,1024,1684,1024,0,0,100,0,0,0,0,58,3.661,3.658,0,0,0,0,4.888,72.32,723.84989291385,3.28084,6,P-GPS,,1.0
308200,2026-01-07 15:38:23,724.17797691385,3.937008,0.0,2.36358931448,0.99324478244,18,5,7.318,724.17797691385,3.608924,0.223694,2.39244758312,0.0,0.0,-3.802798,38.2,2.3,1.3,0,0,1024,1024,1684,1024,0,0,100,0,0,0,0,58,3.661,3.658,0,0,0,0,4.888,72.32,724.17797691385,3.608924,6,P-GPS,,1.1
308300,2026-01-07 15:38:23,724.83414491385,4.593176,0.223694,2.32888130812,1.03266735588,18,5,7.318,724.83414491385,4.265092,0.223694,2.39244758312,0.223694,0.0,-4.026492,38.2,2.4,1.6,0,0,1024,1024,1684,1024,0,0,100,0,0,0,0,58,3.661,3.658,0,0,0,0,4.888,72.32,724.83414491385,4.265092,6,P-GPS,,1.3
308400,2026-01-07 15:38:23,725.49031291385,5.249344,0.0,2.19748366612,1.16601381684,18,5,7.318,725.49031291385,4.92126,0.223694,2.39244758312,0.0,0.0,-4.250186,38.3,2.3,1.5,0,0,1024,1024,1684,1024,0,0,100,0,0,0,0,58,3.661,3.658,0,0,0,0,4.888,72.32,725.49031291385,4.92126,6,P-GPS,,1.5
308500,2026-01-07 15:38:23,726.14648091385,5.905512,0.0,2.17181109312,1.1953248414,18,5,7.318,726.14648091385,5.577428,0.223694,2.39244758312,0.0,0.0,-4.47388,38.3,2.9,1.8,0,0,1024,1024,1684,1024,0,0,100,0,0,0,0,58,3.661,3.658,0,0,0,0,4.888,72.32,726.14648091385,5.577428,6,P-GPS,,1.7
308600,2026-01-07 15:38:24,726.80264891385,6.56168,0.0,2.1570046622,1.22356631212,18,5,7.318,726.80264891385,6.233596,0.223694,2.39244758312,0.0,0.0,-4.47388,38.2,2.7,1.3,0,0,1024,1024,1684,1024,0,0,100,0,0,0,0,58,3.661,3.658,0,0,0,0,4.888,72.32,726.80264891385,6.233596,6,P-GPS,,1.9
308700,2026-01-07 15:38:24,727.45881691385,7.217848,0.0,2.14830059368,1.2520833734,18,5,7.318,727.45881691385,6.889764,0.223694,2.39244758312,0.0,0.0,-4.47388,38.2,2.5,1.5,0,0,1024,1024,1684,1024,0,0,100,0,0,0,0,58,3.661,3.658,0,0,0,0,4.888,72.32,727.45881691385,6.889764,6,P-GPS,,2.1
308800,2026-01-07 15:38:24,728.11498491385,7.874016,0.0,2.16088261508,1.28257221952,18,5,7.259,728.11498491385,7.545932,0.223694,2.39244758312,0.0,0.0,-4.47388,38.2,2.1,1.1,0,0,1024,1024,1684,1024,0,0,100,0,0,0,0,58,3.642,3.637,0,0,0,0,6.398,72.32,728.11498491385,7.545932,6,P-GPS,,2.3
308900,2026-01-07 15:38:24,728.77115291385,8.530184,0.0,2.19125007012,1.33219820536,18,5,7.259,728.77115291385,8.2021,0.223694,2.39244758312,0.0,0.0,-4.47388,38.2,2.1,1.4,0,0,1024,1024,1684,1024,0,0,100,0,0,0,0,58,3.642,3.637,0,0,0,0,6.398,72.32,728.77115291385,8.2021,6,P-GPS,,2.5
309000,2026-01-07 15:38:24,729.42732091385,9.186352,0.0,2.18070216952,1.35343508268,18,5,7.259,729.42732091385,8.858268,0.223694,2.39244758312,0.0,0.0,-4.47388,38.1,1.9,1.5,0,0,1024,1024,1684,1024,0,0,100,0,0,0,0,58,3.642,3.637,0,0,0,0,6.398,72.32,729.42732091385,8.858268,6,P-GPS,,2.7
309100,2026-01-07 15:38:24,730.41157291385,9.514436,0.223694,2.16352697212,1.38559387636,18,5,7.259,730.41157291385,9.84252,0.223694,2.39244758312,0.223694,0.0,-4.250186,38.1,2.3,1.6,0,0,1024,1024,1684,1024,0,0,100,0,0,0,0,58,3.642,3.637,0,0,0,0,6.398,72.32,730.41157291385,9.84252,6,P-GPS,,3.0
309200,2026-01-07 15:38:24,731.06774091385,10.170604,0.223694,2.14536424188,1.40526251216,18,5,7.259,731.06774091385,10.498688,0.223694,2.39244758312,0.223694,0.0,-4.250186,38.2,3.5,1.1,0,0,1024,1024,1684,1024,0,0,100,0,0,0,0,58,3.642,3.637,0,0,0,0,6.398,72.32,731.06774091385,10.498688,6,P-GPS,,3.2
309300,2026-01-07 15:38:24,731.72390891385,10.826772,0.0,2.07315295348,1.52666015384,17,5,7.259,731.72390891385,11.154856,0.223694,2.39244758312,0.0,0.0,-4.250186,38.2,4.9,1.2,0,0,1024,1024,1684,1024,0,0,100,0,0,0,0,58,3.642,3.637,0,0,0,0,6.398,72.32,731.72390891385,11.154856,6,P-GPS,,3.4
309400,2026-01-07 15:38:24,732.38007691385,11.48294,0.0,2.08460964676,1.53811684712,17,5,7.259,732.38007691385,11.811024,0.223694,2.39244758312,0.0,0.0,-4.250186,38.1,4.2,0.9,0,0,1024,1024,1684,1024,0,0,100,0,0,0,0,58,3.642,3.637,0,0,0,0,6.398,72.32,732.38007691385,11.811024,6,P-GPS,,3.6
309500,2026-01-07 15:38:24,733.03624491385,12.139108,0.0,2.10859914884,1.56293312088,18,5,7.259,733.03624491385,12.467192,0.223694,2.39244758312,0.0,0.0,-4.250186,38.1,3.9,0.7,0,0,1024,1024,1684,1024,0,0,100,0,0,0,0,58,3.642,3.637,0,0,0,0,6.398,72.32,733.03624491385,12.467192,6,P-GPS,,3.8
309600,2026-01-07 15:38:25,733.69241291385,12.795276,0.0,2.15844167012,1.61296265004,18,5,7.259,733.69241291385,13.12336,0.223694,2.39244758312,0.0,0.0,-4.250186,38.0,3.4,0.8,0,0,1024,1024,1684,1024,0,0,100,0,0,0,0,58,3.642,3.637,0,0,0,0,6.398,72.32,733.69241291385,13.12336,6,P-GPS,,4.0
309700,2026-01-07 15:38:25,734.34858091385,13.451444,0.0,2.26435046616,1.74390425528,18,5,7.259,734.34858091385,13.779528,0.223694,2.39244758312,0.0,0.0,-4.47388,38.0,3.4,0.2,0,0,1024,1024,1684,1024,0,0,100,0,0,0,0,58,3.642,3.637,0,0,0,0,6.398,72.32,734.34858091385,13.779528,6,P-GPS,,4.2
309800,2026-01-07 15:38:25,735.00474891385,13.779528,0.0,2.34026254208,1.82914047848,18,5,7.306,735.00474891385,14.435696,0.223694,2.39244758312,0.0,0.0,-4.47388,38.1,3.4,0.1,0,0,1024,1024,1684,1024,0,0,100,0,0,0,0,58,3.653,3.652,0,0,0,0,5.702,72.32,735.00474891385,14.435696,6,P-GPS,,4.4
309900,2026-01-07 15:38:25,735.66091691385,14.435696,0.0,2.4254757994,1.92342853924,18,5,7.306,735.66091691385,15.091864,0.223694,2.4254757994,0.0,0.0,-4.47388,38.1,3.3,0.1,0,0,1024,1024,1684,1024,0,0,100,0,0,0,0,58,3.653,3.652,0,0,0,0,5.702,72.32,735.66091691385,15.091864,6,P-GPS,,4.6
310000,2026-01-07 15:38:25,736.31708491385,15.091864,0.0,2.48238853088,1.98326449916,18,5,7.306,736.31708491385,15.748032,0.223694,2.48238853088,0.0,0.0,-4.47388,38.1,3.2,0.1,0,0,1024,1024,1684,1024,0,0,100,0,0,0,0,58,3.653,3.652,0,0,0,0,5.702,72.32,736.31708491385,15.748032,6,P-GPS,,4.8
310100,2026-01-07 15:38:25,736.97325291385,16.076116,0.223694,2.58033800908,2.11879599956,18,5,7.306,736.97325291385,16.4042,0.223694,2.58033800908,0.0,-0.223694,-4.47388,38.1,2.7,0.5,0,0,1024,1024,1684,1024,0,0,100,0,0,0,0,58,3.653,3.652,0,0,0,0,5.702,72.32,736.97325291385,16.4042,6,P-GPS,,5.0
310200,2026-01-07 15:38:25,737.62942091385,16.732284,0.223694,2.6162402412,2.1882546632,18,5,7.306,737.62942091385,17.060368,0.223694,2.6162402412,0.0,-0.223694,-4.47388,38.1,2.0,1.4,0,0,1024,1024,1684,1024,0,0,100,0,0,0,0,58,3.653,3.652,0,0,0,0,5.702,72.32,737.62942091385,17.060368,6,P-GPS,,5.2
310300,2026-01-07 15:38:25,738.28558891385,17.388452,0.223694,2.65061360188,2.26549876016,18,5,7.306,738.28558891385,17.716536,0.223694,2.65061360188,0.0,-0.223694,-4.47388,38.1,1.9,1.2,0,0,1024,1024,1684,1024,0,0,100,0,0,0,0,58,3.653,3.652,0,0,0,0,5.702,72.32,738.28558891385,17.716536,6,P-GPS,,5.4
310400,2026-01-07 15:38:25,738.94175691385,18.04462,0.0,2.67792987572,2.34276254216,18,5,7.306,738.94175691385,18.372704,0.223694,2.67792987572,0.0,0.0,-4.47388,38.1,1.7,1.3,0,0,1024,1024,1684,1024,0,0,100,0,0,0,0,58,3.653,3.652,0,0,0,0,5.702,72.32,738.94175691385,18.372704,6,P-GPS,,5.6
310500,2026-01-07 15:38:25,739.59792491385,19.028872,0.0,2.70521990284,2.42087606172,18,5,7.306,739.59792491385,19.028872,0.223694,2.70521990284,0.0,-0.223694,-4.47388,38.0,1.6,1.6,0,0,1024,1024,1684,1024,0,0,100,0,0,0,0,58,3.653,3.652,0,0,0,0,5.702,72.32,739.59792491385,19.028872,6,P-GPS,,5.8
310600,2026-01-07 15:38:26,740.25409291385,19.68504,0.0,2.59957029316,2.70038394468,18,5,7.306,740.25409291385,19.68504,0.223694,2.70521990284,0.0,0.0,-4.47388,38.1,2.6,2.6,0,0,1024,1024,1684,1024,0,0,100,0,0,0,0,58,3.653,3.652,0,0,0,0,5.702,72.32,740.25409291385,19.68504,6,P-GPS,,6.0
310700,2026-01-07 15:38:26,740.91026091385,20.669292,0.0,2.55220480608,2.81797253112,18,5,7.295,740.91026091385,20.341208,0.223694,2.70521990284,0.0,0.0,-4.47388,38.1,2.7,2.3,0,0,1024,1024,1684,1024,0,0,100,0,0,0,0,58,3.654,3.652,0,0,0,0,5.659,72.5,740.91026091385,20.341208,6,P-GPS,,6.2
310800,2026-01-07 15:38:26,741.56642891385,21.32546,0.0,2.52649614384,2.92958998876,18,5,7.295,741.56642891385,20.997376,0.223694,2.70521990284,0.0,0.0,-4.47388,38.1,2.9,2.2,0,0,1024,1024,1684,1024,0,0,100,0,0,0,0,58,3.654,3.652,0,0,0,0,5.659,72.5,741.56642891385,20.997376,6,P-GPS,,6.4
310900,2026-01-07 15:38:26,742.22259691385,22.309712,0.0,2.50947514592,3.03900272192,18,5,7.295,742.22259691385,21.653544,0.223694,2.70521990284,0.0,0.0,-4.47388,38.1,3.1,1.8,0,0,1024,1024,1684,1024,0,0,100,0,0,0,0,58,3.654,3.652,0,0,0,0,5.659,72.5,742.22259691385,21.653544,6,P-GPS,,6.6
311000,2026-01-07 15:38:26,743.20684891385,23.293964,0.0,2.39468183516,3.2843176904,18,5,7.295,743.20684891385,22.637796,0.223694,2.70521990284,0.0,0.0,-4.47388,38.1,3.2,0.8,0,0,1024,1024,1684,1024,0,0,100,0,0,0,0,58,3.654,3.652,0,0,0,0,5.659,72.5,743.20684891385,22.637796,6,P-GPS,,6.9
311100,2026-01-07 15:38:26,743.86301691385,23.950132,0.0,2.39221464348,3.3154856704,18,5,7.295,743.86301691385,23.293964,0.223694,2.70521990284,0.0,0.0,-4.47388,38.1,3.2,0.8,0,0,1024,1024,1684,1024,0,0,100,0,0,0,0,58,3.654,3.652,0,0,0,0,5.659,72.5,743.86301691385,23.293964,6,P-GPS,,7.1
311200,2026-01-07 15:38:26,744.51918491385,24.934384,0.0,2.41214574648,3.3477035192,18,5,7.295,744.51918491385,23.950132,0.223694,2.70521990284,0.0,0.0,-4.47388,38.0,2.8,0.9,0,0,1024,1024,1684,1024,0,0,100,0,0,0,0,58,3.654,3.652,0,0,0,0,5.659,72.5,744.51918491385,23.950132,6,P-GPS,,7.3
311300,2026-01-07 15:38:26,745.17535291385,25.590552,0.0,2.43548564224,3.3877625756,18,5,7.295,745.17535291385,24.6063,0.223694,2.70521990284,0.0,0.0,-4.47388,38.1,2.9,1.1,0,0,1024,1024,1684,1024,0,0,100,0,0,0,0,58,3.654,3.652,0,0,0,0,5.659,72.5,745.17535291385,24.6063,6,P-GPS,,7.5
311400,2026-01-07 15:38:26,745.83152091385,26.24672,0.0,2.52753945096,3.6597114032,18,5,7.295,745.83152091385,25.262468,0.223694,2.70521990284,0.0,0.0,-4.47388,38.0,2.1,0.9,0,0,1024,1024,1684,1024,0,0,100,0,0,0,0,58,3.654,3.652,0,0,0,0,5.659,72.5,745.83152091385,25.262468,6,P-GPS,,7.7
311500,2026-01-07 15:38:26,746.48768891385,26.902888,0.0,2.54199811284,3.6872704592,18,5,7.295,746.48768891385,25.918636,0.223694,2.70521990284,0.0,0.0,-4.47388,38.0,3.1,1.3,0,0,1024,1024,1684,1024,0,0,100,0,0,0,0,58,3.654,3.652,0,0,0,0,5.659,72.5,746.48768891385,25.918636,6,P-GPS,,7.9
311600,2026-01-07 15:38:27,747.14385691385,27.559056,0.0,2.51616149784,3.7132219036,18,5,7.295,747.14385691385,26.574804,0.223694,2.70521990284,0.0,0.0,-4.47388,38.1,3.7,1.4,0,0,1024,1024,1684,1024,0,0,100,0,0,0,0,58,3.654,3.652,0,0,0,0,5.659,72.5,747.14385691385,26.574804,6,P-GPS,,8.1
311700,2026-01-07 15:38:27,747.80002491385,30.511812,0.0,2.47927501372,3.7507219048,18,5,7.295,747.80002491385,27.230972,0.223694,2.70521990284,0.0,0.0,-4.47388,38.1,3.6,1.9,0,0,1024,1024,1684,1024,0,0,100,0,0,0,0,58,3.654,3.652,0,0,0,0,5.659,72.5,747.80002491385,27.230972,6,P-GPS,,8.3
311800,2026-01-07 15:38:27,748.45619291385,31.16798,0.0,2.44201779468,3.8517717768,18,5,7.295,748.45619291385,27.88714,0.223694,2.70521990284,0.0,0.0,-4.47388,38.0,3.7,2.3,0,0,1024,1024,1684,1024,0,0,100,0,0,0,0,58,3.646,3.64,0,0,0,0,5.659,72.5,748.45619291385,27.88714,6,P-GPS,,8.5
311900,2026-01-07 15:38:27,749.11236091385,31.824148,0.223694,2.43826779456,3.9055447444,18,5,7.295,749.11236091385,28.543308,0.223694,2.70521990284,0.0,-0.223694,-4.47388,38.1,4.1,2.7,0,0,1024,1024,1684,1024,0,0,100,0,0,0,0,58,3.646,3.64,0,0,0,0,5.659,72.5,749.11236091385,28.543308,6,P-GPS,,8.7
312000,2026-01-07 15:38:27,749.76852891385,32.480316,0.0,2.4329233062,3.9804135132,18,5,7.295,749.76852891385,29.199476,0.223694,2.70521990284,0.0,0.0,-4.250186,38.0,3.0,2.9,0,0,1024,1024,1684,1024,0,0,100,0,0,0,0,58,3.646,3.64,0,0,0,0,5.659,72.5,749.76852891385,29.199476,6,P-GPS,,8.9
312100,2026-01-07 15:38:27,750.42469691385,33.136484,0.0,2.427165432,4.059547374,18,5,7.295,750.42469691385,29.855644,0.223694,2.70521990284,0.0,0.0,-4.47388,38.0,3.2,3.1,0,0,1024,1024,1684,1024,0,0,100,0,0,0,0,58,3.646,3.64,0,0,0,0,5.659,72.5,750.42469691385,29.855644,6,P-GPS,,9.1
312200,2026-01-07 15:38:27,751.08086491385,33.792652,0.0,2.4462271124,4.1039043308,18,5,7.295,751.08086491385,30.511812,0.223694,2.70521990284,0.0,0.0,-4.47388,38.1,3.8,3.1,0,0,1024,1024,1684,1024,0,0,100,0,0,0,0,58,3.646,3.64,0,0,0,0,5.659,72.5,751.08086491385,30.511812,6,P-GPS,,9.3
312300,2026-01-07 15:38:27,751.73703291385,34.44882,0.0,2.53964246972,4.2147967228,18,5,7.295,751.73703291385,31.16798,0.223694,2.70521990284,0.0,0.0,-4.47388,38.1,3.8,2.3,0,0,1024,1024,1684,1024,0,0,100,0,0,0,0,58,3.646,3.64,0,0,0,0,5.659,72.5,751.73703291385,31.16798,6,P-GPS,,9.5
312400,2026-01-07 15:38:27,752.39320091385,35.104988,0.0,2.56275926836,4.239173364,18,5,7.295,752.39320091385,31.824148,0.223694,2.70521990284,0.0,0.0,-4.47388,38.1,3.1,1.9,0,0,1024,1024,1684,1024,0,0,100,0,0,0,0,58,3.646,3.64,0,0,0,0,5.659,72.5,752.39320091385,31.824148,6,P-GPS,,9.7
312500,2026-01-07 15:38:28,753.04936891385,35.761156,0.0,2.5872048072,4.264107748,18,5,7.295,753.04936891385,32.480316,0.223694,2.70521990284,0.0,0.0,-4.47388,38.1,3.7,1.7,0,0,1024,1024,1684,1024,0,0,100,0,0,0,0,58,3.646,3.64,0,0,0,0,5.659,72.5,753.04936891385,32.480316,6,P-GPS,,9.9
312600,2026-01-07 15:38:28,753.70553691385,36.417324,0.0,2.60192921712,4.2802166724,18,5,7.295,753.70553691385,33.136484,0.223694,2.70521990284,0.0,0.0,-4.250186,38.1,3.4,1.7,0,0,1024,1024,1024,1024,0,0,0,0,0,0,0,58,3.646,3.64,0,0,0,0,5.659,72.5,753.70553691385,33.136484,6,P-GPS,,10.1
312700,2026-01-07 15:38:28,754.36170491385,37.073492,0.0,2.6274935224,4.3519686432,18,5,7.295,754.36170491385,33.792652,0.223694,2.70521990284,0.0,0.0,-4.250186,38.2,2.7,2.4,0,0,1024,1024,1024,1024,0,0,0,0,0,0,0,58,3.646,3.64,0,0,0,0,5.659,72.5,754.36170491385,33.792652,6,P-GPS,,10.3
312800,2026-01-07 15:38:28,754.68978891385,37.72966,0.0,2.6112533644,4.4011484348,18,5,7.295,754.68978891385,34.120736,0.223694,2.70521990284,0.0,0.0,-4.250186,38.1,2.9,2.3,0,0,1024,1024,1024,1024,0,0,0,0,0,0,0,58,3.646,3.64,0,0,0,0,5.659,72.5,754.68978891385,34.120736,6,P-GPS,,10.4
312900,2026-01-07 15:38:28,755.34595691385,38.385828,0.0,2.58866806184,4.4628282268,18,5,7.285,755.34595691385,34.776904,0.223694,2.70521990284,0.0,0.0,-3.579104,38.0,3.4,2.3,0,0,1024,1024,1024,1024,0,0,0,0,0,0,0,58,3.638,3.63,0,0,0,0,5.822,72.5,755.34595691385,34.776904,6,P-GPS,,10.6
313000,2026-01-07 15:38:28,755.67404091385,39.041996,0.0,2.59387475492,4.511811168,18,5,7.285,755.67404091385,35.104988,0.223694,2.70521990284,0.0,0.0,-2.908022,38.1,2.9,2.6,0,0,1024,1024,1024,1024,0,0,0,0,0,0,0,58,3.638,3.63,0,0,0,0,5.822,72.5,755.67404091385,35.104988,6,P-GPS,,10.7
313100,2026-01-07 15:38:28,756.00212491385,39.37008,0.0,2.57548564672,4.661581514,17,5,7.285,756.00212491385,35.433072,0.223694,2.70521990284,0.0,0.0,-2.013246,38.1,2.8,2.9,0,0,1024,1024,1024,1024,0,0,0,0,0,0,0,58,3.638,3.63,0,0,0,0,5.822,72.5,756.00212491385,35.433072,6,P-GPS,,10.8
313200,2026-01-07 15:38:28,756.33020891385,39.37008,0.0,2.59025926924,4.68750015,17,5,7.285,756.33020891385,35.761156,0.223694,2.70521990284,0.0,0.0,-1.342164,38.0,2.8,2.6,0,0,1024,1024,1024,1024,0,0,0,0,0,0,0,58,3.638,3.63,0,0,0,0,5.822,72.5,756.33020891385,35.761156,6,P-GPS,,10.9
313300,2026-01-07 15:38:28,756.33020891385,39.37008,0.0,2.60214247172,4.7068242976,16,5,7.285,756.33020891385,35.761156,0.223694,2.70521990284,0.0,0.0,-0.671082,38.0,3.3,2.4,0,0,1024,1024,1024,1024,0,0,0,0,0,0,0,58,3.638,3.63,0,0,0,0,5.822,72.5,756.33020891385,35.761156,6,P-GPS,,10.9
313400,2026-01-07 15:38:28,756.33020891385,39.37008,0.0,2.5987861724,4.7621720684,16,5,7.285,756.33020891385,35.761156,0.223694,2.70521990284,0.0,0.0,-0.223694,38.1,3.7,2.3,0,0,1024,1024,1024,1024,0,0,0,0,0,0,0,58,3.638,3.63,0,0,0,0,5.822,72.5,756.33020891385,35.761156,6,P-GPS,,10.9
313500,2026-01-07 15:38:29,756.33020891385,39.37008,0.0,2.5939797418,4.887959474,18,5,7.285,756.33020891385,35.761156,0.223694,2.70521990284,0.0,0.0,0.0,38.2,4.0,2.4,0,0,1024,1024,1024,1024,0,0,0,0,0,0,0,58,3.638,3.63,0,0,0,0,5.822,72.5,756.33020891385,35.761156,6,P-GPS,,10.9
313600,2026-01-07 15:38:29,756.33020891385,39.37008,0.0,2.59293315384,4.9463256176,18,5,7.285,756.33020891385,35.761156,0.223694,2.70521990284,0.0,0.0,0.0,38.1,4.2,2.4,0,0,1024,1024,1024,1024,0,0,0,0,0,0,0,58,3.638,3.63,0,0,0,0,5.822,72.5,756.33020891385,35.761156,6,P-GPS,,10.9
313700,2026-01-07 15:38:29,756.33020891385,39.37008,0.0,2.59831701228,5.003445042,18,5,7.285,756.33020891385,35.761156,0.223694,2.70521990284,0.0,0.0,0.0,38.1,3.7,2.8,0,0,1024,1024,1024,1024,0,0,0,0,0,0,0,58,3.638,3.63,0,0,0,0,5.822,72.5,756.33020891385,35.761156,6,P-GPS,,10.9
313800,2026-01-07 15:38:29,756.00212491385,39.37008,0.0,2.61752304964,5.0630579048,18,5,7.285,756.33020891385,35.761156,0.223694,2.70521990284,0.0,0.0,0.0,38.1,3.4,2.9,0,0,1024,1024,1024,1024,0,0,0,0,0,0,0,58,3.638,3.63,0,0,0,0,5.822,72.5,756.00212491385,35.433072,6,P-GPS,,10.8
313900,2026-01-07 15:38:29,756.00212491385,39.37008,0.0,2.63982619996,5.1224739172,17,5,7.285,756.33020891385,35.761156,0.223694,2.70521990284,0.0,0.0,0.0,38.1,3.9,2.5,0,0,1024,1024,1024,1024,0,0,0,0,0,0,0,58,3.638,3.63,0,0,0,0,5.822,72.5,756.00212491385,35.433072,6,P-GPS,,10.8
314000,2026-01-07 15:38:29,756.00212491385,39.37008,0.0,2.67508538744,5.2059384868,17,5,7.329,756.33020891385,35.761156,0.223694,2.70521990284,0.0,0.0,0.0,38.2,3.8,2.3,0,0,1024,1024,1024,1024,0,0,0,0,0,0,0,58,3.661,3.657,0,0,0,0,4.708,72.5,756.00212491385,35.433072,6,P-GPS,,10.8
314100,2026-01-07 15:38:29,756.00212491385,39.37008,0.0,2.7102034988,5.244094656,17,5,7.329,756.33020891385,35.761156,0.223694,2.7102034988,0.0,0.0,0.0,38.2,3.7,2.2,0,0,1024,1024,1024,1024,0,0,0,0,0,0,0,58,3.661,3.657,0,0,0,0,4.708,72.5,756.00212491385,35.433072,6,P-GPS,,10.8
314200,2026-01-07 15:38:29,756.00212491385,39.37008,0.0,2.72291347296,5.2569883572,17,5,7.329,756.33020891385,35.761156,0.223694,2.72291347296,0.0,0.0,0.0,38.2,3.6,2.2,0,0,1024,1024,1024,1024,0,0,0,0,0,0,0,58,3.661,3.657,0,0,0,0,4.708,72.5,756.00212491385,35.433072,6,P-GPS,,10.8
314300,2026-01-07 15:38:29,756.00212491385,39.37008,0.0,2.73655848652,5.27066946,16,5,7.329,756.33020891385,35.761156,0.223694,2.73655848652,0.0,0.0,0.0,38.2,3.5,2.1,0,0,1024,1024,1024,1024,0,0,0,0,0,0,0,58,3.661,3.657,0,0,0,0,4.708,72.5,756.00212491385,35.433072,6,P-GPS,,10.8
314400,2026-01-07 15:38:29,755.67404091385,39.37008,0.0,2.72139772488,5.3908794376,16,5,7.329,756.33020891385,35.761156,0.223694,2.73655848652,0.0,0.0,0.0,38.1,3.0,1.1,0,0,1024,1024,1024,1024,0,0,0,0,0,0,0,58,3.661,3.657,0,0,0,0,4.708,72.5,755.67404091385,35.104988,6,P-GPS,,10.7
314500,2026-01-07 15:38:29,755.67404091385,39.37008,0.0,2.73810048132,5.4086943988,16,5,7.329,756.33020891385,35.761156,0.223694,2.73810048132,0.0,0.0,0.0,38.0,2.2,1.2,0,0,1024,1024,1024,1024,0,0,0,0,0,0,0,58,3.661,3.657,0,0,0,0,4.708,72.5,755.67404091385,35.104988,6,P-GPS,,10.7
314600,2026-01-07 15:38:30,755.67404091385,39.37008,0.0,2.73336294836,5.4252298324,16,5,7.329,756.33020891385,35.761156,0.223694,2.73810048132,0.0,0.0,0.0,38.1,2.2,1.3,0,0,1024,1024,1024,1024,0,0,0,0,0,0,0,58,3.661,3.657,0,0,0,0,4.708,72.5,755.67404091385,35.104988,6,P-GPS,,10.7
314700,2026-01-07 15:38:30,755.67404091385,39.37008,0.0,2.71987869596,5.4433400692,17,5,7.329,756.33020891385,35.761156,0.223694,2.73810048132,0.0,0.0,0.0,38.0,2.6,1.2,0,0,1024,1024,1024,1024,0,0,0,0,0,0,0,58,3.661,3.657,0,0,0,0,4.708,72.5,755.67404091385,35.104988,6,P-GPS,,10.7
314800,2026-01-07 15:38:30,755.67404091385,39.37008,0.0,2.68756898364,5.5871720948,17,5,7.329,756.33020891385,35.761156,0.223694,2.73810048132,0.0,0.0,0.0,37.9,2.7,1.2,0,0,1024,1024,1024,1024,0,0,0,0,0,0,0,58,3.661,3.657,0,0,0,0,4.708,72.5,755.67404091385,35.104988,6,P-GPS,,10.7
314900,2026-01-07 15:38:30,755.67404091385,39.37008,0.0,2.67935047944,5.6101379748,17,5,7.329,756.33020891385,35.761156,0.223694,2.73810048132,0.0,0.0,0.0,38.0,3.1,1.7,0,0,1024,1024,1024,1024,0,0,0,0,0,0,0,58,3.661,3.657,0,0,0,0,4.708,72.5,755.67404091385,35.104988,6,P-GPS,,10.7
315000,2026-01-07 15:38:30,755.67404091385,39.37008,0.0,2.65613197476,5.6348098916,17,5,7.329,756.33020891385,35.761156,0.223694,2.73810048132,0.0,0.0,0.0,38.0,3.8,1.9,0,0,1024,1024,1024,1024,0,0,0,0,0,0,0,58,3.661,3.657,0,0,0,0,4.708,72.5,755.67404091385,35.104988,6,P-GPS,,10.7
315100,2026-01-07 15:38:30,755.67404091385,39.37008,0.0,2.6278544148,5.663386008,17,5,7.319,756.33020891385,35.761156,0.223694,2.73810048132,0.0,0.0,0.0,38.1,4.0,2.1,0,0,1024,1024,1024,1024,0,0,0,0,0,0,0,58,3.664,3.654,0,0,0,0,5.098,72.5,755.67404091385,35.104988,6,P-GPS,,10.7
315200,2026-01-07 15:38:30,755.67404091385,39.37008,0.0,2.608021737,5.692585484,17,5,7.319,756.33020891385,35.761156,0.223694,2.73810048132,0.0,0.0,0.0,38.2,4.2,2.1,0,0,1024,1024,1024,1024,0,0,0,0,0,0,0,58,3.664,3.654,0,0,0,0,5.098,72.5,755.67404091385,35.104988,6,P-GPS,,10.7
315300,2026-01-07 15:38:30,755.67404091385,39.37008,0.0,2.59455716964,5.7099411276,17,5,7.319,756.33020891385,35.761156,0.223694,2.73810048132,0.0,0.0,0.0,38.2,4.1,2.1,0,0,1024,1024,1024,1024,0,0,0,0,0,0,0,58,3.664,3.654,0,0,0,0,5.098,72.5,755.67404091385,35.104988,6,P-GPS,,10.7
315400,2026-01-07 15:38:30,755.67404091385,39.37008,0.0,2.56931438668,5.7384844356,17,5,7.319,756.33020891385,35.761156,0.223694,2.73810048132,0.0,0.0,0.0,38.2,4.2,2.1,0,0,1024,1024,1024,1024,0,0,0,0,0,0,0,58,3.664,3.654,0,0,0,0,5.098,72.5,755.67404091385,35.104988,6,P-GPS,,10.7
315500,2026-01-07 15:38:30,755.67404091385,39.37008,0.0,2.54146333592,5.7701117332,17,5,7.319,756.33020891385,35.761156,0.223694,2.73810048132,0.0,0.0,0.0,38.2,3.9,2.0,0,0,1024,1024,1024,1024,0,0,0,0,0,0,0,58,3.664,3.654,0,0,0,0,5.098,72.5,755.67404091385,35.104988,6,P-GPS,,10.7
315600,2026-01-07 15:38:31,755.67404091385,39.37008,0.0,2.5134351198,5.8074805008,17,5,7.319,756.33020891385,35.761156,0.223694,2.73810048132,0.0,0.0,0.0,38.3,3.8,2.1,0,0,1024,1024,1024,1024,0,0,0,0,0,0,0,58,3.664,3.654,0,0,0,0,5.098,72.5,755.67404091385,35.104988,6,P-GPS,,10.7
315700,2026-01-07 15:38:31,755.67404091385,39.37008,0.0,2.45128616768,5.8933400836,17,5,7.319,756.33020891385,35.761156,0.223694,2.73810048132,0.0,0.0,0.0,38.3,3.8,2.3,0,0,1024,1024,1024,1024,0,0,0,0,0,0,0,58,3.664,3.654,0,0,0,0,5.098,72.5,755.67404091385,35.104988,6,P-GPS,,10.7
315800,2026-01-07 15:38:31,755.67404091385,39.37008,0.0,2.42790690184,5.9298886412,17,5,7.319,756.33020891385,35.761156,0.223694,2.73810048132,0.0,0.0,0.0,38.2,3.7,2.4,0,0,1024,1024,1024,1024,0,0,0,0,0,0,0,58,3.664,3.654,0,0,0,0,5.098,72.5,755.67404091385,35.104988,6,P-GPS,,10.7
315900,2026-01-07 15:38:31,755.67404091385,39.37008,0.0,2.4067093946,5.9663387736,17,5,7.319,756.33020891385,35.761156,0.223694,2.73810048132,0.0,0.0,0.0,38.1,3.5,2.7,0,0,1024,1024,1024,1024,0,0,0,0,0,0,0,58,3.664,3.654,0,0,0,0,5.098,72.5,755.67404091385,35.104988,6,P-GPS,,10.7
316000,2026-01-07 15:38:31,755.67404091385,39.37008,0.0,2.39793970928,5.983760034,17,5,7.319,756.33020891385,35.761156,0.223694,2.73810048132,0.0,0.0,0.0,38.1,3.2,2.5,0,0,1024,1024,1024,1024,0,0,0,0,0,0,0,58,3.664,3.654,0,0,0,0,5.098,72.5,755.67404091385,35.104988,6,P-GPS,,10.7
316100,2026-01-07 15:38:31,755.67404091385,39.37008,0.0,2.39437671704,5.9986222392,17,5,7.319,756.33020891385,35.761156,0.223694,2.73810048132,0.0,0.0,0.0,38.1,3.6,2.6,0,0,1024,1024,1024,1024,0,0,0,0,0,0,0,58,3.664,3.654,0,0,0,0,5.098,72.5,755.67404091385,35.104988,6,P-GPS,,10.7
316200,2026-01-07 15:38:31,756.00212491385,39.37008,0.0,2.38867461712,6.0072836568,17,5,7.327,756.33020891385,35.761156,0.223694,2.73810048132,0.0,0.0,0.0,38.2,3.6,2.9,0,0,1024,1024,1024,1024,0,0,0,0,0,0,0,58,3.664,3.662,0,0,0,0,4.884,72.5,756.00212491385,35.433072,6,P-GPS,,10.8
316300,2026-01-07 15:38:31,756.00212491385,39.37008,0.0,2.38288065368,6.0148623972,17,5,7.327,756.33020891385,35.761156,0.223694,2.73810048132,0.0,0.0,0.0,38.2,3.8,3.0,0,0,1024,1024,1024,1024,0,0,0,0,0,0,0,58,3.664,3.662,0,0,0,0,4.884,72.5,756.00212491385,35.433072,6,P-GPS,,10.8
316400,2026-01-07 15:38:31,756.00212491385,39.37008,0.0,2.3635335402,6.0361222404,17,5,7.327,756.33020891385,35.761156,0.223694,2.73810048132,0.0,0.0,0.0,38.1,3.7,3.0,0,0,1024,1024,1024,1024,0,0,0,0,0,0,0,58,3.664,3.662,0,0,0,0,4.884,72.5,756.00212491385,35.433072,6,P-GPS,,10.8
316500,2026-01-07 15:38:31,756.00212491385,39.37008,0.0,2.32630912956,6.0743440264,17,5,7.327,756.33020891385,35.761156,0.223694,2.73810048132,0.0,0.0,0.0,38.1,3.8,2.9,0,0,1024,1024,1024,1024,0,0,0,0,0,0,0,58,3.664,3.662,0,0,0,0,4.884,72.5,756.00212491385,35.433072,6,P-GPS,,10.8
316600,2026-01-07 15:38:32,756.00212491385,39.37008,0.0,2.30890099252,6.0917652868,17,5,7.327,756.33020891385,35.761156,0.223694,2.73810048132,0.0,0.0,0.0,38.1,4.0,2.7,0,0,1024,1024,1024,1024,0,0,0,0,0,0,0,58,3.664,3.662,0,0,0,0,4.884,72.5,756.00212491385,35.433072,6,P-GPS,,10.8
316700,2026-01-07 15:38:32,756.00212491385,39.37008,0.0,2.293963328,6.1070868096,17,5,7.327,756.33020891385,35.761156,0.223694,2.73810048132,0.0,0.0,0.0,38.2,3.8,2.6,0,0,1024,1024,1024,1024,0,0,0,0,0,0,0,58,3.664,3.662,0,0,0,0,4.884,72.5,756.00212491385,35.433072,6,P-GPS,,10.8
316800,2026-01-07 15:38:32,756.00212491385,39.37008,0.0,2.27215558452,6.12942933,17,5,7.327,756.33020891385,35.761156,0.223694,2.73810048132,0.0,0.0,0.0,38.2,3.8,2.5,0,0,1024,1024,1024,1024,0,0,0,0,0,0,0,58,3.664,3.662,0,0,0,0,4.884,72.5,756.00212491385,35.433072,6,P-GPS,,10.8
316900,2026-01-07 15:38:32,756.00212491385,39.37008,0.0,2.21948826,6.1837928488,17,5,7.327,756.33020891385,35.761156,0.223694,2.73810048132,0.0,0.0,0.0,38.2,4.0,2.4,0,0,1024,1024,1024,1024,0,0,0,0,0,0,0,58,3.664,3.662,0,0,0,0,4.884,72.5,756.00212491385,35.433072,6,P-GPS,,10.8
317000,2026-01-07 15:38:32,756.00212491385,39.37008,0.0,2.21123366656,6.1999017732,17,5,7.327,756.33020891385,35.761156,0.223694,2.73810048132,0.0,0.0,0.0,38.2,3.9,2.5,0,0,1024,1024,1024,1024,0,0,0,0,0,0,0,58,3.664,3.662,0,0,0,0,4.884,72.5,756.00212491385,35.433072,6,P-GPS,,10.8
317100,2026-01-07 15:38:32,756.00212491385,39.37008,0.0,2.20756896828,6.218504136,17,5,7.327,756.33020891385,35.761156,0.223694,2.73810048132,0.0,0.0,0.0,38.2,3.8,2.6,0,0,1024,1024,1024,1024,0,0,0,0,0,0,0,58,3.664,3.662,0,0,0,0,4.884,72.5,756.00212491385,35.433072,6,P-GPS,,10.8
317200,2026-01-07 15:38:32,756.00212491385,39.37008,0.0,2.20531831204,6.2219818264,17,5,7.327,756.33020891385,35.761156,0.223694,2.73810048132,0.0,0.0,0.0,38.2,3.9,2.4,0,0,1024,1024,1024,1024,0,0,0,0,0,0,0,58,3.664,3.662,0,0,0,0,4.884,72.5,756.00212491385,35.433072,6,P-GPS,,10.8
317300,2026-01-07 15:38:32,756.00212491385,39.37008,0.0,2.20547579236,6.2224083356,17,5,7.326,756.33020891385,35.761156,0.223694,2.73810048132,0.0,0.0,0.0,38.2,3.6,2.5,0,0,1024,1024,1024,1024,0,0,0,0,0,0,0,58,3.666,3.661,0,0,0,0,4.778,72.5,756.00212491385,35.433072,6,P-GPS,,10.8
317400,2026-01-07 15:38:32,756.00212491385,39.37008,0.0,2.2382874732,6.270997576,17,5,7.326,756.33020891385,35.761156,0.223694,2.73810048132,0.0,0.0,0.0,38.2,3.6,2.3,0,0,1024,1024,1024,1024,0,0,0,0,0,0,0,58,3.666,3.661,0,0,0,0,4.778,72.5,756.00212491385,35.433072,6,P-GPS,,10.8
317500,2026-01-07 15:38:32,756.00212491385,39.37008,0.0,2.26097776264,6.3025264484,17,5,7.326,756.33020891385,35.761156,0.223694,2.73810048132,0.0,0.0,0.0,38.1,3.3,2.4,0,0,1024,1024,1024,1024,0,0,0,0,0,0,0,58,3.666,3.661,0,0,0,0,4.778,72.5,756.00212491385,35.433072,6,P-GPS,,10.8
317600,2026-01-07 15:38:33,756.00212491385,39.37008,0.0,2.2659449544,6.3075133252,17,5,7.326,756.33020891385,35.761156,0.223694,2.73810048132,0.0,0.0,0.0,38.1,3.7,2.2,0,0,1024,1024,1024,1024,0,0,0,0,0,0,0,58,3.666,3.661,0,0,0,0,4.778,72.5,756.00212491385,35.433072,6,P-GPS,,10.8
317700,2026-01-07 15:38:33,756.00212491385,39.37008,0.0,2.26733603056,6.3145343228,17,5,7.326,756.33020891385,35.761156,0.223694,2.73810048132,0.0,0.0,0.0,38.1,3.9,2.3,0,0,1024,1024,1024,1024,0,0,0,0,0,0,0,58,3.666,3.661,0,0,0,0,4.778,72.5,756.00212491385,35.433072,6,P-GPS,,10.8
317800,2026-01-07 15:38:33,756.00212491385,39.37008,0.0,2.3035269766,6.3799542724,17,5,7.326,756.33020891385,35.761156,0.223694,2.73810048132,0.0,0.0,0.0,38.1,3.8,2.5,0,0,1024,1024,1024,1024,0,0,0,0,0,0,0,58,3.666,3.661,0,0,0,0,4.778,72.5,756.00212491385,35.433072,6,P-GPS,,10.8
317900,2026-01-07 15:38:33,756.00212491385,39.37008,0.0,2.32077107164,6.4086944308,17,5,7.326,756.33020891385,35.761156,0.223694,2.73810048132,0.0,0.0,0.0,38.1,3.6,2.7,0,0,1024,1024,1024,1024,0,0,0,0,0,0,0,58,3.666,3.661,0,0,0,0,4.778,72.5,756.00212491385,35.433072,6,P-GPS,,10.8
318000,2026-01-07 15:38:33,756.00212491385,39.37008,0.0,2.33207356544,6.4267718592,17,5,7.326,756.33020891385,35.761156,0.223694,2.73810048132,0.0,0.0,0.0,38.1,3.7,2.8,0,0,1024,1024,1024,1024,0,0,0,0,0,0,0,58,3.666,3.661,0,0,0,0,4.778,72.5,756.00212491385,35.433072,6,P-GPS,,10.8
318100,2026-01-07 15:38:33,756.00212491385,39.37008,0.0,2.34274613796,6.4417324896,17,5,7.326,756.33020891385,35.761156,0.223694,2.73810048132,0.0,0.0,0.0,38.1,3.9,2.7,0,0,1024,1024,1024,1024,0,0,0,0,0,0,0,58,3.666,3.661,0,0,0,0,4.778,72.5,756.00212491385,35.433072,6,P-GPS,,10.8
318200,2026-01-07 15:38:33,756.00212491385,39.37008,0.0,2.32979338164,6.4547902328,17,5,7.326,756.33020891385,35.761156,0.223694,2.73810048132,0.0,0.0,0.0,38.1,4.4,2.6,0,0,1024,1024,1024,1024,0,0,0,0,0,0,0,58,3.666,3.661,0,0,0,0,4.778,72.5,756.00212491385,35.433072,6,P-GPS,,10.8
318300,2026-01-07 15:38:33,756.00212491385,39.37008,0.0,2.34005256832,6.465551388,17,5,7.326,756.33020891385,35.761156,0.223694,2.73810048132,0.0,0.0,0.0,38.0,3.9,1.8,0,0,1024,1024,1024,1024,0,0,0,0,0,0,0,58,3.666,3.661,0,0,0,0,4.778,72.5,756.00212491385,35.433072,6,P-GPS,,10.8
318400,2026-01-07 15:38:33,756.00212491385,39.37008,0.0,2.36667330408,6.4934713364,17,5,7.322,756.33020891385,35.761156,0.223694,2.73810048132,0.0,0.0,0.0,37.8,2.7,2.1,0,0,1024,1024,1024,1024,0,0,0,0,0,0,0,58,3.664,3.658,0,0,0,0,4.801,72.68,756.00212491385,35.433072,6,P-GPS,,10.8
318500,2026-01-07 15:38:34,756.00212491385,39.37008,0.0,2.39444561468,6.5225395788,17,5,7.322,756.33020891385,35.761156,0.223694,2.73810048132,0.0,0.0,0.0,37.9,3.1,2.6,0,0,1024,1024,1024,1024,0,0,0,0,0,0,0,58,3.664,3.658,0,0,0,0,4.801,72.68,756.00212491385,35.433072,6,P-GPS,,10.8
318600,2026-01-07 15:38:34,756.00212491385,39.37008,0.0,2.38049220216,6.5854332816,17,5,7.322,756.33020891385,35.761156,0.223694,2.73810048132,0.0,0.0,0.0,38.2,4.5,1.8,0,0,1024,1024,1024,1024,0,0,0,0,0,0,0,58,3.664,3.658,0,0,0,0,4.801,72.68,756.00212491385,35.433072,6,P-GPS,,10.8
318700,2026-01-07 15:38:34,756.00212491385,39.37008,0.0,2.36800860596,6.6083335448,17,5,7.322,756.33020891385,35.761156,0.223694,2.73810048132,0.0,0.0,0.0,38.2,4.9,1.4,0,0,1024,1024,1024,1024,0,0,0,0,0,0,0,58,3.664,3.658,0,0,0,0,4.801,72.68,756.00212491385,35.433072,6,P-GPS,,10.8
318800,2026-01-07 15:38:34,756.00212491385,39.37008,0.0,2.3603019128,6.6293965376,17,5,7.322,756.33020891385,35.761156,0.223694,2.73810048132,0.0,0.0,0.0,38.2,4.6,1.8,0,0,1024,1024,1024,1024,0,0,0,0,0,0,0,58,3.664,3.658,0,0,0,0,4.801,72.68,756.00212491385,35.433072,6,P-GPS,,10.8
318900,2026-01-07 15:38:34,755.67404091385,39.37008,0.0,2.35823826444,6.6456366956,17,5,7.322,756.33020891385,35.761156,0.223694,2.73810048132,0.0,0.0,0.0,38.2,4.2,2.2,0,0,1024,1024,1024,1024,0,0,0,0,0,0,0,58,3.664,3.658,0,0,0,0,4.801,72.68,755.67404091385,35.104988,6,P-GPS,,10.7
319000,2026-01-07 15:38:34,755.67404091385,39.37008,0.0,2.36801844848,6.65600415,17,5,7.322,756.33020891385,35.761156,0.223694,2.73810048132,0.0,0.0,0.0,38.2,4.1,2.2,0,0,1024,1024,1024,1024,0,0,0,0,0,0,0,58,3.664,3.658,0,0,0,0,4.801,72.68,755.67404091385,35.104988,6,P-GPS,,10.7
319100,2026-01-07 15:38:34,755.67404091385,39.37008,0.0,2.3703084748,6.6834647808,17,5,7.322,756.33020891385,35.761156,0.223694,2.73810048132,0.0,0.0,0.0,38.1,3.8,2.3,0,0,1024,1024,1024,1024,0,0,0,0,0,0,0,58,3.664,3.658,0,0,0,0,4.801,72.68,755.67404091385,35.104988,6,P-GPS,,10.7
319200,2026-01-07 15:38:34,755.67404091385,39.37008,0.0,2.37826123096,6.693569768,17,5,7.322,756.33020891385,35.761156,0.223694,2.73810048132,0.0,0.0,0.0,38.1,3.5,2.5,0,0,1024,1024,1024,1024,0,0,0,0,0,0,0,58,3.664,3.658,0,0,0,0,4.801,72.68,755.67404091385,35.104988,6,P-GPS,,10.7
319300,2026-01-07 15:38:34,755.67404091385,39.37008,0.0,2.38308406576,6.7026905032,17,5,7.322,756.33020891385,35.761156,0.223694,2.73810048132,0.0,0.0,0.0,38.1,3.6,2.6,0,0,1024,1024,1024,1024,0,0,0,0,0,0,0,58,3.664,3.658,0,0,0,0,4.801,72.68,755.67404091385,35.104988,6,P-GPS,,10.7
319400,2026-01-07 15:38:34,755.67404091385,39.37008,0.0,2.38583012884,6.7130251492,17,5,7.322,756.33020891385,35.761156,0.223694,2.73810048132,0.0,0.0,0.0,38.2,3.9,2.7,0,0,1024,1024,1024,1024,0,0,0,0,0,0,0,58,3.664,3.658,0,0,0,0,4.801,72.68,755.67404091385,35.104988,6,P-GPS,,10.7
319500,2026-01-07 15:38:34,755.67404091385,39.37008,0.0,2.3714403646,6.74130599,17,5,7.305,756.33020891385,35.761156,0.223694,2.73810048132,0.0,0.0,0.0,38.3,4.5,2.4,0,0,1024,1024,1024,1024,0,0,0,0,0,0,0,58,3.654,3.651,0,0,0,0,5.139,72.68,755.67404091385,35.104988,6,P-GPS,,10.7
319600,2026-01-07 15:38:35,755.67404091385,39.37008,0.0,2.37891739896,6.7507548092,17,5,7.305,756.33020891385,35.761156,0.223694,2.73810048132,0.0,0.0,0.0,38.2,4.5,2.3,0,0,1024,1024,1024,1024,0,0,0,0,0,0,0,58,3.654,3.651,0,0,0,0,5.139,72.68,755.67404091385,35.104988,6,P-GPS,,10.7
319700,2026-01-07 15:38:35,755.67404091385,39.37008,0.0,2.38998695312,6.7647311876,17,5,7.305,756.33020891385,35.761156,0.223694,2.73810048132,0.0,0.0,0.0,38.2,4.1,2.4,0,0,1024,1024,1024,1024,0,0,0,0,0,0,0,58,3.654,3.651,0,0,0,0,5.139,72.68,755.67404091385,35.104988,6,P-GPS,,10.7
319800,2026-01-07 15:38:35,755.67404091385,39.37008,0.0,2.38793970896,6.7728676708,17,5,7.305,756.33020891385,35.761156,0.223694,2.73810048132,0.0,0.0,0.0,38.3,4.4,2.4,0,0,1024,1024,1024,1024,0,0,0,0,0,0,0,58,3.654,3.651,0,0,0,0,5.139,72.68,755.67404091385,35.104988,6,P-GPS,,10.7
319900,2026-01-07 15:38:35,755.67404091385,39.37008,0.0,2.37407487912,6.817257436,17,5,7.305,756.33020891385,35.761156,0.223694,2.73810048132,0.0,0.0,0.0,38.3,4.5,2.3,0,0,1024,1024,1024,1024,0,0,0,0,0,0,0,58,3.654,3.651,0,0,0,0,5.139,72.68,755.67404091385,35.104988,6,P-GPS,,10.7
320000,2026-01-07 15:38:35,755.67404091385,39.37008,0.0,2.3678970574,6.8313322396,17,5,7.305,756.33020891385,35.761156,0.223694,2.73810048132,0.0,0.0,0.0,38.3,4.9,1.8,0,0,1024,1024,1024,1024,0,0,0,0,0,0,0,58,3.654,3.651,0,0,0,0,5.139,72.68,755.67404091385,35.104988,6,P-GPS,,10.7
320100,2026-01-07 15:38:35,755.67404091385,39.37008,0.0,2.36511490508,6.8447836836,17,5,7.305,756.33020891385,35.761156,0.223694,2.73810048132,0.0,0.0,0.0,38.2,4.8,1.5,0,0,1024,1024,1024,1024,0,0,0,0,0,0,0,58,3.654,3.651,0,0,0,0,5.139,72.68,755.67404091385,35.104988,6,P-GPS,,10.7
320200,2026-01-07 15:38:35,755.67404091385,39.37008,0.0,2.36921595508,6.854002844,17,5,7.305,756.33020891385,35.761156,0.223694,2.73810048132,0.0,0.0,0.0,38.2,4.6,1.5,0,0,1024,1024,1024,1024,0,0,0,0,0,0,0,58,3.654,3.651,0,0,0,0,5.139,72.68,755.67404091385,35.104988,6,P-GPS,,10.7
320300,2026-01-07 15:38:35,755.67404091385,39.37008,0.0,2.36906503644,6.8547246288,17,5,7.305,756.33020891385,35.761156,0.223694,2.73810048132,0.0,0.0,0.0,38.2,4.4,1.7,0,0,1024,1024,1024,1024,0,0,0,0,0,0,0,58,3.654,3.651,0,0,0,0,5.139,72.68,755.67404091385,35.104988,6,P-GPS,,10.7
320400,2026-01-07 15:38:35,755.67404091385,39.37008,0.0,2.37612212328,6.8671590124,17,5,7.305,756.33020891385,35.761156,0.223694,2.73810048132,0.0,0.0,0.0,38.2,4.5,1.8,0,0,1024,1024,1024,1024,0,0,0,0,0,0,0,58,3.654,3.651,0,0,0,0,5.139,72.68,755.67404091385,35.104988,6,P-GPS,,10.7
320500,2026-01-07 15:38:36,755.67404091385,39.37008,0.0,2.38500991884,6.8835632124,17,5,7.305,756.33020891385,35.761156,0.223694,2.73810048132,0.0,0.0,0.0,38.3,4.3,1.6,0,0,1024,1024,1024,1024,0,0,0,0,0,0,0,58,3.654,3.651,0,0,0,0,5.139,72.68,755.67404091385,35.104988,6,P-GPS,,10.7
320600,2026-01-07 15:38:36,755.67404091385,39.37008,0.0,2.39423892176,6.8990487772,17,5,7.306,756.33020891385,35.761156,0.223694,2.73810048132,0.0,0.0,0.0,38.3,4.0,1.7,0,0,1024,1024,1024,1024,0,0,0,0,0,0,0,58,3.655,3.651,0,0,0,0,5.102,72.68,755.67404091385,35.104988,6,P-GPS,,10.7
320700,2026-01-07 15:38:36,755.67404091385,39.37008,0.0,2.40772973584,6.918143266,17,5,7.306,756.33020891385,35.761156,0.223694,2.73810048132,0.0,0.0,0.0,38.3,3.7,1.8,0,0,1024,1024,1024,1024,0,0,0,0,0,0,0,58,3.655,3.651,0,0,0,0,5.102,72.68,755.67404091385,35.104988,6,P-GPS,,10.7
320800,2026-01-07 15:38:36,755.67404091385,39.37008,0.0,2.41681110096,6.9447836868,17,5,7.306,756.33020891385,35.761156,0.223694,2.73810048132,0.0,0.0,0.0,38.3,3.5,1.5,0,0,1024,1024,1024,1024,0,0,0,0,0,0,0,58,3.655,3.651,0,0,0,0,5.102,72.68,755.67404091385,35.104988,6,P-GPS,,10.7
320900,2026-01-07 15:38:36,755.67404091385,39.37008,0.0,2.45272973728,6.9833991736,17,5,7.306,756.33020891385,35.761156,0.223694,2.73810048132,0.0,0.0,0.0,38.3,3.3,1.2,0,0,1024,1024,1024,1024,0,0,0,0,0,0,0,58,3.655,3.651,0,0,0,0,5.102,72.68,755.67404091385,35.104988,6,P-GPS,,10.7
321000,2026-01-07 15:38:36,755.67404091385,39.37008,0.0,2.47620086664,7.0072836888,17,5,7.306,756.33020891385,35.761156,0.223694,2.73810048132,0.0,0.0,0.0,38.2,3.3,0.6,0,0,1024,1024,1024,1024,0,0,0,0,0,0,0,58,3.655,3.651,0,0,0,0,5.102,72.68,755.67404091385,35.104988,6,P-GPS,,10.7
321100,2026-01-07 15:38:36,755.67404091385,39.37008,0.0,2.49952107736,7.0307088864,17,5,7.306,756.33020891385,35.761156,0.223694,2.73810048132,0.0,0.0,0.0,38.1,3.0,0.6,0,0,1024,1024,1024,1024,0,0,0,0,0,0,0,58,3.655,3.651,0,0,0,0,5.102,72.68,755.67404091385,35.104988,6,P-GPS,,10.7
321200,2026-01-07 15:38:36,755.67404091385,39.37008,0.0,2.51971464756,7.0624018008,17,5,7.306,756.33020891385,35.761156,0.223694,2.73810048132,0.0,0.0,0.0,38.0,2.7,1.3,0,0,1024,1024,1024,1024,0,0,0,0,0,0,0,58,3.655,3.651,0,0,0,0,5.102,72.68,755.67404091385,35.104988,6,P-GPS,,10.7
321300,2026-01-07 15:38:36,755.67404091385,39.37008,0.0,2.54649286364,7.091371618,17,5,7.306,756.33020891385,35.761156,0.223694,2.73810048132,0.0,0.0,0.0,37.8,2.3,2.2,0,0,1024,1024,1024,1024,0,0,0,0,0,0,0,58,3.655,3.651,0,0,0,0,5.102,72.68,755.67404091385,35.104988,6,P-GPS,,10.7
321400,2026-01-07 15:38:36,755.67404091385,39.37008,0.0,2.581857038,7.1287403856,17,5,7.306,756.33020891385,35.761156,0.223694,2.73810048132,0.0,0.0,0.0,37.7,1.9,2.8,0,0,1024,1024,1024,1024,0,0,0,0,0,0,0,58,3.655,3.651,0,0,0,0,5.102,72.68,755.67404091385,35.104988,6,P-GPS,,10.7
321500,2026-01-07 15:38:36,755.67404091385,39.37008,0.0,2.61327764268,7.1613519352,17,5,7.306,756.33020891385,35.761156,0.223694,2.73810048132,0.0,0.0,0.0,37.7,2.3,2.6,0,0,1024,1024,1024,1024,0,0,0,0,0,0,0,58,3.655,3.651,0,0,0,0,5.102,72.68,755.67404091385,35.104988,6,P-GPS,,10.7
321600,2026-01-07 15:38:37,755.67404091385,39.37008,0.0,2.6395670136,7.1965553484,17,5,7.306,756.33020891385,35.761156,0.223694,2.73810048132,0.0,0.0,0.0,37.8,2.9,2.0,0,0,1024,1024,1024,1024,0,0,0,0,0,0,0,58,3.655,3.651,0,0,0,0,5.102,72.68,755.67404091385,35.104988,6,P-GPS,,10.7
321700,2026-01-07 15:38:37,755.67404091385,39.37008,0.0,2.63819562248,7.204232514,17,5,7.302,756.33020891385,35.761156,0.223694,2.73810048132,0.0,0.0,0.0,37.8,3.5,1.8,0,0,1024,1024,1024,1024,0,0,0,0,0,0,0,57,3.656,3.651,0,0,0,0,5.039,72.68,755.67404091385,35.104988,6,P-GPS,,10.7
321800,2026-01-07 15:38:37,755.67404091385,39.37008,0.0,2.62589247248,7.2166668976,17,5,7.302,756.33020891385,35.761156,0.223694,2.73810048132,0.0,0.0,0.0,38.0,3.7,2.2,0,0,1024,1024,1024,1024,0,0,0,0,0,0,0,57,3.656,3.651,0,0,0,0,5.039,72.68,755.67404091385,35.104988,6,P-GPS,,10.7
321900,2026-01-07 15:38:37,755.67404091385,39.37008,0.0,2.60803486036,7.2361222788,17,5,7.302,756.33020891385,35.761156,0.223694,2.73810048132,0.0,0.0,0.0,38.2,4.5,2.4,0,0,1024,1024,1024,1024,0,0,0,0,0,0,0,57,3.656,3.651,0,0,0,0,5.039,72.68,755.67404091385,35.104988,6,P-GPS,,10.7
322000,2026-01-07 15:38:37,755.67404091385,39.37008,0.0,2.54001648548,7.306758764,17,5,7.302,756.33020891385,35.761156,0.223694,2.73810048132,0.0,0.0,0.0,38.4,4.9,2.0,0,0,1024,1024,1024,1024,0,0,0,0,0,0,0,57,3.656,3.651,0,0,0,0,5.039,72.68,755.67404091385,35.104988,6,P-GPS,,10.7
322100,2026-01-07 15:38:37,755.67404091385,39.37008,0.0,2.51327763948,7.3373361928,17,5,7.302,756.33020891385,35.761156,0.223694,2.73810048132,0.0,0.0,0.0,38.5,5.0,1.6,0,0,1024,1024,1024,1024,0,0,0,0,0,0,0,57,3.656,3.651,0,0,0,0,5.039,72.68,755.67404091385,35.104988,6,P-GPS,,10.7
322200,2026-01-07 15:38:37,755.67404091385,39.37008,0.0,2.49569889876,7.3716537792,17,5,7.302,756.33020891385,35.761156,0.223694,2.73810048132,0.0,0.0,0.0,38.5,4.8,1.0,0,0,1024,1024,1024,1024,0,0,0,0,0,0,0,57,3.656,3.651,0,0,0,0,5.039,72.68,755.67404091385,35.104988,6,P-GPS,,10.7
322300,2026-01-07 15:38:37,755.67404091385,39.37008,0.0,2.48715231056,7.4041340952,17,5,7.302,756.33020891385,35.761156,0.223694,2.73810048132,0.0,0.0,0.0,38.2,4.3,0.3,0,0,1024,1024,1024,1024,0,0,0,0,0,0,0,57,3.656,3.651,0,0,0,0,5.039,72.68,755.67404091385,35.104988,6,P-GPS,,10.7
322400,2026-01-07 15:38:37,755.67404091385,39.37008,0.0,2.4902887936,7.4385172984,17,5,7.302,756.33020891385,35.761156,0.223694,2.73810048132,0.0,0.0,0.0,38.1,4.0,0.5,0,0,1024,1024,1024,1024,0,0,0,0,0,0,0,57,3.656,3.651,0,0,0,0,5.039,72.68,755.67404091385,35.104988,6,P-GPS,,10.7
322500,2026-01-07 15:38:37,755.67404091385,39.37008,0.0,2.48974417416,7.5222115268,17,5,7.302,756.33020891385,35.761156,0.223694,2.73810048132,0.0,0.0,0.0,38.3,3.8,0.7,0,0,1024,1024,1024,1024,0,0,0,0,0,0,0,57,3.656,3.651,0,0,0,0,5.039,72.68,755.67404091385,35.104988,6,P-GPS,,10.7
322600,2026-01-07 15:38:38,755.67404091385,39.37008,0.0,2.51051845304,7.5450461732,17,5,7.302,756.33020891385,35.761156,0.223694,2.73810048132,0.0,0.0,0.0,38.2,3.6,0.4,0,0,1024,1024,1024,1024,0,0,0,0,0,0,0,57,3.656,3.651,0,0,0,0,5.039,72.68,755.67404091385,35.104988,6,P-GPS,,10.7
322700,2026-01-07 15:38:38,755.67404091385,39.37008,0.0,2.535679215,7.570210216,17,5,7.302,756.33020891385,35.761156,0.223694,2.73810048132,0.0,0.0,0.0,38.1,3.5,0.8,0,0,1024,1024,1024,1024,0,0,0,0,0,0,0,57,3.656,3.651,0,0,0,0,5.039,72.68,755.67404091385,35.104988,6,P-GPS,,10.7
322800,2026-01-07 15:38:38,755.67404091385,39.37008,0.0,2.54951779812,7.5855645472,17,5,7.302,756.33020891385,35.761156,0.223694,2.73810048132,0.0,0.0,0.0,38.1,2.9,1.6,0,0,1024,1024,1024,1024,0,0,0,0,0,0,0,57,3.658,3.654,0,0,0,0,5.039,72.68,755.67404091385,35.104988,6,P-GPS,,10.7
322900,2026-01-07 15:38:38,755.67404091385,39.37008,0.0,2.5690453578,7.6204398764,17,5,7.302,756.33020891385,35.761156,0.223694,2.73810048132,0.0,0.0,0.0,38.1,2.6,2.0,0,0,1024,1024,1024,1024,0,0,0,0,0,0,0,57,3.658,3.654,0,0,0,0,5.039,72.68,755.67404091385,35.104988,6,P-GPS,,10.7
323000,2026-01-07 15:38:38,755.67404091385,39.37008,0.0,2.59148958424,7.6465553628,17,5,7.302,756.33020891385,35.761156,0.223694,2.73810048132,0.0,0.0,0.0,38.1,2.7,2.1,0,0,1024,1024,1024,1024,0,0,0,0,0,0,0,57,3.658,3.654,0,0,0,0,5.039,72.68,755.67404091385,35.104988,6,P-GPS,,10.7
323100,2026-01-07 15:38:38,755.67404091385,39.37008,0.0,2.61865493944,7.676673474,17,5,7.302,756.33020891385,35.761156,0.223694,2.73810048132,0.0,0.0,0.0,38.1,2.5,2.2,0,0,1024,1024,1024,1024,0,0,0,0,0,0,0,57,3.658,3.654,0,0,0,0,5.039,72.68,755.67404091385,35.104988,6,P-GPS,,10.7
323200,2026-01-07 15:38:38,756.00212491385,39.37008,0.0,2.6369095332,7.7045278056,17,5,7.302,756.33020891385,35.761156,0.223694,2.73810048132,0.0,0.0,0.0,38.1,2.4,2.2,0,0,1024,1024,1024,1024,0,0,0,0,0,0,0,57,3.658,3.654,0,0,0,0,5.039,72.68,756.00212491385,35.433072,6,P-GPS,,10.8
323300,2026-01-07 15:38:38,756.00212491385,39.37008,0.0,2.65143053104,7.7686026108,17,5,7.302,756.33020891385,35.761156,0.223694,2.73810048132,0.0,0.0,0.0,38.1,2.5,2.0,0,0,1024,1024,1024,1024,0,0,0,0,0,0,0,57,3.658,3.654,0,0,0,0,5.039,72.68,756.00212491385,35.433072,6,P-GPS,,10.8
323400,2026-01-07 15:38:38,756.00212491385,39.37008,0.0,2.66505585956,7.7969490684,17,5,7.302,756.33020891385,35.761156,0.223694,2.73810048132,0.0,0.0,0.0,38.2,2.6,2.1,0,0,1024,1024,1024,1024,0,0,0,0,0,0,0,57,3.658,3.654,0,0,0,0,5.039,72.68,756.00212491385,35.433072,6,P-GPS,,10.8
323500,2026-01-07 15:38:38,756.00212491385,39.37008,0.0,2.68001648996,7.8256892268,17,5,7.302,756.33020891385,35.761156,0.223694,2.73810048132,0.0,0.0,0.0,38.3,2.4,2.0,0,0,1024,1024,1024,1024,0,0,0,0,0,0,0,57,3.658,3.654,0,0,0,0,5.039,72.68,756.00212491385,35.433072,6,P-GPS,,10.8
323600,2026-01-07 15:38:39,756.00212491385,39.37008,0.0,2.6984252832,7.844652482,17,5,7.302,756.33020891385,35.761156,0.223694,2.73810048132,0.0,0.0,0.0,38.2,2.5,2.1,0,0,1024,1024,1024,1024,0,0,0,0,0,0,0,57,3.658,3.654,0,0,0,0,5.039,72.68,756.00212491385,35.433072,6,P-GPS,,10.8
323700,2026-01-07 15:38:39,756.00212491385,39.37008,0.0,2.71813985076,7.866141984,17,5,7.302,756.33020891385,35.761156,0.223694,2.73810048132,0.0,0.0,0.0,38.1,2.5,2.2,0,0,1024,1024,1024,1024,0,0,0,0,0,0,0,57,3.658,3.654,0,0,0,0,5.039,72.68,756.00212491385,35.433072,6,P-GPS,,10.8
323800,2026-01-07 15:38:39,756.00212491385,39.37008,0.0,2.72813657024,7.8767062888,17,5,7.302,756.33020891385,35.761156,0.223694,2.73810048132,0.0,0.0,0.0,38.2,2.3,2.3,0,0,1024,1024,1024,1024,0,0,0,0,0,0,0,57,3.658,3.654,0,0,0,0,5.039,72.68,756.00212491385,35.433072,6,P-GPS,,10.8
323900,2026-01-07 15:38:39,756.00212491385,39.37008,0.0,2.7364830272,7.885334898,17,5,7.312,756.33020891385,35.761156,0.223694,2.73810048132,0.0,0.0,0.0,38.2,2.2,2.2,0,0,1024,1024,1024,1024,0,0,0,0,0,0,0,57,3.659,3.653,0,0,0,0,4.826,72.68,756.00212491385,35.433072,6,P-GPS,,10.8
324000,2026-01-07 15:38:39,756.00212491385,39.37008,0.0,2.75476386768,7.9042325364,17,5,7.312,756.33020891385,35.761156,0.223694,2.75476386768,0.0,0.0,0.0,38.1,2.1,2.0,0,0,1024,1024,1024,1024,0,0,0,0,0,0,0,57,3.659,3.653,0,0,0,0,4.826,72.68,756.00212491385,35.433072,6,P-GPS,,10.8
324100,2026-01-07 15:38:39,756.00212491385,39.37008,0.0,2.77574483948,7.9260501224,17,5,7.312,756.33020891385,35.761156,0.223694,2.77574483948,0.0,0.0,0.0,38.1,2.2,1.9,0,0,1024,1024,1024,1024,0,0,0,0,0,0,0,57,3.659,3.653,0,0,0,0,4.826,72.68,756.00212491385,35.433072,6,P-GPS,,10.8
324200,2026-01-07 15:38:39,756.00212491385,39.37008,0.0,2.78284457724,7.9631564228,17,5,7.312,756.33020891385,35.761156,0.223694,2.78284457724,0.0,0.0,0.0,38.2,2.2,1.7,0,0,1024,1024,1024,1024,0,0,0,0,0,0,0,57,3.659,3.653,0,0,0,0,4.826,72.68,756.00212491385,35.433072,6,P-GPS,,10.8
324300,2026-01-07 15:38:39,756.00212491385,39.37008,0.0,2.8019029768,7.9902889696,17,5,7.312,756.33020891385,35.761156,0.223694,2.8019029768,0.0,0.0,0.0,38.1,2.3,1.7,0,0,1024,1024,1024,1024,0,0,0,0,0,0,0,57,3.659,3.653,0,0,0,0,4.826,72.68,756.00212491385,35.433072,6,P-GPS,,10.8
324400,2026-01-07 15:38:39,756.00212491385,39.37008,0.0,2.812336048,8.0007876576,17,5,7.312,756.33020891385,35.761156,0.223694,2.812336048,0.0,0.0,0.0,38.2,2.1,1.8,0,0,1024,1024,1024,1024,0,0,0,0,0,0,0,57,3.659,3.653,0,0,0,0,4.826,72.68,756.00212491385,35.433072,6,P-GPS,,10.8
324500,2026-01-07 15:38:39,756.00212491385,39.37008,0.0,2.82234917168,8.0111879204,17,5,7.312,756.33020891385,35.761156,0.223694,2.82234917168,0.0,0.0,0.0,38.1,1.9,1.9,0,0,1024,1024,1024,1024,0,0,0,0,0,0,0,57,3.659,3.653,0,0,0,0,4.826,72.68,756.00212491385,35.433072,6,P-GPS,,10.8
324600,2026-01-07 15:38:40,756.00212491385,39.37008,0.0,2.79769693992,8.0520671868,17,5,7.312,756.33020891385,35.761156,0.223694,2.82234917168,0.0,0.0,0.0,38.2,1.9,1.9,0,0,1024,1024,1024,1024,0,0,0,0,0,0,0,57,3.659,3.653,0,0,0,0,4.826,72.68,756.00212491385,35.433072,6,P-GPS,,10.8
324700,2026-01-07 15:38:40,756.00212491385,39.37008,0.0,2.80402568028,8.068077686,17,5,7.312,756.33020891385,35.761156,0.223694,2.82234917168,0.0,0.0,0.0,38.2,1.8,1.9,0,0,1024,1024,1024,1024,0,0,0,0,0,0,0,57,3.659,3.653,0,0,0,0,4.826,72.68,756.00212491385,35.433072,6,P-GPS,,10.8
324800,2026-01-07 15:38:40,756.00212491385,39.37008,0.0,2.816355077,8.080544878,17,5,7.312,756.33020891385,35.761156,0.223694,2.82234917168,0.0,0.0,0.0,38.1,1.7,1.8,0,0,1024,1024,1024,1024,0,0,0,0,0,0,0,57,3.659,3.653,0,0,0,0,4.826,72.68,756.00212491385,35.433072,6,P-GPS,,10.8
324900,2026-01-07 15:38:40,756.00212491385,39.37008,0.0,2.82964575984,8.0952430412,17,5,7.312,756.33020891385,35.761156,0.223694,2.82964575984,0.0,0.0,0.0,38.1,1.7,1.8,0,0,1024,1024,1024,1024,0,0,0,0,0,0,0,57,3.659,3.653,0,0,0,0,4.826,72.68,756.00212491385,35.433072,6,P-GPS,,10.8
325000,2026-01-07 15:38:40,756.00212491385,39.37008,0.0,2.8269521902,8.1027889732,17,5,7.307,756.33020891385,35.761156,0.223694,2.82964575984,0.0,0.0,0.0,38.1,1.8,1.9,0,0,1024,1024,1024,1024,0,0,0,0,0,0,0,57,3.656,3.651,0,0,0,0,4.848,72.68,756.00212491385,35.433072,6,P-GPS,,10.8
325100,2026-01-07 15:38:40,756.00212491385,39.37008,0.0,2.82889116664,8.107447766,17,5,7.307,756.33020891385,35.761156,0.223694,2.82964575984,0.0,0.0,0.0,38.1,1.9,1.9,0,0,1024,1024,1024,1024,0,0,0,0,0,0,0,57,3.656,3.651,0,0,0,0,4.848,72.68,756.00212491385,35.433072,6,P-GPS,,10.8
325200,2026-01-07 15:38:40,756.00212491385,39.37008,0.0,2.82738198024,8.1139766376,17,5,7.307,756.33020891385,35.761156,0.223694,2.82964575984,0.0,0.0,0.0,38.1,1.9,1.7,0,0,1024,1024,1024,1024,0,0,0,0,0,0,0,57,3.656,3.651,0,0,0,0,4.848,72.68,756.00212491385,35.433072,6,P-GPS,,10.8
325300,2026-01-07 15:38:40,756.00212491385,39.37008,0.0,2.82438657332,8.1198821496,16,5,7.307,756.33020891385,35.761156,0.223694,2.82964575984,0.0,0.0,0.0,38.2,2.1,1.6,0,0,1024,1024,1024,1024,0,0,0,0,0,0,0,57,3.656,3.651,0,0,0,0,4.848,72.68,756.00212491385,35.433072,6,P-GPS,,10.8
325400,2026-01-07 15:38:40,756.00212491385,39.37008,0.0,2.84606636404,8.1454070848,16,5,7.307,756.33020891385,35.761156,0.223694,2.84606636404,0.0,0.0,0.0,38.2,2.2,1.4,0,0,1024,1024,1024,1024,0,0,0,0,0,0,0,57,3.656,3.651,0,0,0,0,4.848,72.68,756.00212491385,35.433072,6,P-GPS,,10.8
325500,2026-01-07 15:38:40,756.00212491385,39.37008,0.0,2.86005258496,8.1601708648,16,5,7.307,756.33020891385,35.761156,0.223694,2.86005258496,0.0,0.0,0.0,38.2,2.2,1.2,0,0,1024,1024,1024,1024,0,0,0,0,0,0,0,57,3.656,3.651,0,0,0,0,4.848,72.68,756.00212491385,35.433072,6,P-GPS,,10.8
325600,2026-01-07 15:38:41,756.00212491385,39.37008,0.0,2.84984261088,8.1706695528,16,5,7.307,756.33020891385,35.761156,0.223694,2.86005258496,0.0,0.0,0.0,38.2,2.4,1.0,0,0,1024,1024,1024,1024,0,0,0,0,0,0,0,57,3.656,3.651,0,0,0,0,4.848,72.68,756.00212491385,35.433072,6,P-GPS,,10.8
