time(millisecond),timestamp,height_above_ground_at_drone_location(feet),ground_elevation_at_drone_location(feet),altitude_above_seaLevel(feet),height_sonar(feet),speed(mph),distance(feet),mileage(feet),satellites,gpslevel,voltage(v),max_altitude(feet),max_ascent(feet),max_speed(mph),max_distance(feet), xSpeed(mph), ySpeed(mph), zSpeed(mph), compass_heading(degrees), pitch(degrees), roll(degrees),isPhoto,isVideo,rc_elevator,rc_aileron,rc_throttle,rc_rudder,rc_elevator(percent),rc_aileron(percent),rc_throttle(percent),rc_rudder(percent),gimbal_heading(degrees),gimbal_pitch(degrees),gimbal_roll(degrees),battery_percent,voltageCell1,voltageCell2,voltageCell3,voltageCell4,voltageCell5,voltageCell6,current(A),battery_temperature(f),altitude(feet),ascent(feet),flycStateRaw,flycState,message,height_above_takeoff(meters)
626500,2026-01-08 12:39:11,Available with any HD 360 subscription,Available with any HD 360 subscription,721.0079935447,0.328084,0.0,0.0,0.0,18,5,0.0,721.0079935447,0.0,0.0,0.0,0.0,0.0,0.0,35.3,2.4,0.1,0,0,1024,1024,1024,1024,0,0,0,0,0,0,0,59,3.802,3.799,0,0,0,0,0.0,79.88,721.0079935447,0.0,41,Motors_Started,SD card speed low SD card speed low. Normal use may be affected. Replace SD card (Code: 10028). Gimbal stuck. Make sure gimbal cover is removed and manually check whether gimbal can rotate freely (Code: 40002),0.0
626600,2026-01-08 12:39:11,,,721.0079935447,0.328084,0.0,0.0151551185952,0.0151551185952,18,5,7.601,721.0079935447,0.0,0.0,0.0151551185952,0.0,0.0,0.0,35.3,2.4,0.1,0,0,1024,1024,1024,1024,0,0,0,0,0,0,0,59,3.802,3.799,0,0,0,0,0.677,79.88,721.0079935447,0.0,41,Motors_Started,,0.0
626700,2026-01-08 12:39:11,,,721.0079935447,0.328084,0.0,0.018337106886,0.0186924874748,18,5,7.601,721.0079935447,0.0,0.0,0.018337106886,0.0,0.0,0.0,35.3,2.4,0.1,0,0,1024,1024,1024,1024,0,0,0,0,0,0,0,59,3.802,3.799,0,0,0,0,0.677,79.88,721.0079935447,0.0,41,Motors_Started,Setting new Return-To-Home altitude to 90m (295 ft). Data Recorder File Index is 30. Setting new Maximum Flight Altitude to 90m (295 ft),0.0
626800,2026-01-08 12:39:11,,,721.0079935447,0.328084,0.0,1.4473753744,0.0210998694416,18,5,7.601,721.0079935447,0.0,0.0,1.4473753744,0.0,0.0,0.0,35.4,2.4,0.1,0,0,1024,1024,1024,1024,0,0,0,0,0,0,0,59,3.802,3.799,0,0,0,0,0.677,79.88,721.0079935447,0.0,41,Motors_Started,,0.0
626900,2026-01-08 12:39:11,,,721.0079935447,0.328084,0.0,1.45483272372,0.0317466873676,18,5,7.601,721.0079935447,0.0,0.0,1.45483272372,0.0,0.0,0.0,35.4,2.4,0.1,0,0,1024,1024,1024,1024,0,0,0,0,0,0,0,59,3.802,3.799,0,0,0,0,0.677,79.88,721.0079935447,0.0,41,Motors_Started,,0.0
627000,2026-01-08 12:39:11,,,721.0079935447,0.328084,0.0,1.48975070384,0.067314962784,18,5,7.601,721.0079935447,0.0,0.0,1.48975070384,0.0,0.0,0.0,35.3,2.4,0.1,0,0,1024,1024,1024,1024,0,0,0,0,0,0,0,59,3.802,3.799,0,0,0,0,0.677,79.88,721.0079935447,0.0,41,Motors_Started,,0.0
627100,2026-01-08 12:39:11,,,721.0079935447,0.328084,0.0,1.4812828558,0.079827102292,18,5,7.601,721.0079935447,0.0,0.0,1.48975070384,0.0,0.0,0.0,35.5,2.4,0.1,0,0,1024,1024,1024,1024,0,0,0,0,0,0,0,59,3.802,3.799,0,0,0,0,0.677,79.88,721.0079935447,0.0,41,Motors_Started,,0.0
627200,2026-01-08 12:39:12,,,721.0079935447,0.328084,0.0,1.46953088692,0.09494422876,18,5,7.601,721.0079935447,0.0,0.0,1.48975070384,0.0,0.0,0.0,35.4,2.4,0.1,0,0,1024,1024,1024,1024,0,0,0,0,0,0,0,59,3.802,3.799,0,0,0,0,0.677,79.88,721.0079935447,0.0,41,Motors_Started,,0.0
627300,2026-01-08 12:39:12,,,721.0079935447,0.328084,0.0,1.46461946944,0.100045606876,18,5,7.601,721.0079935447,0.0,0.0,1.48975070384,0.0,0.0,0.0,35.4,2.3,0.1,0,0,1024,1024,1024,1024,0,0,0,0,0,0,0,59,3.802,3.799,0,0,0,0,0.677,79.88,721.0079935447,0.0,41,Motors_Started,,0.0
627400,2026-01-08 12:39:12,,,721.0079935447,0.328084,0.0,1.44648626676,0.118440620588,18,5,7.601,721.0079935447,0.0,0.0,1.48975070384,0.0,0.0,0.0,35.4,2.3,0.1,0,0,1024,1024,1024,1024,0,0,0,0,0,0,0,59,3.802,3.799,0,0,0,0,0.677,79.88,721.0079935447,0.0,41,Motors_Started,,0.0
627500,2026-01-08 12:39:12,,,721.0079935447,0.328084,0.0,1.44701776284,0.120883205968,18,5,7.601,721.0079935447,0.0,0.0,1.48975070384,0.0,0.0,0.0,35.4,2.4,0.1,0,0,1024,1024,1024,1024,0,0,0,0,0,0,0,59,3.802,3.799,0,0,0,0,0.677,79.88,721.0079935447,0.0,41,Motors_Started,,0.0
627600,2026-01-08 12:39:12,,,721.0079935447,0.328084,0.0,1.44787406208,0.123420607624,18,5,7.601,721.0079935447,0.0,0.0,1.48975070384,0.0,0.0,0.0,35.4,2.3,0.1,0,0,1024,1024,1024,1024,0,0,0,0,0,0,0,59,3.802,3.799,0,0,0,0,0.677,79.88,721.0079935447,0.0,11,AutoTakeoff,,0.0
627700,2026-01-08 12:39:12,,,721.0079935447,0.328084,0.0,1.44976054508,0.126448166776,18,5,7.549,721.0079935447,0.0,0.0,1.48975070384,0.0,0.0,0.0,35.4,2.4,0.1,0,0,1024,1024,1024,1024,0,0,0,0,0,0,0,59,3.773,3.776,0,0,0,0,1.286,79.88,721.0079935447,0.0,11,AutoTakeoff,,0.0
627800,2026-01-08 12:39:12,,,721.0079935447,0.328084,0.0,1.46148954808,0.14955381056,18,5,7.549,721.0079935447,0.0,0.0,1.48975070384,0.0,0.0,0.0,35.4,2.4,0.1,0,0,1024,1024,1024,1024,0,0,0,0,0,0,0,59,3.773,3.776,0,0,0,0,1.286,79.88,721.0079935447,0.0,11,AutoTakeoff,,0.0
627900,2026-01-08 12:39:12,,,721.0079935447,0.328084,0.0,1.46849414148,0.161238850304,18,5,7.549,721.0079935447,0.0,0.0,1.48975070384,0.0,0.0,0.0,35.4,2.4,0.1,0,0,1024,1024,1024,1024,0,0,0,0,0,0,0,59,3.773,3.776,0,0,0,0,1.286,79.88,721.0079935447,0.0,11,AutoTakeoff,,0.0
628000,2026-01-08 12:39:12,,,721.0079935447,0.328084,0.0,1.47693246196,0.175839572556,18,5,7.549,721.0079935447,0.0,0.0,1.48975070384,0.0,0.0,0.0,34.8,2.4,0.0,0,0,1024,1024,1024,1024,0,0,0,0,0,0,0,59,3.773,3.776,0,0,0,0,1.286,79.88,721.0079935447,0.0,11,AutoTakeoff,,0.0
628100,2026-01-08 12:39:12,,,721.0079935447,0.328084,0.0,1.4742946666,0.18137795856,18,5,7.549,721.0079935447,0.0,0.0,1.48975070384,0.0,0.0,0.0,33.6,2.3,0.0,0,0,1024,1024,1024,1024,0,0,0,0,0,0,0,59,3.773,3.776,0,0,0,0,1.286,79.88,721.0079935447,0.0,11,AutoTakeoff,,0.0
628200,2026-01-08 12:39:13,,,721.0079935447,0.328084,0.0,1.47264768492,0.20015092504,18,5,7.549,721.0079935447,0.0,0.0,1.48975070384,0.0,0.0,0.0,32.7,2.0,-0.1,0,0,1024,1024,1024,1024,0,0,0,0,0,0,0,59,3.773,3.776,0,0,0,0,1.286,79.88,721.0079935447,0.0,11,AutoTakeoff,,0.0
628300,2026-01-08 12:39:13,,,721.0079935447,0.328084,0.223694,1.43473757872,0.238370086368,18,5,7.549,721.0079935447,0.0,0.223694,1.48975070384,0.223694,0.0,0.0,31.4,0.9,-0.7,0,0,1024,1024,1024,1024,0,0,0,0,0,0,0,59,3.773,3.776,0,0,0,0,1.286,79.88,721.0079935447,0.0,11,AutoTakeoff,,0.0
628400,2026-01-08 12:39:13,,,721.0079935447,0.328084,0.447388,1.37122051632,0.302005259008,18,5,7.549,721.0079935447,0.0,0.447388,1.48975070384,0.447388,0.0,0.0,29.4,-0.8,-1.9,0,0,1024,1024,1024,1024,0,0,0,0,0,0,0,59,3.773,3.776,0,0,0,0,1.286,79.88,721.0079935447,0.0,11,AutoTakeoff,,0.0
628500,2026-01-08 12:39:13,,,721.0079935447,0.328084,0.7158208,1.28363521168,0.3909777028,18,5,7.549,721.0079935447,0.0,0.7158208,1.48975070384,0.671082,-0.223694,-0.447388,28.5,-1.5,-2.3,0,0,1024,1024,1024,1024,0,0,0,0,0,0,0,59,3.773,3.776,0,0,0,0,1.286,79.88,721.0079935447,0.0,11,AutoTakeoff,,0.0
628600,2026-01-08 12:39:13,,,721.0079935447,0.328084,1.006623,1.15478022068,0.52197836316,18,5,7.549,721.0079935447,0.0,1.006623,1.48975070384,0.894776,-0.447388,-0.671082,28.9,2.1,2.3,0,0,1024,1024,1024,1024,0,0,0,0,0,0,0,59,3.773,3.776,0,0,0,0,1.286,79.88,721.0079935447,0.0,11,AutoTakeoff,,0.0
628700,2026-01-08 12:39:13,,,721.0079935447,0.656168,0.9171454,1.01147641032,0.6676345358,18,5,7.549,721.0079935447,0.0,1.006623,1.48975070384,0.894776,-0.223694,-0.894776,28.9,4.0,3.8,0,0,1024,1024,1024,1024,0,0,0,0,0,0,0,59,3.773,3.776,0,0,0,0,1.286,79.88,721.0079935447,0.0,11,AutoTakeoff,,0.0
628800,2026-01-08 12:39:13,,,721.3360775447,0.656168,0.9171454,0.85936354456,0.8250164306,18,5,7.403,721.3360775447,0.328084,1.006623,1.48975070384,0.894776,-0.223694,-1.342164,29.0,4.5,4.4,0,0,1024,1024,1024,1024,0,0,0,0,0,0,0,59,3.707,3.696,0,0,0,0,4.605,79.88,721.3360775447,0.328084,11,AutoTakeoff,,0.1
628900,2026-01-08 12:39:13,,,721.6641615447,0.984252,0.894776,0.70248689912,0.99156499236,18,5,7.403,721.6641615447,0.656168,1.006623,1.48975070384,0.894776,0.0,-1.565858,29.2,4.9,4.3,0,0,1024,1024,1024,1024,0,0,0,0,0,0,0,59,3.707,3.696,0,0,0,0,4.605,79.88,721.6641615447,0.656168,11,AutoTakeoff,,0.2
629000,2026-01-08 12:39:13,,,721.9922455447,1.312336,0.894776,0.54967521444,1.16864176968,19,5,7.403,721.9922455447,0.984252,1.006623,1.48975070384,0.894776,0.0,-2.013246,29.3,6.5,4.5,0,0,1024,1024,1024,1024,0,0,0,0,0,0,0,59,3.707,3.696,0,0,0,0,4.605,79.88,721.9922455447,0.984252,11,AutoTakeoff,Home Point updated. RTH altitude adjusted to 90 m (Code: 120852),0.3
629100,2026-01-08 12:39:13,,,722.3203295447,1.312336,0.894776,0.32813649344,1.41128285356,19,5,7.403,722.3203295447,1.312336,1.006623,1.48975070384,0.894776,0.0,-2.013246,29.3,6.7,4.6,0,0,1024,1024,1024,1024,0,0,0,0,0,0,0,59,3.707,3.696,0,0,0,0,4.605,79.88,722.3203295447,1.312336,11,AutoTakeoff,,0.4
629200,2026-01-08 12:39:14,,,722.9764975447,1.64042,0.671082,0.271988525764,1.5620243282,18,5,7.403,722.9764975447,1.968504,1.006623,1.48975070384,0.671082,0.0,-2.23694,29.3,6.9,3.6,0,0,1024,1024,1024,1024,0,0,0,0,0,0,0,59,3.707,3.696,0,0,0,0,4.605,79.88,722.9764975447,1.968504,11,AutoTakeoff,,0.6
629300,2026-01-08 12:39:14,,,723.3045815447,2.296588,0.671082,0.314697844716,1.68006238972,18,5,7.403,723.3045815447,2.296588,1.006623,1.48975070384,0.671082,0.0,-2.23694,29.4,8.5,2.8,0,0,1024,1024,1024,1024,0,0,0,0,0,0,0,59,3.707,3.696,0,0,0,0,4.605,79.88,723.3045815447,2.296588,11,AutoTakeoff,,0.7
629400,2026-01-08 12:39:14,,,723.6326655447,2.952756,0.7158208,0.39945539336,1.79825465072,18,5,7.403,723.6326655447,2.624672,1.006623,1.48975070384,0.671082,0.223694,-2.013246,29.4,7.5,1.3,0,0,1024,1024,1024,1024,0,0,0,0,0,0,0,59,3.707,3.696,0,0,0,0,4.605,79.88,723.6326655447,2.624672,6,P-GPS,,0.8
629500,2026-01-08 12:39:14,,,723.9607495447,3.28084,0.7158208,0.54843833776,1.95276252968,18,5,7.403,723.9607495447,2.952756,1.006623,1.48975070384,0.671082,0.223694,-1.789552,29.4,8.3,2.1,0,0,1024,1024,1024,1024,0,0,0,0,0,0,0,59,3.707,3.696,0,0,0,0,4.605,79.88,723.9607495447,2.952756,6,P-GPS,,0.9
629600,2026-01-08 12:39:14,,,724.2888335447,3.608924,0.7158208,0.66146983744,2.07945544712,19,5,7.403,724.2888335447,3.28084,1.006623,1.48975070384,0.894776,0.223694,-1.342164,29.3,8.1,2.1,0,0,1024,1024,1259,1024,0,0,36,0,0,0,0,59,3.707,3.696,0,0,0,0,4.605,79.88,724.2888335447,3.28084,6,P-GPS,,1.0
629700,2026-01-08 12:39:14,,,724.6169175447,3.937008,0.9171454,0.7893865082,2.24459980936,19,5,7.403,724.6169175447,3.608924,1.006623,1.48975070384,0.894776,0.223694,-0.894776,29.4,8.4,2.4,0,0,1024,1024,1684,1024,0,0,100,0,0,0,0,59,3.707,3.696,0,0,0,0,4.605,79.88,724.6169175447,3.608924,6,P-GPS,,1.1
629800,2026-01-08 12:39:14,,,724.6169175447,3.937008,0.9171454,0.94773953164,2.43327763692,19,5,7.403,724.6169175447,3.608924,1.006623,1.48975070384,0.894776,0.223694,-0.447388,29.4,9.2,2.3,0,0,1024,1024,1684,1024,0,0,100,0,0,0,0,59,3.707,3.696,0,0,0,0,4.605,79.88,724.6169175447,3.608924,6,P-GPS,,1.1
629900,2026-01-08 12:39:14,,,724.6169175447,4.265092,0.9171454,1.089484943,2.6120079576,19,5,7.437,724.6169175447,3.608924,1.006623,1.48975070384,0.894776,0.223694,0.0,29.2,9.1,1.9,0,0,1024,1024,1684,1024,0,0,100,0,0,0,0,59,3.721,3.717,0,0,0,0,4.853,79.88,724.6169175447,3.608924,6,P-GPS,,1.1
630000,2026-01-08 12:39:14,,,724.9450015447,4.265092,0.894776,1.21326119368,2.74318578332,19,5,7.437,724.9450015447,3.937008,1.006623,1.48975070384,0.894776,0.0,-0.223694,29.0,7.8,1.8,0,0,1024,1024,1684,1024,0,0,100,0,0,0,0,59,3.721,3.717,0,0,0,0,4.853,79.88,724.9450015447,3.937008,6,P-GPS,,1.2
630100,2026-01-08 12:39:14,,,724.9450015447,4.593176,0.894776,1.35269361284,2.90281833436,19,5,7.437,724.9450015447,3.937008,1.006623,1.48975070384,0.894776,0.0,-0.894776,28.9,8.0,2.5,0,0,1024,1024,1684,1024,0,0,100,0,0,0,0,59,3.721,3.717,0,0,0,0,4.853,79.88,724.9450015447,3.937008,6,P-GPS,,1.2
630200,2026-01-08 12:39:15,,,725.2730855447,5.249344,0.894776,1.51323167572,3.08691939012,19,5,7.437,725.2730855447,4.265092,1.006623,1.51323167572,0.894776,0.0,-1.565858,28.9,9.5,3.8,0,0,1024,1024,1684,1024,0,0,100,0,0,0,0,59,3.721,3.717,0,0,0,0,4.853,79.88,725.2730855447,4.265092,6,P-GPS,,1.3
630300,2026-01-08 12:39:15,,,725.9292535447,5.577428,0.894776,1.65295937048,3.23115823988,19,5,7.437,725.9292535447,4.92126,1.006623,1.65295937048,0.894776,0.0,-2.23694,29.1,10.8,3.5,0,0,1024,1024,1684,1024,0,0,100,0,0,0,0,59,3.721,3.717,0,0,0,0,4.853,79.88,725.9292535447,4.92126,6,P-GPS,,1.5
630400,2026-01-08 12:39:15,,,726.2573375447,6.233596,0.671082,1.7851706608,3.365649714,18,5,7.437,726.2573375447,5.249344,1.006623,1.7851706608,0.671082,0.0,-2.908022,29.2,10.1,3.7,0,0,1024,1024,1684,1024,0,0,100,0,0,0,0,59,3.721,3.717,0,0,0,0,4.853,79.88,726.2573375447,5.249344,6,P-GPS,,1.6
630500,2026-01-08 12:39:15,,,726.9135055447,6.889764,0.671082,1.91063982492,3.5016733404,18,5,7.437,726.9135055447,5.905512,1.006623,1.91063982492,0.671082,0.0,-3.35541,29.3,9.6,4.0,0,0,1024,1024,1684,1024,0,0,100,0,0,0,0,59,3.721,3.717,0,0,0,0,4.853,79.88,726.9135055447,5.905512,6,P-GPS,,1.8
630600,2026-01-08 12:39:15,,,727.5696735447,7.545932,0.671082,2.04147316244,3.6454069408,17,5,7.437,727.5696735447,6.56168,1.006623,2.04147316244,0.671082,0.0,-3.802798,29.5,9.6,4.7,0,0,1024,1024,1684,1024,0,0,100,0,0,0,0,59,3.721,3.717,0,0,0,0,4.853,79.88,727.5696735447,6.56168,6,P-GPS,,2.0
630700,2026-01-08 12:39:15,,,728.5539255447,7.874016,0.671082,2.16245413744,3.7712599632,17,5,7.437,728.5539255447,7.545932,1.006623,2.16245413744,0.671082,0.0,-4.026492,29.5,10.3,5.0,0,0,1024,1024,1684,1024,0,0,100,0,0,0,0,59,3.721,3.717,0,0,0,0,4.853,79.88,728.5539255447,7.545932,6,P-GPS,,2.3
630800,2026-01-08 12:39:15,,,729.2100935447,8.530184,0.671082,2.3175525676,3.92798569,17,5,7.437,729.2100935447,8.2021,1.006623,2.3175525676,0.671082,0.0,-4.026492,29.4,9.4,5.1,0,0,1024,1024,1684,1024,0,0,100,0,0,0,0,59,3.721,3.717,0,0,0,0,4.853,79.88,729.2100935447,8.2021,6,P-GPS,,2.5
630900,2026-01-08 12:39:15,,,730.1943455447,9.186352,0.894776,2.4341044086,4.0513780824,17,5,7.437,730.1943455447,9.186352,1.006623,2.4341044086,0.894776,0.0,-4.026492,29.4,9.5,3.4,0,0,1024,1024,1684,1024,0,0,100,0,0,0,0,59,3.721,3.717,0,0,0,0,4.853,79.88,730.1943455447,9.186352,6,P-GPS,,2.8
631000,2026-01-08 12:39:15,,,730.8505135447,9.84252,0.894776,2.5623032316,4.184875462,17,5,7.437,730.8505135447,9.84252,1.006623,2.5623032316,0.894776,0.223694,-4.250186,29.5,10.4,4.3,0,0,1024,1024,1684,1024,0,0,100,0,0,0,0,59,3.721,3.717,0,0,0,0,4.853,79.88,730.8505135447,9.84252,6,P-GPS,,3.0
631100,2026-01-08 12:39:15,,,731.5066815447,10.170604,0.9171454,2.72656504788,4.351870218,17,5,7.321,731.5066815447,10.498688,1.006623,2.72656504788,0.894776,0.223694,-4.47388,29.6,11.1,3.1,0,0,1024,1024,1684,1024,0,0,100,0,0,0,0,59,3.721,3.648,0,0,0,0,7.078,79.88,731.5066815447,10.498688,6,P-GPS,,3.2
631200,2026-01-08 12:39:15,,,732.4909335447,10.826772,0.894776,2.95690954344,4.6024607772,18,5,7.321,732.4909335447,11.48294,1.006623,2.95690954344,0.894776,0.0,-4.250186,29.5,12.7,3.2,0,0,1024,1024,1684,1024,0,0,100,0,0,0,0,59,3.721,3.648,0,0,0,0,7.078,79.88,732.4909335447,11.48294,6,P-GPS,,3.5
631300,2026-01-08 12:39:16,,,733.1471015447,11.48294,0.894776,3.13572516596,4.792322988,18,5,7.321,733.1471015447,12.139108,1.006623,3.13572516596,0.894776,0.0,-4.250186,29.3,10.4,3.8,0,0,1024,1024,1684,1024,0,0,100,0,0,0,0,59,3.721,3.648,0,0,0,0,7.078,79.88,733.1471015447,12.139108,6,P-GPS,,3.7
631400,2026-01-08 12:39:16,,,734.1313535447,11.811024,0.894776,3.3230972192,4.9943571152,18,5,7.321,734.1313535447,13.12336,1.006623,3.3230972192,0.894776,0.0,-4.250186,29.4,11.1,6.1,0,0,1024,1024,1684,1024,0,0,100,0,0,0,0,59,3.721,3.648,0,0,0,0,7.078,79.88,734.1313535447,13.12336,6,P-GPS,,4.0
631500,2026-01-08 12:39:16,,,734.7875215447,12.467192,0.894776,3.467355754,5.1388781172,18,5,7.321,734.7875215447,13.779528,1.006623,3.467355754,0.894776,0.0,-4.47388,29.3,11.1,4.7,0,0,1024,1024,1684,1024,0,0,100,0,0,0,0,59,3.721,3.648,0,0,0,0,7.078,79.88,734.7875215447,13.779528,6,P-GPS,,4.2
631600,2026-01-08 12:39:16,,,735.4436895447,13.12336,0.671082,3.6709974928,5.3437993836,19,5,7.321,735.4436895447,14.435696,1.006623,3.6709974928,0.671082,0.0,-4.47388,29.5,9.9,3.8,0,0,1024,1024,1684,1024,0,0,100,0,0,0,0,59,3.721,3.648,0,0,0,0,7.078,79.88,735.4436895447,14.435696,6,P-GPS,,4.4
631700,2026-01-08 12:39:16,,,736.0998575447,13.779528,0.7158208,3.7736877848,5.4482285208,19,5,7.321,736.0998575447,15.091864,1.006623,3.7736877848,0.671082,0.223694,-4.47388,29.4,10.3,4.2,0,0,1024,1024,1684,1024,0,0,100,0,0,0,0,59,3.721,3.648,0,0,0,0,7.078,79.88,736.0998575447,15.091864,6,P-GPS,,4.6
631800,2026-01-08 12:39:16,,,737.0841095447,14.435696,0.7158208,3.8783793892,5.5559713064,19,5,7.321,737.0841095447,16.076116,1.006623,3.8783793892,0.671082,0.223694,-4.47388,29.3,11.8,3.1,0,0,1024,1024,1684,1024,0,0,100,0,0,0,0,59,3.721,3.648,0,0,0,0,7.078,79.88,737.0841095447,16.076116,6,P-GPS,,4.9
631900,2026-01-08 12:39:16,,,737.7402775447,15.091864,0.7158208,3.9861221748,5.666174722,19,5,7.321,737.7402775447,16.732284,1.006623,3.9861221748,0.671082,0.223694,-4.250186,29.2,10.8,2.3,0,0,1024,1024,1684,1024,0,0,100,0,0,0,0,59,3.721,3.648,0,0,0,0,7.078,79.88,737.7402775447,16.732284,6,P-GPS,,5.1
632000,2026-01-08 12:39:16,,,738.3964455447,15.419948,0.671082,4.1014765092,5.7822508412,19,5,7.321,738.3964455447,17.388452,1.006623,4.1014765092,0.671082,0.0,-4.47388,29.6,12.0,3.0,0,0,1024,1024,1684,1024,0,0,100,0,0,0,0,59,3.721,3.648,0,0,0,0,7.078,79.88,738.3964455447,17.388452,6,P-GPS,,5.3
632100,2026-01-08 12:39:16,,,739.0526135447,16.4042,0.671082,4.1449148308,5.856627484,19,5,7.321,739.0526135447,18.04462,1.006623,4.1449148308,0.671082,0.0,-4.250186,29.6,11.6,3.6,0,0,1024,1024,1684,1024,0,0,100,0,0,0,0,59,3.721,3.648,0,0,0,0,7.078,79.88,739.0526135447,18.04462,6,P-GPS,,5.5
632200,2026-01-08 12:39:17,,,740.0368655447,17.060368,0.671082,4.2219161456,5.9412403476,19,5,7.291,740.0368655447,19.028872,1.006623,4.2219161456,0.671082,0.0,-4.250186,29.3,10.3,3.6,0,0,1024,1024,1684,1024,0,0,100,0,0,0,0,59,3.645,3.645,0,0,0,0,7.01,79.88,740.0368655447,19.028872,6,P-GPS,,5.8
632300,2026-01-08 12:39:17,,,740.6930335447,17.716536,0.671082,4.2938649668,6.0232285392,19,5,7.291,740.6930335447,19.68504,1.006623,4.2938649668,0.671082,0.0,-4.47388,29.5,11.2,4.9,0,0,1024,1024,1684,1024,0,0,100,0,0,0,0,59,3.645,3.645,0,0,0,0,7.01,79.88,740.6930335447,19.68504,6,P-GPS,,6.0
632400,2026-01-08 12:39:17,,,741.3492015447,18.372704,0.671082,4.3606956776,6.1057744736,19,5,7.291,741.3492015447,20.341208,1.006623,4.3606956776,0.447388,0.0,-4.250186,29.6,9.8,4.4,0,0,1024,1024,1024,1024,0,0,0,0,0,0,0,59,3.645,3.645,0,0,0,0,7.01,79.88,741.3492015447,20.341208,6,P-GPS,,6.2
632500,2026-01-08 12:39:17,,,742.0053695447,19.356956,0.447388,4.4242455484,6.2726708044,19,5,7.291,742.0053695447,20.997376,1.006623,4.4242455484,0.447388,0.0,-4.47388,29.4,8.3,5.2,0,0,1024,1024,1024,1024,0,0,0,0,0,0,0,59,3.645,3.645,0,0,0,0,7.01,79.88,742.0053695447,20.997376,6,P-GPS,,6.4
632600,2026-01-08 12:39:17,,,742.9896215447,20.013124,0.447388,4.4948164168,6.3852364248,19,5,7.291,742.9896215447,21.981628,1.006623,4.4948164168,0.447388,-0.223694,-4.47388,29.4,7.4,5.4,0,0,1024,1024,1024,1024,0,0,0,0,0,0,0,59,3.645,3.645,0,0,0,0,7.01,79.88,742.9896215447,21.981628,6,P-GPS,,6.7
632700,2026-01-08 12:39:17,,,743.6457895447,20.997376,0.4921268,4.5199148428,6.4918309164,19,5,7.291,743.6457895447,22.637796,1.006623,4.5199148428,0.447388,-0.223694,-4.250186,29.5,7.7,6.8,0,0,1024,1024,1543,1024,0,0,79,0,0,0,0,59,3.645,3.645,0,0,0,0,7.01,79.88,743.6457895447,22.637796,6,P-GPS,,6.9
632800,2026-01-08 12:39:17,,,744.3019575447,21.653544,0.4921268,4.5390093316,6.61007239,19,5,7.291,744.3019575447,23.293964,1.006623,4.5390093316,0.447388,-0.223694,-3.802798,29.5,6.7,7.3,0,0,1024,1024,1684,879,0,0,100,-22,0,0,0,59,3.645,3.645,0,0,0,0,7.01,79.88,744.3019575447,23.293964,6,P-GPS,,7.1
632900,2026-01-08 12:39:17,,,744.6300415447,22.309712,0.4921268,4.4075460728,6.7447180636,19,5,7.291,744.6300415447,23.622048,1.006623,4.5390093316,0.447388,-0.223694,-3.35541,29.5,6.7,7.5,0,0,1024,1024,1684,879,0,0,100,-22,0,0,0,59,3.645,3.645,0,0,0,0,7.01,79.88,744.6300415447,23.622048,6,P-GPS,,7.2
633000,2026-01-08 12:39:17,,,744.9581255447,22.96588,0.4921268,4.4016405608,6.7805776448,19,5,7.291,744.9581255447,23.950132,1.006623,4.5390093316,0.447388,-0.223694,-2.908022,29.4,6.4,6.9,0,0,1024,1024,1684,855,0,0,100,-26,0,0,0,59,3.645,3.645,0,0,0,0,7.01,79.88,744.9581255447,23.950132,6,P-GPS,,7.3
633100,2026-01-08 12:39:17,,,745.2862095447,23.622048,0.223694,4.4349082784,6.8281170164,19,5,7.291,745.2862095447,24.278216,1.006623,4.5390093316,0.223694,0.0,-3.131716,28.8,7.4,6.8,0,0,1024,1024,1684,856,0,0,100,-25,0,0,0,59,3.645,3.645,0,0,0,0,7.01,79.88,745.2862095447,24.278216,6,P-GPS,,7.4
633200,2026-01-08 12:39:18,,,745.6142935447,24.278216,0.223694,4.4747048676,6.8788716112,19,5,7.291,745.6142935447,24.6063,1.006623,4.5390093316,0.223694,0.0,-3.35541,27.6,7.3,6.6,0,0,1024,1024,1684,1022,0,0,100,0,0,0,0,59,3.664,3.659,0,0,0,0,7.01,79.88,745.6142935447,24.6063,6,P-GPS,,7.5
633300,2026-01-08 12:39:18,,,745.9423775447,24.934384,0.223694,4.4552494864,6.9366143952,19,5,7.291,745.9423775447,24.934384,1.006623,4.5390093316,0.223694,0.0,-3.802798,26.5,8.2,6.1,0,0,1024,1024,1684,1024,0,0,100,0,0,0,0,59,3.664,3.659,0,0,0,0,7.01,79.88,745.9423775447,24.934384,6,P-GPS,,7.6
633400,2026-01-08 12:39:18,,,746.5985455447,25.590552,0.223694,4.4574148408,6.9430120332,19,5,7.291,746.5985455447,25.590552,1.006623,4.5390093316,0.223694,0.0,-3.802798,25.4,8.3,5.9,0,0,1024,1024,1684,1024,0,0,100,0,0,0,0,59,3.664,3.659,0,0,0,0,7.01,79.88,746.5985455447,25.590552,6,P-GPS,,7.8
633500,2026-01-08 12:39:18,,,746.9266295447,26.24672,0.223694,4.4999673356,6.9855973364,19,5,7.291,746.9266295447,25.918636,1.006623,4.5390093316,0.223694,0.0,-4.026492,25.6,10.4,5.9,0,0,1024,1024,1684,1024,0,0,100,0,0,0,0,59,3.664,3.659,0,0,0,0,7.01,79.88,746.9266295447,25.918636,6,P-GPS,,7.9
633600,2026-01-08 12:39:18,,,747.5827975447,26.902888,0.223694,4.5518046076,7.0377955008,18,5,7.291,747.5827975447,26.574804,1.006623,4.5518046076,0.223694,0.0,-4.026492,25.6,10.1,6.7,0,0,1024,1024,1684,1024,0,0,100,0,0,0,0,59,3.664,3.659,0,0,0,0,7.01,79.88,747.5827975447,26.574804,6,P-GPS,,8.1
633700,2026-01-08 12:39:18,,,747.9108815447,27.559056,0.223694,4.5937993596,7.0799214864,18,5,7.291,747.9108815447,26.902888,1.006623,4.5937993596,0.223694,0.0,-4.026492,25.5,9.5,6.2,0,0,1024,1024,1684,1024,0,0,100,0,0,0,0,59,3.664,3.659,0,0,0,0,7.01,79.88,747.9108815447,26.902888,6,P-GPS,,8.2
633800,2026-01-08 12:39:18,,,748.2389655447,28.215224,0.223694,4.6845802024,7.1744096784,18,5,7.291,748.2389655447,27.230972,1.006623,4.6845802024,0.223694,0.0,-4.026492,25.5,9.2,5.0,0,0,1024,1024,1684,1024,0,0,100,0,0,0,0,59,3.664,3.659,0,0,0,0,7.01,79.88,748.2389655447,27.230972,6,P-GPS,,8.3
633900,2026-01-08 12:39:18,,,748.8951335447,28.871392,0.223694,4.736056582,7.2263125672,18,5,7.291,748.8951335447,27.88714,1.006623,4.736056582,0.223694,0.0,-4.250186,25.5,10.2,4.8,0,0,1024,1024,1684,1024,0,0,100,0,0,0,0,59,3.664,3.659,0,0,0,0,7.01,79.88,748.8951335447,27.88714,6,P-GPS,,8.5
634000,2026-01-08 12:39:18,,,749.5513015447,29.52756,0.223694,4.7915355864,7.2820212304,18,5,7.291,749.5513015447,28.543308,1.006623,4.7915355864,0.223694,0.0,-4.250186,25.5,9.1,5.6,0,0,1024,1024,1684,1024,0,0,100,0,0,0,0,59,3.664,3.659,0,0,0,0,7.01,79.88,749.5513015447,28.543308,6,P-GPS,,8.7
634100,2026-01-08 12:39:18,,,749.8793855447,30.183728,0.223694,4.8481628848,7.3409779252,18,5,7.291,749.8793855447,28.871392,1.006623,4.8481628848,0.223694,0.0,-4.250186,25.7,9.3,4.6,0,0,1024,1024,1684,1024,0,0,100,0,0,0,0,59,3.664,3.659,0,0,0,0,7.01,79.88,749.8793855447,28.871392,6,P-GPS,,8.8
634200,2026-01-08 12:39:18,,,750.5355535447,30.839896,0.4921268,4.9687337548,7.4616472204,18,5,7.291,750.5355535447,29.52756,1.006623,4.9687337548,0.447388,0.223694,-4.47388,25.8,10.4,4.7,0,0,1024,1024,1684,1024,0,0,100,0,0,0,0,59,3.664,3.659,0,0,0,0,7.01,79.88,750.5355535447,29.52756,6,P-GPS,,9.0
634300,2026-01-08 12:39:19,,,750.8636375447,31.496064,0.4921268,5.0426838884,7.5458663832,18,5,7.424,750.8636375447,29.855644,1.006623,5.0426838884,0.447388,0.223694,-4.250186,25.7,13.5,3.8,0,0,1024,1024,1684,1024,0,0,100,0,0,0,0,59,3.613,3.614,0,0,0,0,6.317,80.06,750.8636375447,29.855644,6,P-GPS,,9.1
634400,2026-01-08 12:39:19,,,751.5198055447,32.152232,0.4921268,5.1252626312,7.6380907956,18,5,7.424,751.5198055447,30.511812,1.006623,5.1252626312,0.447388,0.223694,-4.47388,25.7,15.6,3.9,0,0,1024,1024,1684,1024,0,0,100,0,0,0,0,59,3.613,3.614,0,0,0,0,6.317,80.06,751.5198055447,30.511812,6,P-GPS,,9.3
634500,2026-01-08 12:39:19,,,752.1759735447,32.8084,0.4921268,5.2620080424,7.775426758,18,5,7.424,752.1759735447,31.16798,1.006623,5.2620080424,0.447388,0.223694,-4.250186,25.8,16.7,5.9,0,0,1024,1024,1684,1024,0,0,100,0,0,0,0,59,3.613,3.614,0,0,0,0,6.317,80.06,752.1759735447,31.16798,6,P-GPS,,9.5
634600,2026-01-08 12:39:19,,,752.8321415447,33.464568,0.3131716,5.495899126,8.0284779472,19,5,7.424,752.8321415447,31.824148,1.006623,5.495899126,0.223694,0.223694,-4.250186,26.0,15.0,5.8,0,0,1024,1024,1024,1024,0,0,0,0,0,0,0,59,3.613,3.614,0,0,0,0,6.317,80.06,752.8321415447,31.824148,6,P-GPS,,9.7
634700,2026-01-08 12:39:19,,,753.1602255447,34.120736,0.3131716,5.6012468984,8.1340553784,19,5,7.424,753.1602255447,32.152232,1.006623,5.6012468984,0.223694,0.223694,-4.250186,26.0,14.3,6.5,0,0,1024,1024,1024,1024,0,0,0,0,0,0,0,59,3.613,3.614,0,0,0,0,6.317,80.06,753.1602255447,32.152232,6,P-GPS,,9.8
634800,2026-01-08 12:39:19,,,753.8163935447,34.776904,0.447388,5.700623542,8.2378939644,19,5,7.424,753.8163935447,32.8084,1.006623,5.700623542,0.0,0.447388,-4.026492,25.9,16.8,3.3,0,0,1024,1024,1024,1024,0,0,0,0,0,0,0,59,3.613,3.614,0,0,0,0,6.317,80.06,753.8163935447,32.8084,6,P-GPS,,10.0
634900,2026-01-08 12:39:19,,,754.1444775447,35.433072,0.447388,5.7177495268,8.3087601084,19,5,7.424,754.1444775447,33.136484,1.006623,5.7177495268,0.0,0.447388,-3.802798,25.6,16.3,1.6,0,0,1024,1024,1024,1024,0,0,0,0,0,0,0,59,3.613,3.614,0,0,0,0,6.317,80.06,754.1444775447,33.136484,6,P-GPS,,10.1
635000,2026-01-08 12:39:19,,,754.4725615447,35.761156,0.447388,5.6913715732,8.3954399012,19,5,7.424,754.4725615447,33.464568,1.006623,5.7177495268,0.0,0.447388,-3.35541,25.3,14.5,1.1,0,0,1024,1024,1024,1024,0,0,0,0,0,0,0,59,3.613,3.614,0,0,0,0,6.317,80.06,754.4725615447,33.464568,6,P-GPS,,10.2
635100,2026-01-08 12:39:19,,,754.8006455447,36.417324,0.223694,5.651903068,8.4558073572,19,5,7.424,754.8006455447,33.792652,1.006623,5.7177495268,0.0,0.223694,-2.908022,25.0,13.5,1.5,0,0,1024,1024,1024,1024,0,0,0,0,0,0,0,59,3.613,3.614,0,0,0,0,6.317,80.06,754.8006455447,33.792652,6,P-GPS,,10.3
635200,2026-01-08 12:39:20,,,755.1287295447,36.745408,0.223694,5.6105316756,8.5082679888,19,5,7.424,755.1287295447,34.120736,1.006623,5.7177495268,0.0,0.223694,-2.460634,25.1,13.9,2.2,0,0,1024,1024,1024,1024,0,0,0,0,0,0,0,59,3.613,3.614,0,0,0,0,6.317,80.06,755.1287295447,34.120736,6,P-GPS,,10.4
635300,2026-01-08 12:39:20,,,755.1287295447,37.073492,0.223694,5.5734581836,8.5692916128,19,5,7.424,755.1287295447,34.120736,1.006623,5.7177495268,0.0,0.223694,-1.789552,25.2,14.5,2.6,0,0,1024,1024,1024,1024,0,0,0,0,0,0,0,59,3.613,3.614,0,0,0,0,6.317,80.06,755.1287295447,34.120736,6,P-GPS,,10.4
635400,2026-01-08 12:39:20,,,755.1287295447,37.401576,0.223694,5.5362862664,8.6334976516,19,5,7.424,755.1287295447,34.120736,1.006623,5.7177495268,0.0,0.223694,-1.11847,25.2,14.6,2.3,0,0,1024,1024,1024,1024,0,0,0,0,0,0,0,59,3.613,3.614,0,0,0,0,6.317,80.06,755.1287295447,34.120736,6,P-GPS,,10.4
635500,2026-01-08 12:39:20,,,754.8006455447,37.401576,0.0,5.3865815372,8.8135501508,19,5,7.325,755.1287295447,34.120736,1.006623,5.7177495268,0.0,0.0,-0.671082,25.3,14.9,2.1,0,0,1024,1024,1024,1024,0,0,0,0,0,0,0,59,3.663,3.662,0,0,0,0,7.474,80.06,754.8006455447,33.792652,6,P-GPS,,10.3
635600,2026-01-08 12:39:20,,,754.8006455447,37.401576,0.0,5.355807258,8.8443900468,19,5,7.325,755.1287295447,34.120736,1.006623,5.7177495268,0.0,0.0,-0.223694,25.4,14.6,2.5,0,0,1024,1024,1024,1024,0,0,0,0,0,0,0,59,3.663,3.662,0,0,0,0,7.474,80.06,754.8006455447,33.792652,6,P-GPS,,10.3
635700,2026-01-08 12:39:20,,,754.4725615447,37.401576,0.0,5.3004594872,8.9001315184,19,5,7.325,755.1287295447,34.120736,1.006623,5.7177495268,0.0,0.0,0.0,25.2,12.7,1.5,0,0,1024,1024,1024,1024,0,0,0,0,0,0,0,59,3.663,3.662,0,0,0,0,7.474,80.06,754.4725615447,33.464568,6,P-GPS,,10.2
635800,2026-01-08 12:39:20,,,754.4725615447,37.401576,0.0,5.2293636844,8.974409736,19,5,7.325,755.1287295447,34.120736,1.006623,5.7177495268,0.0,0.0,0.0,25.3,12.4,2.5,0,0,1024,1024,1024,1024,0,0,0,0,0,0,0,59,3.663,3.662,0,0,0,0,7.474,80.06,754.4725615447,33.464568,6,P-GPS,,10.2
635900,2026-01-08 12:39:20,,,754.1444775447,37.401576,0.223694,5.2307416372,9.0547575076,19,5,7.325,755.1287295447,34.120736,1.006623,5.7177495268,-0.223694,0.0,0.0,25.4,10.9,2.5,0,0,1024,1024,1024,1684,0,0,0,100,0,0,0,59,3.663,3.662,0,0,0,0,7.474,80.06,754.1444775447,33.136484,6,P-GPS,,10.1
636000,2026-01-08 12:39:20,,,754.1444775447,37.401576,0.223694,5.1989174892,9.1192260136,19,5,7.325,755.1287295447,34.120736,1.006623,5.7177495268,-0.223694,0.0,0.0,25.4,9.5,3.7,0,0,1024,1024,1024,1024,0,0,0,0,0,0,0,59,3.663,3.662,0,0,0,0,7.474,80.06,754.1444775447,33.136484,6,P-GPS,,10.1
636100,2026-01-08 12:39:20,,,753.8163935447,37.401576,0.0,5.1474083012,9.1961289032,19,5,7.325,755.1287295447,34.120736,1.006623,5.7177495268,0.0,0.0,-0.223694,25.7,9.7,4.1,0,0,1024,1024,1024,1024,0,0,0,0,0,0,0,59,3.663,3.662,0,0,0,0,7.474,80.06,753.8163935447,32.8084,6,P-GPS,,10.0
636200,2026-01-08 12:39:20,,,753.8163935447,37.401576,0.0,5.0971786408,9.271161714,19,5,7.325,755.1287295447,34.120736,1.006623,5.7177495268,0.0,0.0,-0.223694,36.4,10.5,4.7,0,0,1024,1024,1024,1024,0,0,0,0,0,0,0,59,3.663,3.662,0,0,0,0,7.474,80.06,753.8163935447,32.8084,6,P-GPS,,10.0
636300,2026-01-08 12:39:21,,,753.4883095447,37.401576,0.223694,4.99671932,9.3921590932,19,5,7.325,755.1287295447,34.120736,1.006623,5.7177495268,-0.223694,0.0,-0.223694,39.1,9.0,6.4,0,0,1024,1024,1024,1024,0,0,0,0,0,0,0,59,3.663,3.662,0,0,0,0,7.474,80.06,753.4883095447,32.480316,6,P-GPS,,9.9
636400,2026-01-08 12:39:21,,,753.1602255447,37.401576,0.223694,4.9360893968,9.4592522712,19,5,7.325,755.1287295447,34.120736,1.006623,5.7177495268,-0.223694,0.0,-0.223694,38.9,8.7,4.5,0,0,1024,1024,1024,1024,0,0,0,0,0,0,0,59,3.663,3.662,0,0,0,0,7.474,80.06,753.1602255447,32.152232,6,P-GPS,,9.8
636500,2026-01-08 12:39:21,,,753.1602255447,37.401576,0.223694,4.8493111788,9.5468506992,19,5,7.325,755.1287295447,34.120736,1.006623,5.7177495268,-0.223694,0.0,-0.223694,38.8,10.3,3.6,0,0,1024,1024,1024,1024,0,0,0,0,0,0,0,59,3.663,3.662,0,0,0,0,7.474,80.06,753.1602255447,32.152232,6,P-GPS,,9.8
636600,2026-01-08 12:39:21,,,752.8321415447,37.401576,0.223694,4.75475737,9.641732592,19,5,7.344,755.1287295447,34.120736,1.006623,5.7177495268,-0.223694,0.0,0.0,38.7,9.4,2.9,0,0,1024,1024,1024,1024,0,0,0,0,0,0,0,58,3.675,3.669,0,0,0,0,5.924,80.06,752.8321415447,31.824148,6,P-GPS,,9.7
636700,2026-01-08 12:39:21,,,752.5040575447,37.401576,0.223694,4.6621064484,9.7357942748,19,5,7.344,755.1287295447,34.120736,1.006623,5.7177495268,-0.223694,0.0,0.0,38.6,7.8,2.6,0,0,1024,1024,1024,1024,0,0,0,0,0,0,0,58,3.675,3.669,0,0,0,0,5.924,80.06,752.5040575447,31.496064,6,P-GPS,,9.6
636800,2026-01-08 12:39:21,,,752.1759735447,37.401576,0.223694,4.6185368932,9.7799543812,19,5,7.344,755.1287295447,34.120736,1.006623,5.7177495268,-0.223694,0.0,0.0,38.6,9.3,1.5,0,0,1024,1024,1024,1024,0,0,0,0,0,0,0,58,3.675,3.669,0,0,0,0,5.924,80.06,752.1759735447,31.16798,6,P-GPS,,9.5
636900,2026-01-08 12:39:21,,,751.8478895447,37.401576,0.223694,4.596784924,9.8018703924,19,5,7.344,755.1287295447,34.120736,1.006623,5.7177495268,-0.223694,0.0,0.0,38.5,8.4,1.3,0,0,1024,1024,1024,1024,0,0,0,0,0,0,0,58,3.675,3.669,0,0,0,0,5.924,80.06,751.8478895447,30.839896,6,P-GPS,,9.4
637000,2026-01-08 12:39:21,,,751.5198055447,37.401576,0.223694,4.5828085456,9.8163717052,19,5,7.344,755.1287295447,34.120736,1.006623,5.7177495268,-0.223694,0.0,0.0,38.5,8.8,1.5,0,0,1024,1024,1024,1024,0,0,0,0,0,0,0,58,3.675,3.669,0,0,0,0,5.924,80.06,751.5198055447,30.511812,6,P-GPS,,9.3
637100,2026-01-08 12:39:21,,,751.5198055447,37.401576,0.223694,4.5911746876,9.8260829916,19,5,7.344,755.1287295447,34.120736,1.006623,5.7177495268,-0.223694,0.0,0.0,38.6,9.0,1.7,0,0,1024,1024,1024,1024,0,0,0,0,0,0,0,58,3.675,3.669,0,0,0,0,5.924,80.06,751.5198055447,30.511812,6,P-GPS,,9.3
637200,2026-01-08 12:39:22,,,751.1917215447,37.401576,0.223694,4.6847770528,9.9317260396,19,5,7.344,755.1287295447,34.120736,1.006623,5.7177495268,-0.223694,0.0,0.0,38.5,9.3,0.3,0,0,1024,1024,1024,1024,0,0,0,0,0,0,0,58,3.675,3.669,0,0,0,0,5.924,80.06,751.1917215447,30.183728,6,P-GPS,,9.2
637300,2026-01-08 12:39:22,,,750.8636375447,37.401576,0.0,4.7097442452,9.96227066,19,5,7.344,755.1287295447,34.120736,1.006623,5.7177495268,0.0,0.0,0.0,38.7,8.8,0.6,0,0,1024,1024,1024,1024,0,0,0,0,0,0,0,58,3.675,3.669,0,0,0,0,5.924,80.06,750.8636375447,29.855644,6,P-GPS,,9.1
637400,2026-01-08 12:39:22,,,750.8636375447,37.401576,0.0,4.7382219364,10.0012142308,19,5,7.344,755.1287295447,34.120736,1.006623,5.7177495268,0.0,0.0,0.0,38.6,8.6,0.4,0,0,1024,1024,1024,1024,0,0,0,0,0,0,0,58,3.675,3.669,0,0,0,0,5.924,80.06,750.8636375447,29.855644,6,P-GPS,,9.1
637500,2026-01-08 12:39:22,,,750.5355535447,37.401576,0.0,4.7504594696,10.0438651508,19,5,7.344,755.1287295447,34.120736,1.006623,5.7177495268,0.0,0.0,0.0,38.6,8.4,0.5,0,0,1024,1024,1024,1024,0,0,0,0,0,0,0,58,3.675,3.669,0,0,0,0,5.924,80.06,750.5355535447,29.52756,6,P-GPS,,9.0
637600,2026-01-08 12:39:22,,,750.5355535447,37.401576,0.0,4.7625985776,10.0929793256,19,5,7.344,755.1287295447,34.120736,1.006623,5.7177495268,0.0,0.0,-0.223694,38.7,7.4,1.2,0,0,1024,1024,1024,1024,0,0,0,0,0,0,0,58,3.675,3.669,0,0,0,0,5.924,80.06,750.5355535447,29.52756,6,P-GPS,,9.0
637700,2026-01-08 12:39:22,,,750.2074695447,37.401576,0.0,4.784941098,10.146325784,19,5,7.366,755.1287295447,34.120736,1.006623,5.7177495268,0.0,0.0,-0.223694,38.8,8.4,1.4,0,0,1024,1024,1024,1024,0,0,0,0,0,0,0,58,3.686,3.681,0,0,0,0,5.092,80.06,750.2074695447,29.199476,6,P-GPS,,8.9
637800,2026-01-08 12:39:22,,,749.8793855447,37.401576,0.0,4.8143374244,10.2028546572,19,5,7.366,755.1287295447,34.120736,1.006623,5.7177495268,0.0,0.0,0.0,38.9,8.5,1.2,0,0,1024,1024,1024,1024,0,0,0,0,0,0,0,58,3.686,3.681,0,0,0,0,5.092,80.06,749.8793855447,28.871392,6,P-GPS,,8.8
637900,2026-01-08 12:39:22,,,749.8793855447,37.401576,0.0,4.8498361132,10.267060696,19,5,7.366,755.1287295447,34.120736,1.006623,5.7177495268,0.0,0.0,0.0,39.0,8.3,1.2,0,0,1024,1024,1024,1024,0,0,0,0,0,0,0,58,3.686,3.681,0,0,0,0,5.092,80.06,749.8793855447,28.871392,6,P-GPS,,8.8
638000,2026-01-08 12:39:22,,,749.8793855447,37.401576,0.0,4.8929791592,10.35187041,19,5,7.366,755.1287295447,34.120736,1.006623,5.7177495268,0.0,0.0,0.0,39.1,8.7,0.9,0,0,1024,1024,1024,1024,0,0,0,0,0,0,0,58,3.686,3.681,0,0,0,0,5.092,80.06,749.8793855447,28.871392,6,P-GPS,,8.8
638100,2026-01-08 12:39:22,,,749.5513015447,37.401576,0.0,4.9360565884,10.4042654248,19,5,7.366,755.1287295447,34.120736,1.006623,5.7177495268,0.0,0.0,0.0,39.0,9.6,1.7,0,0,1024,1024,1024,1024,0,0,0,0,0,0,0,58,3.686,3.681,0,0,0,0,5.092,80.06,749.5513015447,28.543308,6,P-GPS,,8.7
638200,2026-01-08 12:39:22,,,749.5513015447,37.401576,0.0,4.9823164324,10.456201122,19,5,7.366,755.1287295447,34.120736,1.006623,5.7177495268,0.0,0.0,0.0,38.8,9.8,1.0,0,0,1024,1024,1024,1024,0,0,0,0,0,0,0,58,3.686,3.681,0,0,0,0,5.092,80.06,749.5513015447,28.543308,6,P-GPS,,8.7
638300,2026-01-08 12:39:23,,,749.5513015447,37.401576,0.0,5.004757378,10.4833008604,19,5,7.366,755.1287295447,34.120736,1.006623,5.7177495268,0.0,0.0,0.0,38.6,10.2,1.5,0,0,1024,1024,1024,1024,0,0,0,0,0,0,0,58,3.686,3.681,0,0,0,0,5.092,80.06,749.5513015447,28.543308,6,P-GPS,,8.7
638400,2026-01-08 12:39:23,,,749.2232175447,37.401576,0.0,4.9563321796,10.5317260588,19,5,7.366,755.1287295447,34.120736,1.006623,5.7177495268,0.0,0.0,0.0,38.9,10.6,3.4,0,0,1024,1024,1024,1024,0,0,0,0,0,0,0,58,3.686,3.681,0,0,0,0,5.092,80.06,749.2232175447,28.215224,6,P-GPS,,8.6
638500,2026-01-08 12:39:23,,,749.2232175447,37.401576,0.0,4.9715224688,10.5650265848,19,5,7.366,755.1287295447,34.120736,1.006623,5.7177495268,0.0,0.0,0.0,39.1,10.2,3.4,0,0,1024,1024,1024,1024,0,0,0,0,0,0,0,58,3.686,3.681,0,0,0,0,5.092,80.06,749.2232175447,28.215224,6,P-GPS,,8.6
638600,2026-01-08 12:39:23,,,749.2232175447,37.401576,0.0,4.9704726,10.5920607064,19,5,7.366,755.1287295447,34.120736,1.006623,5.7177495268,0.0,0.0,0.0,39.0,8.6,2.6,0,0,1024,1024,1024,1024,0,0,0,0,0,0,0,58,3.686,3.681,0,0,0,0,5.092,80.06,749.2232175447,28.215224,6,P-GPS,,8.6
638700,2026-01-08 12:39:23,,,749.2232175447,37.401576,0.0,4.9558072452,10.6103021768,19,5,7.366,755.1287295447,34.120736,1.006623,5.7177495268,0.0,0.0,0.0,38.8,8.4,2.0,0,0,1024,1024,1024,1024,0,0,0,0,0,0,0,58,3.686,3.681,0,0,0,0,5.092,80.06,749.2232175447,28.215224,6,P-GPS,,8.6
638800,2026-01-08 12:39:23,,,749.2232175447,37.401576,0.0,4.9323492392,10.634678818,19,5,7.394,755.1287295447,34.120736,1.006623,5.7177495268,0.0,0.0,0.0,38.8,7.7,1.7,0,0,1024,1024,1024,1024,0,0,0,0,0,0,0,58,3.684,3.677,0,0,0,0,4.624,80.06,749.2232175447,28.215224,6,P-GPS,,8.6
638900,2026-01-08 12:39:23,,,749.2232175447,37.401576,0.0,4.9067258788,10.6604990288,19,5,7.394,755.1287295447,34.120736,1.006623,5.7177495268,0.0,0.0,0.0,38.7,6.4,1.4,0,0,1024,1024,1024,1024,0,0,0,0,0,0,0,58,3.684,3.677,0,0,0,0,4.624,80.06,749.2232175447,28.215224,6,P-GPS,,8.6
639000,2026-01-08 12:39:23,,,749.2232175447,37.401576,0.0,4.8819883452,10.6888782948,19,5,7.394,755.1287295447,34.120736,1.006623,5.7177495268,0.0,0.0,0.0,38.6,6.3,1.2,0,0,1024,1024,1024,1024,0,0,0,0,0,0,0,58,3.684,3.677,0,0,0,0,4.624,80.06,749.2232175447,28.215224,6,P-GPS,,8.6
639100,2026-01-08 12:39:23,,,749.2232175447,37.401576,0.0,4.857119578,10.713747062,19,5,7.394,755.1287295447,34.120736,1.006623,5.7177495268,0.0,0.0,0.0,38.8,6.4,2.1,0,0,1024,1024,1024,1024,0,0,0,0,0,0,0,58,3.684,3.677,0,0,0,0,4.624,80.06,749.2232175447,28.215224,6,P-GPS,,8.6
639200,2026-01-08 12:39:24,,,749.2232175447,37.401576,0.0,4.8325460864,10.7390423384,19,5,7.394,755.1287295447,34.120736,1.006623,5.7177495268,0.0,0.0,-0.223694,38.7,5.1,1.4,0,0,1024,1024,1024,1024,0,0,0,0,0,0,0,58,3.684,3.677,0,0,0,0,4.624,80.06,749.2232175447,28.215224,6,P-GPS,,8.6
639300,2026-01-08 12:39:24,,,749.2232175447,37.401576,0.0,4.7930447728,10.78166045,19,5,7.394,755.1287295447,34.120736,1.006623,5.7177495268,0.0,0.0,-0.223694,38.5,3.8,1.8,0,0,1024,1024,1024,1024,0,0,0,0,0,0,0,58,3.684,3.677,0,0,0,0,4.624,80.06,749.2232175447,28.215224,6,P-GPS,,8.6
639400,2026-01-08 12:39:24,,,748.8951335447,37.401576,0.0,4.7896655076,10.7852037572,19,5,7.394,755.1287295447,34.120736,1.006623,5.7177495268,0.0,0.0,0.0,38.6,6.1,1.7,0,0,1024,1024,1024,1024,0,0,0,0,0,0,0,58,3.684,3.677,0,0,0,0,4.624,80.06,748.8951335447,27.88714,6,P-GPS,,8.5
639500,2026-01-08 12:39:24,,,748.8951335447,37.401576,0.0,4.7961287624,10.7924544136,19,5,7.394,755.1287295447,34.120736,1.006623,5.7177495268,0.0,0.0,0.0,38.6,5.9,1.8,0,0,1024,1024,1024,1024,0,0,0,0,0,0,0,58,3.684,3.677,0,0,0,0,4.624,80.06,748.8951335447,27.88714,6,P-GPS,,8.5
639600,2026-01-08 12:39:24,,,748.8951335447,37.401576,0.0,4.80396997,10.8006565136,19,5,7.394,755.1287295447,34.120736,1.006623,5.7177495268,0.0,0.0,0.0,38.5,5.3,2.5,0,0,1024,1024,1024,1024,0,0,0,0,0,0,0,58,3.684,3.677,0,0,0,0,4.624,80.06,748.8951335447,27.88714,6,P-GPS,,8.5
639700,2026-01-08 12:39:24,,,748.8951335447,37.401576,0.0,4.815288868,10.8271985092,19,5,7.394,755.1287295447,34.120736,1.006623,5.7177495268,0.0,0.0,0.0,38.6,5.9,2.9,0,0,1024,1024,1024,1024,0,0,0,0,0,0,0,58,3.684,3.677,0,0,0,0,4.624,80.06,748.8951335447,27.88714,6,P-GPS,,8.5
639800,2026-01-08 12:39:24,,,748.8951335447,37.401576,0.0,4.806758684,10.855643392,19,5,7.394,755.1287295447,34.120736,1.006623,5.7177495268,0.0,0.0,0.0,38.7,6.3,2.6,0,0,1024,1024,1024,1024,0,0,0,0,0,0,0,58,3.684,3.677,0,0,0,0,4.624,80.06,748.8951335447,27.88714,6,P-GPS,,8.5
639900,2026-01-08 12:39:24,,,748.8951335447,37.401576,0.223694,4.8109909676,10.8935699024,19,5,7.421,755.1287295447,34.120736,1.006623,5.7177495268,0.0,-0.223694,0.0,38.9,5.5,2.3,0,0,1024,1024,1024,1024,0,0,0,0,0,0,0,58,3.71,3.711,0,0,0,0,3.906,80.06,748.8951335447,27.88714,6,P-GPS,,8.5
640000,2026-01-08 12:39:24,,,748.8951335447,37.401576,0.3131716,4.8088584216,10.9419951008,19,5,7.421,755.1287295447,34.120736,1.006623,5.7177495268,-0.223694,-0.223694,0.0,39.1,4.4,2.7,0,0,1024,1024,1024,1024,0,0,0,0,0,0,0,58,3.71,3.711,0,0,0,0,3.906,80.06,748.8951335447,27.88714,6,P-GPS,,8.5
640100,2026-01-08 12:39:24,,,748.8951335447,37.401576,0.3131716,4.8083662956,11.0182418224,19,5,7.421,755.1287295447,34.120736,1.006623,5.7177495268,-0.223694,-0.223694,0.0,39.0,4.0,3.1,0,0,1024,1024,1024,1024,0,0,0,0,0,0,0,58,3.71,3.711,0,0,0,0,3.906,80.06,748.8951335447,27.88714,6,P-GPS,,8.5
640200,2026-01-08 12:39:25,,,748.8951335447,37.401576,0.3131716,4.7776576332,11.0785436616,19,5,7.421,755.1287295447,34.120736,1.006623,5.7177495268,-0.223694,-0.223694,0.0,38.9,3.9,3.8,0,0,1024,1024,1024,1024,0,0,0,0,0,0,0,58,3.71,3.711,0,0,0,0,3.906,80.06,748.8951335447,27.88714,6,P-GPS,,8.5
640300,2026-01-08 12:39:25,,,748.8951335447,37.401576,0.3131716,4.7250985764,11.1524937952,19,5,7.421,755.1287295447,34.120736,1.006623,5.7177495268,-0.223694,-0.223694,0.0,38.8,1.9,3.6,0,0,1024,1024,1024,1024,0,0,0,0,0,0,0,58,3.71,3.711,0,0,0,0,3.906,80.06,748.8951335447,27.88714,6,P-GPS,,8.5
640400,2026-01-08 12:39:25,,,748.8951335447,37.401576,0.3131716,4.6659778396,11.2296919604,19,5,7.421,755.1287295447,34.120736,1.006623,5.7177495268,-0.223694,-0.223694,0.0,38.8,2.0,2.5,0,0,1024,1024,1024,1024,0,0,0,0,0,0,0,58,3.71,3.711,0,0,0,0,3.906,80.06,748.8951335447,27.88714,6,P-GPS,,8.5
640500,2026-01-08 12:39:25,,,748.8951335447,37.401576,0.3131716,4.6178479168,11.296588288,19,5,7.421,755.1287295447,34.120736,1.006623,5.7177495268,-0.223694,-0.223694,0.0,38.7,1.5,2.3,0,0,1024,1024,1024,1024,0,0,0,0,0,0,0,58,3.71,3.711,0,0,0,0,3.906,80.06,748.8951335447,27.88714,6,P-GPS,,8.5
640600,2026-01-08 12:39:25,,,748.8951335447,37.401576,0.223694,4.5397639248,11.3988848792,19,5,7.421,755.1287295447,34.120736,1.006623,5.7177495268,-0.223694,0.0,0.0,38.5,1.0,2.3,0,0,1024,1024,1024,1024,0,0,0,0,0,0,0,58,3.71,3.711,0,0,0,0,3.906,80.06,748.8951335447,27.88714,6,P-GPS,,8.5
640700,2026-01-08 12:39:25,,,748.8951335447,37.401576,0.223694,4.5052166796,11.4496722824,19,5,7.421,755.1287295447,34.120736,1.006623,5.7177495268,-0.223694,0.0,0.0,38.5,-1.1,3.5,0,0,1024,1024,1024,1024,0,0,0,0,0,0,0,58,3.71,3.711,0,0,0,0,3.906,80.06,748.8951335447,27.88714,6,P-GPS,,8.5
640800,2026-01-08 12:39:25,,,748.8951335447,37.401576,0.0,4.482611692,11.478510866,19,5,7.421,755.1287295447,34.120736,1.006623,5.7177495268,0.0,0.0,0.0,38.4,1.9,3.3,0,0,1024,1024,1024,1024,0,0,0,0,0,0,0,58,3.71,3.711,0,0,0,0,3.906,80.06,748.8951335447,27.88714,6,P-GPS,,8.5
640900,2026-01-08 12:39:25,,,749.2232175447,37.401576,0.0,4.4629594604,11.5035436752,19,5,7.421,755.1287295447,34.120736,1.006623,5.7177495268,0.0,0.0,0.0,38.4,4.1,2.6,0,0,1024,1024,1024,1024,0,0,0,0,0,0,0,58,3.71,3.711,0,0,0,0,3.906,80.06,749.2232175447,28.215224,6,P-GPS,,8.6
641000,2026-01-08 12:39:25,,,749.2232175447,37.401576,0.0,4.4371064412,11.573327142,19,5,7.415,755.1287295447,34.120736,1.006623,5.7177495268,0.0,0.0,0.0,38.4,4.7,2.5,0,0,1024,1024,1024,1024,0,0,0,0,0,0,0,58,3.712,3.703,0,0,0,0,3.43,80.06,749.2232175447,28.215224,6,P-GPS,,8.6
641100,2026-01-08 12:39:25,,,749.2232175447,37.401576,0.0,4.4554135284,11.59858961,19,5,7.415,755.1287295447,34.120736,1.006623,5.7177495268,0.0,0.0,0.0,38.5,5.2,3.1,0,0,1024,1024,1024,1024,0,0,0,0,0,0,0,58,3.712,3.703,0,0,0,0,3.43,80.06,749.2232175447,28.215224,6,P-GPS,,8.6
641200,2026-01-08 12:39:26,,,749.2232175447,37.401576,0.0,4.4835631356,11.630905884,19,5,7.415,755.1287295447,34.120736,1.006623,5.7177495268,0.0,0.0,0.0,38.5,5.8,3.4,0,0,1024,1024,1024,1024,0,0,0,0,0,0,0,58,3.712,3.703,0,0,0,0,3.43,80.06,749.2232175447,28.215224,6,P-GPS,,8.6
641300,2026-01-08 12:39:26,,,749.5513015447,37.401576,0.0,4.51443584,11.6783468304,19,5,7.415,755.1287295447,34.120736,1.006623,5.7177495268,0.0,0.0,0.0,38.5,6.2,3.0,0,0,1024,1024,1024,1024,0,0,0,0,0,0,0,58,3.712,3.703,0,0,0,0,3.43,80.06,749.5513015447,28.543308,6,P-GPS,,8.7
641400,2026-01-08 12:39:26,,,749.5513015447,37.401576,0.0,4.583497522,11.7871394848,19,5,7.415,755.1287295447,34.120736,1.006623,5.7177495268,0.0,0.0,0.0,38.5,6.7,1.8,0,0,1024,1024,1024,1024,0,0,0,0,0,0,0,58,3.712,3.703,0,0,0,0,3.43,80.06,749.5513015447,28.543308,6,P-GPS,,8.7
641500,2026-01-08 12:39:26,,,749.5513015447,37.401576,0.0,4.619750804,11.8372379116,19,5,7.415,755.1287295447,34.120736,1.006623,5.7177495268,0.0,0.0,0.0,38.5,6.5,1.6,0,0,1024,1024,1024,1024,0,0,0,0,0,0,0,58,3.712,3.703,0,0,0,0,3.43,80.06,749.5513015447,28.543308,6,P-GPS,,8.7
641600,2026-01-08 12:39:26,,,749.8793855447,37.401576,0.0,4.6562665532,11.8838914564,19,5,7.415,755.1287295447,34.120736,1.006623,5.7177495268,0.0,0.0,0.0,38.6,6.3,1.1,0,0,1024,1024,1024,1024,0,0,0,0,0,0,0,58,3.712,3.703,0,0,0,0,3.43,80.06,749.8793855447,28.871392,6,P-GPS,,8.8
641700,2026-01-08 12:39:26,,,749.8793855447,37.401576,0.0,4.6885828272,11.9190292528,19,5,7.415,755.1287295447,34.120736,1.006623,5.7177495268,0.0,0.0,0.0,38.8,6.6,1.3,0,0,1024,1024,1024,1024,0,0,0,0,0,0,0,58,3.712,3.703,0,0,0,0,3.43,80.06,749.8793855447,28.871392,6,P-GPS,,8.8
641800,2026-01-08 12:39:26,,,750.2074695447,37.401576,0.0,4.7699804676,12.00049251,19,5,7.415,755.1287295447,34.120736,1.006623,5.7177495268,0.0,0.0,0.0,38.8,4.5,1.4,0,0,1024,1024,1024,1024,0,0,0,0,0,0,0,58,3.712,3.703,0,0,0,0,3.43,80.06,750.2074695447,29.199476,6,P-GPS,,8.9
641900,2026-01-08 12:39:26,,,750.2074695447,37.401576,0.0,4.7738518588,12.0116145576,19,5,7.415,755.1287295447,34.120736,1.006623,5.7177495268,0.0,0.0,-0.223694,38.5,3.4,0.9,0,0,1024,1024,1024,1024,0,0,0,0,0,0,0,58,3.712,3.703,0,0,0,0,3.43,80.06,750.2074695447,29.199476,6,P-GPS,,8.9
642000,2026-01-08 12:39:26,,,750.2074695447,37.401576,0.223694,4.7878282372,12.0283468416,19,5,7.415,755.1287295447,34.120736,1.006623,5.7177495268,0.223694,0.0,-0.223694,38.5,4.1,1.6,0,0,1024,1024,1024,1024,0,0,0,0,0,0,0,58,3.712,3.703,0,0,0,0,3.43,80.06,750.2074695447,29.199476,6,P-GPS,,8.9
642100,2026-01-08 12:39:26,,,750.5355535447,37.401576,0.223694,4.8266405744,12.0673888376,19,5,7.398,755.1287295447,34.120736,1.006623,5.7177495268,0.223694,0.0,-0.223694,38.3,6.8,1.9,0,0,1024,1024,1024,1024,0,0,0,0,0,0,0,58,3.699,3.698,0,0,0,0,4.295,80.06,750.5355535447,29.52756,6,P-GPS,,9.0
642200,2026-01-08 12:39:27,,,750.5355535447,37.401576,0.223694,4.8806432008,12.1214242724,19,5,7.398,755.1287295447,34.120736,1.006623,5.7177495268,0.223694,0.0,0.0,38.5,8.6,3.0,0,0,1024,1024,1024,1024,0,0,0,0,0,0,0,58,3.699,3.698,0,0,0,0,4.295,80.06,750.5355535447,29.52756,6,P-GPS,,9.0
642300,2026-01-08 12:39:27,,,750.5355535447,37.401576,0.223694,4.8650920192,12.1517064256,19,5,7.398,755.1287295447,34.120736,1.006623,5.7177495268,0.223694,0.0,0.0,38.5,8.0,4.1,0,0,1024,1024,1024,1024,0,0,0,0,0,0,0,58,3.699,3.698,0,0,0,0,4.295,80.06,750.5355535447,29.52756,6,P-GPS,,9.0
642400,2026-01-08 12:39:27,,,750.5355535447,37.401576,0.223694,4.9123033068,12.1997707316,19,5,7.398,755.1287295447,34.120736,1.006623,5.7177495268,0.223694,0.0,0.0,39.0,9.4,4.6,0,0,1024,1024,1024,1024,0,0,0,0,0,0,0,58,3.699,3.698,0,0,0,0,4.295,80.06,750.5355535447,29.52756,6,P-GPS,,9.0
642500,2026-01-08 12:39:27,,,750.5355535447,37.401576,0.223694,4.96883218,12.2563652216,19,5,7.398,755.1287295447,34.120736,1.006623,5.7177495268,0.223694,0.0,0.0,39.0,8.7,4.5,0,0,1024,1024,1024,1024,0,0,0,0,0,0,0,58,3.699,3.698,0,0,0,0,4.295,80.06,750.5355535447,29.52756,6,P-GPS,,9.0
642600,2026-01-08 12:39:27,,,750.5355535447,37.401576,0.223694,5.0230316568,12.3114505252,19,5,7.398,755.1287295447,34.120736,1.006623,5.7177495268,0.223694,0.0,0.0,39.1,9.3,4.5,0,0,1024,1024,1024,1024,0,0,0,0,0,0,0,58,3.699,3.698,0,0,0,0,4.295,80.06,750.5355535447,29.52756,6,P-GPS,,9.0
642700,2026-01-08 12:39:27,,,750.5355535447,37.401576,0.0,5.0791996376,12.3678481648,19,5,7.398,755.1287295447,34.120736,1.006623,5.7177495268,0.0,0.0,0.0,39.0,10.3,3.7,0,0,1024,1024,1024,1024,0,0,0,0,0,0,0,58,3.699,3.698,0,0,0,0,4.295,80.06,750.5355535447,29.52756,6,P-GPS,,9.0
642800,2026-01-08 12:39:27,,,750.5355535447,37.401576,0.0,5.1121720796,12.4023297932,19,5,7.398,755.1287295447,34.120736,1.006623,5.7177495268,0.0,0.0,0.0,38.8,10.0,2.7,0,0,1024,1024,1024,1024,0,0,0,0,0,0,0,58,3.699,3.698,0,0,0,0,4.295,80.06,750.5355535447,29.52756,6,P-GPS,,9.0
642900,2026-01-08 12:39:27,,,750.5355535447,37.401576,0.0,5.1257547572,12.4216211324,19,5,7.398,755.1287295447,34.120736,1.006623,5.7177495268,0.0,0.0,0.0,38.6,9.4,2.2,0,0,1024,1024,1024,1024,0,0,0,0,0,0,0,58,3.699,3.698,0,0,0,0,4.295,80.06,750.5355535447,29.52756,6,P-GPS,,9.0
643000,2026-01-08 12:39:27,,,750.5355535447,37.401576,0.0,5.135498852,12.435367852,19,5,7.398,755.1287295447,34.120736,1.006623,5.7177495268,0.0,0.0,0.0,38.5,9.5,2.3,0,0,1024,1024,1024,1024,0,0,0,0,0,0,0,58,3.699,3.698,0,0,0,0,4.295,80.06,750.5355535447,29.52756,6,P-GPS,,9.0
643100,2026-01-08 12:39:27,,,750.8636375447,37.401576,0.0,5.1000985884,12.4881565676,19,5,7.398,755.1287295447,34.120736,1.006623,5.7177495268,0.0,0.0,0.0,38.6,9.8,2.4,0,0,1024,1024,1024,1024,0,0,0,0,0,0,0,58,3.699,3.698,0,0,0,0,4.295,80.06,750.8636375447,29.855644,6,P-GPS,,9.1
643200,2026-01-08 12:39:27,,,750.8636375447,37.401576,0.0,5.0944555436,12.4945213972,19,5,7.38,755.1287295447,34.120736,1.006623,5.7177495268,0.0,0.0,0.0,38.7,9.3,2.9,0,0,1024,1024,1024,1024,0,0,0,0,0,0,0,58,3.69,3.69,0,0,0,0,4.33,80.06,750.8636375447,29.855644,6,P-GPS,,9.1
643300,2026-01-08 12:39:28,,,751.1917215447,37.401576,0.0,5.0849411076,12.5104006628,19,5,7.38,755.1287295447,34.120736,1.006623,5.7177495268,0.0,0.0,0.0,38.8,8.5,3.6,0,0,1024,1024,1024,1024,0,0,0,0,0,0,0,58,3.69,3.69,0,0,0,0,4.33,80.06,751.1917215447,30.183728,6,P-GPS,,9.2
643400,2026-01-08 12:39:28,,,751.1917215447,37.401576,0.0,5.0737206348,12.5284780912,19,5,7.38,755.1287295447,34.120736,1.006623,5.7177495268,0.0,0.0,0.0,38.8,8.1,3.9,0,0,1024,1024,1024,1024,0,0,0,0,0,0,0,58,3.69,3.69,0,0,0,0,4.33,80.06,751.1917215447,30.183728,6,P-GPS,,9.2
643500,2026-01-08 12:39:28,,,751.5198055447,37.401576,0.0,5.0344161716,12.5710633944,19,5,7.38,755.1287295447,34.120736,1.006623,5.7177495268,0.0,0.0,0.0,38.8,7.8,3.5,0,0,1024,1024,1024,1024,0,0,0,0,0,0,0,58,3.69,3.69,0,0,0,0,4.33,80.06,751.5198055447,30.511812,6,P-GPS,,9.3
643600,2026-01-08 12:39:28,,,751.5198055447,37.401576,0.0,5.0224411056,12.5856631324,19,5,7.38,755.1287295447,34.120736,1.006623,5.7177495268,0.0,0.0,0.0,38.8,8.1,3.4,0,0,1024,1024,1024,1024,0,0,0,0,0,0,0,58,3.69,3.69,0,0,0,0,4.33,80.06,751.5198055447,30.511812,6,P-GPS,,9.3
643700,2026-01-08 12:39:28,,,751.5198055447,37.401576,0.0,5.0320539668,12.5959977784,19,5,7.38,755.1287295447,34.120736,1.006623,5.7177495268,0.0,0.0,0.0,38.8,8.7,3.3,0,0,1024,1024,1024,1024,0,0,0,0,0,0,0,58,3.69,3.69,0,0,0,0,4.33,80.06,751.5198055447,30.511812,6,P-GPS,,9.3
643800,2026-01-08 12:39:28,,,751.8478895447,37.401576,0.0,5.0487534424,12.613025338,19,5,7.38,755.1287295447,34.120736,1.006623,5.7177495268,0.0,0.0,0.0,38.7,8.5,3.5,0,0,1024,1024,1024,1024,0,0,0,0,0,0,0,58,3.69,3.69,0,0,0,0,4.33,80.06,751.8478895447,30.839896,6,P-GPS,,9.4
643900,2026-01-08 12:39:28,,,751.8478895447,37.401576,0.0,5.0668308708,12.6312996168,19,5,7.38,755.1287295447,34.120736,1.006623,5.7177495268,0.0,0.0,0.0,38.7,8.7,3.4,0,0,1024,1024,1024,1024,0,0,0,0,0,0,0,58,3.69,3.69,0,0,0,0,4.33,80.06,751.8478895447,30.839896,6,P-GPS,,9.4
644000,2026-01-08 12:39:28,,,751.8478895447,37.401576,0.0,5.118766568,12.6841867576,19,5,7.38,755.1287295447,34.120736,1.006623,5.7177495268,0.0,0.0,0.0,38.7,9.1,3.8,0,0,1024,1024,1024,1024,0,0,0,0,0,0,0,58,3.69,3.69,0,0,0,0,4.33,80.06,751.8478895447,30.839896,6,P-GPS,,9.4
644100,2026-01-08 12:39:28,,,752.1759735447,37.401576,0.0,5.14681775,12.7123035564,19,5,7.38,755.1287295447,34.120736,1.006623,5.7177495268,0.0,0.0,0.0,38.8,9.4,4.0,0,0,1024,1024,1024,1024,0,0,0,0,0,0,0,58,3.69,3.69,0,0,0,0,4.33,80.06,752.1759735447,31.16798,6,P-GPS,,9.5
644200,2026-01-08 12:39:29,,,752.1759735447,37.401576,0.0,5.181102528,12.746719568,19,5,7.38,755.1287295447,34.120736,1.006623,5.7177495268,0.0,0.0,0.0,38.8,9.8,4.1,0,0,1024,1024,1024,1024,0,0,0,0,0,0,0,58,3.683,3.675,0,0,0,0,4.33,80.06,752.1759735447,31.16798,6,P-GPS,,9.5
644300,2026-01-08 12:39:29,,,752.1759735447,37.401576,0.0,5.2115487232,12.7771985716,19,5,7.38,755.1287295447,34.120736,1.006623,5.7177495268,0.0,0.0,0.0,38.8,9.6,4.6,0,0,1024,1024,1024,1024,0,0,0,0,0,0,0,58,3.683,3.675,0,0,0,0,4.33,80.06,752.1759735447,31.16798,6,P-GPS,,9.5
644400,2026-01-08 12:39:29,,,752.5040575447,37.401576,0.0,5.2344489864,12.8016408296,19,5,7.38,755.1287295447,34.120736,1.006623,5.7177495268,0.0,0.0,0.0,38.9,10.0,4.8,0,0,1024,1024,1024,1024,0,0,0,0,0,0,0,58,3.683,3.675,0,0,0,0,4.33,80.06,752.5040575447,31.496064,6,P-GPS,,9.6
644500,2026-01-08 12:39:29,,,752.5040575447,37.401576,0.0,5.265256074,12.8329728516,19,5,7.38,755.1287295447,34.120736,1.006623,5.7177495268,0.0,0.0,0.0,38.9,10.0,4.7,0,0,1024,1024,1024,1024,0,0,0,0,0,0,0,58,3.683,3.675,0,0,0,0,4.33,80.06,752.5040575447,31.496064,6,P-GPS,,9.6
644600,2026-01-08 12:39:29,,,752.5040575447,37.401576,0.0,5.2965552876,12.8657484432,19,5,7.38,755.1287295447,34.120736,1.006623,5.7177495268,0.0,0.0,0.0,38.9,9.3,4.8,0,0,1024,1024,1024,1024,0,0,0,0,0,0,0,58,3.683,3.675,0,0,0,0,4.33,80.06,752.5040575447,31.496064,6,P-GPS,,9.6
644700,2026-01-08 12:39:29,,,752.5040575447,37.401576,0.0,5.3307744488,12.9074479196,19,5,7.38,755.1287295447,34.120736,1.006623,5.7177495268,0.0,0.0,-0.223694,38.9,8.8,5.6,0,0,1024,1024,1024,1024,0,0,0,0,0,0,0,58,3.683,3.675,0,0,0,0,4.33,80.06,752.5040575447,31.496064,6,P-GPS,,9.6
644800,2026-01-08 12:39:29,,,752.8321415447,37.401576,0.0,5.3793308808,12.9732943784,19,5,7.38,755.1287295447,34.120736,1.006623,5.7177495268,0.0,0.0,0.0,39.0,9.1,5.3,0,0,1024,1024,1024,1024,0,0,0,0,0,0,0,58,3.683,3.675,0,0,0,0,4.33,80.06,752.8321415447,31.824148,6,P-GPS,,9.7
644900,2026-01-08 12:39:29,,,752.8321415447,37.401576,0.0,5.3960959732,12.9943901796,19,5,7.38,755.1287295447,34.120736,1.006623,5.7177495268,0.0,0.0,0.0,39.0,9.2,5.5,0,0,1024,1024,1024,1024,0,0,0,0,0,0,0,58,3.683,3.675,0,0,0,0,4.33,80.06,752.8321415447,31.824148,6,P-GPS,,9.7
645000,2026-01-08 12:39:29,,,752.8321415447,37.401576,0.0,5.4097114592,13.01181144,19,5,7.38,755.1287295447,34.120736,1.006623,5.7177495268,0.0,0.0,0.0,39.1,9.3,5.6,0,0,1024,1024,1024,1024,0,0,0,0,0,0,0,58,3.683,3.675,0,0,0,0,4.33,80.06,752.8321415447,31.824148,6,P-GPS,,9.7
645100,2026-01-08 12:39:29,,,752.8321415447,37.401576,0.0,5.4150920368,13.0275922804,19,5,7.38,755.1287295447,34.120736,1.006623,5.7177495268,0.0,0.0,0.0,38.9,9.1,5.0,0,0,1024,1024,1024,1024,0,0,0,0,0,0,0,58,3.683,3.675,0,0,0,0,4.33,80.06,752.8321415447,31.824148,6,P-GPS,,9.7
645200,2026-01-08 12:39:29,,,752.8321415447,37.401576,0.0,5.3717849488,13.073983358,19,5,7.38,755.1287295447,34.120736,1.006623,5.7177495268,0.0,0.0,0.0,38.9,8.6,5.5,0,0,1024,1024,1024,1024,0,0,0,0,0,0,0,58,3.683,3.675,0,0,0,0,4.33,80.06,752.8321415447,31.824148,6,P-GPS,,9.7
645300,2026-01-08 12:39:30,,,752.8321415447,37.401576,0.0,5.3631235312,13.0968180044,19,5,7.366,755.1287295447,34.120736,1.006623,5.7177495268,0.0,0.0,0.0,38.9,8.2,6.0,0,0,1024,1024,1024,1024,0,0,0,0,0,0,0,58,3.681,3.682,0,0,0,0,4.978,80.06,752.8321415447,31.824148,6,P-GPS,,9.7
645400,2026-01-08 12:39:30,,,752.8321415447,37.401576,0.0,5.3560041084,13.1220804724,19,5,7.366,755.1287295447,34.120736,1.006623,5.7177495268,0.0,0.0,0.0,39.1,9.0,6.2,0,0,1024,1024,1024,1024,0,0,0,0,0,0,0,58,3.681,3.682,0,0,0,0,4.978,80.06,752.8321415447,31.824148,6,P-GPS,,9.7
645500,2026-01-08 12:39:30,,,752.8321415447,37.401576,0.0,5.363517232,13.150590972,19,5,7.366,755.1287295447,34.120736,1.006623,5.7177495268,0.0,0.0,0.0,39.2,9.5,6.8,0,0,1024,1024,1024,1024,0,0,0,0,0,0,0,58,3.681,3.682,0,0,0,0,4.978,80.06,752.8321415447,31.824148,6,P-GPS,,9.7
645600,2026-01-08 12:39:30,,,752.8321415447,37.401576,0.0,5.37155529,13.1839899232,19,5,7.366,755.1287295447,34.120736,1.006623,5.7177495268,0.0,0.0,0.0,39.1,8.3,7.1,0,0,1024,1024,1024,1024,0,0,0,0,0,0,0,58,3.681,3.682,0,0,0,0,4.978,80.06,752.8321415447,31.824148,6,P-GPS,,9.7
645700,2026-01-08 12:39:30,,,752.8321415447,37.401576,0.0,5.339239016,13.2260831004,19,5,7.366,755.1287295447,34.120736,1.006623,5.7177495268,0.0,0.0,0.0,38.9,7.4,7.2,0,0,1024,1024,1024,1024,0,0,0,0,0,0,0,58,3.681,3.682,0,0,0,0,4.978,80.06,752.8321415447,31.824148,6,P-GPS,,9.7
645800,2026-01-08 12:39:30,,,752.8321415447,37.401576,0.0,5.3365159188,13.243274702,19,5,7.366,755.1287295447,34.120736,1.006623,5.7177495268,0.0,0.0,0.0,39.0,7.9,7.0,0,0,1024,1024,1024,1024,0,0,0,0,0,0,0,58,3.681,3.682,0,0,0,0,4.978,80.06,752.8321415447,31.824148,6,P-GPS,,9.7
645900,2026-01-08 12:39:30,,,752.5040575447,37.401576,0.0,5.3363518768,13.2485896628,19,5,7.366,755.1287295447,34.120736,1.006623,5.7177495268,0.0,0.0,0.0,39.0,8.7,6.3,0,0,1024,1024,1024,1024,0,0,0,0,0,0,0,58,3.681,3.682,0,0,0,0,4.978,80.06,752.5040575447,31.496064,6,P-GPS,,9.6
646000,2026-01-08 12:39:30,,,752.5040575447,37.401576,0.0,5.3405841604,13.2546264084,19,5,7.366,755.1287295447,34.120736,1.006623,5.7177495268,0.0,0.0,0.0,39.1,9.5,6.2,0,0,1024,1024,1024,1024,0,0,0,0,0,0,0,58,3.681,3.682,0,0,0,0,4.978,80.06,752.5040575447,31.496064,6,P-GPS,,9.6
646100,2026-01-08 12:39:30,,,752.1759735447,37.401576,0.0,5.3642718252,13.2820214224,19,5,7.366,755.1287295447,34.120736,1.006623,5.7177495268,0.0,0.0,0.0,39.2,10.2,6.3,0,0,1024,1024,1024,1024,0,0,0,0,0,0,0,58,3.681,3.682,0,0,0,0,4.978,80.06,752.1759735447,31.16798,6,P-GPS,,9.5
646200,2026-01-08 12:39:30,,,752.1759735447,37.401576,0.0,5.389763952,13.3084321844,19,5,7.366,755.1287295447,34.120736,1.006623,5.7177495268,0.0,0.0,0.0,39.2,11.3,5.9,0,0,1024,1024,1024,1024,0,0,0,0,0,0,0,58,3.681,3.682,0,0,0,0,4.978,80.06,752.1759735447,31.16798,6,P-GPS,,9.5
646300,2026-01-08 12:39:31,,,751.8478895447,37.401576,0.0,5.3914371804,13.3276250984,19,5,7.366,755.1287295447,34.120736,1.006623,5.7177495268,0.0,0.0,0.0,39.1,11.2,5.9,0,0,1024,1024,1024,1024,0,0,0,0,0,0,0,58,3.681,3.682,0,0,0,0,4.978,80.06,751.8478895447,30.839896,6,P-GPS,,9.4
646400,2026-01-08 12:39:31,,,751.8478895447,37.401576,0.0,5.3843833744,13.3470476712,19,5,7.366,755.1287295447,34.120736,1.006623,5.7177495268,0.0,0.0,0.0,39.1,10.6,5.9,0,0,1024,1024,1024,1024,0,0,0,0,0,0,0,58,3.681,3.682,0,0,0,0,4.978,80.06,751.8478895447,30.839896,6,P-GPS,,9.4
646500,2026-01-08 12:39:31,,,751.8478895447,37.401576,0.0,5.4258860004,13.4044623712,19,5,7.377,755.1287295447,34.120736,1.006623,5.7177495268,0.0,0.0,0.0,39.1,11.0,6.0,0,0,1024,1024,1024,1024,0,0,0,0,0,0,0,58,3.694,3.682,0,0,0,0,4.402,80.06,751.8478895447,30.839896,6,P-GPS,,9.4
646600,2026-01-08 12:39:31,,,751.5198055447,37.401576,0.0,5.4541996496,13.4351054168,19,5,7.377,755.1287295447,34.120736,1.006623,5.7177495268,0.0,0.0,0.0,39.2,10.9,6.1,0,0,1024,1024,1024,1024,0,0,0,0,0,0,0,58,3.694,3.682,0,0,0,0,4.402,80.06,751.5198055447,30.511812,6,P-GPS,,9.3
646700,2026-01-08 12:39:31,,,751.5198055447,37.401576,0.0,5.4562993872,13.4485568608,19,5,7.377,755.1287295447,34.120736,1.006623,5.7177495268,0.0,0.0,0.0,39.1,10.3,6.0,0,0,1024,1024,1024,1024,0,0,0,0,0,0,0,58,3.694,3.682,0,0,0,0,4.402,80.06,751.5198055447,30.511812,6,P-GPS,,9.3
646800,2026-01-08 12:39:31,,,751.5198055447,37.401576,0.0,5.4521327204,13.4724741844,19,5,7.377,755.1287295447,34.120736,1.006623,5.7177495268,0.0,0.0,0.0,39.2,11.4,4.6,0,0,1024,1024,1024,1024,0,0,0,0,0,0,0,58,3.694,3.682,0,0,0,0,4.402,80.06,751.5198055447,30.511812,6,P-GPS,,9.3
646900,2026-01-08 12:39:31,,,751.5198055447,37.401576,0.0,5.434547418,13.4977366524,19,5,7.377,755.1287295447,34.120736,1.006623,5.7177495268,0.0,0.0,0.0,38.9,11.4,4.3,0,0,1024,1024,1024,1024,0,0,0,0,0,0,0,58,3.694,3.682,0,0,0,0,4.402,80.06,751.5198055447,30.511812,6,P-GPS,,9.3
