time(millisecond),timestamp,height_above_ground_at_drone_location(feet),ground_elevation_at_drone_location(feet),altitude_above_seaLevel(feet),height_sonar(feet),speed(mph),distance(feet),mileage(feet),satellites,gpslevel,voltage(v),max_altitude(feet),max_ascent(feet),max_speed(mph),max_distance(feet), xSpeed(mph), ySpeed(mph), zSpeed(mph), compass_heading(degrees), pitch(degrees), roll(degrees),isPhoto,isVideo,rc_elevator,rc_aileron,rc_throttle,rc_rudder,rc_elevator(percent),rc_aileron(percent),rc_throttle(percent),rc_rudder(percent),gimbal_heading(degrees),gimbal_pitch(degrees),gimbal_roll(degrees),battery_percent,voltageCell1,voltageCell2,voltageCell3,voltageCell4,voltageCell5,voltageCell6,current(A),battery_temperature(f),altitude(feet),ascent(feet),flycStateRaw,flycState,message,height_above_takeoff(meters)
161800,2026-01-08 12:30:36,Available with any HD 360 subscription,Available with any HD 360 subscription,720.98977110317,0.656168,0.0,0.0,0.0,17,5,0.0,720.98977110317,0.0,0.0,0.0,0.0,0.0,0.0,8.2,2.9,0.4,0,0,1024,1024,1024,1024,0,0,0,0,0,0,0,88,4.01,4.004,0,0,0,0,0.0,69.08,720.98977110317,0.0,41,Motors_Started,SD card speed low SD card speed low. Normal use may be affected. Replace SD card (Code: 10028). Gimbal stuck. Make sure gimbal cover is removed and manually check whether gimbal can rotate freely (Code: 40002),0.0
161900,2026-01-08 12:30:36,,,720.98977110317,0.656168,0.0,0.0131885174824,0.0131885174824,17,5,0.0,720.98977110317,0.0,0.0,0.0131885174824,0.0,0.0,0.0,8.2,2.9,0.4,0,0,1024,1024,1024,1024,0,0,0,0,0,0,0,88,4.01,4.004,0,0,0,0,0.0,69.08,720.98977110317,0.0,41,Motors_Started,,0.0
162000,2026-01-08 12:30:36,,,720.98977110317,0.328084,0.0,0.0258253945272,0.025826116312,17,5,0.0,720.98977110317,0.0,0.0,0.0258253945272,0.0,0.0,0.0,8.2,2.9,0.4,0,0,1024,1024,1024,1024,0,0,0,0,0,0,0,88,4.01,4.004,0,0,0,0,0.0,69.08,720.98977110317,0.0,41,Motors_Started,,0.0
162100,2026-01-08 12:30:36,,,720.98977110317,0.328084,0.0,0.035338583808,0.037746392284,17,5,0.0,720.98977110317,0.0,0.0,0.035338583808,0.0,0.0,0.0,8.2,2.9,0.4,0,0,1024,1024,1024,1024,0,0,0,0,0,0,0,88,4.01,4.004,0,0,0,0,0.0,69.08,720.98977110317,0.0,41,Motors_Started,,0.0
162200,2026-01-08 12:30:36,,,720.98977110317,0.328084,0.0,0.038294292564,0.04099081496,17,5,0.0,720.98977110317,0.0,0.0,0.038294292564,0.0,0.0,0.0,8.2,2.8,0.4,0,0,1024,1024,1024,1024,0,0,0,0,0,0,0,88,4.01,4.004,0,0,0,0,0.0,69.08,720.98977110317,0.0,41,Motors_Started,,0.0
162300,2026-01-08 12:30:37,,,720.98977110317,0.328084,0.0,0.037537402776,0.041979332052,17,5,0.0,720.98977110317,0.0,0.0,0.038294292564,0.0,0.0,0.0,8.2,2.8,0.4,0,0,1024,1024,1024,1024,0,0,0,0,0,0,0,88,4.01,4.004,0,0,0,0,0.0,69.08,720.98977110317,0.0,41,Motors_Started,,0.0
162400,2026-01-08 12:30:37,,,720.98977110317,0.328084,0.0,0.037273295156,0.042486221832,17,5,8.012,720.98977110317,0.0,0.0,0.038294292564,0.0,0.0,0.0,8.5,2.9,0.6,0,0,1024,1024,1024,1024,0,0,0,0,0,0,0,88,4.01,4.004,0,0,0,0,0.798,69.08,720.98977110317,0.0,41,Motors_Started,,0.0
162500,2026-01-08 12:30:37,,,720.98977110317,0.328084,0.0,0.0184583995408,0.063081038764,17,5,8.012,720.98977110317,0.0,0.0,0.038294292564,0.0,0.0,0.0,8.7,2.8,0.4,0,0,1024,1024,1024,1024,0,0,0,0,0,0,0,88,4.01,4.004,0,0,0,0,0.798,69.08,720.98977110317,0.0,41,Motors_Started,Setting new Return-To-Home altitude to 90m (295 ft). Data Recorder File Index is 30. Setting new Maximum Flight Altitude to 90m (295 ft),0.0
162600,2026-01-08 12:30:37,,,720.98977110317,0.328084,0.0,0.93293638156,0.065233925972,17,5,8.012,720.98977110317,0.0,0.0,0.93293638156,0.0,0.0,0.0,8.7,2.9,0.4,0,0,1024,1024,1024,1024,0,0,0,0,0,0,0,88,4.01,4.004,0,0,0,0,0.798,69.08,720.98977110317,0.0,41,Motors_Started,SD card speed low. Normal use may be affected. Replace SD card (Code: 10028),0.0
162700,2026-01-08 12:30:37,,,720.98977110317,0.328084,0.0,0.9500328388,0.084734910848,17,5,8.012,720.98977110317,0.0,0.0,0.9500328388,0.0,0.0,0.0,8.7,2.8,0.4,0,0,1024,1024,1024,1024,0,0,0,0,0,0,0,88,4.01,4.004,0,0,0,0,0.798,69.08,720.98977110317,0.0,41,Motors_Started,,0.0
162800,2026-01-08 12:30:37,,,720.98977110317,0.328084,0.0,0.96626971596,0.103174543984,17,5,8.012,720.98977110317,0.0,0.0,0.96626971596,0.0,0.0,0.0,8.6,2.9,0.4,0,0,1024,1024,1024,1024,0,0,0,0,0,0,0,88,4.01,4.004,0,0,0,0,0.798,69.08,720.98977110317,0.0,41,Motors_Started,,0.0
162900,2026-01-08 12:30:37,,,720.98977110317,0.328084,0.0,0.99456039928,0.138306762956,17,5,8.012,720.98977110317,0.0,0.0,0.99456039928,0.0,0.0,0.0,8.6,2.8,0.4,0,0,1024,1024,1024,1024,0,0,0,0,0,0,0,88,4.01,4.004,0,0,0,0,0.798,69.08,720.98977110317,0.0,11,AutoTakeoff,,0.0
163000,2026-01-08 12:30:37,,,720.98977110317,0.328084,0.0,0.99882877212,0.143304138444,17,5,8.012,720.98977110317,0.0,0.0,0.99882877212,0.0,0.0,0.0,8.6,2.8,0.5,0,0,1024,1024,1024,1024,0,0,0,0,0,0,0,88,4.01,4.004,0,0,0,0,0.798,69.08,720.98977110317,0.0,11,AutoTakeoff,,0.0
163100,2026-01-08 12:30:37,,,720.98977110317,0.328084,0.0,0.99713913952,0.1449967238,17,5,8.012,720.98977110317,0.0,0.0,0.99882877212,0.0,0.0,0.0,8.7,2.8,0.4,0,0,1024,1024,1024,1024,0,0,0,0,0,0,0,88,4.01,4.004,0,0,0,0,0.798,69.08,720.98977110317,0.0,11,AutoTakeoff,,0.0
163200,2026-01-08 12:30:38,,,720.98977110317,0.328084,0.0,0.99517063552,0.14697014906,17,5,8.012,720.98977110317,0.0,0.0,0.99882877212,0.0,0.0,0.0,8.6,2.8,0.4,0,0,1024,1024,1024,1024,0,0,0,0,0,0,0,88,4.01,4.004,0,0,0,0,0.798,69.08,720.98977110317,0.0,11,AutoTakeoff,,0.0
163300,2026-01-08 12:30:38,,,720.98977110317,0.328084,0.0,0.99193900812,0.150453744972,17,5,8.012,720.98977110317,0.0,0.0,0.99882877212,0.0,0.0,0.0,8.7,2.8,0.4,0,0,1024,1024,1024,1024,0,0,0,0,0,0,0,88,4.01,4.004,0,0,0,0,0.798,69.08,720.98977110317,0.0,11,AutoTakeoff,,0.0
163400,2026-01-08 12:30:38,,,720.98977110317,0.328084,0.0,0.97434714404,0.169538063168,17,5,8.012,720.98977110317,0.0,0.0,0.99882877212,0.0,0.0,0.0,9.1,2.8,0.4,0,0,1024,1024,1024,1024,0,0,0,0,0,0,0,88,4.01,4.004,0,0,0,0,0.798,69.08,720.98977110317,0.0,11,AutoTakeoff,,0.0
163500,2026-01-08 12:30:38,,,720.98977110317,0.328084,0.0,0.99107942804,0.186510504656,17,5,7.917,720.98977110317,0.0,0.0,0.99882877212,0.0,0.0,0.0,10.3,2.9,0.4,0,0,1024,1024,1024,1024,0,0,0,0,0,0,0,88,3.961,3.956,0,0,0,0,2.357,69.26,720.98977110317,0.0,11,AutoTakeoff,,0.0
163600,2026-01-08 12:30:38,,,720.98977110317,0.328084,0.0,1.01009189584,0.205560374032,16,5,7.917,720.98977110317,0.0,0.0,1.01009189584,0.0,0.0,0.0,11.3,1.6,-0.2,0,0,1024,1024,1024,1024,0,0,0,0,0,0,0,88,3.961,3.956,0,0,0,0,2.357,69.26,720.98977110317,0.0,11,AutoTakeoff,,0.0
163700,2026-01-08 12:30:38,,,720.98977110317,0.328084,0.0,1.01721788032,0.215114508196,16,5,7.917,720.98977110317,0.0,0.0,1.01721788032,0.0,0.0,-0.223694,11.9,0.2,-1.8,0,0,1024,1024,1024,1024,0,0,0,0,0,0,0,88,3.961,3.956,0,0,0,0,2.357,69.26,720.98977110317,0.0,11,AutoTakeoff,,0.0
163800,2026-01-08 12:30:38,,,720.98977110317,0.328084,0.0,1.03399937692,0.2340715298,16,5,7.917,720.98977110317,0.0,0.0,1.03399937692,0.0,0.0,-0.447388,12.0,0.6,-0.8,0,0,1024,1024,1024,1024,0,0,0,0,0,0,0,88,3.961,3.956,0,0,0,0,2.357,69.26,720.98977110317,0.0,11,AutoTakeoff,,0.0
163900,2026-01-08 12:30:38,,,720.98977110317,0.328084,0.0,1.01830055752,0.256073499008,16,5,7.917,720.98977110317,0.0,0.0,1.03399937692,0.0,0.0,-0.894776,12.1,1.2,0.8,0,0,1024,1024,1024,1024,0,0,0,0,0,0,0,88,3.961,3.956,0,0,0,0,2.357,69.26,720.98977110317,0.0,11,AutoTakeoff,,0.0
164000,2026-01-08 12:30:38,,,720.98977110317,0.656168,0.0,0.99914373276,0.286413394992,16,5,7.917,720.98977110317,0.0,0.0,1.03399937692,0.0,0.0,-1.11847,12.2,1.6,0.4,0,0,1024,1024,1024,1024,0,0,0,0,0,0,0,88,3.961,3.956,0,0,0,0,2.357,69.26,720.98977110317,0.0,11,AutoTakeoff,,0.0
164100,2026-01-08 12:30:38,,,721.31785510317,0.656168,0.223694,0.96660436164,0.327548238828,16,5,7.917,721.31785510317,0.328084,0.223694,1.03399937692,0.223694,0.0,-1.565858,12.3,2.1,0.3,0,0,1024,1024,1024,1024,0,0,0,0,0,0,0,88,3.961,3.956,0,0,0,0,2.357,69.26,721.31785510317,0.328084,11,AutoTakeoff,,0.1
164200,2026-01-08 12:30:38,,,721.31785510317,0.984252,0.223694,0.91818244408,0.39994423852,17,5,7.917,721.31785510317,0.328084,0.223694,1.03399937692,0.223694,0.0,-1.789552,12.3,2.2,-0.7,0,0,1024,1024,1024,1024,0,0,0,0,0,0,0,88,3.961,3.956,0,0,0,0,2.357,69.26,721.31785510317,0.328084,11,AutoTakeoff,,0.1
164300,2026-01-08 12:30:39,,,721.64593910317,1.312336,0.447388,0.88894687884,0.443323505,17,5,7.917,721.64593910317,0.656168,0.447388,1.03399937692,0.447388,0.0,-2.013246,12.1,3.0,-0.9,0,0,1024,1024,1024,1024,0,0,0,0,0,0,0,88,3.961,3.956,0,0,0,0,2.357,69.26,721.64593910317,0.656168,11,AutoTakeoff,,0.2
164400,2026-01-08 12:30:39,,,721.97402310317,1.64042,0.447388,0.84678152316,0.50196852,18,5,7.917,721.97402310317,0.984252,0.447388,1.03399937692,0.447388,0.0,-2.23694,11.9,4.9,-0.3,0,0,1024,1024,1024,1024,0,0,0,0,0,0,0,88,3.961,3.956,0,0,0,0,2.357,69.26,721.97402310317,0.984252,11,AutoTakeoff,,0.3
164500,2026-01-08 12:30:39,,,722.30210710317,1.64042,0.447388,0.78504595688,0.60799870712,18,5,7.917,722.30210710317,1.312336,0.447388,1.03399937692,0.447388,0.0,-2.23694,12.0,6.4,0.1,0,0,1024,1024,1024,1024,0,0,0,0,0,0,0,88,3.961,3.956,0,0,0,0,2.357,69.26,722.30210710317,1.312336,11,AutoTakeoff,,0.4
164600,2026-01-08 12:30:39,,,722.63019110317,1.968504,0.447388,0.74211616548,0.71395671576,18,5,7.747,722.63019110317,1.64042,0.447388,1.03399937692,0.447388,0.0,-2.23694,12.0,7.7,-0.3,0,0,1024,1024,1032,1024,0,0,1,0,0,0,0,88,3.876,3.882,0,0,0,0,5.712,69.26,722.63019110317,1.64042,11,AutoTakeoff,Home Point updated. RTH altitude adjusted to 90 m (Code: 120852),0.5
164700,2026-01-08 12:30:39,,,722.95827510317,2.296588,0.4921268,0.71687666336,0.84930120828,18,5,7.747,722.95827510317,1.968504,0.4921268,1.03399937692,0.447388,0.223694,-2.23694,12.0,8.1,-0.9,0,0,1024,1024,1194,1024,0,0,26,0,0,0,0,88,3.876,3.882,0,0,0,0,5.712,69.26,722.95827510317,1.968504,11,AutoTakeoff,,0.6
164800,2026-01-08 12:30:39,,,723.28635910317,2.624672,0.447388,0.7186023852,0.97160108096,18,5,7.747,723.28635910317,2.296588,0.4921268,1.03399937692,0.447388,0.0,-2.23694,11.9,7.8,-1.5,0,0,1024,1024,1194,1024,0,0,26,0,0,0,0,88,3.876,3.882,0,0,0,0,5.712,69.26,723.28635910317,2.296588,11,AutoTakeoff,,0.7
164900,2026-01-08 12:30:39,,,723.61444310317,2.952756,0.447388,0.69404857864,1.06045278984,18,5,7.747,723.61444310317,2.624672,0.4921268,1.03399937692,0.447388,0.0,-2.23694,11.9,8.5,-1.1,0,0,1024,1024,1609,1024,0,0,89,0,0,0,0,88,3.876,3.882,0,0,0,0,5.712,69.26,723.61444310317,2.624672,6,P-GPS,,0.8
165000,2026-01-08 12:30:39,,,723.94252710317,3.28084,0.447388,0.6725393916,1.14268704444,18,5,7.747,723.94252710317,2.952756,0.4921268,1.03399937692,0.447388,0.0,-1.789552,11.8,8.8,-1.0,0,0,1024,1024,1684,1024,0,0,100,0,0,0,0,88,3.876,3.882,0,0,0,0,5.712,69.26,723.94252710317,2.952756,6,P-GPS,,0.9
165100,2026-01-08 12:30:39,,,724.27061110317,3.608924,0.447388,0.76400264912,1.30663061924,18,5,7.747,724.27061110317,3.28084,0.4921268,1.03399937692,0.447388,0.0,-1.789552,11.7,9.6,-0.9,0,0,1024,1024,1684,1024,0,0,100,0,0,0,0,88,3.876,3.882,0,0,0,0,5.712,69.26,724.27061110317,3.28084,6,P-GPS,,1.0
165200,2026-01-08 12:30:40,,,724.59869510317,3.937008,0.447388,0.78507548444,1.36829728788,18,5,7.747,724.59869510317,3.608924,0.4921268,1.03399937692,0.447388,0.0,-2.013246,11.9,9.6,0.6,0,0,1024,1024,1684,1024,0,0,100,0,0,0,0,88,3.876,3.882,0,0,0,0,5.712,69.26,724.59869510317,3.608924,6,P-GPS,,1.1
165300,2026-01-08 12:30:40,,,724.92677910317,4.593176,0.447388,0.73632220204,1.42933731608,18,5,7.747,724.92677910317,3.937008,0.4921268,1.03399937692,0.223694,-0.223694,-2.460634,12.0,10.1,2.2,0,0,1024,1024,1684,1024,0,0,100,0,0,0,0,88,3.876,3.882,0,0,0,0,5.712,69.26,724.92677910317,3.937008,6,P-GPS,,1.2
165400,2026-01-08 12:30:40,,,725.25486310317,5.249344,0.0,0.68876642624,1.48030188464,18,5,7.747,725.25486310317,4.265092,0.4921268,1.03399937692,0.0,0.0,-2.908022,12.2,10.0,1.6,0,0,1024,1024,1684,1024,0,0,100,0,0,0,0,88,3.876,3.882,0,0,0,0,5.712,69.26,725.25486310317,4.265092,6,P-GPS,,1.3
165500,2026-01-08 12:30:40,,,725.91103110317,5.577428,0.0,0.64645015192,1.5230807574,18,5,7.747,725.91103110317,4.92126,0.4921268,1.03399937692,0.0,0.0,-3.35541,12.3,9.2,1.0,0,0,1024,1024,1684,1024,0,0,100,0,0,0,0,88,3.876,3.882,0,0,0,0,5.712,69.26,725.91103110317,4.92126,6,P-GPS,,1.5
165600,2026-01-08 12:30:40,,,726.56719910317,6.233596,0.0,0.6407316478,1.52919296232,18,5,7.747,726.56719910317,5.577428,0.4921268,1.03399937692,0.0,0.0,-3.802798,12.3,7.8,0.8,0,0,1024,1024,1684,1024,0,0,100,0,0,0,0,88,3.876,3.882,0,0,0,0,5.712,69.26,726.56719910317,5.577428,6,P-GPS,,1.7
165700,2026-01-08 12:30:40,,,726.89528310317,6.889764,0.0,0.58438978248,1.61393705952,18,5,7.677,726.89528310317,5.905512,0.4921268,1.03399937692,0.0,0.0,-4.250186,12.3,7.2,0.5,0,0,1024,1024,1684,1024,0,0,100,0,0,0,0,88,3.842,3.836,0,0,0,0,6.156,69.26,726.89528310317,5.905512,6,P-GPS,,1.8
165800,2026-01-08 12:30:40,,,727.55145110317,7.545932,0.0,0.53857941356,1.70031501504,17,5,7.677,727.55145110317,6.56168,0.4921268,1.03399937692,0.0,0.0,-4.47388,12.2,6.8,0.0,0,0,1024,1024,1684,1024,0,0,100,0,0,0,0,88,3.842,3.836,0,0,0,0,6.156,69.26,727.55145110317,6.56168,6,P-GPS,,2.0
165900,2026-01-08 12:30:40,,,728.20761910317,7.874016,0.0,0.5679298082,1.8747704012,17,5,7.677,728.20761910317,7.217848,0.4921268,1.03399937692,0.0,0.0,-4.47388,12.1,6.1,-0.3,0,0,1024,1024,1684,1024,0,0,100,0,0,0,0,88,3.842,3.836,0,0,0,0,6.156,69.26,728.20761910317,7.217848,6,P-GPS,,2.2
166000,2026-01-08 12:30:40,,,728.86378710317,8.530184,0.0,0.59994096408,1.94054468152,18,5,7.677,728.86378710317,7.874016,0.4921268,1.03399937692,0.0,0.0,-4.47388,12.0,6.6,-0.6,0,0,1024,1024,1684,1024,0,0,100,0,0,0,0,88,3.842,3.836,0,0,0,0,6.156,69.26,728.86378710317,7.874016,6,P-GPS,,2.4
166100,2026-01-08 12:30:40,,,729.51995510317,9.186352,0.0,0.6397966084,1.98419953856,18,5,7.677,729.51995510317,8.530184,0.4921268,1.03399937692,0.0,0.0,-4.47388,11.9,6.5,-0.1,0,0,1024,1024,1684,1024,0,0,100,0,0,0,0,88,3.842,3.836,0,0,0,0,6.156,69.26,729.51995510317,8.530184,6,P-GPS,,2.6
166200,2026-01-08 12:30:41,,,730.17612310317,9.84252,0.0,0.67539044156,2.02278221696,17,5,7.677,730.17612310317,9.186352,0.4921268,1.03399937692,0.0,0.0,-4.47388,11.9,6.7,0.2,0,0,1024,1024,1684,1024,0,0,100,0,0,0,0,88,3.842,3.836,0,0,0,0,6.156,69.26,730.17612310317,9.186352,6,P-GPS,,2.8
166300,2026-01-08 12:30:41,,,730.83229110317,10.170604,0.0,0.68417653108,2.04346791316,17,5,7.677,730.83229110317,9.84252,0.4921268,1.03399937692,0.0,0.0,-4.47388,11.9,6.7,0.2,0,0,1024,1024,1684,1024,0,0,100,0,0,0,0,88,3.842,3.836,0,0,0,0,6.156,69.26,730.83229110317,9.84252,6,P-GPS,,3.0
166400,2026-01-08 12:30:41,,,731.48845910317,10.826772,0.0,0.67738847312,2.08077106396,17,5,7.677,731.48845910317,10.498688,0.4921268,1.03399937692,0.0,0.0,-4.250186,12.0,7.0,0.2,0,0,1024,1024,1684,1024,0,0,100,0,0,0,0,88,3.842,3.836,0,0,0,0,6.156,69.26,731.48845910317,10.498688,6,P-GPS,,3.2
166500,2026-01-08 12:30:41,,,731.81654310317,11.48294,0.0,0.64287403632,2.12363523856,17,5,7.677,731.81654310317,10.826772,0.4921268,1.03399937692,0.0,0.0,-4.250186,12.1,7.4,0.1,0,0,1024,1024,1684,1024,0,0,100,0,0,0,0,88,3.842,3.836,0,0,0,0,6.156,69.26,731.81654310317,10.826772,6,P-GPS,,3.3
166600,2026-01-08 12:30:41,,,732.47271110317,12.139108,0.0,0.60490815584,2.16883537124,17,5,7.677,732.47271110317,11.48294,0.4921268,1.03399937692,0.0,0.0,-4.026492,12.1,7.1,-0.1,0,0,1024,1024,1684,1024,0,0,100,0,0,0,0,88,3.842,3.836,0,0,0,0,6.156,69.26,732.47271110317,11.48294,6,P-GPS,,3.5
166700,2026-01-08 12:30:41,,,733.12887910317,12.467192,0.0,0.61291668628,2.21219495268,17,5,7.677,733.12887910317,12.139108,0.4921268,1.03399937692,0.0,0.0,-4.250186,12.3,6.2,0.2,0,0,1024,1024,1684,1024,0,0,100,0,0,0,0,88,3.842,3.836,0,0,0,0,6.156,69.26,733.12887910317,12.139108,6,P-GPS,,3.7
166800,2026-01-08 12:30:41,,,733.78504710317,13.12336,0.0,0.57966865372,2.2620407548,17,5,7.701,733.78504710317,12.795276,0.4921268,1.03399937692,0.0,0.0,-4.250186,12.2,7.3,1.3,0,0,1024,1024,1684,1024,0,0,100,0,0,0,0,88,3.853,3.848,0,0,0,0,6.132,69.26,733.78504710317,12.795276,6,P-GPS,,3.9
166900,2026-01-08 12:30:41,,,734.44121510317,13.779528,0.0,0.60022311632,2.2825952174,17,5,7.701,734.44121510317,13.451444,0.4921268,1.03399937692,0.0,0.0,-4.250186,12.1,9.5,1.6,0,0,1024,1024,1684,1024,0,0,100,0,0,0,0,88,3.853,3.848,0,0,0,0,6.132,69.26,734.44121510317,13.451444,6,P-GPS,,4.1
167000,2026-01-08 12:30:41,,,735.09738310317,14.435696,0.0,0.6214567128,2.303887869,17,5,7.701,735.09738310317,14.107612,0.4921268,1.03399937692,0.0,0.0,-4.026492,12.1,9.4,2.0,0,0,1024,1024,1684,1024,0,0,100,0,0,0,0,88,3.853,3.848,0,0,0,0,6.132,69.26,735.09738310317,14.107612,6,P-GPS,,4.3
167100,2026-01-08 12:30:41,,,735.75355110317,15.419948,0.0,0.6074639302,2.319635901,17,5,7.701,735.75355110317,14.76378,0.4921268,1.03399937692,0.0,0.0,-4.250186,12.1,9.2,2.7,0,0,1024,1024,1684,1024,0,0,100,0,0,0,0,88,3.853,3.848,0,0,0,0,6.132,69.26,735.75355110317,14.76378,6,P-GPS,,4.5
167200,2026-01-08 12:30:41,,,736.40971910317,16.076116,0.0,0.62583991504,2.34359915636,17,5,7.701,736.40971910317,15.419948,0.4921268,1.03399937692,0.0,0.0,-4.250186,12.1,8.9,2.5,0,0,1024,1024,1684,1024,0,0,100,0,0,0,0,88,3.853,3.848,0,0,0,0,6.132,69.26,736.40971910317,15.419948,6,P-GPS,,4.7
167300,2026-01-08 12:30:42,,,737.06588710317,16.732284,0.0,0.6233103874,2.3770013884,17,5,7.701,737.06588710317,16.076116,0.4921268,1.03399937692,0.0,0.0,-4.250186,12.0,8.9,1.9,0,0,1024,1024,1684,1024,0,0,100,0,0,0,0,88,3.853,3.848,0,0,0,0,6.132,69.26,737.06588710317,16.076116,6,P-GPS,,4.9
167400,2026-01-08 12:30:42,,,738.05013910317,17.388452,0.0,0.62310697532,2.40486228168,17,5,7.701,738.05013910317,17.060368,0.4921268,1.03399937692,0.0,0.0,-4.250186,12.0,9.4,1.8,0,0,1024,1024,1684,1024,0,0,100,0,0,0,0,88,3.853,3.848,0,0,0,0,6.132,69.26,738.05013910317,17.060368,6,P-GPS,,5.2
167500,2026-01-08 12:30:42,,,738.70630710317,18.372704,0.0,0.619914718,2.41367461792,17,5,7.701,738.70630710317,17.716536,0.4921268,1.03399937692,0.0,0.0,-4.250186,12.1,9.9,1.8,0,0,1024,1024,1684,1024,0,0,100,0,0,0,0,88,3.853,3.848,0,0,0,0,6.132,69.26,738.70630710317,17.716536,6,P-GPS,,5.4
167600,2026-01-08 12:30:42,,,739.36247510317,19.028872,0.0,0.59058072756,2.44305125928,17,5,7.701,739.36247510317,18.372704,0.4921268,1.03399937692,0.0,0.0,-4.250186,12.0,9.2,1.0,0,0,1024,1024,1684,1024,0,0,100,0,0,0,0,88,3.853,3.848,0,0,0,0,6.132,69.26,739.36247510317,18.372704,6,P-GPS,,5.6
167700,2026-01-08 12:30:42,,,740.01864310317,19.68504,0.0,0.6211778414,2.47636490864,17,5,7.701,740.01864310317,19.028872,0.4921268,1.03399937692,0.0,0.0,-4.250186,12.1,8.3,0.9,0,0,1024,1024,1684,1024,0,0,100,0,0,0,0,88,3.853,3.848,0,0,0,0,6.132,69.26,740.01864310317,19.028872,6,P-GPS,,5.8
167800,2026-01-08 12:30:42,,,740.67481110317,20.669292,0.0,0.64682088684,2.50556438464,17,5,7.701,740.67481110317,19.68504,0.4921268,1.03399937692,0.0,0.0,-4.47388,12.0,8.1,1.4,0,0,1024,1024,1684,1024,0,0,100,0,0,0,0,88,3.853,3.848,0,0,0,0,6.132,69.26,740.67481110317,19.68504,6,P-GPS,,6.0
167900,2026-01-08 12:30:42,,,741.33097910317,21.32546,0.0,0.67309057272,2.54193905772,17,5,7.631,741.33097910317,20.341208,0.4921268,1.03399937692,0.0,0.0,-4.47388,12.1,8.1,2.1,0,0,1024,1024,1684,1024,0,0,100,0,0,0,0,88,3.825,3.823,0,0,0,0,7.279,69.26,741.33097910317,20.341208,6,P-GPS,,6.2
168000,2026-01-08 12:30:42,,,741.98714710317,22.309712,0.0,0.72482613868,2.6056923406,17,5,7.631,741.98714710317,20.997376,0.4921268,1.03399937692,0.0,0.0,-4.47388,11.9,7.9,2.3,0,0,1024,1024,1684,1024,0,0,100,0,0,0,0,88,3.825,3.823,0,0,0,0,7.279,69.26,741.98714710317,20.997376,6,P-GPS,,6.4
168100,2026-01-08 12:30:42,,,742.64331510317,22.96588,0.0,0.75850396128,2.64767396924,17,5,7.631,742.64331510317,21.653544,0.4921268,1.03399937692,0.0,0.0,-4.47388,11.9,7.3,2.4,0,0,1024,1024,1684,1024,0,0,100,0,0,0,0,88,3.825,3.823,0,0,0,0,7.279,69.26,742.64331510317,21.653544,6,P-GPS,,6.6
168200,2026-01-08 12:30:43,,,743.29948310317,23.950132,0.0,0.79041669196,2.68589575524,17,5,7.631,743.29948310317,22.309712,0.4921268,1.03399937692,0.0,0.0,-4.47388,11.9,6.6,2.5,0,0,1024,1024,1684,1024,0,0,100,0,0,0,0,88,3.825,3.823,0,0,0,0,7.279,69.26,743.29948310317,22.309712,6,P-GPS,,6.8
168300,2026-01-08 12:30:43,,,743.95565110317,24.6063,0.0,0.81551511796,2.72274943096,17,5,7.631,743.95565110317,22.96588,0.4921268,1.03399937692,0.0,0.0,-4.47388,12.0,7.6,2.7,0,0,1024,1024,1684,1024,0,0,100,0,0,0,0,88,3.825,3.823,0,0,0,0,7.279,69.26,743.95565110317,22.96588,6,P-GPS,,7.0
168400,2026-01-08 12:30:43,,,744.61181910317,25.590552,0.0,0.83337273008,2.74927174152,17,5,7.631,744.61181910317,23.622048,0.4921268,1.03399937692,0.0,0.0,-4.47388,12.0,8.6,2.7,0,0,1024,1024,1684,1024,0,0,100,0,0,0,0,88,3.825,3.823,0,0,0,0,7.279,69.26,744.61181910317,23.622048,6,P-GPS,,7.2
168500,2026-01-08 12:30:43,,,745.26798710317,26.24672,0.0,0.76062666476,2.83935704624,17,5,7.631,745.26798710317,24.278216,0.4921268,1.03399937692,0.0,0.0,-4.47388,11.9,9.2,3.1,0,0,1024,1024,1684,1024,0,0,100,0,0,0,0,88,3.825,3.823,0,0,0,0,7.279,69.26,745.26798710317,24.278216,6,P-GPS,,7.4
168600,2026-01-08 12:30:43,,,746.25223910317,27.230972,0.0,0.73244096832,2.87571531512,17,5,7.631,746.25223910317,25.262468,0.4921268,1.03399937692,0.0,0.0,-4.250186,12.0,9.1,3.3,0,0,1024,1024,1684,1024,0,0,100,0,0,0,0,88,3.825,3.823,0,0,0,0,7.279,69.26,746.25223910317,25.262468,6,P-GPS,,7.7
168700,2026-01-08 12:30:43,,,746.90840710317,27.88714,0.0,0.68265094048,2.92784130104,17,5,7.631,746.90840710317,25.918636,0.4921268,1.03399937692,0.0,0.0,-4.250186,12.1,9.5,3.4,0,0,1024,1024,1684,1024,0,0,100,0,0,0,0,88,3.825,3.823,0,0,0,0,7.279,69.26,746.90840710317,25.918636,6,P-GPS,,7.9
168800,2026-01-08 12:30:43,,,747.23649110317,28.543308,0.0,0.63366799928,2.97850403232,18,5,7.631,747.23649110317,26.24672,0.4921268,1.03399937692,0.0,0.0,-4.47388,12.1,9.9,3.3,0,0,1024,1024,1684,1024,0,0,100,0,0,0,0,88,3.825,3.823,0,0,0,0,7.279,69.26,747.23649110317,26.24672,6,P-GPS,,8.0
168900,2026-01-08 12:30:43,,,747.89265910317,29.52756,0.0,0.53729660512,3.08440626668,18,5,7.631,747.89265910317,26.902888,0.4921268,1.03399937692,0.0,0.0,-4.47388,12.0,10.2,3.0,0,0,1024,1024,1684,1024,0,0,100,0,0,0,0,88,3.825,3.823,0,0,0,0,7.279,69.26,747.89265910317,26.902888,6,P-GPS,,8.2
169000,2026-01-08 12:30:43,,,748.54882710317,30.183728,0.0,0.51623033148,3.10826453516,18,5,7.665,748.54882710317,27.559056,0.4921268,1.03399937692,0.0,0.0,-4.47388,12.1,10.5,3.1,0,0,1024,1024,1684,1024,0,0,100,0,0,0,0,88,3.836,3.828,0,0,0,0,6.761,69.26,748.54882710317,27.559056,6,P-GPS,,8.4
169100,2026-01-08 12:30:43,,,749.20499510317,30.839896,0.0,0.52943899332,3.12571860396,18,5,7.665,749.20499510317,28.215224,0.4921268,1.03399937692,0.0,0.0,-4.47388,12.0,9.5,2.7,0,0,1024,1024,1684,1024,0,0,100,0,0,0,0,88,3.836,3.828,0,0,0,0,6.761,69.26,749.20499510317,28.215224,6,P-GPS,,8.6
169200,2026-01-08 12:30:43,,,749.86116310317,31.824148,0.0,0.5400590724,3.14342529744,18,5,7.665,749.86116310317,28.871392,0.4921268,1.03399937692,0.0,0.0,-4.47388,12.2,9.8,3.6,0,0,1024,1024,1684,1024,0,0,100,0,0,0,0,88,3.836,3.828,0,0,0,0,6.761,69.26,749.86116310317,28.871392,6,P-GPS,,8.8
169300,2026-01-08 12:30:44,,,750.51733110317,32.480316,0.0,0.64439306524,3.2505906552,18,5,7.665,750.51733110317,29.52756,0.4921268,1.03399937692,0.0,0.0,-4.47388,12.2,10.2,3.6,0,0,1024,1024,1684,1024,0,0,100,0,0,0,0,88,3.836,3.828,0,0,0,0,6.761,69.26,750.51733110317,29.52756,6,P-GPS,,9.0
169400,2026-01-08 12:30:44,,,751.17349910317,33.136484,0.0,0.65730973232,3.26544301788,18,5,7.665,751.17349910317,30.183728,0.4921268,1.03399937692,0.0,0.0,-4.47388,12.2,10.7,3.3,0,0,1024,1024,1684,1024,0,0,100,0,0,0,0,88,3.836,3.828,0,0,0,0,6.761,69.26,751.17349910317,30.183728,6,P-GPS,,9.2
169500,2026-01-08 12:30:44,,,751.82966710317,33.792652,0.0,0.66153545424,3.273540131,18,5,7.665,751.82966710317,30.839896,0.4921268,1.03399937692,0.0,0.0,-4.47388,12.0,10.9,3.3,0,0,1024,1024,1684,1024,0,0,100,0,0,0,0,88,3.836,3.828,0,0,0,0,6.761,69.26,751.82966710317,30.839896,6,P-GPS,,9.4
169600,2026-01-08 12:30:44,,,752.48583510317,34.44882,0.0,0.66944884032,3.293635276,18,5,7.665,752.48583510317,31.496064,0.4921268,1.03399937692,0.0,0.0,-4.47388,12.0,9.6,4.2,0,0,1024,1024,1684,1024,0,0,100,0,0,0,0,88,3.836,3.828,0,0,0,0,6.761,69.26,752.48583510317,31.496064,6,P-GPS,,9.6
169700,2026-01-08 12:30:44,,,753.14200310317,35.104988,0.0,0.71649280508,3.3551182176,18,5,7.665,753.14200310317,32.152232,0.4921268,1.03399937692,0.0,0.0,-4.47388,12.2,9.9,4.5,0,0,1024,1024,1684,1024,0,0,100,0,0,0,0,88,3.836,3.828,0,0,0,0,6.761,69.26,753.14200310317,32.152232,6,P-GPS,,9.8
169800,2026-01-08 12:30:44,,,753.79817110317,35.761156,0.0,0.732529551,3.3893701872,17,5,7.665,753.79817110317,32.8084,0.4921268,1.03399937692,0.0,0.0,-4.250186,12.2,10.7,4.9,0,0,1024,1024,1684,1024,0,0,100,0,0,0,0,88,3.836,3.828,0,0,0,0,6.761,69.26,753.79817110317,32.8084,6,P-GPS,,10.0
169900,2026-01-08 12:30:44,,,754.45433910317,36.417324,0.223694,0.74011813392,3.4306431544,17,5,7.665,754.45433910317,33.464568,0.4921268,1.03399937692,0.0,-0.223694,-4.250186,12.2,9.8,4.6,0,0,1024,1024,1024,1024,0,0,0,0,0,0,0,88,3.836,3.828,0,0,0,0,6.761,69.26,754.45433910317,33.464568,6,P-GPS,,10.2
170000,2026-01-08 12:30:44,,,755.11050710317,37.073492,0.223694,0.75496065408,3.4713583788,18,5,7.665,755.11050710317,34.120736,0.4921268,1.03399937692,0.0,-0.223694,-4.250186,12.2,9.0,5.2,0,0,1024,1024,1024,1024,0,0,0,0,0,0,0,88,3.836,3.828,0,0,0,0,6.761,69.26,755.11050710317,34.120736,6,P-GPS,,10.4
170100,2026-01-08 12:30:44,,,755.43859110317,37.72966,0.0,0.78189635048,3.5325788532,18,5,7.666,755.43859110317,34.44882,0.4921268,1.03399937692,0.0,0.0,-4.026492,12.3,8.7,5.6,0,0,1024,1024,1024,1024,0,0,0,0,0,0,0,88,3.837,3.828,0,0,0,0,6.804,69.44,755.43859110317,34.44882,6,P-GPS,,10.5
170200,2026-01-08 12:30:45,,,755.76667510317,38.385828,0.0,0.81316603652,3.6437337124,18,5,7.666,755.76667510317,34.776904,0.4921268,1.03399937692,0.0,0.0,-3.579104,12.3,8.1,5.7,0,0,1024,1024,1024,1024,0,0,0,0,0,0,0,88,3.837,3.828,0,0,0,0,6.804,69.44,755.76667510317,34.776904,6,P-GPS,,10.6
170300,2026-01-08 12:30:45,,,756.09475910317,38.713912,0.0,0.8331037012,3.6688649468,18,5,7.666,756.09475910317,35.104988,0.4921268,1.03399937692,0.0,0.0,-2.908022,12.3,9.3,6.2,0,0,1024,1024,1024,1024,0,0,0,0,0,0,0,88,3.837,3.828,0,0,0,0,6.804,69.44,756.09475910317,35.104988,6,P-GPS,,10.7
170400,2026-01-08 12:30:45,,,756.42284310317,39.041996,0.0,0.84892391168,3.6871064172,18,5,7.666,756.42284310317,35.433072,0.4921268,1.03399937692,0.0,0.0,-2.23694,12.3,9.9,5.6,0,0,1024,1024,1024,1024,0,0,0,0,0,0,0,88,3.837,3.828,0,0,0,0,6.804,69.44,756.42284310317,35.433072,6,P-GPS,,10.8
170500,2026-01-08 12:30:45,,,756.42284310317,39.041996,0.0,0.85435698272,3.7089568116,18,5,7.666,756.42284310317,35.433072,0.4921268,1.03399937692,0.0,0.0,-1.342164,12.3,9.8,5.3,0,0,1024,1024,1024,1024,0,0,0,0,0,0,0,88,3.837,3.828,0,0,0,0,6.804,69.44,756.42284310317,35.433072,6,P-GPS,,10.8
170600,2026-01-08 12:30:45,,,756.42284310317,39.041996,0.0,0.85048231068,3.773622168,18,5,7.666,756.42284310317,35.433072,0.4921268,1.03399937692,0.0,0.0,-0.671082,12.3,9.8,4.8,0,0,1024,1024,1024,1024,0,0,0,0,0,0,0,88,3.837,3.828,0,0,0,0,6.804,69.44,756.42284310317,35.433072,6,P-GPS,,10.8
170700,2026-01-08 12:30:45,,,756.42284310317,39.041996,0.0,0.84910763872,3.7983597016,18,5,7.666,756.42284310317,35.433072,0.4921268,1.03399937692,0.0,0.0,-0.223694,12.2,9.6,4.2,0,0,1024,1024,1024,1024,0,0,0,0,0,0,0,88,3.837,3.828,0,0,0,0,6.804,69.44,756.42284310317,35.433072,6,P-GPS,,10.8
170800,2026-01-08 12:30:45,,,756.42284310317,39.041996,0.0,0.85142063092,3.8247704636,18,5,7.666,756.42284310317,35.433072,0.4921268,1.03399937692,0.0,0.0,0.0,12.2,9.6,4.2,0,0,1024,1024,1024,1024,0,0,0,0,0,0,0,88,3.837,3.828,0,0,0,0,6.804,69.44,756.42284310317,35.433072,6,P-GPS,,10.8
170900,2026-01-08 12:30:45,,,756.09475910317,39.041996,0.0,0.86651577576,3.8422245324,18,5,7.666,756.42284310317,35.433072,0.4921268,1.03399937692,0.0,0.0,0.0,12.1,9.8,4.0,0,0,1024,1024,790,1024,0,0,-35,0,0,0,0,88,3.837,3.828,0,0,0,0,6.804,69.44,756.09475910317,35.104988,6,P-GPS,,10.7
171000,2026-01-08 12:30:45,,,756.09475910317,39.041996,0.0,0.87516735084,3.8567258452,18,5,7.666,756.42284310317,35.433072,0.4921268,1.03399937692,0.0,0.0,0.0,12.1,8.9,4.0,0,0,1024,1024,364,1024,0,0,-100,0,0,0,0,88,3.837,3.828,0,0,0,0,6.804,69.44,756.09475910317,35.104988,6,P-GPS,,10.7
171100,2026-01-08 12:30:45,,,755.76667510317,39.041996,0.0,0.90891079024,3.8910434316,18,5,7.666,756.42284310317,35.433072,0.4921268,1.03399937692,0.0,0.0,0.0,12.0,8.7,3.6,0,0,1024,1024,461,1024,0,0,-85,0,0,0,0,88,3.837,3.828,0,0,0,0,6.804,69.44,755.76667510317,34.776904,6,P-GPS,,10.6
171200,2026-01-08 12:30:45,,,755.43859110317,39.041996,0.0,0.941026933,3.923556556,18,5,7.746,756.42284310317,35.433072,0.4921268,1.03399937692,0.0,0.0,0.0,12.1,9.0,3.7,0,0,1024,1024,1024,1024,0,0,0,0,0,0,0,88,3.874,3.871,0,0,0,0,4.417,69.44,755.43859110317,34.44882,6,P-GPS,,10.5
171300,2026-01-08 12:30:46,,,755.43859110317,39.041996,0.0,0.96182089692,3.9577429088,18,5,7.746,756.42284310317,35.433072,0.4921268,1.03399937692,0.0,0.0,0.671082,12.2,9.8,3.8,0,0,1024,1024,1024,1024,0,0,0,0,0,0,0,88,3.874,3.871,0,0,0,0,4.417,69.44,755.43859110317,34.44882,6,P-GPS,,10.5
171400,2026-01-08 12:30:46,,,754.78242310317,39.041996,0.0,0.9876476694,3.9874017024,18,5,7.746,756.42284310317,35.433072,0.4921268,1.03399937692,0.0,0.0,1.342164,12.1,9.4,3.3,0,0,1024,1024,1024,1024,0,0,0,0,0,0,0,88,3.874,3.871,0,0,0,0,4.417,69.44,754.78242310317,33.792652,6,P-GPS,,10.3
171500,2026-01-08 12:30:46,,,754.45433910317,39.041996,0.0,1.0133530508,4.0278544596,18,5,7.746,756.42284310317,35.433072,0.4921268,1.03399937692,0.0,0.0,1.11847,11.8,8.5,2.3,0,0,1024,1024,1024,1024,0,0,0,0,0,0,0,88,3.874,3.871,0,0,0,0,4.417,69.44,754.45433910317,33.464568,6,P-GPS,,10.2
171600,2026-01-08 12:30:46,,,754.12625510317,39.041996,0.0,1.04052168684,4.0642389752,18,5,7.746,756.42284310317,35.433072,0.4921268,1.04052168684,0.0,0.0,0.671082,11.7,8.3,2.6,0,0,1024,1024,1024,1024,0,0,0,0,0,0,0,88,3.874,3.871,0,0,0,0,4.417,69.44,754.12625510317,33.136484,6,P-GPS,,10.1
171700,2026-01-08 12:30:46,,,753.79817110317,39.041996,0.0,1.07840882716,4.1037402888,18,5,7.746,756.42284310317,35.433072,0.4921268,1.07840882716,0.0,0.0,0.447388,11.9,9.6,3.3,0,0,1024,1024,1024,1024,0,0,0,0,0,0,0,88,3.874,3.871,0,0,0,0,4.417,69.44,753.79817110317,32.8084,6,P-GPS,,10.0
171800,2026-01-08 12:30:46,,,753.79817110317,39.041996,0.0,1.1146817942,4.1417652244,18,5,7.746,756.42284310317,35.433072,0.4921268,1.1146817942,0.0,0.0,0.447388,12.3,9.8,3.3,0,0,1024,1024,1024,1024,0,0,0,0,0,0,0,88,3.874,3.871,0,0,0,0,4.417,69.44,753.79817110317,32.8084,6,P-GPS,,10.0
171900,2026-01-08 12:30:46,,,753.47008710317,39.041996,0.0,1.17426841028,4.2176182452,18,5,7.746,756.42284310317,35.433072,0.4921268,1.17426841028,0.0,0.0,0.223694,12.2,8.5,2.1,0,0,1024,1024,1024,1024,0,0,0,0,0,0,0,88,3.874,3.871,0,0,0,0,4.417,69.44,753.47008710317,32.480316,6,P-GPS,,9.9
172000,2026-01-08 12:30:46,,,753.47008710317,39.041996,0.0,1.20005581268,4.2496064352,18,5,7.746,756.42284310317,35.433072,0.4921268,1.20005581268,0.0,0.0,0.0,12.0,9.2,1.7,0,0,1024,1024,1024,1024,0,0,0,0,0,0,0,88,3.874,3.871,0,0,0,0,4.417,69.44,753.47008710317,32.480316,6,P-GPS,,9.9
172100,2026-01-08 12:30:46,,,753.14200310317,39.041996,0.0,1.21198166608,4.2646326824,18,5,7.746,756.42284310317,35.433072,0.4921268,1.21198166608,0.0,0.0,0.0,12.1,9.3,1.4,0,0,1024,1024,1024,1024,0,0,0,0,0,0,0,88,3.874,3.871,0,0,0,0,4.417,69.44,753.14200310317,32.152232,6,P-GPS,,9.8
172200,2026-01-08 12:30:47,,,753.14200310317,39.041996,0.0,1.21333337216,4.2707350448,18,5,7.746,756.42284310317,35.433072,0.4921268,1.21333337216,0.0,0.0,0.0,12.1,9.5,2.1,0,0,1024,1024,1024,1024,0,0,0,0,0,0,0,88,3.874,3.871,0,0,0,0,4.417,69.44,753.14200310317,32.152232,6,P-GPS,,9.8
172300,2026-01-08 12:30:47,,,752.81391910317,39.041996,0.0,1.16695869876,4.3281169364,18,5,7.746,756.42284310317,35.433072,0.4921268,1.21333337216,0.0,0.0,0.0,12.3,10.6,1.8,0,0,1024,1024,1024,1024,0,0,0,0,0,0,0,88,3.881,3.87,0,0,0,0,4.417,69.44,752.81391910317,31.824148,6,P-GPS,,9.7
172400,2026-01-08 12:30:47,,,752.81391910317,39.041996,0.223694,1.14500987916,4.3520998768,18,5,7.746,756.42284310317,35.433072,0.4921268,1.21333337216,0.0,0.223694,0.0,12.3,12.3,0.9,0,0,1024,1024,1024,1024,0,0,0,0,0,0,0,88,3.881,3.87,0,0,0,0,4.417,69.44,752.81391910317,31.824148,6,P-GPS,,9.7
172500,2026-01-08 12:30:47,,,752.81391910317,39.041996,0.223694,1.13122707032,4.3804791428,18,5,7.746,756.42284310317,35.433072,0.4921268,1.21333337216,0.0,0.0,0.0,12.2,9.6,0.5,0,0,1024,1024,1024,1024,0,0,0,0,0,0,0,88,3.881,3.87,0,0,0,0,4.417,69.44,752.81391910317,31.824148,6,P-GPS,,9.7
172600,2026-01-08 12:30:47,,,752.48583510317,39.041996,0.0,1.11706368404,4.3995736316,18,5,7.746,756.42284310317,35.433072,0.4921268,1.21333337216,0.0,0.0,-0.223694,12.1,10.5,1.5,0,0,1024,1024,1024,1024,0,0,0,0,0,0,0,88,3.881,3.87,0,0,0,0,4.417,69.44,752.48583510317,31.496064,6,P-GPS,SD card speed low. Normal use may be affected. Replace SD card (Code: 10028). Gimbal stuck. Make sure gimbal cover is removed and manually check whether gimbal can rotate freely (Code: 40002),9.6
172700,2026-01-08 12:30:47,,,752.48583510317,39.041996,0.0,1.10153546832,4.4536090664,18,5,7.746,756.42284310317,35.433072,0.4921268,1.21333337216,0.0,0.0,0.0,12.0,10.3,1.5,0,0,1024,1024,1024,1024,0,0,0,0,0,0,0,88,3.881,3.87,0,0,0,0,4.417,69.44,752.48583510317,31.496064,6,P-GPS,,9.6
172800,2026-01-08 12:30:47,,,752.15775110317,39.041996,0.0,1.08205055956,4.4748689096,18,5,7.746,756.42284310317,35.433072,0.4921268,1.21333337216,0.0,0.0,0.0,12.0,10.4,1.8,0,0,1024,1024,1024,1024,0,0,0,0,0,0,0,88,3.881,3.87,0,0,0,0,4.417,69.44,752.15775110317,31.16798,6,P-GPS,,9.5
172900,2026-01-08 12:30:47,,,752.15775110317,39.041996,0.0,1.06286748808,4.5027232412,18,5,7.746,756.42284310317,35.433072,0.4921268,1.21333337216,0.0,0.0,0.0,12.0,10.5,2.8,0,0,1024,1024,1024,1024,0,0,0,0,0,0,0,88,3.881,3.87,0,0,0,0,4.417,69.44,752.15775110317,31.16798,6,P-GPS,,9.5
173000,2026-01-08 12:30:47,,,752.15775110317,39.041996,0.0,1.04358927224,4.5292652368,18,5,7.746,756.42284310317,35.433072,0.4921268,1.21333337216,0.0,0.0,0.0,12.3,12.1,3.0,0,0,1024,1024,1024,1024,0,0,0,0,0,0,0,88,3.881,3.87,0,0,0,0,4.417,69.44,752.15775110317,31.16798,6,P-GPS,,9.5
173100,2026-01-08 12:30:47,,,751.82966710317,39.041996,0.0,1.08941604536,4.575787548,18,5,7.746,756.42284310317,35.433072,0.4921268,1.21333337216,0.0,0.0,0.223694,12.3,11.0,2.2,0,0,1024,1024,1024,1024,0,0,0,0,0,0,0,88,3.881,3.87,0,0,0,0,4.417,69.44,751.82966710317,30.839896,6,P-GPS,,9.4
173200,2026-01-08 12:30:47,,,751.82966710317,39.041996,0.0,1.09688979888,4.5881891232,18,5,7.746,756.42284310317,35.433072,0.4921268,1.21333337216,0.0,0.0,0.0,12.2,10.5,1.3,0,0,1024,1024,1024,1024,0,0,0,0,0,0,0,88,3.881,3.87,0,0,0,0,4.417,69.44,751.82966710317,30.839896,6,P-GPS,,9.4
173300,2026-01-08 12:30:48,,,751.82966710317,39.041996,0.0,1.08623363056,4.59973768,18,5,7.746,756.42284310317,35.433072,0.4921268,1.21333337216,0.0,0.0,0.0,12.2,10.5,2.1,0,0,1024,1024,1024,1024,0,0,0,0,0,0,0,88,3.881,3.87,0,0,0,0,4.417,69.44,751.82966710317,30.839896,6,P-GPS,,9.4
173400,2026-01-08 12:30:48,,,751.82966710317,39.041996,0.0,1.07164701592,4.6147639272,18,5,7.758,756.42284310317,35.433072,0.4921268,1.21333337216,0.0,0.0,0.0,12.1,11.0,1.9,0,0,1024,1024,1024,1024,0,0,0,0,0,0,0,88,3.893,3.873,0,0,0,0,4.83,69.44,751.82966710317,30.839896,6,P-GPS,,9.4
173500,2026-01-08 12:30:48,,,751.50158310317,39.041996,0.0,1.04946197584,4.6377298072,18,5,7.758,756.42284310317,35.433072,0.4921268,1.21333337216,0.0,0.0,0.0,12.1,10.9,2.3,0,0,1024,1024,1024,1024,0,0,0,0,0,0,0,88,3.893,3.873,0,0,0,0,4.83,69.44,751.50158310317,30.511812,6,P-GPS,,9.3
173600,2026-01-08 12:30:48,,,751.50158310317,39.041996,0.0,1.0161417648,4.67437679,18,5,7.758,756.42284310317,35.433072,0.4921268,1.21333337216,0.0,0.0,0.0,12.0,10.9,2.5,0,0,1024,1024,1024,1024,0,0,0,0,0,0,0,88,3.893,3.873,0,0,0,0,4.83,69.44,751.50158310317,30.511812,6,P-GPS,,9.3
173700,2026-01-08 12:30:48,,,751.50158310317,39.041996,0.0,1.00913389056,4.6896983128,18,5,7.758,756.42284310317,35.433072,0.4921268,1.21333337216,0.0,0.0,0.0,12.0,11.0,2.9,0,0,1024,1024,1024,1024,0,0,0,0,0,0,0,88,3.893,3.873,0,0,0,0,4.83,69.44,751.50158310317,30.511812,6,P-GPS,,9.3
173800,2026-01-08 12:30:48,,,751.50158310317,39.041996,0.0,1.00361551768,4.7070539564,18,5,7.758,756.42284310317,35.433072,0.4921268,1.21333337216,0.0,0.0,0.0,12.2,10.7,3.2,0,0,1024,1024,1024,1024,0,0,0,0,0,0,0,88,3.893,3.873,0,0,0,0,4.83,69.44,751.50158310317,30.511812,6,P-GPS,,9.3
173900,2026-01-08 12:30:48,,,751.50158310317,39.041996,0.0,0.98802824684,4.7252954268,18,5,7.758,756.42284310317,35.433072,0.4921268,1.21333337216,0.0,0.0,0.0,12.2,11.2,2.9,0,0,1024,1024,1024,1024,0,0,0,0,0,0,0,88,3.893,3.873,0,0,0,0,4.83,69.44,751.50158310317,30.511812,6,P-GPS,,9.3
174000,2026-01-08 12:30:48,,,751.50158310317,39.041996,0.0,0.98384517584,4.7390749548,18,5,7.758,756.42284310317,35.433072,0.4921268,1.21333337216,0.0,0.0,0.0,12.2,11.1,2.9,0,0,1024,1024,1024,1024,0,0,0,0,0,0,0,88,3.893,3.873,0,0,0,0,4.83,69.44,751.50158310317,30.511812,6,P-GPS,,9.3
174100,2026-01-08 12:30:48,,,751.17349910317,39.041996,0.0,0.98670934916,4.7419949024,18,5,7.758,756.42284310317,35.433072,0.4921268,1.21333337216,0.0,0.0,0.0,12.3,11.7,2.8,0,0,1024,1024,1024,1024,0,0,0,0,0,0,0,88,3.893,3.873,0,0,0,0,4.83,69.44,751.17349910317,30.183728,6,P-GPS,,9.2
174200,2026-01-08 12:30:49,,,751.17349910317,39.041996,0.0,0.99427168536,4.7510828292,18,5,7.758,756.42284310317,35.433072,0.4921268,1.21333337216,0.0,0.0,0.0,12.1,10.9,2.5,0,0,1024,1024,1024,1024,0,0,0,0,0,0,0,88,3.893,3.873,0,0,0,0,4.83,69.44,751.17349910317,30.183728,6,P-GPS,,9.2
174300,2026-01-08 12:30:49,,,751.17349910317,39.041996,0.0,0.9947670922,4.7630907036,18,5,7.758,756.42284310317,35.433072,0.4921268,1.21333337216,0.0,0.0,0.0,12.3,11.0,2.0,0,0,1024,1024,1024,1024,0,0,0,0,0,0,0,88,3.893,3.873,0,0,0,0,4.83,69.44,751.17349910317,30.183728,6,P-GPS,,9.2
174400,2026-01-08 12:30:49,,,751.17349910317,39.041996,0.0,1.01737536064,4.8031169516,18,5,7.758,756.42284310317,35.433072,0.4921268,1.21333337216,0.0,0.0,0.0,12.1,10.4,1.2,0,0,1024,1024,1024,1024,0,0,0,0,0,0,0,88,3.893,3.873,0,0,0,0,4.83,69.44,751.17349910317,30.183728,6,P-GPS,,9.2
174500,2026-01-08 12:30:49,,,751.17349910317,39.041996,0.0,1.04010173932,4.8258531728,18,5,7.758,756.42284310317,35.433072,0.4921268,1.21333337216,0.0,0.0,0.0,12.0,10.2,1.3,0,0,1024,1024,1024,1024,0,0,0,0,0,0,0,88,3.893,3.873,0,0,0,0,4.83,69.44,751.17349910317,30.183728,6,P-GPS,,9.2
174600,2026-01-08 12:30:49,,,751.17349910317,39.041996,0.0,1.06198822296,4.8481956932,18,5,7.758,756.42284310317,35.433072,0.4921268,1.21333337216,0.0,0.0,0.0,12.0,9.7,1.3,0,0,1024,1024,1024,1024,0,0,0,0,0,0,0,88,3.893,3.873,0,0,0,0,4.83,69.44,751.17349910317,30.183728,6,P-GPS,,9.2
174700,2026-01-08 12:30:49,,,750.84541510317,39.041996,0.0,1.07902234424,4.8681760088,18,5,7.758,756.42284310317,35.433072,0.4921268,1.21333337216,0.0,0.0,0.0,12.0,9.4,1.2,0,0,1024,1024,1024,1024,0,0,0,0,0,0,0,88,3.893,3.873,0,0,0,0,4.83,69.44,750.84541510317,29.855644,6,P-GPS,,9.1
174800,2026-01-08 12:30:49,,,750.84541510317,39.041996,0.0,1.09341538932,4.9138453016,18,5,7.758,756.42284310317,35.433072,0.4921268,1.21333337216,0.0,0.0,0.0,12.1,9.4,1.5,0,0,1024,1024,1024,1024,0,0,0,0,0,0,0,88,3.893,3.873,0,0,0,0,4.83,69.44,750.84541510317,29.855644,6,P-GPS,,9.1
174900,2026-01-08 12:30:49,,,750.84541510317,39.041996,0.0,1.13217195224,4.9529529144,18,5,7.758,756.42284310317,35.433072,0.4921268,1.21333337216,0.0,0.0,0.0,12.3,9.2,1.8,0,0,1024,1024,1024,1024,0,0,0,0,0,0,0,88,3.893,3.873,0,0,0,0,4.83,69.44,750.84541510317,29.855644,6,P-GPS,,9.1
175000,2026-01-08 12:30:49,,,750.84541510317,39.041996,0.0,1.17635502452,4.9982941232,18,5,7.758,756.42284310317,35.433072,0.4921268,1.21333337216,0.0,0.0,0.0,12.3,9.6,0.8,0,0,1024,1024,1024,1024,0,0,0,0,0,0,0,88,3.893,3.873,0,0,0,0,4.83,69.44,750.84541510317,29.855644,6,P-GPS,,9.1
175100,2026-01-08 12:30:49,,,750.84541510317,39.041996,0.0,1.19200463132,5.0139765384,18,5,7.758,756.42284310317,35.433072,0.4921268,1.21333337216,0.0,0.0,0.0,12.2,9.3,0.5,0,0,1024,1024,1024,1024,0,0,0,0,0,0,0,88,3.893,3.873,0,0,0,0,4.83,69.44,750.84541510317,29.855644,6,P-GPS,,9.1
175200,2026-01-08 12:30:50,,,750.84541510317,39.041996,0.0,1.20705712524,5.029035594,18,5,7.758,756.42284310317,35.433072,0.4921268,1.21333337216,0.0,0.0,0.0,12.1,8.5,0.1,0,0,1024,1024,1024,1024,0,0,0,0,0,0,0,88,3.893,3.873,0,0,0,0,4.83,69.44,750.84541510317,29.855644,6,P-GPS,,9.1
175300,2026-01-08 12:30:50,,,750.51733110317,39.041996,0.0,1.2107775978,5.0453085604,18,5,7.747,756.42284310317,35.433072,0.4921268,1.21333337216,0.0,0.0,0.0,12.2,9.4,0.2,0,0,1024,1024,1024,1024,0,0,0,0,0,0,0,88,3.877,3.871,0,0,0,0,4.767,69.44,750.51733110317,29.52756,6,P-GPS,,9.0
175400,2026-01-08 12:30:50,,,750.51733110317,39.041996,0.0,1.22849741464,5.065452918,18,5,7.747,756.42284310317,35.433072,0.4921268,1.22849741464,0.0,0.0,0.0,12.1,10.1,-0.6,0,0,1024,1024,1024,1024,0,0,0,0,0,0,0,88,3.877,3.871,0,0,0,0,4.767,69.44,750.51733110317,29.52756,6,P-GPS,,9.0
175500,2026-01-08 12:30:50,,,750.51733110317,39.041996,0.223694,1.25184387208,5.0924214228,18,5,7.747,756.42284310317,35.433072,0.4921268,1.25184387208,-0.223694,0.0,0.0,12.0,9.8,-0.3,0,0,1024,1024,1024,1024,0,0,0,0,0,0,0,88,3.877,3.871,0,0,0,0,4.767,69.44,750.51733110317,29.52756,6,P-GPS,,9.0
175600,2026-01-08 12:30:50,,,750.51733110317,39.041996,0.223694,1.27200463388,5.127788878,18,5,7.747,756.42284310317,35.433072,0.4921268,1.27200463388,-0.223694,0.0,0.0,11.9,7.9,-0.2,0,0,1024,1024,1024,1024,0,0,0,0,0,0,0,88,3.877,3.871,0,0,0,0,4.767,69.44,750.51733110317,29.52756,6,P-GPS,,9.0
175700,2026-01-08 12:30:50,,,750.84541510317,39.041996,0.3131716,1.32146657772,5.2111550224,18,5,7.747,756.42284310317,35.433072,0.4921268,1.32146657772,-0.223694,-0.223694,0.0,11.9,6.4,1.7,0,0,1024,1024,1024,1024,0,0,0,0,0,0,0,88,3.877,3.871,0,0,0,0,4.767,69.44,750.84541510317,29.855644,6,P-GPS,,9.1
175800,2026-01-08 12:30:50,,,750.84541510317,39.041996,0.223694,1.33736224752,5.2763453132,18,5,7.747,756.42284310317,35.433072,0.4921268,1.33736224752,0.0,-0.223694,-0.223694,11.9,6.7,2.7,0,0,1024,1024,1024,1024,0,0,0,0,0,0,0,88,3.877,3.871,0,0,0,0,4.767,69.44,750.84541510317,29.855644,6,P-GPS,,9.1
175900,2026-01-08 12:30:50,,,750.84541510317,39.041996,0.223694,1.32840227348,5.3378610632,18,5,7.747,756.42284310317,35.433072,0.4921268,1.33736224752,0.0,-0.223694,0.0,11.9,7.2,3.8,0,0,1024,1024,1024,1024,0,0,0,0,0,0,0,88,3.877,3.871,0,0,0,0,4.767,69.44,750.84541510317,29.855644,6,P-GPS,,9.1
176000,2026-01-08 12:30:50,,,750.84541510317,39.041996,0.223694,1.31255581628,5.3969161832,18,5,7.747,756.42284310317,35.433072,0.4921268,1.33736224752,0.0,-0.223694,-0.223694,12.1,7.8,4.3,0,0,1024,1024,1024,1024,0,0,0,0,0,0,0,88,3.877,3.871,0,0,0,0,4.767,69.44,750.84541510317,29.855644,6,P-GPS,,9.1
176100,2026-01-08 12:30:50,,,750.84541510317,39.041996,0.223694,1.28878613048,5.5054791788,18,5,7.747,756.42284310317,35.433072,0.4921268,1.33736224752,0.0,-0.223694,-0.223694,12.3,8.0,5.5,0,0,1024,1024,1024,1024,0,0,0,0,0,0,0,88,3.877,3.871,0,0,0,0,4.767,69.44,750.84541510317,29.855644,6,P-GPS,,9.1
176200,2026-01-08 12:30:51,,,750.84541510317,39.041996,0.223694,1.27838586768,5.5845802312,18,5,7.778,756.42284310317,35.433072,0.4921268,1.33736224752,0.0,-0.223694,0.0,12.4,8.8,6.1,0,0,1024,1024,1024,1024,0,0,0,0,0,0,0,88,3.867,3.861,0,0,0,0,4.772,69.62,750.84541510317,29.855644,6,P-GPS,,9.1
176300,2026-01-08 12:30:51,,,750.84541510317,39.041996,0.223694,1.25744426596,5.6766406016,18,5,7.778,756.42284310317,35.433072,0.4921268,1.33736224752,0.0,-0.223694,0.0,12.2,8.3,5.4,0,0,1024,1024,1024,1024,0,0,0,0,0,0,0,88,3.867,3.861,0,0,0,0,4.772,69.62,750.84541510317,29.855644,6,P-GPS,,9.1
176400,2026-01-08 12:30:51,,,751.17349910317,39.041996,0.223694,1.24687668032,5.7610894232,18,5,7.778,756.42284310317,35.433072,0.4921268,1.33736224752,0.0,-0.223694,0.0,12.4,8.5,5.7,0,0,1024,1024,1024,1024,0,0,0,0,0,0,0,88,3.867,3.861,0,0,0,0,4.772,69.62,751.17349910317,30.183728,6,P-GPS,,9.2
176500,2026-01-08 12:30:51,,,751.17349910317,39.041996,0.223694,1.19687011704,5.8520014996,18,5,7.778,756.42284310317,35.433072,0.4921268,1.33736224752,0.0,-0.223694,0.0,12.4,8.5,6.2,0,0,1024,1024,1024,1024,0,0,0,0,0,0,0,88,3.867,3.861,0,0,0,0,4.772,69.62,751.17349910317,30.183728,6,P-GPS,,9.2
176600,2026-01-08 12:30:51,,,751.17349910317,39.041996,0.223694,1.19742129816,5.9017062256,18,5,7.778,756.42284310317,35.433072,0.4921268,1.33736224752,0.0,-0.223694,0.0,12.3,7.3,6.0,0,0,1024,1024,1024,1024,0,0,0,0,0,0,0,88,3.867,3.861,0,0,0,0,4.772,69.62,751.17349910317,30.183728,6,P-GPS,,9.2
176700,2026-01-08 12:30:51,,,751.17349910317,39.041996,0.223694,1.21799872664,5.9507219752,18,5,7.778,756.42284310317,35.433072,0.4921268,1.33736224752,0.0,-0.223694,0.0,12.3,7.1,6.0,0,0,1024,1024,1024,1024,0,0,0,0,0,0,0,88,3.867,3.861,0,0,0,0,4.772,69.62,751.17349910317,30.183728,6,P-GPS,,9.2
176800,2026-01-08 12:30:51,,,751.50158310317,39.041996,0.223694,1.23627628628,5.9917324752,18,5,7.778,756.42284310317,35.433072,0.4921268,1.33736224752,0.0,-0.223694,0.0,12.3,6.8,6.2,0,0,1024,1024,1024,1024,0,0,0,0,0,0,0,88,3.867,3.861,0,0,0,0,4.772,69.62,751.50158310317,30.511812,6,P-GPS,,9.3
176900,2026-01-08 12:30:51,,,751.50158310317,39.041996,0.0,1.27344820348,6.0345474372,18,5,7.778,756.42284310317,35.433072,0.4921268,1.33736224752,0.0,0.0,0.0,12.1,6.4,6.0,0,0,1024,1024,1024,1024,0,0,0,0,0,0,0,88,3.867,3.861,0,0,0,0,4.772,69.62,751.50158310317,30.511812,6,P-GPS,,9.3
177000,2026-01-08 12:30:51,,,751.50158310317,39.041996,0.0,1.34543311392,6.11220492,18,5,7.778,756.42284310317,35.433072,0.4921268,1.34543311392,0.0,0.0,0.0,12.0,5.6,5.4,0,0,1024,1024,1024,1024,0,0,0,0,0,0,0,88,3.867,3.861,0,0,0,0,4.772,69.62,751.50158310317,30.511812,6,P-GPS,,9.3
177100,2026-01-08 12:30:51,,,751.17349910317,39.041996,0.0,1.35157156556,6.1206038704,18,5,7.778,756.42284310317,35.433072,0.4921268,1.35157156556,0.0,0.0,-0.223694,12.0,4.8,5.7,0,0,1024,1024,1024,1024,0,0,0,0,0,0,0,88,3.867,3.861,0,0,0,0,4.772,69.62,751.17349910317,30.183728,6,P-GPS,,9.2
177200,2026-01-08 12:30:52,,,751.17349910317,39.041996,0.0,1.35539374416,6.1244424532,18,5,7.778,756.42284310317,35.433072,0.4921268,1.35539374416,0.0,0.0,0.0,12.1,6.6,5.6,0,0,1024,1024,1024,1024,0,0,0,0,0,0,0,88,3.867,3.861,0,0,0,0,4.772,69.62,751.17349910317,30.183728,6,P-GPS,,9.2
177300,2026-01-08 12:30:52,,,751.17349910317,39.041996,0.0,1.3656004374,6.1352364168,18,5,7.775,756.42284310317,35.433072,0.4921268,1.3656004374,0.0,0.0,0.0,12.2,6.8,5.1,0,0,1024,1024,1024,1024,0,0,0,0,0,0,0,88,3.889,3.885,0,0,0,0,4.141,69.62,751.17349910317,30.183728,6,P-GPS,,9.2
177400,2026-01-08 12:30:52,,,750.84541510317,39.041996,0.0,1.36321526672,6.1620408796,18,5,7.775,756.42284310317,35.433072,0.4921268,1.3656004374,0.0,0.0,0.0,12.3,6.7,5.1,0,0,1024,1024,1024,1024,0,0,0,0,0,0,0,88,3.889,3.885,0,0,0,0,4.141,69.62,750.84541510317,29.855644,6,P-GPS,,9.1
177500,2026-01-08 12:30:52,,,750.84541510317,39.041996,0.0,1.38459978184,6.1842521664,18,5,7.775,756.42284310317,35.433072,0.4921268,1.38459978184,0.0,0.0,0.0,12.3,7.0,5.4,0,0,1024,1024,1024,1024,0,0,0,0,0,0,0,88,3.889,3.885,0,0,0,0,4.141,69.62,750.84541510317,29.855644,6,P-GPS,,9.1
177600,2026-01-08 12:30:52,,,750.84541510317,39.041996,0.0,1.40274938872,6.2027889124,18,5,7.775,756.42284310317,35.433072,0.4921268,1.40274938872,0.0,0.0,0.0,12.2,6.6,5.3,0,0,1024,1024,1024,1024,0,0,0,0,0,0,0,88,3.889,3.885,0,0,0,0,4.141,69.62,750.84541510317,29.855644,6,P-GPS,,9.1
177700,2026-01-08 12:30:52,,,750.84541510317,39.041996,0.0,1.40695870644,6.2192259208,18,5,7.775,756.42284310317,35.433072,0.4921268,1.40695870644,0.0,0.0,0.0,12.3,6.6,5.4,0,0,1024,1024,1024,1024,0,0,0,0,0,0,0,88,3.889,3.885,0,0,0,0,4.141,69.62,750.84541510317,29.855644,6,P-GPS,,9.1
177800,2026-01-08 12:30:52,,,750.84541510317,39.041996,0.0,1.41395017648,6.2525592552,18,5,7.775,756.42284310317,35.433072,0.4921268,1.41395017648,0.0,0.0,0.0,12.2,6.3,4.7,0,0,1024,1024,1024,1024,0,0,0,0,0,0,0,88,3.889,3.885,0,0,0,0,4.141,69.62,750.84541510317,29.855644,6,P-GPS,,9.1
177900,2026-01-08 12:30:52,,,750.84541510317,39.041996,0.0,1.41850726324,6.2627626676,18,5,7.775,756.42284310317,35.433072,0.4921268,1.41850726324,0.0,0.0,0.0,12.3,7.3,4.8,0,0,1024,1024,1024,1024,0,0,0,0,0,0,0,88,3.889,3.885,0,0,0,0,4.141,69.62,750.84541510317,29.855644,6,P-GPS,,9.1
178000,2026-01-08 12:30:52,,,750.84541510317,39.041996,0.0,1.41862537348,6.2735566312,18,5,7.775,756.42284310317,35.433072,0.4921268,1.41862537348,0.0,0.0,0.0,12.3,7.1,5.0,0,0,1024,1024,1024,1024,0,0,0,0,0,0,0,88,3.889,3.885,0,0,0,0,4.141,69.62,750.84541510317,29.855644,6,P-GPS,,9.1
178100,2026-01-08 12:30:52,,,750.84541510317,39.041996,0.0,1.41237537328,6.2807744792,18,5,7.775,756.42284310317,35.433072,0.4921268,1.41862537348,0.0,0.0,0.0,12.3,7.5,4.9,0,0,1024,1024,1024,1024,0,0,0,0,0,0,0,88,3.889,3.885,0,0,0,0,4.141,69.62,750.84541510317,29.855644,6,P-GPS,,9.1
178200,2026-01-08 12:30:52,,,750.84541510317,39.041996,0.0,1.41002629184,6.3036747424,18,5,7.776,756.42284310317,35.433072,0.4921268,1.41862537348,0.0,0.0,0.0,12.3,7.3,5.0,0,0,1024,1024,1024,1024,0,0,0,0,0,0,0,88,3.893,3.883,0,0,0,0,4.103,69.62,750.84541510317,29.855644,6,P-GPS,,9.1
178300,2026-01-08 12:30:53,,,750.84541510317,39.041996,0.0,1.39243114692,6.3213256616,18,5,7.776,756.42284310317,35.433072,0.4921268,1.41862537348,0.0,0.0,0.0,12.4,7.8,5.1,0,0,1024,1024,1024,1024,0,0,0,0,0,0,0,88,3.893,3.883,0,0,0,0,4.103,69.62,750.84541510317,29.855644,6,P-GPS,,9.1
178400,2026-01-08 12:30:53,,,750.84541510317,39.041996,0.0,1.37873363992,6.3352364232,18,5,7.776,756.42284310317,35.433072,0.4921268,1.41862537348,0.0,0.0,0.0,12.3,8.2,4.6,0,0,1024,1024,1024,1024,0,0,0,0,0,0,0,88,3.893,3.883,0,0,0,0,4.103,69.62,750.84541510317,29.855644,6,P-GPS,,9.1
178500,2026-01-08 12:30:53,,,751.17349910317,39.041996,0.0,1.38007222264,6.34678498,18,5,7.776,756.42284310317,35.433072,0.4921268,1.41862537348,0.0,0.0,0.0,12.2,7.0,4.4,0,0,1024,1024,1024,1024,0,0,0,0,0,0,0,88,3.893,3.883,0,0,0,0,4.103,69.62,751.17349910317,30.183728,6,P-GPS,,9.2
178600,2026-01-08 12:30:53,,,750.84541510317,39.041996,0.0,1.38575135668,6.3583663452,18,5,7.776,756.42284310317,35.433072,0.4921268,1.41862537348,0.0,0.0,0.0,12.0,6.4,4.2,0,0,1024,1024,1024,1024,0,0,0,0,0,0,0,88,3.893,3.883,0,0,0,0,4.103,69.62,750.84541510317,29.855644,6,P-GPS,,9.1
178700,2026-01-08 12:30:53,,,750.84541510317,39.041996,0.0,1.37403875788,6.3745736948,18,5,7.776,756.42284310317,35.433072,0.4921268,1.41862537348,0.0,0.0,0.0,12.0,5.9,4.1,0,0,1024,1024,1024,1024,0,0,0,0,0,0,0,88,3.893,3.883,0,0,0,0,4.103,69.62,750.84541510317,29.855644,6,P-GPS,,9.1
178800,2026-01-08 12:30:53,,,750.84541510317,39.041996,0.0,1.37576119888,6.382218052,18,5,7.776,756.42284310317,35.433072,0.4921268,1.41862537348,0.0,0.0,0.0,12.1,5.9,4.1,0,0,1024,1024,1024,1024,0,0,0,0,0,0,0,88,3.893,3.883,0,0,0,0,4.103,69.62,750.84541510317,29.855644,6,P-GPS,,9.1
178900,2026-01-08 12:30:53,,,750.51733110317,39.041996,0.0,1.38900594996,6.3960303884,18,5,7.776,756.42284310317,35.433072,0.4921268,1.41862537348,0.0,0.0,0.0,12.1,6.1,4.3,0,0,1024,1024,1024,1024,0,0,0,0,0,0,0,88,3.893,3.883,0,0,0,0,4.103,69.62,750.51733110317,29.52756,6,P-GPS,,9.0
179000,2026-01-08 12:30:53,,,750.51733110317,39.041996,0.0,1.40181763016,6.4102364256,18,5,7.776,756.42284310317,35.433072,0.4921268,1.41862537348,0.0,0.0,0.0,12.1,6.0,4.4,0,0,1024,1024,1024,1024,0,0,0,0,0,0,0,88,3.893,3.883,0,0,0,0,4.103,69.62,750.51733110317,29.52756,6,P-GPS,,9.0
179100,2026-01-08 12:30:53,,,750.18924710317,39.041996,0.0,1.42700791968,6.4357285524,18,5,7.776,756.42284310317,35.433072,0.4921268,1.42700791968,0.0,0.0,0.0,12.2,5.9,4.5,0,0,1024,1024,1024,1024,0,0,0,0,0,0,0,88,3.893,3.883,0,0,0,0,4.103,69.62,750.18924710317,29.199476,6,P-GPS,,8.9
179200,2026-01-08 12:30:54,,,750.18924710317,39.041996,0.0,1.43720148956,6.450623566,18,5,7.799,756.42284310317,35.433072,0.4921268,1.43720148956,0.0,0.0,0.0,12.0,5.8,4.6,0,0,1024,1024,1024,1024,0,0,0,0,0,0,0,87,3.9,3.899,0,0,0,0,4.121,69.62,750.18924710317,29.199476,6,P-GPS,,8.9
179300,2026-01-08 12:30:54,,,749.86116310317,39.041996,0.0,1.45649939044,6.4711944328,18,5,7.799,756.42284310317,35.433072,0.4921268,1.45649939044,0.0,0.0,0.0,12.0,6.4,4.7,0,0,1024,1024,1024,1024,0,0,0,0,0,0,0,87,3.9,3.899,0,0,0,0,4.121,69.62,749.86116310317,28.871392,6,P-GPS,,8.8
179400,2026-01-08 12:30:54,,,749.86116310317,39.041996,0.0,1.474491517,6.4910763232,18,5,7.799,756.42284310317,35.433072,0.4921268,1.474491517,0.0,0.0,0.0,12.0,6.7,4.8,0,0,1024,1024,1024,1024,0,0,0,0,0,0,0,87,3.9,3.899,0,0,0,0,4.121,69.62,749.86116310317,28.871392,6,P-GPS,,8.8
179500,2026-01-08 12:30:54,,,749.86116310317,39.041996,0.0,1.48727695048,6.5114175312,18,5,7.799,756.42284310317,35.433072,0.4921268,1.48727695048,0.0,0.0,0.0,12.0,6.6,4.6,0,0,1024,1024,1024,1024,0,0,0,0,0,0,0,87,3.9,3.899,0,0,0,0,4.121,69.62,749.86116310317,28.871392,6,P-GPS,,8.8
179600,2026-01-08 12:30:54,,,749.53307910317,39.041996,0.0,1.49548561216,6.5329398416,18,5,7.799,756.42284310317,35.433072,0.4921268,1.49548561216,0.0,0.0,0.0,12.2,7.2,5.0,0,0,1024,1024,1024,1024,0,0,0,0,0,0,0,87,3.9,3.899,0,0,0,0,4.121,69.62,749.53307910317,28.543308,6,P-GPS,,8.7
179700,2026-01-08 12:30:54,,,749.53307910317,39.041996,0.0,1.52007550796,6.5619424672,18,5,7.799,756.42284310317,35.433072,0.4921268,1.52007550796,0.0,0.0,0.0,12.3,7.1,5.2,0,0,1024,1024,1024,1024,0,0,0,0,0,0,0,87,3.9,3.899,0,0,0,0,4.121,69.62,749.53307910317,28.543308,6,P-GPS,,8.7
179800,2026-01-08 12:30:54,,,749.86116310317,39.041996,0.0,1.54406501004,6.5887797384,18,5,7.799,756.42284310317,35.433072,0.4921268,1.54406501004,0.0,0.0,0.0,12.3,6.5,5.0,0,0,1024,1024,1024,1024,0,0,0,0,0,0,0,87,3.9,3.899,0,0,0,0,4.121,69.62,749.86116310317,28.871392,6,P-GPS,,8.8
179900,2026-01-08 12:30:54,,,749.86116310317,39.041996,0.0,1.54415687356,6.614665566,18,5,7.799,756.42284310317,35.433072,0.4921268,1.54415687356,0.0,0.0,0.0,12.4,6.7,4.5,0,0,1024,1024,1024,1024,0,0,0,0,0,0,0,87,3.9,3.899,0,0,0,0,4.121,69.62,749.86116310317,28.871392,6,P-GPS,,8.8
180000,2026-01-08 12:30:54,,,749.86116310317,39.041996,0.0,1.54879598132,6.622703624,18,5,7.799,756.42284310317,35.433072,0.4921268,1.54879598132,0.0,0.0,0.0,12.3,5.5,4.2,0,0,1024,1024,1024,1024,0,0,0,0,0,0,0,87,3.9,3.899,0,0,0,0,4.121,69.62,749.86116310317,28.871392,6,P-GPS,,8.8
180100,2026-01-08 12:30:54,,,749.86116310317,39.041996,0.0,1.55040031208,6.6243768524,18,5,7.776,756.42284310317,35.433072,0.4921268,1.55040031208,0.0,0.0,0.0,12.4,5.5,4.3,0,0,1024,1024,1024,1024,0,0,0,0,0,0,0,87,3.89,3.886,0,0,0,0,4.105,69.62,749.86116310317,28.871392,6,P-GPS,,8.8
180200,2026-01-08 12:30:54,,,749.86116310317,39.041996,0.0,1.55154532524,6.626312548,18,5,7.776,756.42284310317,35.433072,0.4921268,1.55154532524,0.0,0.0,0.0,12.3,5.2,4.1,0,0,1024,1024,1024,1024,0,0,0,0,0,0,0,87,3.89,3.886,0,0,0,0,4.105,69.62,749.86116310317,28.871392,6,P-GPS,,8.8
180300,2026-01-08 12:30:55,,,749.86116310317,39.041996,0.0,1.56576776664,6.6413059868,18,5,7.776,756.42284310317,35.433072,0.4921268,1.56576776664,0.0,0.0,0.0,12.2,5.3,3.9,0,0,1024,1024,1024,1024,0,0,0,0,0,0,0,87,3.89,3.886,0,0,0,0,4.105,69.62,749.86116310317,28.871392,6,P-GPS,,8.8
180400,2026-01-08 12:30:55,,,749.86116310317,39.041996,0.0,1.574393095,6.6530842024,18,5,7.776,756.42284310317,35.433072,0.4921268,1.574393095,0.0,0.0,0.0,12.2,5.8,4.1,0,0,1024,1024,1024,1024,0,0,0,0,0,0,0,87,3.89,3.886,0,0,0,0,4.105,69.62,749.86116310317,28.871392,6,P-GPS,,8.8
180500,2026-01-08 12:30:55,,,749.86116310317,39.041996,0.0,1.57138456472,6.6604660924,18,5,7.776,756.42284310317,35.433072,0.4921268,1.574393095,0.0,0.0,0.0,12.2,6.2,3.7,0,0,1024,1024,1024,1024,0,0,0,0,0,0,0,87,3.89,3.886,0,0,0,0,4.105,69.62,749.86116310317,28.871392,6,P-GPS,,8.8
180600,2026-01-08 12:30:55,,,749.86116310317,39.041996,0.0,1.56921921032,6.6652889272,18,5,7.776,756.42284310317,35.433072,0.4921268,1.574393095,0.0,0.0,0.0,12.2,6.2,3.5,0,0,1024,1024,1024,1024,0,0,0,0,0,0,0,87,3.89,3.886,0,0,0,0,4.105,69.62,749.86116310317,28.871392,6,P-GPS,,8.8
180700,2026-01-08 12:30:55,,,749.86116310317,39.041996,0.0,1.57429138896,6.6872049384,18,5,7.776,756.42284310317,35.433072,0.4921268,1.574393095,0.0,0.0,0.0,12.1,6.0,3.0,0,0,1024,1024,1024,1024,0,0,0,0,0,0,0,87,3.89,3.886,0,0,0,0,4.105,69.62,749.86116310317,28.871392,6,P-GPS,,8.8
180800,2026-01-08 12:30:55,,,749.86116310317,39.041996,0.0,1.57621724204,6.72326137,18,5,7.776,756.42284310317,35.433072,0.4921268,1.57621724204,0.0,0.0,0.0,12.2,6.0,2.7,0,0,1024,1024,1024,1024,0,0,0,0,0,0,0,87,3.89,3.886,0,0,0,0,4.105,69.62,749.86116310317,28.871392,6,P-GPS,,8.8
180900,2026-01-08 12:30:55,,,749.86116310317,39.041996,0.0,1.577673935,6.73064326,18,5,7.776,756.42284310317,35.433072,0.4921268,1.577673935,0.0,0.0,0.0,12.2,5.0,2.7,0,0,1024,1024,1024,1024,0,0,0,0,0,0,0,87,3.89,3.886,0,0,0,0,4.105,69.62,749.86116310317,28.871392,6,P-GPS,,8.8
181000,2026-01-08 12:30:55,,,749.86116310317,39.041996,0.0,1.58192918448,6.7349411604,18,5,7.776,756.42284310317,35.433072,0.4921268,1.58192918448,0.0,0.0,0.0,12.1,3.4,2.8,0,0,1024,1024,1024,1024,0,0,0,0,0,0,0,87,3.89,3.886,0,0,0,0,4.105,69.62,749.86116310317,28.871392,6,P-GPS,,8.8
181100,2026-01-08 12:30:55,,,749.86116310317,39.041996,0.0,1.59658141592,6.75442935,18,5,7.776,756.42284310317,35.433072,0.4921268,1.59658141592,0.0,0.0,-0.223694,11.9,4.9,4.0,0,0,1024,1024,1024,1024,0,0,0,0,0,0,0,87,3.89,3.886,0,0,0,0,4.105,69.62,749.86116310317,28.871392,6,P-GPS,,8.8
181200,2026-01-08 12:30:56,,,749.86116310317,39.041996,0.0,1.618438372,6.7854004796,18,5,7.785,756.42284310317,35.433072,0.4921268,1.618438372,0.0,0.0,0.0,11.9,6.0,4.6,0,0,1024,1024,1024,1024,0,0,0,0,0,0,0,87,3.895,3.899,0,0,0,0,4.2,69.8,749.86116310317,28.871392,6,P-GPS,,8.8
181300,2026-01-08 12:30:56,,,749.86116310317,39.041996,0.0,1.59646986736,6.813156386,18,5,7.785,756.42284310317,35.433072,0.4921268,1.618438372,0.0,0.0,0.0,12.2,7.4,5.3,0,0,1024,1024,1024,1024,0,0,0,0,0,0,0,87,3.895,3.899,0,0,0,0,4.2,69.8,749.86116310317,28.871392,6,P-GPS,,8.8
181400,2026-01-08 12:30:56,,,749.53307910317,39.041996,0.223694,1.5682579242,6.8446196416,18,5,7.785,756.42284310317,35.433072,0.4921268,1.618438372,0.223694,0.0,0.0,12.2,8.3,5.1,0,0,1024,1024,1024,1024,0,0,0,0,0,0,0,87,3.895,3.899,0,0,0,0,4.2,69.8,749.53307910317,28.543308,6,P-GPS,,8.7
181500,2026-01-08 12:30:56,,,749.53307910317,39.041996,0.223694,1.54167983936,6.8740815848,18,5,7.785,756.42284310317,35.433072,0.4921268,1.618438372,0.223694,0.0,0.0,12.4,8.8,5.1,0,0,1024,1024,1024,1024,0,0,0,0,0,0,0,87,3.895,3.899,0,0,0,0,4.2,69.8,749.53307910317,28.543308,6,P-GPS,,8.7
181600,2026-01-08 12:30:56,,,749.53307910317,39.041996,0.223694,1.5121883686,6.9035763364,18,5,7.785,756.42284310317,35.433072,0.4921268,1.618438372,0.223694,0.0,0.0,12.3,9.1,4.5,0,0,1024,1024,1024,1024,0,0,0,0,0,0,0,87,3.895,3.899,0,0,0,0,4.2,69.8,749.53307910317,28.543308,6,P-GPS,,8.7
181700,2026-01-08 12:30:56,,,749.86116310317,39.041996,0.223694,1.46349086048,6.952756128,18,5,7.785,756.42284310317,35.433072,0.4921268,1.618438372,0.223694,0.0,0.0,12.2,9.5,4.1,0,0,1024,1024,1024,1024,0,0,0,0,0,0,0,87,3.895,3.899,0,0,0,0,4.2,69.8,749.86116310317,28.871392,6,P-GPS,,8.8
181800,2026-01-08 12:30:56,,,749.86116310317,39.041996,0.0,1.4188484706,6.9974411688,18,5,7.785,756.42284310317,35.433072,0.4921268,1.618438372,0.0,0.0,0.0,12.1,9.9,3.3,0,0,1024,1024,1024,1024,0,0,0,0,0,0,0,87,3.895,3.899,0,0,0,0,4.2,69.8,749.86116310317,28.871392,6,P-GPS,,8.8
181900,2026-01-08 12:30:56,,,749.86116310317,39.041996,0.0,1.37471461092,7.0416012752,18,5,7.785,756.42284310317,35.433072,0.4921268,1.618438372,0.0,0.0,0.0,12.0,9.2,2.7,0,0,1024,1024,1024,1024,0,0,0,0,0,0,0,87,3.895,3.899,0,0,0,0,4.2,69.8,749.86116310317,28.871392,6,P-GPS,,8.8
182000,2026-01-08 12:30:56,,,749.86116310317,39.041996,0.0,1.33970476728,7.0766734548,18,5,7.785,756.42284310317,35.433072,0.4921268,1.618438372,0.0,0.0,-0.223694,12.0,7.7,2.6,0,0,1024,1024,1024,1024,0,0,0,0,0,0,0,87,3.895,3.899,0,0,0,0,4.2,69.8,749.86116310317,28.871392,6,P-GPS,,8.8
