time(millisecond),timestamp,height_above_ground_at_drone_location(feet),ground_elevation_at_drone_location(feet),altitude_above_seaLevel(feet),height_sonar(feet),speed(mph),distance(feet),mileage(feet),satellites,gpslevel,voltage(v),max_altitude(feet),max_ascent(feet),max_speed(mph),max_distance(feet), xSpeed(mph), ySpeed(mph), zSpeed(mph), compass_heading(degrees), pitch(degrees), roll(degrees),isPhoto,isVideo,rc_elevator,rc_aileron,rc_throttle,rc_rudder,rc_elevator(percent),rc_aileron(percent),rc_throttle(percent),rc_rudder(percent),gimbal_heading(degrees),gimbal_pitch(degrees),gimbal_roll(degrees),battery_percent,voltageCell1,voltageCell2,voltageCell3,voltageCell4,voltageCell5,voltageCell6,current(A),battery_temperature(f),altitude(feet),ascent(feet),flycStateRaw,flycState,message,height_above_takeoff(meters)
475800,2026-01-08 12:36:23,Available with any HD 360 subscription,Available with any HD 360 subscription,720.94576683667,0.656168,0.0,0.0,0.0,17,5,0.0,720.94576683667,0.0,0.0,0.0,0.0,0.0,0.0,24.3,1.4,0.9,0,0,1024,1024,1024,1024,0,0,0,0,0,0,0,69,3.871,3.868,0,0,0,0,0.0,77.54,720.94576683667,0.0,41,Motors_Started,SD card speed low SD card speed low. Normal use may be affected. Replace SD card (Code: 10028). Gimbal stuck. Make sure gimbal cover is removed and manually check whether gimbal can rotate freely (Code: 40002),0.0
475900,2026-01-08 12:36:23,,,720.94576683667,0.656168,0.0,0.0018655020282,0.0018655020282,17,5,7.739,720.94576683667,0.0,0.0,0.0018655020282,0.0,0.0,0.0,24.3,1.4,0.9,0,0,1024,1024,1024,1024,0,0,0,0,0,0,0,69,3.871,3.868,0,0,0,0,0.647,77.54,720.94576683667,0.0,41,Motors_Started,,0.0
476000,2026-01-08 12:36:23,,,720.94576683667,0.328084,0.0,0.023462763218,0.0234705060004,17,5,7.739,720.94576683667,0.0,0.0,0.023462763218,0.0,0.0,0.0,24.3,1.4,0.9,0,0,1024,1024,1024,1024,0,0,0,0,0,0,0,69,3.871,3.868,0,0,0,0,0.647,77.54,720.94576683667,0.0,41,Motors_Started,,0.0
476100,2026-01-08 12:36:23,,,720.94576683667,0.328084,0.0,0.026456857802,0.0265991478328,17,5,7.739,720.94576683667,0.0,0.0,0.026456857802,0.0,0.0,0.0,24.3,1.4,0.9,0,0,1024,1024,1024,1024,0,0,0,0,0,0,0,69,3.871,3.868,0,0,0,0,0.647,77.54,720.94576683667,0.0,41,Motors_Started,,0.0
476200,2026-01-08 12:36:24,,,720.94576683667,0.328084,0.0,0.025746884026,0.0273307751528,17,5,7.739,720.94576683667,0.0,0.0,0.026456857802,0.0,0.0,0.0,24.3,1.4,0.9,0,0,1024,1024,1024,1024,0,0,0,0,0,0,0,69,3.871,3.868,0,0,0,0,0.647,77.54,720.94576683667,0.0,41,Motors_Started,,0.0
476300,2026-01-08 12:36:24,,,720.94576683667,0.328084,0.0,0.010329396656,0.043452757296,17,5,7.739,720.94576683667,0.0,0.0,0.026456857802,0.0,0.0,0.0,24.6,1.4,0.8,0,0,1024,1024,1024,1024,0,0,0,0,0,0,0,69,3.871,3.868,0,0,0,0,0.647,77.54,720.94576683667,0.0,41,Motors_Started,,0.0
476400,2026-01-08 12:36:24,,,720.94576683667,0.328084,0.0,0.0223382881164,0.072815619128,17,5,7.739,720.94576683667,0.0,0.0,0.026456857802,0.0,0.0,0.0,24.3,1.3,1.0,0,0,1024,1024,1024,1024,0,0,0,0,0,0,0,69,3.871,3.868,0,0,0,0,0.647,77.54,720.94576683667,0.0,41,Motors_Started,,0.0
476500,2026-01-08 12:36:24,,,720.94576683667,0.328084,0.0,0.0259111228764,0.076690947336,17,5,7.739,720.94576683667,0.0,0.0,0.026456857802,0.0,0.0,0.0,24.4,1.5,0.9,0,0,1024,1024,1024,1024,0,0,0,0,0,0,0,69,3.871,3.868,0,0,0,0,0.647,77.54,720.94576683667,0.0,41,Motors_Started,,0.0
476600,2026-01-08 12:36:24,,,720.94576683667,0.328084,0.0,0.0281509523444,0.079062338488,18,5,7.739,720.94576683667,0.0,0.0,0.0281509523444,0.0,0.0,0.0,24.4,1.4,0.9,0,0,1024,1024,1024,1024,0,0,0,0,0,0,0,69,3.871,3.868,0,0,0,0,0.647,77.54,720.94576683667,0.0,41,Motors_Started,Setting new Return-To-Home altitude to 90m (295 ft). Data Recorder File Index is 30. Setting new Maximum Flight Altitude to 90m (295 ft),0.0
476700,2026-01-08 12:36:24,,,720.94576683667,0.328084,0.0,1.73857945196,0.081269359556,18,5,7.739,720.94576683667,0.0,0.0,1.73857945196,0.0,0.0,0.0,24.4,1.4,0.9,0,0,1024,1024,1024,1024,0,0,0,0,0,0,0,69,3.871,3.868,0,0,0,0,0.647,77.54,720.94576683667,0.0,41,Motors_Started,SD card speed low. Normal use may be affected. Replace SD card (Code: 10028),0.0
476800,2026-01-08 12:36:24,,,720.94576683667,0.328084,0.0,1.73322840192,0.086620409596,17,5,7.739,720.94576683667,0.0,0.0,1.73857945196,0.0,0.0,0.0,24.4,1.5,0.9,0,0,1024,1024,1024,1024,0,0,0,0,0,0,0,69,3.871,3.868,0,0,0,0,0.647,77.54,720.94576683667,0.0,41,Motors_Started,,0.0
476900,2026-01-08 12:36:24,,,720.94576683667,0.328084,0.0,1.71925202352,0.100608270936,17,5,7.739,720.94576683667,0.0,0.0,1.73857945196,0.0,0.0,0.0,24.4,1.4,1.0,0,0,1024,1024,1024,1024,0,0,0,0,0,0,0,69,3.871,3.868,0,0,0,0,0.647,77.54,720.94576683667,0.0,11,AutoTakeoff,,0.0
477000,2026-01-08 12:36:24,,,720.94576683667,0.328084,0.0,1.70670609136,0.11316273328,17,5,7.683,720.94576683667,0.0,0.0,1.73857945196,0.0,0.0,0.0,24.4,1.4,0.9,0,0,1024,1024,1024,1024,0,0,0,0,0,0,0,69,3.84,3.843,0,0,0,0,1.498,77.54,720.94576683667,0.0,11,AutoTakeoff,,0.0
477100,2026-01-08 12:36:24,,,720.94576683667,0.328084,0.0,1.70349086816,0.116380253068,17,5,7.683,720.94576683667,0.0,0.0,1.73857945196,0.0,0.0,0.0,24.4,1.4,0.9,0,0,1024,1024,1024,1024,0,0,0,0,0,0,0,69,3.84,3.843,0,0,0,0,1.498,77.54,720.94576683667,0.0,11,AutoTakeoff,,0.0
477200,2026-01-08 12:36:24,,,720.94576683667,0.328084,0.0,1.6963911304,0.123488192928,17,5,7.683,720.94576683667,0.0,0.0,1.73857945196,0.0,0.0,0.0,24.4,1.4,0.9,0,0,1024,1024,1024,1024,0,0,0,0,0,0,0,69,3.84,3.843,0,0,0,0,1.498,77.54,720.94576683667,0.0,11,AutoTakeoff,,0.0
477300,2026-01-08 12:36:25,,,720.94576683667,0.328084,0.0,1.64336947516,0.176801842928,17,5,7.683,720.94576683667,0.0,0.0,1.73857945196,0.0,0.0,0.0,24.3,1.4,0.9,0,0,1024,1024,1024,1024,0,0,0,0,0,0,0,69,3.84,3.843,0,0,0,0,1.498,77.54,720.94576683667,0.0,11,AutoTakeoff,,0.0
477400,2026-01-08 12:36:25,,,720.94576683667,0.328084,0.0,1.62863850356,0.191589901144,17,5,7.683,720.94576683667,0.0,0.0,1.73857945196,0.0,0.0,0.0,24.2,1.4,1.0,0,0,1024,1024,1024,1024,0,0,0,0,0,0,0,69,3.84,3.843,0,0,0,0,1.498,77.54,720.94576683667,0.0,11,AutoTakeoff,,0.0
477500,2026-01-08 12:36:25,,,720.94576683667,0.328084,0.0,1.64048889764,0.2034612926,17,5,7.683,720.94576683667,0.0,0.0,1.73857945196,0.0,0.0,0.0,24.5,1.5,0.9,0,0,1024,1024,1024,1024,0,0,0,0,0,0,0,69,3.84,3.843,0,0,0,0,1.498,77.54,720.94576683667,0.0,11,AutoTakeoff,,0.0
477600,2026-01-08 12:36:25,,,720.94576683667,0.328084,0.0,1.6514436224,0.21459646356,17,5,7.683,720.94576683667,0.0,0.0,1.73857945196,0.0,0.0,0.0,24.2,0.3,0.3,0,0,1024,1024,1024,1024,0,0,0,0,0,0,0,69,3.84,3.843,0,0,0,0,1.498,77.54,720.94576683667,0.0,11,AutoTakeoff,,0.0
477700,2026-01-08 12:36:25,,,720.94576683667,0.328084,0.0,1.67205385928,0.235673892056,17,5,7.683,720.94576683667,0.0,0.0,1.73857945196,0.0,0.0,0.0,23.0,-0.5,-0.8,0,0,1024,1024,1024,1024,0,0,0,0,0,0,0,69,3.84,3.843,0,0,0,0,1.498,77.54,720.94576683667,0.0,11,AutoTakeoff,,0.0
477800,2026-01-08 12:36:25,,,720.94576683667,0.328084,0.223694,1.6924377182,0.256134522632,17,5,7.683,720.94576683667,0.0,0.223694,1.73857945196,0.223694,0.0,-0.447388,22.5,-0.6,-1.0,0,0,1024,1024,1024,1024,0,0,0,0,0,0,0,69,3.84,3.843,0,0,0,0,1.498,77.54,720.94576683667,0.0,11,AutoTakeoff,,0.0
477900,2026-01-08 12:36:25,,,720.94576683667,0.328084,0.223694,1.75180123716,0.31628609936,17,5,7.683,720.94576683667,0.0,0.223694,1.75180123716,0.223694,0.0,-0.671082,22.5,1.7,0.3,0,0,1024,1024,1024,1024,0,0,0,0,0,0,0,69,3.84,3.843,0,0,0,0,1.498,77.54,720.94576683667,0.0,11,AutoTakeoff,,0.0
478000,2026-01-08 12:36:25,,,720.94576683667,0.656168,0.223694,1.81245740708,0.37900591764,17,5,7.683,720.94576683667,0.0,0.223694,1.81245740708,0.223694,0.0,-1.11847,22.6,2.3,1.2,0,0,1024,1024,1024,1024,0,0,0,0,0,0,0,69,3.84,3.843,0,0,0,0,1.498,77.54,720.94576683667,0.0,11,AutoTakeoff,,0.0
478100,2026-01-08 12:36:25,,,721.27385083667,0.656168,0.223694,1.91165360448,0.4889599894,17,5,7.552,721.27385083667,0.328084,0.223694,1.91165360448,0.223694,0.0,-1.342164,22.6,2.7,1.4,0,0,1024,1024,1024,1024,0,0,0,0,0,0,0,69,3.757,3.75,0,0,0,0,4.039,77.54,721.27385083667,0.328084,11,AutoTakeoff,,0.1
478200,2026-01-08 12:36:26,,,721.27385083667,0.984252,0.447388,1.9737861524,0.55240487332,18,5,7.552,721.27385083667,0.328084,0.447388,1.9737861524,0.447388,0.0,-1.565858,22.7,2.7,0.7,0,0,1024,1024,1024,1024,0,0,0,0,0,0,0,69,3.757,3.75,0,0,0,0,4.039,77.54,721.27385083667,0.328084,11,AutoTakeoff,,0.1
478300,2026-01-08 12:36:26,,,721.60193483667,0.984252,0.447388,2.04800203404,0.62713912768,18,5,7.552,721.60193483667,0.656168,0.447388,2.04800203404,0.447388,0.0,-2.013246,22.7,3.8,0.6,0,0,1024,1024,1024,1024,0,0,0,0,0,0,0,69,3.757,3.75,0,0,0,0,4.039,77.54,721.60193483667,0.656168,11,AutoTakeoff,,0.2
478400,2026-01-08 12:36:26,,,721.93001883667,1.312336,0.447388,2.13437670872,0.71353676824,18,5,7.552,721.93001883667,0.984252,0.447388,2.13437670872,0.447388,0.0,-2.013246,22.7,5.1,0.9,0,0,1024,1024,1127,1024,0,0,16,0,0,0,0,69,3.757,3.75,0,0,0,0,4.039,77.54,721.93001883667,0.984252,11,AutoTakeoff,,0.3
478500,2026-01-08 12:36:26,,,722.25810283667,1.64042,0.447388,2.30021660904,0.8804462224,18,5,7.552,722.25810283667,1.312336,0.447388,2.30021660904,0.447388,0.0,-2.23694,22.7,6.6,1.0,0,0,1024,1024,1241,1024,0,0,33,0,0,0,0,69,3.757,3.75,0,0,0,0,4.039,77.54,722.25810283667,1.312336,11,AutoTakeoff,,0.4
478600,2026-01-08 12:36:26,,,722.91427083667,1.968504,0.447388,2.40219167792,0.9841371706,16,5,7.552,722.91427083667,1.968504,0.447388,2.40219167792,0.447388,0.0,-2.23694,22.7,7.3,1.3,0,0,1024,1024,1581,1024,0,0,84,0,0,0,0,69,3.757,3.75,0,0,0,0,4.039,77.54,722.91427083667,1.968504,11,AutoTakeoff,,0.6
478700,2026-01-08 12:36:26,,,723.24235483667,2.296588,0.447388,2.48042658856,1.06325790804,16,5,7.552,723.24235483667,2.296588,0.447388,2.48042658856,0.447388,0.0,-2.23694,22.6,7.1,1.2,0,0,1024,1024,1684,1024,0,0,100,0,0,0,0,69,3.757,3.75,0,0,0,0,4.039,77.54,723.24235483667,2.296588,11,AutoTakeoff,Home Point updated. RTH altitude adjusted to 90 m (Code: 120852),0.7
478800,2026-01-08 12:36:26,,,723.57043883667,2.952756,0.447388,2.53982619676,1.1236384874,18,5,7.552,723.57043883667,2.624672,0.447388,2.53982619676,0.447388,0.0,-2.23694,22.7,7.0,1.1,0,0,1024,1024,1684,1024,0,0,100,0,0,0,0,69,3.757,3.75,0,0,0,0,4.039,77.54,723.57043883667,2.624672,6,P-GPS,,0.8
478900,2026-01-08 12:36:26,,,723.89852283667,3.608924,0.447388,2.59130913804,1.17778547076,18,5,7.552,723.89852283667,2.952756,0.447388,2.59130913804,0.223694,0.0,-2.684328,22.8,7.1,0.8,0,0,1024,1024,1684,1024,0,0,100,0,0,0,0,69,3.757,3.75,0,0,0,0,4.039,77.54,723.89852283667,2.952756,6,P-GPS,,0.9
479000,2026-01-08 12:36:26,,,724.55469083667,3.937008,0.223694,2.6081529706,1.21779203372,17,5,7.552,724.55469083667,3.608924,0.447388,2.6081529706,0.223694,0.0,-3.131716,22.8,7.6,0.2,0,0,1024,1024,1684,1024,0,0,100,0,0,0,0,69,3.757,3.75,0,0,0,0,4.039,77.54,724.55469083667,3.608924,6,P-GPS,,1.1
479100,2026-01-08 12:36:26,,,724.88277483667,4.593176,0.223694,2.62416018896,1.26326119528,17,5,7.552,724.88277483667,3.937008,0.447388,2.62416018896,0.223694,0.0,-3.579104,22.8,7.7,0.1,0,0,1024,1024,1684,1024,0,0,100,0,0,0,0,69,3.757,3.75,0,0,0,0,4.039,77.54,724.88277483667,3.937008,6,P-GPS,,1.2
479200,2026-01-08 12:36:26,,,725.53894283667,5.249344,0.0,2.63143709208,1.29616802048,18,5,7.552,725.53894283667,4.593176,0.447388,2.63143709208,0.0,0.0,-3.802798,22.7,7.4,0.3,0,0,1024,1024,1684,1024,0,0,100,0,0,0,0,69,3.73,3.726,0,0,0,0,4.039,77.54,725.53894283667,4.593176,6,P-GPS,,1.4
479300,2026-01-08 12:36:27,,,726.19511083667,5.905512,0.0,2.64831373304,1.32228350688,18,5,7.552,726.19511083667,5.249344,0.447388,2.64831373304,0.0,0.0,-4.250186,22.8,7.1,0.7,0,0,1024,1024,1684,1024,0,0,100,0,0,0,0,69,3.73,3.726,0,0,0,0,4.039,77.54,726.19511083667,5.249344,6,P-GPS,,1.6
479400,2026-01-08 12:36:27,,,726.85127883667,6.56168,0.0,2.64415362792,1.4246391532,18,5,7.552,726.85127883667,5.905512,0.447388,2.64831373304,0.0,0.0,-4.250186,22.7,6.5,0.6,0,0,1024,1024,1684,1024,0,0,100,0,0,0,0,69,3.73,3.726,0,0,0,0,4.039,77.54,726.85127883667,5.905512,6,P-GPS,,1.8
479500,2026-01-08 12:36:27,,,727.50744683667,7.217848,0.0,2.59215231392,1.47808731764,18,5,7.552,727.50744683667,6.56168,0.447388,2.64831373304,0.0,0.0,-4.47388,22.6,6.1,0.7,0,0,1024,1024,1684,1024,0,0,100,0,0,0,0,69,3.73,3.726,0,0,0,0,4.039,77.54,727.50744683667,6.56168,6,P-GPS,,2.0
479600,2026-01-08 12:36:27,,,728.16361483667,7.874016,0.0,2.5396326272,1.53524283128,18,5,7.552,728.16361483667,7.217848,0.447388,2.64831373304,0.0,0.0,-4.47388,22.7,5.6,1.1,0,0,1024,1024,1684,1024,0,0,100,0,0,0,0,69,3.73,3.726,0,0,0,0,4.039,77.54,728.16361483667,7.217848,6,P-GPS,,2.2
479700,2026-01-08 12:36:27,,,728.81978283667,8.530184,0.0,2.497047324,1.61073167884,18,5,7.552,728.81978283667,7.874016,0.447388,2.64831373304,0.0,0.0,-4.47388,22.7,5.1,0.7,0,0,1024,1024,1684,1024,0,0,100,0,0,0,0,69,3.73,3.726,0,0,0,0,4.039,77.54,728.81978283667,7.874016,6,P-GPS,,2.4
479800,2026-01-08 12:36:27,,,729.47595083667,8.858268,0.0,2.41933734776,1.77860569996,18,5,7.552,729.47595083667,8.530184,0.447388,2.64831373304,0.0,0.0,-4.47388,22.5,5.7,0.8,0,0,1024,1024,1684,1024,0,0,100,0,0,0,0,69,3.73,3.726,0,0,0,0,4.039,77.54,729.47595083667,8.530184,6,P-GPS,,2.6
479900,2026-01-08 12:36:27,,,730.13211883667,9.514436,0.0,2.36562999696,1.83779205356,18,5,7.552,730.13211883667,9.186352,0.447388,2.64831373304,0.0,0.0,-4.250186,22.6,5.3,0.8,0,0,1024,1024,1684,1024,0,0,100,0,0,0,0,69,3.73,3.726,0,0,0,0,4.039,77.54,730.13211883667,9.186352,6,P-GPS,,2.8
480000,2026-01-08 12:36:27,,,730.78828683667,10.170604,0.0,2.312418053,1.8972113468,18,5,7.552,730.78828683667,9.84252,0.447388,2.64831373304,0.0,0.0,-4.250186,22.6,5.1,0.7,0,0,1024,1024,1684,1024,0,0,100,0,0,0,0,69,3.73,3.726,0,0,0,0,4.039,77.54,730.78828683667,9.84252,6,P-GPS,,3.0
480100,2026-01-08 12:36:27,,,731.44445483667,10.498688,0.0,2.26569232972,1.9584318212,18,5,7.552,731.44445483667,10.498688,0.447388,2.64831373304,0.0,0.0,-4.250186,22.6,4.9,0.8,0,0,1024,1024,1684,1024,0,0,100,0,0,0,0,69,3.73,3.726,0,0,0,0,4.039,77.54,731.44445483667,10.498688,6,P-GPS,,3.2
480200,2026-01-08 12:36:28,,,732.10062283667,11.154856,0.0,2.22804469072,2.01045938192,18,5,7.552,732.10062283667,11.154856,0.447388,2.64831373304,0.0,0.0,-4.250186,22.7,4.8,1.0,0,0,1024,1024,1684,1024,0,0,100,0,0,0,0,69,3.73,3.726,0,0,0,0,4.039,77.54,732.10062283667,11.154856,6,P-GPS,,3.4
480300,2026-01-08 12:36:28,,,732.75679083667,11.811024,0.0,2.216125399,2.04395019664,18,5,7.456,732.75679083667,11.811024,0.447388,2.64831373304,0.0,0.0,-4.250186,22.6,5.1,0.7,0,0,1024,1024,1684,1024,0,0,100,0,0,0,0,69,3.744,3.737,0,0,0,0,6.371,77.54,732.75679083667,11.811024,6,P-GPS,,3.6
480400,2026-01-08 12:36:28,,,733.41295883667,12.467192,0.0,2.1927166056,2.06780190344,18,5,7.456,733.41295883667,12.467192,0.447388,2.64831373304,0.0,0.0,-4.250186,22.5,5.4,-0.1,0,0,1024,1024,1684,1024,0,0,100,0,0,0,0,69,3.744,3.737,0,0,0,0,6.371,77.54,733.41295883667,12.467192,6,P-GPS,,3.8
480500,2026-01-08 12:36:28,,,734.06912683667,12.795276,0.0,2.11715229872,2.16638130292,18,5,7.456,734.06912683667,13.12336,0.447388,2.64831373304,0.0,0.0,-4.250186,22.5,5.5,0.2,0,0,1024,1024,1684,1024,0,0,100,0,0,0,0,69,3.744,3.737,0,0,0,0,6.371,77.54,734.06912683667,13.12336,6,P-GPS,,4.0
480600,2026-01-08 12:36:28,,,734.72529483667,13.451444,0.0,2.05215885832,2.24877303784,18,5,7.456,734.72529483667,13.779528,0.447388,2.64831373304,0.0,0.0,-4.250186,22.5,5.9,0.3,0,0,1024,1024,1684,1024,0,0,100,0,0,0,0,69,3.744,3.737,0,0,0,0,6.371,77.54,734.72529483667,13.779528,6,P-GPS,,4.2
480700,2026-01-08 12:36:28,,,735.38146283667,14.107612,0.0,1.97243772716,2.44115165292,18,5,7.456,735.38146283667,14.435696,0.447388,2.64831373304,0.0,0.0,-4.250186,22.5,6.0,0.2,0,0,1024,1024,1684,1024,0,0,100,0,0,0,0,69,3.744,3.737,0,0,0,0,6.371,77.54,735.38146283667,14.435696,6,P-GPS,,4.4
480800,2026-01-08 12:36:28,,,736.03763083667,14.76378,0.0,1.93172906444,2.4821523104,18,5,7.456,736.03763083667,15.091864,0.447388,2.64831373304,0.0,0.0,-4.250186,22.5,5.1,0.8,0,0,1024,1024,1684,1024,0,0,100,0,0,0,0,69,3.744,3.737,0,0,0,0,6.371,77.54,736.03763083667,15.091864,6,P-GPS,,4.6
480900,2026-01-08 12:36:28,,,736.69379883667,15.419948,0.0,1.9059711896,2.52466215428,18,5,7.456,736.69379883667,15.748032,0.447388,2.64831373304,0.0,0.0,-4.250186,22.6,5.2,0.9,0,0,1024,1024,1684,1024,0,0,100,0,0,0,0,69,3.744,3.737,0,0,0,0,6.371,77.54,736.69379883667,15.748032,6,P-GPS,,4.8
481000,2026-01-08 12:36:28,,,737.34996683667,16.076116,0.0,1.87721790784,2.5658301346,18,5,7.456,737.34996683667,16.4042,0.447388,2.64831373304,0.0,0.0,-4.250186,22.6,4.9,0.8,0,0,1024,1024,1684,1024,0,0,100,0,0,0,0,69,3.744,3.737,0,0,0,0,6.371,77.54,737.34996683667,16.4042,6,P-GPS,,5.0
481100,2026-01-08 12:36:28,,,738.00613483667,16.732284,0.0,1.8689633144,2.66580717192,18,5,7.456,738.00613483667,17.060368,0.447388,2.64831373304,0.0,0.0,-4.250186,22.5,4.8,0.0,0,0,1024,1024,1684,1024,0,0,100,0,0,0,0,69,3.744,3.737,0,0,0,0,6.371,77.54,738.00613483667,17.060368,6,P-GPS,,5.2
481200,2026-01-08 12:36:29,,,738.66230283667,17.716536,0.0,1.83204074104,2.70783801316,18,5,7.456,738.66230283667,17.716536,0.447388,2.64831373304,0.0,0.0,-4.47388,22.4,4.9,0.4,0,0,1024,1024,1684,1024,0,0,100,0,0,0,0,69,3.744,3.737,0,0,0,0,6.371,77.54,738.66230283667,17.716536,6,P-GPS,,5.4
481300,2026-01-08 12:36:29,,,739.31847083667,18.372704,0.0,1.83297906128,2.73281832892,18,5,7.456,739.31847083667,18.372704,0.447388,2.64831373304,0.0,0.0,-4.47388,22.5,5.0,1.0,0,0,1024,1024,1684,1024,0,0,100,0,0,0,0,69,3.744,3.737,0,0,0,0,6.371,77.54,739.31847083667,18.372704,6,P-GPS,,5.6
481400,2026-01-08 12:36:29,,,739.97463883667,19.028872,0.0,1.82809717136,2.75310704348,19,5,7.469,739.97463883667,19.028872,0.447388,2.64831373304,0.0,0.0,-4.47388,22.4,5.0,0.6,0,0,1024,1024,1684,1024,0,0,100,0,0,0,0,69,3.738,3.732,0,0,0,0,6.203,77.54,739.97463883667,19.028872,6,P-GPS,,5.8
481500,2026-01-08 12:36:29,,,740.63080683667,20.013124,0.0,1.82110570132,2.80076452532,19,5,7.469,740.63080683667,19.68504,0.447388,2.64831373304,0.0,0.0,-4.47388,22.3,4.7,0.4,0,0,1024,1024,1684,1024,0,0,100,0,0,0,0,69,3.738,3.732,0,0,0,0,6.203,77.54,740.63080683667,19.68504,6,P-GPS,,6.0
481600,2026-01-08 12:36:29,,,741.28697483667,20.669292,0.0,1.78087932208,2.84123696756,19,5,7.469,741.28697483667,20.341208,0.447388,2.64831373304,0.0,0.0,-4.47388,22.4,4.1,1.0,0,0,1024,1024,1684,1024,0,0,100,0,0,0,0,69,3.738,3.732,0,0,0,0,6.203,77.54,741.28697483667,20.341208,6,P-GPS,,6.2
481700,2026-01-08 12:36:29,,,741.94314283667,21.653544,0.0,1.7501476938,2.87754602384,19,5,7.469,741.94314283667,20.997376,0.447388,2.64831373304,0.0,0.0,-4.47388,22.5,5.1,1.3,0,0,1024,1024,1684,1024,0,0,100,0,0,0,0,69,3.738,3.732,0,0,0,0,6.203,77.54,741.94314283667,20.997376,6,P-GPS,,6.4
481800,2026-01-08 12:36:29,,,742.59931083667,22.309712,0.0,1.72762800804,2.90609917436,19,5,7.469,742.59931083667,21.653544,0.447388,2.64831373304,0.0,0.0,-4.250186,22.5,5.1,1.3,0,0,1024,1024,1684,1024,0,0,100,0,0,0,0,69,3.738,3.732,0,0,0,0,6.203,77.54,742.59931083667,21.653544,6,P-GPS,,6.6
481900,2026-01-08 12:36:29,,,743.25547883667,22.96588,0.0,1.69582354508,2.9502625616,19,5,7.469,743.25547883667,22.309712,0.447388,2.64831373304,0.0,0.0,-4.47388,22.6,5.1,1.7,0,0,1024,1024,1684,1024,0,0,100,0,0,0,0,69,3.738,3.732,0,0,0,0,6.203,77.54,743.25547883667,22.309712,6,P-GPS,,6.8
482000,2026-01-08 12:36:29,,,743.91164683667,23.293964,0.0,1.67581698276,2.97702437348,19,5,7.469,743.91164683667,22.96588,0.447388,2.64831373304,0.0,0.0,-4.47388,22.5,5.4,1.1,0,0,1024,1024,1684,1024,0,0,100,0,0,0,0,69,3.738,3.732,0,0,0,0,6.203,77.54,743.91164683667,22.96588,6,P-GPS,,7.0
482100,2026-01-08 12:36:29,,,744.89589883667,27.230972,0.0,1.64914375356,3.01331046388,19,5,7.469,744.89589883667,23.950132,0.447388,2.64831373304,0.0,0.0,-4.250186,22.4,6.6,1.2,0,0,1024,1024,1684,1024,0,0,100,0,0,0,0,69,3.738,3.732,0,0,0,0,6.203,77.54,744.89589883667,23.950132,6,P-GPS,,7.3
482200,2026-01-08 12:36:29,,,745.55206683667,28.215224,0.0,1.62620083944,3.04844826028,19,5,7.469,745.55206683667,24.6063,0.447388,2.64831373304,0.0,0.0,-4.250186,22.4,6.0,0.8,0,0,1024,1024,1684,1024,0,0,100,0,0,0,0,69,3.738,3.732,0,0,0,0,6.203,77.54,745.55206683667,24.6063,6,P-GPS,,7.5
482300,2026-01-08 12:36:30,,,746.20823483667,28.871392,0.0,1.60562013012,3.0819226708,19,5,7.469,746.20823483667,25.262468,0.447388,2.64831373304,0.0,0.0,-4.47388,22.3,4.3,1.6,0,0,1024,1024,1684,1024,0,0,100,0,0,0,0,69,3.738,3.732,0,0,0,0,6.203,77.54,746.20823483667,25.262468,6,P-GPS,,7.7
482400,2026-01-08 12:36:30,,,747.19248683667,29.52756,0.223694,1.56679138872,3.13340561208,19,5,7.469,747.19248683667,26.24672,0.447388,2.64831373304,0.223694,0.0,-4.697574,22.5,6.3,2.9,0,0,1024,1024,1684,1024,0,0,100,0,0,0,0,69,3.738,3.732,0,0,0,0,6.203,77.54,747.19248683667,26.24672,6,P-GPS,,8.0
482500,2026-01-08 12:36:30,,,747.84865483667,30.183728,0.223694,1.6224902094,3.1906661126,19,5,7.469,747.84865483667,26.902888,0.447388,2.64831373304,0.223694,0.0,-4.47388,22.8,6.8,3.3,0,0,1024,1024,1684,1024,0,0,100,0,0,0,0,69,3.738,3.732,0,0,0,0,6.203,77.54,747.84865483667,26.902888,6,P-GPS,,8.2
482600,2026-01-08 12:36:30,,,748.50482283667,30.839896,0.223694,1.67808076236,3.24665036636,19,5,7.444,748.50482283667,27.559056,0.447388,2.64831373304,0.223694,0.0,-4.697574,22.8,8.3,3.8,0,0,1024,1024,1684,1024,0,0,100,0,0,0,0,69,3.726,3.717,0,0,0,0,6.229,77.54,748.50482283667,27.559056,6,P-GPS,,8.4
482700,2026-01-08 12:36:30,,,749.48907483667,31.824148,0.447388,1.70545609132,3.27735902876,19,5,7.444,749.48907483667,28.543308,0.447388,2.64831373304,0.447388,0.0,-4.697574,22.7,8.7,4.4,0,0,1024,1024,1684,1024,0,0,100,0,0,0,0,69,3.726,3.717,0,0,0,0,6.229,77.54,749.48907483667,28.543308,6,P-GPS,,8.7
482800,2026-01-08 12:36:30,,,750.14524283667,32.480316,0.447388,1.77161094908,3.3435368524,19,5,7.444,750.14524283667,29.199476,0.447388,2.64831373304,0.447388,0.0,-4.47388,22.7,10.8,3.3,0,0,1024,1024,1684,1024,0,0,100,0,0,0,0,69,3.726,3.717,0,0,0,0,6.229,77.54,750.14524283667,29.199476,6,P-GPS,,8.9
482900,2026-01-08 12:36:30,,,750.80141083667,33.136484,0.447388,1.823982998,3.399278324,19,5,7.444,750.80141083667,29.855644,0.447388,2.64831373304,0.447388,0.0,-4.47388,22.9,12.0,2.8,0,0,1024,1024,1684,1024,0,0,100,0,0,0,0,69,3.726,3.717,0,0,0,0,6.229,77.54,750.80141083667,29.855644,6,P-GPS,,9.1
483000,2026-01-08 12:36:30,,,751.45757883667,33.792652,0.3131716,1.86049546636,3.4394358056,19,5,7.444,751.45757883667,30.511812,0.447388,2.64831373304,0.223694,0.223694,-4.47388,22.8,12.3,3.0,0,0,1024,1024,1684,1024,0,0,100,0,0,0,0,69,3.726,3.717,0,0,0,0,6.229,77.54,751.45757883667,30.511812,6,P-GPS,,9.3
483100,2026-01-08 12:36:30,,,752.11374683667,34.44882,0.3131716,1.86059061072,3.45964578,19,5,7.444,752.11374683667,31.16798,0.447388,2.64831373304,0.223694,0.223694,-4.47388,22.6,12.7,1.9,0,0,1024,1024,1684,1024,0,0,100,0,0,0,0,69,3.726,3.717,0,0,0,0,6.229,77.54,752.11374683667,31.16798,6,P-GPS,,9.5
483200,2026-01-08 12:36:31,,,752.76991483667,35.104988,0.223694,1.85368772336,3.4834974868,19,5,7.444,752.76991483667,31.824148,0.447388,2.64831373304,0.0,0.223694,-4.47388,22.7,12.2,0.7,0,0,1024,1024,1684,1024,0,0,100,0,0,0,0,69,3.726,3.717,0,0,0,0,6.229,77.54,752.76991483667,31.824148,6,P-GPS,,9.7
483300,2026-01-08 12:36:31,,,753.42608283667,35.761156,0.0,1.84993772324,3.51377964,19,5,7.444,753.42608283667,32.480316,0.447388,2.64831373304,0.0,0.0,-4.250186,22.7,12.2,-0.2,0,0,1024,1024,1684,1024,0,0,100,0,0,0,0,69,3.726,3.717,0,0,0,0,6.229,77.54,753.42608283667,32.480316,6,P-GPS,,9.9
483400,2026-01-08 12:36:31,,,753.75416683667,36.417324,0.0,1.83421593796,3.5354003756,19,5,7.444,753.75416683667,32.8084,0.447388,2.64831373304,0.0,0.0,-4.250186,22.6,11.4,-0.3,0,0,1024,1024,1024,1024,0,0,0,0,0,0,0,69,3.726,3.717,0,0,0,0,6.229,77.54,753.75416683667,32.8084,6,P-GPS,,10.0
483500,2026-01-08 12:36:31,,,754.41033483667,37.073492,0.0,1.78939638272,3.58021665,19,5,7.444,754.41033483667,33.464568,0.447388,2.64831373304,0.0,0.0,-4.250186,22.7,10.9,0.5,0,0,1024,1024,1024,1024,0,0,0,0,0,0,0,69,3.726,3.717,0,0,0,0,6.229,77.54,754.41033483667,33.464568,6,P-GPS,,10.2
483600,2026-01-08 12:36:31,,,755.06650283667,37.72966,0.0,1.73863850708,3.6310368616,19,5,7.444,755.06650283667,34.120736,0.447388,2.64831373304,0.0,0.0,-4.026492,22.7,10.8,0.6,0,0,1024,1024,1024,1024,0,0,0,0,0,0,0,69,3.726,3.717,0,0,0,0,6.229,77.54,755.06650283667,34.120736,6,P-GPS,,10.4
483700,2026-01-08 12:36:31,,,755.39458683667,38.385828,0.0,1.69367131404,3.6835303016,19,5,7.426,755.39458683667,34.44882,0.447388,2.64831373304,0.0,0.0,-3.35541,22.5,10.3,0.3,0,0,1024,1024,1024,1024,0,0,0,0,0,0,0,69,3.715,3.711,0,0,0,0,6.142,77.54,755.39458683667,34.44882,6,P-GPS,,10.5
483800,2026-01-08 12:36:31,,,755.72267083667,38.713912,0.0,1.6547408666,3.7248688856,19,5,7.426,755.72267083667,34.776904,0.447388,2.64831373304,0.0,0.0,-2.684328,22.8,9.9,1.9,0,0,1024,1024,1024,1024,0,0,0,0,0,0,0,69,3.715,3.711,0,0,0,0,6.142,77.54,755.72267083667,34.776904,6,P-GPS,,10.6
483900,2026-01-08 12:36:31,,,755.72267083667,39.041996,0.0,1.6088583192,3.7764764988,19,5,7.426,755.72267083667,34.776904,0.447388,2.64831373304,0.0,0.0,-2.013246,22.8,10.3,2.2,0,0,1024,1024,1024,1024,0,0,0,0,0,0,0,69,3.715,3.711,0,0,0,0,6.142,77.54,755.72267083667,34.776904,6,P-GPS,,10.6
484000,2026-01-08 12:36:31,,,755.72267083667,39.041996,0.0,1.56578417084,3.824147104,19,5,7.426,755.72267083667,34.776904,0.447388,2.64831373304,0.0,0.0,-1.342164,22.7,10.0,2.0,0,0,1024,1024,1024,1024,0,0,0,0,0,0,0,69,3.715,3.711,0,0,0,0,6.142,77.54,755.72267083667,34.776904,6,P-GPS,,10.6
484100,2026-01-08 12:36:31,,,755.72267083667,39.041996,0.0,1.50419624236,3.889763904,19,5,7.426,755.72267083667,34.776904,0.447388,2.64831373304,0.0,0.0,-0.671082,22.7,10.0,1.6,0,0,1024,1024,1024,1024,0,0,0,0,0,0,0,69,3.715,3.711,0,0,0,0,6.142,77.54,755.72267083667,34.776904,6,P-GPS,,10.6
484200,2026-01-08 12:36:32,,,755.72267083667,39.041996,0.0,1.4437992588,3.953248158,19,5,7.426,755.72267083667,34.776904,0.447388,2.64831373304,0.0,0.0,-0.223694,22.5,9.8,0.9,0,0,1024,1024,1024,1024,0,0,0,0,0,0,0,69,3.715,3.711,0,0,0,0,6.142,77.54,755.72267083667,34.776904,6,P-GPS,,10.6
484300,2026-01-08 12:36:32,,,755.72267083667,39.041996,0.0,1.38099413868,4.024934512,19,5,7.426,755.72267083667,34.776904,0.447388,2.64831373304,0.0,0.0,0.0,22.5,9.4,1.1,0,0,1024,1024,1024,1024,0,0,0,0,0,0,0,69,3.715,3.711,0,0,0,0,6.142,77.54,755.72267083667,34.776904,6,P-GPS,,10.6
484400,2026-01-08 12:36:32,,,755.72267083667,39.041996,0.0,1.32818901888,4.0975395012,18,5,7.426,755.72267083667,34.776904,0.447388,2.64831373304,0.0,0.0,0.0,22.6,9.2,1.8,0,0,1024,1024,1024,1024,0,0,0,0,0,0,0,69,3.715,3.711,0,0,0,0,6.142,77.54,755.72267083667,34.776904,6,P-GPS,,10.6
484500,2026-01-08 12:36:32,,,755.39458683667,39.041996,0.223694,1.33269689304,4.200787536,18,5,7.426,755.72267083667,34.776904,0.447388,2.64831373304,0.0,-0.223694,0.0,22.6,8.0,2.7,0,0,1024,1024,1024,1024,0,0,0,0,0,0,0,69,3.715,3.711,0,0,0,0,6.142,77.54,755.39458683667,34.44882,6,P-GPS,,10.5
484600,2026-01-08 12:36:32,,,755.39458683667,39.041996,0.223694,1.32023626272,4.2646654908,19,5,7.426,755.72267083667,34.776904,0.447388,2.64831373304,0.0,-0.223694,0.0,22.6,8.2,3.1,0,0,1024,1024,1024,1024,0,0,0,0,0,0,0,69,3.715,3.711,0,0,0,0,6.142,77.54,755.39458683667,34.44882,6,P-GPS,,10.5
484700,2026-01-08 12:36:32,,,755.39458683667,39.041996,0.223694,1.29448166872,4.3247704796,19,5,7.426,755.72267083667,34.776904,0.447388,2.64831373304,0.0,-0.223694,0.0,22.6,8.2,3.3,0,0,1024,1024,1024,1024,0,0,0,0,0,0,0,69,3.715,3.711,0,0,0,0,6.142,77.54,755.39458683667,34.44882,6,P-GPS,,10.5
484800,2026-01-08 12:36:32,,,755.39458683667,39.041996,0.223694,1.27883206192,4.374508014,19,5,7.464,755.72267083667,34.776904,0.447388,2.64831373304,0.0,-0.223694,0.0,22.6,8.6,4.1,0,0,1024,1024,1024,1024,0,0,0,0,0,0,0,68,3.732,3.732,0,0,0,0,4.825,77.54,755.39458683667,34.44882,6,P-GPS,,10.5
484900,2026-01-08 12:36:32,,,755.39458683667,39.041996,0.0,1.29016736412,4.3863518464,19,5,7.464,755.72267083667,34.776904,0.447388,2.64831373304,0.0,0.0,0.0,22.6,7.4,3.6,0,0,1024,1024,1024,1024,0,0,0,0,0,0,0,68,3.732,3.732,0,0,0,0,4.825,77.54,755.39458683667,34.44882,6,P-GPS,,10.5
485000,2026-01-08 12:36:32,,,755.39458683667,39.041996,0.0,1.28929137984,4.4204725824,19,5,7.464,755.72267083667,34.776904,0.447388,2.64831373304,0.0,0.0,0.0,22.5,7.7,3.2,0,0,1024,1024,1024,1024,0,0,0,0,0,0,0,68,3.732,3.732,0,0,0,0,4.825,77.54,755.39458683667,34.44882,6,P-GPS,,10.5
485100,2026-01-08 12:36:32,,,755.39458683667,39.041996,0.0,1.28040358428,4.4539699588,19,5,7.464,755.72267083667,34.776904,0.447388,2.64831373304,0.0,0.0,0.0,22.6,8.2,3.3,0,0,1024,1024,1024,1024,0,0,0,0,0,0,0,68,3.732,3.732,0,0,0,0,4.825,77.54,755.39458683667,34.44882,6,P-GPS,,10.5
485200,2026-01-08 12:36:33,,,755.06650283667,39.041996,0.0,1.2780840304,4.4766405632,19,5,7.464,755.72267083667,34.776904,0.447388,2.64831373304,0.0,0.0,0.0,22.4,8.1,3.6,0,0,1024,1024,1024,1024,0,0,0,0,0,0,0,68,3.732,3.732,0,0,0,0,4.825,77.54,755.06650283667,34.120736,6,P-GPS,,10.4
485300,2026-01-08 12:36:33,,,755.06650283667,39.041996,0.0,1.2943898052,4.4987534248,19,5,7.464,755.72267083667,34.776904,0.447388,2.64831373304,0.0,0.0,0.0,22.6,8.4,3.4,0,0,1024,1024,1024,1024,0,0,0,0,0,0,0,68,3.732,3.732,0,0,0,0,4.825,77.54,755.06650283667,34.120736,6,P-GPS,,10.4
485400,2026-01-08 12:36:33,,,755.06650283667,39.041996,0.0,1.30940292904,4.5159450264,19,5,7.464,755.72267083667,34.776904,0.447388,2.64831373304,0.0,0.0,0.0,22.6,8.9,3.0,0,0,1024,1024,1024,1024,0,0,0,0,0,0,0,68,3.732,3.732,0,0,0,0,4.825,77.54,755.06650283667,34.120736,6,P-GPS,,10.4
485500,2026-01-08 12:36:33,,,755.06650283667,39.041996,0.0,1.31398954336,4.531332166,19,5,7.464,755.72267083667,34.776904,0.447388,2.64831373304,0.0,0.0,0.0,22.7,8.6,3.1,0,0,1024,1024,1024,1024,0,0,0,0,0,0,0,68,3.732,3.732,0,0,0,0,4.825,77.54,755.06650283667,34.120736,6,P-GPS,,10.4
485600,2026-01-08 12:36:33,,,755.06650283667,39.041996,0.0,1.32426513424,4.5536746864,19,5,7.464,755.72267083667,34.776904,0.447388,2.64831373304,0.0,0.0,0.0,22.7,7.9,3.8,0,0,1024,1024,1024,1024,0,0,0,0,0,0,0,68,3.732,3.732,0,0,0,0,4.825,77.54,755.06650283667,34.120736,6,P-GPS,,10.4
485700,2026-01-08 12:36:33,,,754.73841883667,39.041996,0.0,1.34881237912,4.5831038212,19,5,7.464,755.72267083667,34.776904,0.447388,2.64831373304,0.0,0.0,0.0,22.7,7.6,3.7,0,0,1024,1024,1024,1024,0,0,0,0,0,0,0,68,3.732,3.732,0,0,0,0,4.825,77.54,754.73841883667,33.792652,6,P-GPS,,10.3
485800,2026-01-08 12:36:33,,,754.73841883667,39.041996,0.0,1.37121395464,4.6154200952,19,5,7.464,755.72267083667,34.776904,0.447388,2.64831373304,0.0,0.0,0.0,22.6,6.5,4.1,0,0,1024,1024,1024,1024,0,0,0,0,0,0,0,68,3.732,3.732,0,0,0,0,4.825,77.54,754.73841883667,33.792652,6,P-GPS,,10.3
485900,2026-01-08 12:36:33,,,754.73841883667,39.041996,0.0,1.38228022796,4.6431103848,19,5,7.467,755.72267083667,34.776904,0.447388,2.64831373304,0.0,0.0,0.0,22.7,6.5,3.9,0,0,1024,1024,1024,1024,0,0,0,0,0,0,0,68,3.728,3.723,0,0,0,0,5.551,77.72,754.73841883667,33.792652,6,P-GPS,,10.3
486000,2026-01-08 12:36:33,,,754.73841883667,39.041996,0.0,1.39728022844,4.6704725904,19,5,7.467,755.72267083667,34.776904,0.447388,2.64831373304,0.0,0.0,0.0,22.8,6.6,4.8,0,0,1024,1024,1024,1024,0,0,0,0,0,0,0,68,3.728,3.723,0,0,0,0,5.551,77.72,754.73841883667,33.792652,6,P-GPS,,10.3
486100,2026-01-08 12:36:33,,,754.73841883667,39.041996,0.0,1.40947182988,4.7012468696,19,5,7.467,755.72267083667,34.776904,0.447388,2.64831373304,0.0,0.0,0.0,22.8,6.7,4.0,0,0,1024,1024,1024,1024,0,0,0,0,0,0,0,68,3.728,3.723,0,0,0,0,5.551,77.72,754.73841883667,33.792652,6,P-GPS,,10.3
486200,2026-01-08 12:36:34,,,754.73841883667,39.041996,0.0,1.38300201276,4.7656169504,19,5,7.467,755.72267083667,34.776904,0.447388,2.64831373304,0.0,0.0,-0.223694,22.7,7.4,3.6,0,0,1024,1024,1024,1024,0,0,0,0,0,0,0,68,3.728,3.723,0,0,0,0,5.551,77.72,754.73841883667,33.792652,6,P-GPS,,10.3
486300,2026-01-08 12:36:34,,,754.41033483667,39.041996,0.0,1.39035109436,4.7794949036,19,5,7.467,755.72267083667,34.776904,0.447388,2.64831373304,0.0,0.0,0.0,22.8,7.2,3.5,0,0,1024,1024,1024,1024,0,0,0,0,0,0,0,68,3.728,3.723,0,0,0,0,5.551,77.72,754.41033483667,33.464568,6,P-GPS,,10.2
486400,2026-01-08 12:36:34,,,754.41033483667,39.041996,0.0,1.39937340436,4.788878106,19,5,7.467,755.72267083667,34.776904,0.447388,2.64831373304,0.0,0.0,0.0,22.7,7.6,3.1,0,0,1024,1024,1024,1024,0,0,0,0,0,0,0,68,3.728,3.723,0,0,0,0,5.551,77.72,754.41033483667,33.464568,6,P-GPS,,10.2
486500,2026-01-08 12:36:34,,,754.41033483667,39.041996,0.0,1.4272802294,4.826443724,19,5,7.467,755.72267083667,34.776904,0.447388,2.64831373304,0.0,0.0,0.0,22.6,7.3,3.1,0,0,1024,1024,1024,1024,0,0,0,0,0,0,0,68,3.728,3.723,0,0,0,0,5.551,77.72,754.41033483667,33.464568,6,P-GPS,,10.2
486600,2026-01-08 12:36:34,,,754.41033483667,39.041996,0.0,1.45983272388,4.8739174788,19,5,7.467,755.72267083667,34.776904,0.447388,2.64831373304,0.0,0.0,0.0,22.6,8.6,2.7,0,0,1024,1024,1024,1024,0,0,0,0,0,0,0,68,3.728,3.723,0,0,0,0,5.551,77.72,754.41033483667,33.464568,6,P-GPS,,10.2
486700,2026-01-08 12:36:34,,,754.41033483667,39.041996,0.0,1.48383206848,4.922244252,19,5,7.467,755.72267083667,34.776904,0.447388,2.64831373304,0.0,0.0,0.0,22.7,8.7,2.9,0,0,1024,1024,1024,1024,0,0,0,0,0,0,0,68,3.728,3.723,0,0,0,0,5.551,77.72,754.41033483667,33.464568,6,P-GPS,SD card speed low. Normal use may be affected. Replace SD card (Code: 10028). Gimbal stuck. Make sure gimbal cover is removed and manually check whether gimbal can rotate freely (Code: 40002),10.2
486800,2026-01-08 12:36:34,,,754.08225083667,39.041996,0.0,1.50383206912,4.9593833608,19,5,7.467,755.72267083667,34.776904,0.447388,2.64831373304,0.0,0.0,0.0,22.8,8.5,3.2,0,0,1024,1024,1024,1024,0,0,0,0,0,0,0,68,3.728,3.723,0,0,0,0,5.551,77.72,754.08225083667,33.136484,6,P-GPS,,10.1
486900,2026-01-08 12:36:34,,,754.08225083667,39.041996,0.0,1.51672577032,4.990649766,19,5,7.467,755.72267083667,34.776904,0.447388,2.64831373304,0.0,0.0,0.0,22.7,8.8,3.0,0,0,1024,1024,1024,1024,0,0,0,0,0,0,0,68,3.728,3.723,0,0,0,0,5.551,77.72,754.08225083667,33.136484,6,P-GPS,,10.1
487000,2026-01-08 12:36:34,,,754.08225083667,39.041996,0.0,1.52755582316,5.0213584284,19,5,7.494,755.72267083667,34.776904,0.447388,2.64831373304,0.0,0.0,0.0,22.7,8.9,3.4,0,0,1024,1024,1024,1024,0,0,0,0,0,0,0,68,3.748,3.745,0,0,0,0,5.217,77.72,754.08225083667,33.136484,6,P-GPS,,10.1
487100,2026-01-08 12:36:34,,,754.08225083667,39.041996,0.0,1.5428806268,5.0714896636,19,5,7.494,755.72267083667,34.776904,0.447388,2.64831373304,0.0,0.0,0.0,22.8,9.0,3.1,0,0,1024,1024,1024,1024,0,0,0,0,0,0,0,68,3.748,3.745,0,0,0,0,5.217,77.72,754.08225083667,33.136484,6,P-GPS,,10.1
487200,2026-01-08 12:36:35,,,754.08225083667,39.041996,0.0,1.55262144076,5.1037403208,19,5,7.494,755.72267083667,34.776904,0.447388,2.64831373304,0.0,0.0,0.0,22.8,8.9,3.4,0,0,1024,1024,1024,1024,0,0,0,0,0,0,0,68,3.748,3.745,0,0,0,0,5.217,77.72,754.08225083667,33.136484,6,P-GPS,,10.1
487300,2026-01-08 12:36:35,,,753.75416683667,39.041996,0.0,1.54928810732,5.123687828,19,5,7.494,755.72267083667,34.776904,0.447388,2.64831373304,0.0,0.0,0.0,22.7,7.7,3.5,0,0,1024,1024,1024,1024,0,0,0,0,0,0,0,68,3.748,3.745,0,0,0,0,5.217,77.72,753.75416683667,32.8084,6,P-GPS,,10.0
487400,2026-01-08 12:36:35,,,753.75416683667,39.041996,0.0,1.53922577104,5.1451445216,19,5,7.494,755.72267083667,34.776904,0.447388,2.64831373304,0.0,0.0,0.0,22.6,6.9,3.3,0,0,1024,1024,1024,1024,0,0,0,0,0,0,0,68,3.748,3.745,0,0,0,0,5.217,77.72,753.75416683667,32.8084,6,P-GPS,,10.0
487500,2026-01-08 12:36:35,,,753.75416683667,39.041996,0.0,1.4907644834,5.2024936048,19,5,7.494,755.72267083667,34.776904,0.447388,2.64831373304,0.0,0.0,0.0,22.7,7.0,2.9,0,0,1024,1024,1024,1024,0,0,0,0,0,0,0,68,3.748,3.745,0,0,0,0,5.217,77.72,753.75416683667,32.8084,6,P-GPS,,10.0
487600,2026-01-08 12:36:35,,,753.75416683667,39.041996,0.0,1.47836618904,5.2161418992,19,5,7.494,755.72267083667,34.776904,0.447388,2.64831373304,0.0,0.0,0.0,22.7,7.3,2.8,0,0,1024,1024,1024,1024,0,0,0,0,0,0,0,68,3.748,3.745,0,0,0,0,5.217,77.72,753.75416683667,32.8084,6,P-GPS,,10.0
487700,2026-01-08 12:36:35,,,753.75416683667,39.041996,0.0,1.47729991604,5.2224739204,19,5,7.494,755.72267083667,34.776904,0.447388,2.64831373304,0.0,0.0,0.0,22.6,7.1,2.9,0,0,1024,1024,1024,1024,0,0,0,0,0,0,0,68,3.748,3.745,0,0,0,0,5.217,77.72,753.75416683667,32.8084,6,P-GPS,,10.0
487800,2026-01-08 12:36:35,,,753.75416683667,39.041996,0.0,1.47391737,5.2287731332,19,5,7.494,755.72267083667,34.776904,0.447388,2.64831373304,0.0,0.0,0.0,22.7,7.5,2.6,0,0,1024,1024,1024,1024,0,0,0,0,0,0,0,68,3.748,3.745,0,0,0,0,5.217,77.72,753.75416683667,32.8084,6,P-GPS,,10.0
487900,2026-01-08 12:36:35,,,753.75416683667,39.041996,0.0,1.43402563644,5.2728348144,19,5,7.494,755.72267083667,34.776904,0.447388,2.64831373304,0.0,0.0,0.0,22.6,7.0,2.9,0,0,1024,1024,1024,1024,0,0,0,0,0,0,0,68,3.748,3.745,0,0,0,0,5.217,77.72,753.75416683667,32.8084,6,P-GPS,,10.0
488000,2026-01-08 12:36:35,,,753.42608283667,39.041996,0.0,1.42742458636,5.2803807464,19,5,7.494,755.72267083667,34.776904,0.447388,2.64831373304,0.0,0.0,0.0,22.6,6.9,3.5,0,0,1024,1024,1024,1024,0,0,0,0,0,0,0,68,3.748,3.745,0,0,0,0,5.217,77.72,753.42608283667,32.480316,6,P-GPS,,9.9
488100,2026-01-08 12:36:35,,,753.42608283667,39.041996,0.0,1.43795608276,5.292158962,19,5,7.509,755.72267083667,34.776904,0.447388,2.64831373304,0.0,0.0,0.0,22.7,7.7,4.2,0,0,1024,1024,1024,1024,0,0,0,0,0,0,0,68,3.746,3.745,0,0,0,0,4.939,77.72,753.42608283667,32.480316,6,P-GPS,,9.9
488200,2026-01-08 12:36:36,,,753.42608283667,39.041996,0.0,1.45271002024,5.3074476764,19,5,7.509,755.72267083667,34.776904,0.447388,2.64831373304,0.0,0.0,0.0,22.7,7.2,4.2,0,0,1024,1024,1024,1024,0,0,0,0,0,0,0,68,3.746,3.745,0,0,0,0,4.939,77.72,753.42608283667,32.480316,6,P-GPS,,9.9
488300,2026-01-08 12:36:36,,,753.42608283667,39.041996,0.0,1.5359416502,5.4015093592,19,5,7.509,755.72267083667,34.776904,0.447388,2.64831373304,0.0,0.0,0.0,22.9,7.6,4.3,0,0,1024,1024,1024,1024,0,0,0,0,0,0,0,68,3.746,3.745,0,0,0,0,4.939,77.72,753.42608283667,32.480316,6,P-GPS,,9.9
488400,2026-01-08 12:36:36,,,753.42608283667,39.041996,0.0,1.5609252468,5.4267390188,19,5,7.509,755.72267083667,34.776904,0.447388,2.64831373304,0.0,0.0,0.0,22.9,7.8,4.3,0,0,1024,1024,1024,1024,0,0,0,0,0,0,0,68,3.746,3.745,0,0,0,0,4.939,77.72,753.42608283667,32.480316,6,P-GPS,,9.9
488500,2026-01-08 12:36:36,,,753.42608283667,39.041996,0.0,1.564878659,5.4377954496,19,5,7.509,755.72267083667,34.776904,0.447388,2.64831373304,0.0,0.0,0.0,22.8,6.8,4.7,0,0,1024,1024,1024,1024,0,0,0,0,0,0,0,68,3.746,3.745,0,0,0,0,4.939,77.72,753.42608283667,32.480316,6,P-GPS,,9.9
488600,2026-01-08 12:36:36,,,753.42608283667,39.041996,0.0,1.56533469576,5.4489503056,19,5,7.509,755.72267083667,34.776904,0.447388,2.64831373304,0.0,0.0,0.0,22.7,6.2,4.3,0,0,1024,1024,1024,1024,0,0,0,0,0,0,0,68,3.746,3.745,0,0,0,0,4.939,77.72,753.42608283667,32.480316,6,P-GPS,,9.9
488700,2026-01-08 12:36:36,,,753.42608283667,39.041996,0.0,1.57008207124,5.4579726156,19,5,7.509,755.72267083667,34.776904,0.447388,2.64831373304,0.0,0.0,0.0,22.7,5.8,4.1,0,0,1024,1024,1024,1024,0,0,0,0,0,0,0,68,3.746,3.745,0,0,0,0,4.939,77.72,753.42608283667,32.480316,6,P-GPS,,9.9
488800,2026-01-08 12:36:36,,,753.42608283667,39.041996,0.0,1.56672249108,5.4669293088,19,5,7.509,755.72267083667,34.776904,0.447388,2.64831373304,0.0,0.0,0.0,22.7,5.5,4.0,0,0,1024,1024,1024,1024,0,0,0,0,0,0,0,68,3.746,3.745,0,0,0,0,4.939,77.72,753.42608283667,32.480316,6,P-GPS,,9.9
488900,2026-01-08 12:36:36,,,753.42608283667,39.041996,0.0,1.5484416506,5.4858597556,19,5,7.509,755.72267083667,34.776904,0.447388,2.64831373304,0.0,0.0,0.0,22.7,5.8,3.7,0,0,1024,1024,1024,1024,0,0,0,0,0,0,0,68,3.746,3.745,0,0,0,0,4.939,77.72,753.42608283667,32.480316,6,P-GPS,,9.9
489000,2026-01-08 12:36:36,,,753.42608283667,39.041996,0.0,1.53100726684,5.505085478,19,5,7.509,755.72267083667,34.776904,0.447388,2.64831373304,0.0,0.0,0.0,22.8,5.8,3.9,0,0,1024,1024,1024,1024,0,0,0,0,0,0,0,68,3.746,3.745,0,0,0,0,4.939,77.72,753.42608283667,32.480316,6,P-GPS,,9.9
489100,2026-01-08 12:36:36,,,753.09799883667,39.041996,0.0,1.51068246304,5.5339896784,19,5,7.509,755.72267083667,34.776904,0.447388,2.64831373304,0.0,0.0,0.0,22.8,5.2,3.9,0,0,1024,1024,1024,1024,0,0,0,0,0,0,0,68,3.746,3.745,0,0,0,0,4.939,77.72,753.09799883667,32.152232,6,P-GPS,,9.8
489200,2026-01-08 12:36:36,,,753.09799883667,39.041996,0.0,1.44562668668,5.6045277384,19,5,7.509,755.72267083667,34.776904,0.447388,2.64831373304,0.0,0.0,0.0,22.6,5.3,4.1,0,0,1024,1024,1024,1024,0,0,0,0,0,0,0,68,3.751,3.745,0,0,0,0,4.939,77.72,753.09799883667,32.152232,6,P-GPS,,9.8
489300,2026-01-08 12:36:37,,,753.09799883667,39.041996,0.0,1.41554138388,5.6408794456,19,5,7.509,755.72267083667,34.776904,0.447388,2.64831373304,0.0,0.0,0.0,22.7,5.0,4.1,0,0,1024,1024,1024,1024,0,0,0,0,0,0,0,68,3.751,3.745,0,0,0,0,4.939,77.72,753.09799883667,32.152232,6,P-GPS,,9.8
489400,2026-01-08 12:36:37,,,753.42608283667,39.041996,0.0,1.39203416528,5.670275772,19,5,7.509,755.72267083667,34.776904,0.447388,2.64831373304,0.0,0.0,0.0,22.8,5.4,4.2,0,0,1024,1024,1024,1024,0,0,0,0,0,0,0,68,3.751,3.745,0,0,0,0,4.939,77.72,753.42608283667,32.480316,6,P-GPS,,9.9
489500,2026-01-08 12:36:37,,,753.42608283667,39.041996,0.0,1.3859252412,5.692913568,19,5,7.509,755.72267083667,34.776904,0.447388,2.64831373304,0.0,0.0,0.0,22.9,5.2,4.1,0,0,1024,1024,1024,1024,0,0,0,0,0,0,0,68,3.751,3.745,0,0,0,0,4.939,77.72,753.42608283667,32.480316,6,P-GPS,,9.9
489600,2026-01-08 12:36:37,,,753.42608283667,39.041996,0.0,1.35222445272,5.7495408664,19,5,7.509,755.72267083667,34.776904,0.447388,2.64831373304,0.0,0.0,0.0,22.9,5.4,4.5,0,0,1024,1024,1024,1024,0,0,0,0,0,0,0,68,3.751,3.745,0,0,0,0,4.939,77.72,753.42608283667,32.480316,6,P-GPS,,9.9
489700,2026-01-08 12:36:37,,,753.09799883667,39.041996,0.0,1.34496723464,5.764599922,19,5,7.509,755.72267083667,34.776904,0.447388,2.64831373304,0.0,0.0,0.0,22.9,5.2,4.8,0,0,1024,1024,1024,1024,0,0,0,0,0,0,0,68,3.751,3.745,0,0,0,0,4.939,77.72,753.09799883667,32.152232,6,P-GPS,,9.8
489800,2026-01-08 12:36:37,,,753.09799883667,39.041996,0.0,1.33793967536,5.7764765628,19,5,7.509,755.72267083667,34.776904,0.447388,2.64831373304,0.0,0.0,0.0,22.9,6.1,4.4,0,0,1024,1024,1024,1024,0,0,0,0,0,0,0,68,3.751,3.745,0,0,0,0,4.939,77.72,753.09799883667,32.152232,6,P-GPS,,9.8
489900,2026-01-08 12:36:37,,,753.09799883667,39.041996,0.0,1.32453744396,5.7979660648,19,5,7.509,755.72267083667,34.776904,0.447388,2.64831373304,0.0,0.0,0.0,23.0,5.0,5.0,0,0,1024,1024,1024,1024,0,0,0,0,0,0,0,68,3.751,3.745,0,0,0,0,4.939,77.72,753.09799883667,32.152232,6,P-GPS,,9.8
490000,2026-01-08 12:36:37,,,753.09799883667,39.041996,0.0,1.3120735328,5.813320396,19,5,7.509,755.72267083667,34.776904,0.447388,2.64831373304,0.0,0.0,0.0,22.8,3.8,5.6,0,0,1024,1024,1024,1024,0,0,0,0,0,0,0,68,3.751,3.745,0,0,0,0,4.939,77.72,753.09799883667,32.152232,6,P-GPS,,9.8
490100,2026-01-08 12:36:37,,,753.09799883667,39.041996,0.0,1.31685699752,5.8244096352,19,5,7.509,755.72267083667,34.776904,0.447388,2.64831373304,0.0,0.0,0.0,22.9,4.0,5.7,0,0,1024,1024,1024,1024,0,0,0,0,0,0,0,68,3.751,3.745,0,0,0,0,4.939,77.72,753.09799883667,32.152232,6,P-GPS,,9.8
490200,2026-01-08 12:36:38,,,753.09799883667,39.041996,0.0,1.32540030488,5.8365815516,19,5,7.509,755.72267083667,34.776904,0.447388,2.64831373304,0.0,0.0,0.0,22.9,4.9,6.1,0,0,1024,1024,1024,1024,0,0,0,0,0,0,0,68,3.751,3.745,0,0,0,0,4.939,77.72,753.09799883667,32.152232,6,P-GPS,,9.8
490300,2026-01-08 12:36:38,,,753.09799883667,39.041996,0.0,1.3312500426,5.8557744656,19,5,7.497,755.72267083667,34.776904,0.447388,2.64831373304,0.0,0.0,0.0,22.8,4.6,6.1,0,0,1024,1024,1024,1024,0,0,0,0,0,0,0,68,3.74,3.732,0,0,0,0,4.873,77.72,753.09799883667,32.152232,6,P-GPS,,9.8
490400,2026-01-08 12:36:38,,,753.09799883667,39.041996,0.0,1.33482943904,5.8698492692,19,5,7.497,755.72267083667,34.776904,0.447388,2.64831373304,0.0,0.0,0.0,22.7,4.3,6.2,0,0,1024,1024,1024,1024,0,0,0,0,0,0,0,68,3.74,3.732,0,0,0,0,4.873,77.72,753.09799883667,32.152232,6,P-GPS,,9.8
490500,2026-01-08 12:36:38,,,753.09799883667,39.041996,0.0,1.33640752308,5.8790028128,19,5,7.497,755.72267083667,34.776904,0.447388,2.64831373304,0.0,0.0,0.0,22.7,4.0,5.9,0,0,1024,1024,1024,1024,0,0,0,0,0,0,0,68,3.74,3.732,0,0,0,0,4.873,77.72,753.09799883667,32.152232,6,P-GPS,,9.8
490600,2026-01-08 12:36:38,,,752.76991483667,39.041996,0.0,1.33237865156,5.883530372,19,5,7.497,755.72267083667,34.776904,0.447388,2.64831373304,0.0,0.0,0.0,22.6,3.8,5.8,0,0,1024,1024,1024,1024,0,0,0,0,0,0,0,68,3.74,3.732,0,0,0,0,4.873,77.72,752.76991483667,31.824148,6,P-GPS,,9.7
490700,2026-01-08 12:36:38,,,752.76991483667,39.041996,0.0,1.31462930716,5.9033138372,19,5,7.497,755.72267083667,34.776904,0.447388,2.64831373304,0.0,0.0,0.0,22.7,4.3,5.4,0,0,1024,1024,1024,1024,0,0,0,0,0,0,0,68,3.74,3.732,0,0,0,0,4.873,77.72,752.76991483667,31.824148,6,P-GPS,,9.7
490800,2026-01-08 12:36:38,,,752.76991483667,39.041996,0.0,1.29606959528,5.92519704,19,5,7.497,755.72267083667,34.776904,0.447388,2.64831373304,0.0,0.0,0.0,22.7,4.5,5.0,0,0,1024,1024,1024,1024,0,0,0,0,0,0,0,68,3.74,3.732,0,0,0,0,4.873,77.72,752.76991483667,31.824148,6,P-GPS,,9.7
490900,2026-01-08 12:36:38,,,752.76991483667,39.041996,0.0,1.24259518412,5.9789043908,19,5,7.497,755.72267083667,34.776904,0.447388,2.64831373304,0.0,0.0,0.0,22.6,4.2,4.7,0,0,1024,1024,1024,1024,0,0,0,0,0,0,0,68,3.74,3.732,0,0,0,0,4.873,77.72,752.76991483667,31.824148,6,P-GPS,,9.7
491000,2026-01-08 12:36:38,,,752.76991483667,39.041996,0.0,1.22491145652,6.009514628,19,5,7.497,755.72267083667,34.776904,0.447388,2.64831373304,0.0,0.0,0.0,22.6,4.3,4.6,0,0,1024,1024,1024,1024,0,0,0,0,0,0,0,68,3.74,3.732,0,0,0,0,4.873,77.72,752.76991483667,31.824148,6,P-GPS,,9.7
491100,2026-01-08 12:36:38,,,752.76991483667,39.041996,0.0,1.21569557696,6.0637797216,19,5,7.497,755.72267083667,34.776904,0.447388,2.64831373304,0.0,0.0,0.0,22.7,5.6,4.0,0,0,1024,1024,1024,1024,0,0,0,0,0,0,0,68,3.74,3.732,0,0,0,0,4.873,77.72,752.76991483667,31.824148,6,P-GPS,,9.7
491200,2026-01-08 12:36:38,,,752.76991483667,39.041996,0.0,1.20970804396,6.1168637128,19,5,7.497,755.72267083667,34.776904,0.447388,2.64831373304,0.0,0.0,0.0,22.8,6.1,3.8,0,0,1024,1024,1024,1024,0,0,0,0,0,0,0,68,3.74,3.732,0,0,0,0,4.873,77.72,752.76991483667,31.824148,6,P-GPS,,9.7
491300,2026-01-08 12:36:39,,,752.76991483667,39.041996,0.0,1.18814964432,6.180774476,19,5,7.497,755.72267083667,34.776904,0.447388,2.64831373304,0.0,0.0,0.0,22.7,6.2,3.5,0,0,1024,1024,1024,1024,0,0,0,0,0,0,0,68,3.74,3.732,0,0,0,0,4.873,77.72,752.76991483667,31.824148,6,P-GPS,,9.7
491400,2026-01-08 12:36:39,,,752.76991483667,39.041996,0.0,1.18458665208,6.221784976,19,5,7.503,755.72267083667,34.776904,0.447388,2.64831373304,0.0,0.0,0.0,22.7,6.0,3.8,0,0,1024,1024,1024,1024,0,0,0,0,0,0,0,68,3.755,3.748,0,0,0,0,4.804,77.72,752.76991483667,31.824148,6,P-GPS,,9.7
491500,2026-01-08 12:36:39,,,752.76991483667,39.041996,0.0,1.20092523528,6.2703742164,19,5,7.503,755.72267083667,34.776904,0.447388,2.64831373304,0.0,0.0,0.0,22.8,6.9,3.7,0,0,1024,1024,1024,1024,0,0,0,0,0,0,0,68,3.755,3.748,0,0,0,0,4.804,77.72,752.76991483667,31.824148,6,P-GPS,,9.7
491600,2026-01-08 12:36:39,,,752.76991483667,39.041996,0.0,1.21558730924,6.3124017768,19,5,7.503,755.72267083667,34.776904,0.447388,2.64831373304,0.0,0.0,0.0,22.8,7.2,3.8,0,0,1024,1024,1024,1024,0,0,0,0,0,0,0,68,3.755,3.748,0,0,0,0,4.804,77.72,752.76991483667,31.824148,6,P-GPS,,9.7
491700,2026-01-08 12:36:39,,,752.76991483667,39.041996,0.0,1.257792035,6.3800526976,19,5,7.503,755.72267083667,34.776904,0.447388,2.64831373304,0.0,0.0,0.0,22.7,7.2,3.4,0,0,1024,1024,1024,1024,0,0,0,0,0,0,0,68,3.755,3.748,0,0,0,0,4.804,77.72,752.76991483667,31.824148,6,P-GPS,,9.7
491800,2026-01-08 12:36:39,,,752.76991483667,39.041996,0.0,1.26250988292,6.4084975804,19,5,7.503,755.72267083667,34.776904,0.447388,2.64831373304,0.0,0.0,0.0,22.8,7.2,3.6,0,0,1024,1024,1024,1024,0,0,0,0,0,0,0,68,3.755,3.748,0,0,0,0,4.804,77.72,752.76991483667,31.824148,6,P-GPS,,9.7
491900,2026-01-08 12:36:39,,,752.76991483667,39.041996,0.0,1.25733599824,6.4293637228,19,5,7.503,755.72267083667,34.776904,0.447388,2.64831373304,0.0,0.0,0.0,22.8,6.4,3.8,0,0,1024,1024,1024,1024,0,0,0,0,0,0,0,68,3.755,3.748,0,0,0,0,4.804,77.72,752.76991483667,31.824148,6,P-GPS,,9.7
492000,2026-01-08 12:36:39,,,752.76991483667,39.041996,0.0,1.25178481696,6.443897844,19,5,7.503,755.72267083667,34.776904,0.447388,2.64831373304,0.0,0.0,0.0,22.8,6.3,3.9,0,0,1024,1024,1024,1024,0,0,0,0,0,0,0,68,3.755,3.748,0,0,0,0,4.804,77.72,752.76991483667,31.824148,6,P-GPS,,9.7
492100,2026-01-08 12:36:39,,,752.76991483667,39.041996,0.0,1.23930778244,6.466043514,19,5,7.503,755.72267083667,34.776904,0.447388,2.64831373304,0.0,0.0,0.0,22.7,6.3,4.1,0,0,1024,1024,1024,1024,0,0,0,0,0,0,0,68,3.755,3.748,0,0,0,0,4.804,77.72,752.76991483667,31.824148,6,P-GPS,,9.7
492200,2026-01-08 12:36:40,,,752.44183083667,39.041996,0.0,1.24397641776,6.4742784224,19,5,7.503,755.72267083667,34.776904,0.447388,2.64831373304,0.0,0.0,0.0,22.6,6.2,4.3,0,0,1024,1024,1024,1024,0,0,0,0,0,0,0,68,3.755,3.748,0,0,0,0,4.804,77.72,752.44183083667,31.496064,6,P-GPS,,9.6
492300,2026-01-08 12:36:40,,,752.44183083667,39.041996,0.0,1.26212930548,6.499672124,19,5,7.503,755.72267083667,34.776904,0.447388,2.64831373304,0.0,0.0,0.0,22.7,7.4,4.3,0,0,1024,1024,1024,1024,0,0,0,0,0,0,0,68,3.755,3.748,0,0,0,0,4.804,77.72,752.44183083667,31.496064,6,P-GPS,,9.6
492400,2026-01-08 12:36:40,,,752.44183083667,39.041996,0.0,1.2831857366,6.5262797364,19,5,7.503,755.72267083667,34.776904,0.447388,2.64831373304,0.0,0.0,0.0,22.7,7.4,4.3,0,0,1024,1024,1024,1024,0,0,0,0,0,0,0,68,3.755,3.748,0,0,0,0,4.804,77.72,752.44183083667,31.496064,6,P-GPS,,9.6
492500,2026-01-08 12:36:40,,,752.44183083667,39.041996,0.0,1.30523626224,6.5528545404,19,5,7.507,755.72267083667,34.776904,0.447388,2.64831373304,0.0,0.0,0.0,22.6,7.9,4.6,0,0,1024,1024,1024,1024,0,0,0,0,0,0,0,68,3.757,3.75,0,0,0,0,4.704,77.72,752.44183083667,31.496064,6,P-GPS,,9.6
492600,2026-01-08 12:36:40,,,752.44183083667,39.041996,0.0,1.32782484564,6.5796918116,19,5,7.507,755.72267083667,34.776904,0.447388,2.64831373304,0.0,0.0,0.0,22.7,8.3,4.6,0,0,1024,1024,1024,1024,0,0,0,0,0,0,0,68,3.757,3.75,0,0,0,0,4.704,77.72,752.44183083667,31.496064,6,P-GPS,,9.6
492700,2026-01-08 12:36:40,,,752.11374683667,39.041996,0.0,1.3455052924,6.60761176,19,5,7.507,755.72267083667,34.776904,0.447388,2.64831373304,0.0,0.0,0.0,22.8,8.6,4.2,0,0,1024,1024,1024,1024,0,0,0,0,0,0,0,68,3.757,3.75,0,0,0,0,4.704,77.72,752.11374683667,31.16798,6,P-GPS,,9.5
492800,2026-01-08 12:36:40,,,752.11374683667,39.041996,0.0,1.36121723516,6.6321196348,19,5,7.507,755.72267083667,34.776904,0.447388,2.64831373304,0.0,0.0,0.0,22.7,8.4,4.2,0,0,1024,1024,1024,1024,0,0,0,0,0,0,0,68,3.757,3.75,0,0,0,0,4.704,77.72,752.11374683667,31.16798,6,P-GPS,,9.5
492900,2026-01-08 12:36:40,,,752.11374683667,39.041996,0.0,1.39163062196,6.6696852528,19,5,7.507,755.72267083667,34.776904,0.447388,2.64831373304,0.0,0.0,0.0,22.7,7.8,3.9,0,0,1024,1024,1024,1024,0,0,0,0,0,0,0,68,3.757,3.75,0,0,0,0,4.704,77.72,752.11374683667,31.16798,6,P-GPS,,9.5
493000,2026-01-08 12:36:40,,,752.11374683667,39.041996,0.0,1.44362537428,6.729166882,19,5,7.507,755.72267083667,34.776904,0.447388,2.64831373304,0.0,0.0,0.0,22.7,7.4,3.9,0,0,1024,1024,1024,1024,0,0,0,0,0,0,0,68,3.757,3.75,0,0,0,0,4.704,77.72,752.11374683667,31.16798,6,P-GPS,,9.5
493100,2026-01-08 12:36:40,,,752.11374683667,39.041996,0.0,1.462926556,6.7551511348,19,5,7.507,755.72267083667,34.776904,0.447388,2.64831373304,0.0,0.0,0.0,22.8,7.1,3.4,0,0,1024,1024,1024,1024,0,0,0,0,0,0,0,68,3.757,3.75,0,0,0,0,4.704,77.72,752.11374683667,31.16798,6,P-GPS,,9.5
493200,2026-01-08 12:36:41,,,752.11374683667,39.041996,0.0,1.47686356432,6.776903104,19,5,7.507,755.72267083667,34.776904,0.447388,2.64831373304,0.0,0.0,0.0,22.8,7.0,3.4,0,0,1024,1024,1024,1024,0,0,0,0,0,0,0,68,3.757,3.75,0,0,0,0,4.704,77.72,752.11374683667,31.16798,6,P-GPS,,9.5
493300,2026-01-08 12:36:41,,,751.78566283667,39.041996,0.0,1.47617786876,6.7982613724,19,5,7.507,755.72267083667,34.776904,0.447388,2.64831373304,0.0,0.0,0.0,22.8,7.7,3.9,0,0,1024,1024,1024,1024,0,0,0,0,0,0,0,68,3.757,3.75,0,0,0,0,4.704,77.72,751.78566283667,30.839896,6,P-GPS,,9.4
493400,2026-01-08 12:36:41,,,751.78566283667,39.041996,0.0,1.46783469264,6.839075022,19,5,7.507,755.72267083667,34.776904,0.447388,2.64831373304,0.0,0.0,0.0,22.7,7.7,3.5,0,0,1024,1024,1024,1024,0,0,0,0,0,0,0,68,3.757,3.75,0,0,0,0,4.704,77.72,751.78566283667,30.839896,6,P-GPS,,9.4
493500,2026-01-08 12:36:41,,,751.78566283667,39.041996,0.0,1.4496063456,6.8670277788,19,5,7.507,755.72267083667,34.776904,0.447388,2.64831373304,0.0,0.0,0.0,22.7,6.9,3.3,0,0,1024,1024,1024,1024,0,0,0,0,0,0,0,68,3.757,3.75,0,0,0,0,4.704,77.72,751.78566283667,30.839896,6,P-GPS,,9.4
493600,2026-01-08 12:36:41,,,751.78566283667,39.041996,0.0,1.4309547702,6.8921918216,19,5,7.511,755.72267083667,34.776904,0.447388,2.64831373304,0.0,0.0,0.0,22.6,7.1,3.5,0,0,1024,1024,1024,1024,0,0,0,0,0,0,0,68,3.756,3.751,0,0,0,0,4.829,77.72,751.78566283667,30.839896,6,P-GPS,,9.4
493700,2026-01-08 12:36:41,,,751.45757883667,39.041996,0.0,1.4146653996,6.909284998,19,5,7.511,755.72267083667,34.776904,0.447388,2.64831373304,0.0,0.0,0.0,22.7,7.3,3.7,0,0,1024,1024,1024,1024,0,0,0,0,0,0,0,68,3.756,3.751,0,0,0,0,4.829,77.72,751.45757883667,30.511812,6,P-GPS,,9.3
493800,2026-01-08 12:36:41,,,751.45757883667,39.041996,0.0,1.39415030708,6.931430668,19,5,7.511,755.72267083667,34.776904,0.447388,2.64831373304,0.0,0.0,0.0,22.7,6.9,3.4,0,0,1024,1024,1024,1024,0,0,0,0,0,0,0,68,3.756,3.751,0,0,0,0,4.829,77.72,751.45757883667,30.511812,6,P-GPS,,9.3
493900,2026-01-08 12:36:41,,,751.45757883667,39.041996,0.0,1.35472117196,6.9805776512,19,5,7.511,755.72267083667,34.776904,0.447388,2.64831373304,0.0,0.0,0.0,22.7,6.9,3.4,0,0,1024,1024,1024,1024,0,0,0,0,0,0,0,68,3.756,3.751,0,0,0,0,4.829,77.72,751.45757883667,30.511812,6,P-GPS,,9.3
494000,2026-01-08 12:36:41,,,751.12949483667,39.041996,0.0,1.32269361188,7.0208007496,19,5,7.511,755.72267083667,34.776904,0.447388,2.64831373304,0.0,0.0,0.0,22.8,6.7,3.3,0,0,1024,1024,1024,1024,0,0,0,0,0,0,0,68,3.756,3.751,0,0,0,0,4.829,77.72,751.12949483667,30.183728,6,P-GPS,,9.2
494100,2026-01-08 12:36:41,,,751.12949483667,39.041996,0.0,1.3154035854,7.032644582,19,5,7.511,755.72267083667,34.776904,0.447388,2.64831373304,0.0,0.0,0.0,22.7,6.9,3.1,0,0,1024,1024,1024,1024,0,0,0,0,0,0,0,68,3.756,3.751,0,0,0,0,4.829,77.72,751.12949483667,30.183728,6,P-GPS,,9.2
494200,2026-01-08 12:36:42,,,751.12949483667,39.041996,0.0,1.31224741732,7.0373361832,19,5,7.511,755.72267083667,34.776904,0.447388,2.64831373304,0.0,0.0,0.0,22.7,6.8,3.3,0,0,1024,1024,1024,1024,0,0,0,0,0,0,0,68,3.756,3.751,0,0,0,0,4.829,77.72,751.12949483667,30.183728,6,P-GPS,,9.2
494300,2026-01-08 12:36:42,,,751.12949483667,39.041996,0.0,1.33485568576,7.0601052128,19,5,7.511,755.72267083667,34.776904,0.447388,2.64831373304,0.0,0.0,0.0,22.8,6.9,3.7,0,0,1024,1024,1024,1024,0,0,0,0,0,0,0,68,3.756,3.751,0,0,0,0,4.829,77.72,751.12949483667,30.183728,6,P-GPS,,9.2
494400,2026-01-08 12:36:42,,,750.80141083667,39.041996,0.0,1.3429954498,7.0695868404,19,5,7.511,755.72267083667,34.776904,0.447388,2.64831373304,0.0,0.0,0.0,22.6,6.2,4.0,0,0,1024,1024,1024,1024,0,0,0,0,0,0,0,68,3.756,3.751,0,0,0,0,4.829,77.72,750.80141083667,29.855644,6,P-GPS,,9.1
494500,2026-01-08 12:36:42,,,750.80141083667,39.041996,0.0,1.35914374428,7.0864175496,19,5,7.511,755.72267083667,34.776904,0.447388,2.64831373304,0.0,0.0,0.0,22.5,5.9,4.3,0,0,1024,1024,1024,1024,0,0,0,0,0,0,0,68,3.756,3.751,0,0,0,0,4.829,77.72,750.80141083667,29.855644,6,P-GPS,,9.1
494600,2026-01-08 12:36:42,,,750.47332683667,39.041996,0.0,1.37823823308,7.1055120384,19,5,7.511,755.72267083667,34.776904,0.447388,2.64831373304,0.0,0.0,-0.223694,22.6,6.0,4.6,0,0,1024,1024,1024,1024,0,0,0,0,0,0,0,68,3.756,3.751,0,0,0,0,4.829,77.72,750.47332683667,29.52756,6,P-GPS,,9.0
494700,2026-01-08 12:36:42,,,750.47332683667,39.041996,0.0,1.42573167292,7.1532810688,19,5,7.517,755.72267083667,34.776904,0.447388,2.64831373304,0.0,0.0,-0.223694,22.7,6.7,4.8,0,0,1024,1024,1024,1024,0,0,0,0,0,0,0,68,3.758,3.759,0,0,0,0,4.27,77.72,750.47332683667,29.52756,6,P-GPS,,9.0
494800,2026-01-08 12:36:42,,,750.14524283667,39.041996,0.0,1.44119755268,7.176509416,19,5,7.517,755.72267083667,34.776904,0.447388,2.64831373304,0.0,0.0,0.0,22.7,7.5,4.9,0,0,1024,1024,1024,1024,0,0,0,0,0,0,0,68,3.758,3.759,0,0,0,0,4.27,77.72,750.14524283667,29.199476,6,P-GPS,,8.9
494900,2026-01-08 12:36:42,,,750.14524283667,39.041996,0.0,1.43702760504,7.2076117792,19,5,7.517,755.72267083667,34.776904,0.447388,2.64831373304,0.0,0.0,0.0,22.8,7.2,5.4,0,0,1024,1024,1024,1024,0,0,0,0,0,0,0,68,3.758,3.759,0,0,0,0,4.27,77.72,750.14524283667,29.199476,6,P-GPS,,8.9
495000,2026-01-08 12:36:42,,,749.81715883667,39.041996,0.0,1.43484584644,7.235564536,19,5,7.517,755.72267083667,34.776904,0.447388,2.64831373304,0.0,0.0,0.0,22.9,7.2,5.5,0,0,1024,1024,1024,1024,0,0,0,0,0,0,0,68,3.758,3.759,0,0,0,0,4.27,77.72,749.81715883667,28.871392,6,P-GPS,,8.8
495100,2026-01-08 12:36:42,,,749.81715883667,39.041996,0.0,1.42914374652,7.257054038,19,5,7.517,755.72267083667,34.776904,0.447388,2.64831373304,0.0,0.0,0.0,22.8,6.3,5.4,0,0,1024,1024,1024,1024,0,0,0,0,0,0,0,68,3.758,3.759,0,0,0,0,4.27,77.72,749.81715883667,28.871392,6,P-GPS,,8.8
495200,2026-01-08 12:36:43,,,749.81715883667,39.041996,0.0,1.43664374676,7.2708991828,19,5,7.517,755.72267083667,34.776904,0.447388,2.64831373304,0.0,0.0,0.0,23.0,7.1,5.4,0,0,1024,1024,1024,1024,0,0,0,0,0,0,0,68,3.758,3.759,0,0,0,0,4.27,77.72,749.81715883667,28.871392,6,P-GPS,,8.8
495300,2026-01-08 12:36:43,,,749.48907483667,39.041996,0.0,1.43450135824,7.2903873724,19,5,7.517,755.72267083667,34.776904,0.447388,2.64831373304,0.0,0.0,0.0,23.1,7.2,5.9,0,0,1024,1024,1024,1024,0,0,0,0,0,0,0,68,3.758,3.759,0,0,0,0,4.27,77.72,749.48907483667,28.543308,6,P-GPS,,8.7
495400,2026-01-08 12:36:43,,,749.48907483667,39.041996,0.0,1.43204728992,7.3109910476,19,5,7.517,755.72267083667,34.776904,0.447388,2.64831373304,0.0,0.0,0.0,23.2,7.2,6.0,0,0,1024,1024,1024,1024,0,0,0,0,0,0,0,68,3.758,3.759,0,0,0,0,4.27,77.72,749.48907483667,28.543308,6,P-GPS,,8.7
495500,2026-01-08 12:36:43,,,749.48907483667,39.041996,0.0,1.43715227696,7.358267952,19,5,7.517,755.72267083667,34.776904,0.447388,2.64831373304,0.0,0.0,0.0,23.2,6.9,5.9,0,0,1024,1024,1024,1024,0,0,0,0,0,0,0,68,3.758,3.759,0,0,0,0,4.27,77.72,749.48907483667,28.543308,6,P-GPS,,8.7
495600,2026-01-08 12:36:43,,,749.48907483667,39.041996,0.0,1.4380249804,7.380577664,19,5,7.517,755.72267083667,34.776904,0.447388,2.64831373304,0.0,0.0,0.0,23.2,7.9,5.6,0,0,1024,1024,1024,1024,0,0,0,0,0,0,0,68,3.758,3.759,0,0,0,0,4.27,77.72,749.48907483667,28.543308,6,P-GPS,,8.7
495700,2026-01-08 12:36:43,,,749.81715883667,39.041996,0.0,1.43025595128,7.3957023364,19,5,7.517,755.72267083667,34.776904,0.447388,2.64831373304,0.0,0.0,0.0,23.0,7.6,5.3,0,0,1024,1024,1024,1024,0,0,0,0,0,0,0,68,3.758,3.759,0,0,0,0,4.27,77.72,749.81715883667,28.871392,6,P-GPS,,8.8
495800,2026-01-08 12:36:43,,,749.81715883667,39.041996,0.0,1.42296264396,7.410925434,19,5,7.514,755.72267083667,34.776904,0.447388,2.64831373304,0.0,0.0,0.0,22.9,7.5,5.8,0,0,1024,1024,1024,1024,0,0,0,0,0,0,0,68,3.744,3.742,0,0,0,0,4.132,77.9,749.81715883667,28.871392,6,P-GPS,,8.8
495900,2026-01-08 12:36:43,,,749.81715883667,39.041996,0.0,1.40503941504,7.4392390832,19,5,7.514,755.72267083667,34.776904,0.447388,2.64831373304,0.0,0.0,0.223694,22.9,7.4,6.5,0,0,1024,1024,1024,1024,0,0,0,0,0,0,0,68,3.744,3.742,0,0,0,0,4.132,77.9,749.81715883667,28.871392,6,P-GPS,,8.8
496000,2026-01-08 12:36:43,,,750.14524283667,39.041996,0.0,1.35660109328,7.4878939404,19,5,7.514,755.72267083667,34.776904,0.447388,2.64831373304,0.0,0.0,0.0,22.9,6.5,5.1,0,0,1024,1024,1024,1024,0,0,0,0,0,0,0,68,3.744,3.742,0,0,0,0,4.132,77.9,750.14524283667,29.199476,6,P-GPS,,8.9
496100,2026-01-08 12:36:43,,,750.14524283667,39.041996,0.0,1.36275922996,7.5251970912,19,5,7.514,755.72267083667,34.776904,0.447388,2.64831373304,0.0,0.0,0.0,22.9,8.1,4.5,0,0,1024,1024,1024,1024,0,0,0,0,0,0,0,68,3.744,3.742,0,0,0,0,4.132,77.9,750.14524283667,29.199476,6,P-GPS,,8.9
