time(millisecond),timestamp,height_above_ground_at_drone_location(feet),ground_elevation_at_drone_location(feet),altitude_above_seaLevel(feet),height_sonar(feet),speed(mph),distance(feet),mileage(feet),satellites,gpslevel,voltage(v),max_altitude(feet),max_ascent(feet),max_speed(mph),max_distance(feet), xSpeed(mph), ySpeed(mph), zSpeed(mph), compass_heading(degrees), pitch(degrees), roll(degrees),isPhoto,isVideo,rc_elevator,rc_aileron,rc_throttle,rc_rudder,rc_elevator(percent),rc_aileron(percent),rc_throttle(percent),rc_rudder(percent),gimbal_heading(degrees),gimbal_pitch(degrees),gimbal_roll(degrees),battery_percent,voltageCell1,voltageCell2,voltageCell3,voltageCell4,voltageCell5,voltageCell6,current(A),battery_temperature(f),altitude(feet),ascent(feet),flycStateRaw,flycState,message,height_above_takeoff(meters)
324800,,Available with any HD 360 subscription,Available with any HD 360 subscription,720.94576683667,0.656168,0.0,0.0,0.0,17,5,0.0,720.94576683667,0.0,0.0,0.0,0.0,0.0,0.0,25.8,3.0,0.7,0,0,1024,1024,1024,1024,0,0,0,0,0,0,0,78,3.94,3.937,0,0,0,0,0.0,74.48,720.94576683667,0.0,41,Motors_Started,Setting new Return-To-Home altitude to 90m (295 ft). Data Recorder File Index is 30. Setting new Maximum Flight Altitude to 90m (295 ft),0.0
324900,2026-01-08 12:33:31,,,720.94576683667,0.656168,0.0,0.98543638324,0.0125948822928,17,5,0.0,720.94576683667,0.0,0.0,0.98543638324,0.0,0.0,0.0,25.8,3.0,0.7,0,0,1024,1024,1024,1024,0,0,0,0,0,0,0,78,3.94,3.937,0,0,0,0,0.0,74.48,720.94576683667,0.0,41,Motors_Started,SD card speed low SD card speed low. Normal use may be affected. Replace SD card (Code: 10028). Gimbal stuck. Make sure gimbal cover is removed and manually check whether gimbal can rotate freely (Code: 40002),0.0
325000,2026-01-08 12:33:31,,,720.94576683667,0.328084,0.0,1.00033139684,0.028649443174,17,5,0.0,720.94576683667,0.0,0.0,1.00033139684,0.0,0.0,0.0,25.8,3.0,0.7,0,0,1024,1024,1024,1024,0,0,0,0,0,0,0,78,3.94,3.937,0,0,0,0,0.0,74.48,720.94576683667,0.0,41,Motors_Started,,0.0
325100,2026-01-08 12:33:31,,,720.94576683667,0.328084,0.0,1.01450462564,0.042830381948,17,5,7.877,720.94576683667,0.0,0.0,1.01450462564,0.0,0.0,0.0,25.8,2.9,0.7,0,0,1024,1024,1024,1024,0,0,0,0,0,0,0,78,3.94,3.937,0,0,0,0,0.726,74.48,720.94576683667,0.0,41,Motors_Started,,0.0
325200,2026-01-08 12:33:31,,,720.94576683667,0.328084,0.0,1.02403874668,0.056165684212,17,5,7.877,720.94576683667,0.0,0.0,1.02403874668,0.0,0.0,0.0,25.8,3.0,0.7,0,0,1024,1024,1024,1024,0,0,0,0,0,0,0,78,3.94,3.937,0,0,0,0,0.726,74.48,720.94576683667,0.0,41,Motors_Started,,0.0
325300,2026-01-08 12:33:31,,,720.94576683667,0.328084,0.0,1.02680777564,0.062791340592,17,5,7.877,720.94576683667,0.0,0.0,1.02680777564,0.0,0.0,0.0,25.7,3.0,0.8,0,0,1024,1024,1024,1024,0,0,0,0,0,0,0,78,3.94,3.937,0,0,0,0,0.726,74.48,720.94576683667,0.0,41,Motors_Started,,0.0
325400,2026-01-08 12:33:31,,,720.94576683667,0.328084,0.0,1.0259678806,0.066640093996,17,5,7.877,720.94576683667,0.0,0.0,1.02680777564,0.0,0.0,0.0,25.7,2.9,0.6,0,0,1024,1024,1024,1024,0,0,0,0,0,0,0,78,3.94,3.937,0,0,0,0,0.726,74.48,720.94576683667,0.0,41,Motors_Started,,0.0
325500,2026-01-08 12:33:32,,,720.94576683667,0.328084,0.0,1.01139767016,0.086581695684,17,5,7.877,720.94576683667,0.0,0.0,1.02680777564,0.0,0.0,0.0,25.8,2.9,0.7,0,0,1024,1024,1024,1024,0,0,0,0,0,0,0,78,3.94,3.937,0,0,0,0,0.726,74.48,720.94576683667,0.0,41,Motors_Started,,0.0
325600,2026-01-08 12:33:32,,,720.94576683667,0.328084,0.0,1.03062995424,0.105859911524,17,5,7.877,720.94576683667,0.0,0.0,1.03062995424,0.0,0.0,0.0,25.8,3.0,0.7,0,0,1024,1024,1024,1024,0,0,0,0,0,0,0,78,3.94,3.937,0,0,0,0,0.726,74.48,720.94576683667,0.0,41,Motors_Started,,0.0
325700,2026-01-08 12:33:32,,,720.94576683667,0.328084,0.0,1.04039045324,0.115629596876,17,5,7.877,720.94576683667,0.0,0.0,1.04039045324,0.0,0.0,0.0,25.7,3.0,0.7,0,0,1024,1024,1024,1024,0,0,0,0,0,0,0,78,3.94,3.937,0,0,0,0,0.726,74.48,720.94576683667,0.0,41,Motors_Started,,0.0
325800,2026-01-08 12:33:32,,,720.94576683667,0.328084,0.0,1.0448491148,0.12009678862,17,5,7.877,720.94576683667,0.0,0.0,1.0448491148,0.0,0.0,0.0,25.8,3.0,0.7,0,0,1024,1024,1024,1024,0,0,0,0,0,0,0,78,3.94,3.937,0,0,0,0,0.726,74.48,720.94576683667,0.0,41,Motors_Started,,0.0
325900,2026-01-08 12:33:32,,,720.94576683667,0.328084,0.0,1.06516079524,0.164531501328,17,5,7.877,720.94576683667,0.0,0.0,1.06516079524,0.0,0.0,0.0,25.8,3.0,0.7,0,0,1024,1024,1024,1024,0,0,0,0,0,0,0,78,3.94,3.937,0,0,0,0,0.726,74.48,720.94576683667,0.0,11,AutoTakeoff,,0.0
326000,2026-01-08 12:33:32,,,720.94576683667,0.328084,0.0,1.07845475892,0.181715556996,17,5,7.877,720.94576683667,0.0,0.0,1.07845475892,0.0,0.0,0.0,25.8,3.0,0.7,0,0,1024,1024,1024,1024,0,0,0,0,0,0,0,78,3.94,3.937,0,0,0,0,0.726,74.48,720.94576683667,0.0,11,AutoTakeoff,,0.0
326100,2026-01-08 12:33:32,,,720.94576683667,0.328084,0.0,1.08992129472,0.193191279148,17,5,7.877,720.94576683667,0.0,0.0,1.08992129472,0.0,0.0,0.0,25.7,3.0,0.7,0,0,1024,1024,1024,1024,0,0,0,0,0,0,0,78,3.94,3.937,0,0,0,0,0.726,74.48,720.94576683667,0.0,11,AutoTakeoff,,0.0
326200,2026-01-08 12:33:32,,,720.94576683667,0.328084,0.0,1.1008366494,0.206743116852,17,5,7.876,720.94576683667,0.0,0.0,1.1008366494,0.0,0.0,0.0,25.7,2.9,0.7,0,0,1024,1024,1024,1024,0,0,0,0,0,0,0,78,3.939,3.937,0,0,0,0,1.366,74.48,720.94576683667,0.0,11,AutoTakeoff,,0.0
326300,2026-01-08 12:33:32,,,720.94576683667,0.328084,0.0,1.08945541544,0.232048563856,17,5,7.876,720.94576683667,0.0,0.0,1.1008366494,0.0,0.0,0.0,25.7,3.0,0.7,0,0,1024,1024,1024,1024,0,0,0,0,0,0,0,78,3.939,3.937,0,0,0,0,1.366,74.48,720.94576683667,0.0,11,AutoTakeoff,,0.0
326400,2026-01-08 12:33:32,,,720.94576683667,0.328084,0.0,1.09058074356,0.23629757974,17,5,7.876,720.94576683667,0.0,0.0,1.1008366494,0.0,0.0,0.0,25.8,3.0,0.7,0,0,1024,1024,1024,1024,0,0,0,0,0,0,0,78,3.939,3.937,0,0,0,0,1.366,74.48,720.94576683667,0.0,11,AutoTakeoff,,0.0
326500,2026-01-08 12:33:32,,,720.94576683667,0.328084,0.0,1.09428809276,0.245493446176,17,5,7.876,720.94576683667,0.0,0.0,1.1008366494,0.0,0.0,0.0,25.6,3.0,0.7,0,0,1024,1024,1024,1024,0,0,0,0,0,0,0,78,3.939,3.937,0,0,0,0,1.366,74.48,720.94576683667,0.0,11,AutoTakeoff,,0.0
326600,2026-01-08 12:33:33,,,720.94576683667,0.328084,0.0,1.09838914276,0.256221464892,17,5,7.876,720.94576683667,0.0,0.0,1.1008366494,0.0,0.0,0.0,25.1,2.8,0.2,0,0,1024,1024,1024,1024,0,0,0,0,0,0,0,78,3.939,3.937,0,0,0,0,1.366,74.48,720.94576683667,0.0,11,AutoTakeoff,,0.0
326700,2026-01-08 12:33:33,,,720.94576683667,0.328084,0.0,1.10062667564,0.265727370708,17,5,7.876,720.94576683667,0.0,0.0,1.1008366494,0.0,0.0,0.0,24.1,2.1,0.1,0,0,1024,1024,1024,1024,0,0,0,0,0,0,0,78,3.939,3.937,0,0,0,0,1.366,74.48,720.94576683667,0.0,11,AutoTakeoff,,0.0
326800,2026-01-08 12:33:33,,,720.94576683667,0.328084,0.0,1.11277234532,0.30220309366,17,5,7.876,720.94576683667,0.0,0.0,1.11277234532,0.0,0.0,-0.223694,23.4,1.7,-0.8,0,0,1024,1024,1024,1024,0,0,0,0,0,0,0,78,3.939,3.937,0,0,0,0,1.366,74.48,720.94576683667,0.0,11,AutoTakeoff,,0.0
326900,2026-01-08 12:33:33,,,720.94576683667,0.328084,0.223694,1.10928809324,0.331118777,17,5,7.876,720.94576683667,0.0,0.223694,1.11277234532,0.0,-0.223694,-0.671082,23.1,0.3,-0.6,0,0,1024,1024,1024,1024,0,0,0,0,0,0,0,78,3.939,3.937,0,0,0,0,1.366,74.48,720.94576683667,0.0,11,AutoTakeoff,Home Point updated. RTH altitude adjusted to 90 m (Code: 120852),0.0
327000,2026-01-08 12:33:33,,,720.94576683667,0.656168,0.223694,1.0888123708,0.37054135044,17,5,7.876,720.94576683667,0.0,0.223694,1.11277234532,0.0,-0.223694,-1.11847,23.2,0.8,1.1,0,0,1024,1024,1024,1024,0,0,0,0,0,0,0,78,3.939,3.937,0,0,0,0,1.366,74.48,720.94576683667,0.0,11,AutoTakeoff,,0.0
327100,2026-01-08 12:33:33,,,721.27385083667,0.656168,0.3131716,1.03831696236,0.43099738912,17,5,7.876,721.27385083667,0.328084,0.3131716,1.11277234532,0.223694,-0.223694,-1.342164,23.3,0.9,2.8,0,0,1024,1024,1024,1024,0,0,0,0,0,0,0,78,3.939,3.937,0,0,0,0,1.366,74.48,721.27385083667,0.328084,11,AutoTakeoff,,0.1
327200,2026-01-08 12:33:33,,,721.27385083667,0.984252,0.3131716,0.96446525396,0.51852363864,17,5,7.876,721.27385083667,0.328084,0.3131716,1.11277234532,0.223694,-0.223694,-1.565858,23.1,1.7,2.5,0,0,1024,1024,1570,1024,0,0,83,0,0,0,0,78,3.939,3.937,0,0,0,0,1.366,74.48,721.27385083667,0.328084,11,AutoTakeoff,,0.1
327300,2026-01-08 12:33:33,,,721.60193483667,0.984252,0.4921268,0.8721785056,0.61107613504,17,5,7.646,721.60193483667,0.656168,0.4921268,1.11277234532,0.447388,-0.223694,-2.013246,23.3,2.4,2.8,0,0,1024,1024,1570,1024,0,0,83,0,0,0,0,78,3.827,3.818,0,0,0,0,4.996,74.48,721.60193483667,0.656168,11,AutoTakeoff,,0.2
327400,2026-01-08 12:33:33,,,721.93001883667,1.312336,0.447388,0.7577756148,0.72580054816,17,5,7.646,721.93001883667,0.984252,0.4921268,1.11277234532,0.447388,0.0,-2.23694,23.4,3.7,3.4,0,0,1024,1024,1684,1024,0,0,100,0,0,0,0,78,3.827,3.818,0,0,0,0,4.996,74.48,721.93001883667,0.984252,11,AutoTakeoff,,0.3
327500,2026-01-08 12:33:34,,,722.25810283667,1.64042,0.447388,0.66506235724,0.82133204728,17,5,7.646,722.25810283667,1.312336,0.4921268,1.11277234532,0.447388,0.0,-2.460634,23.6,4.6,3.9,0,0,1024,1024,1684,1024,0,0,100,0,0,0,0,78,3.827,3.818,0,0,0,0,4.996,74.48,722.25810283667,1.312336,11,AutoTakeoff,,0.4
327600,2026-01-08 12:33:34,,,722.58618683667,1.968504,0.447388,0.55153873156,0.94666013528,16,5,7.646,722.58618683667,1.64042,0.4921268,1.11277234532,0.447388,0.0,-2.908022,23.6,5.5,3.9,0,0,1024,1024,1684,1024,0,0,100,0,0,0,0,78,3.827,3.818,0,0,0,0,4.996,74.48,722.58618683667,1.64042,11,AutoTakeoff,,0.5
327700,2026-01-08 12:33:34,,,723.24235483667,2.624672,0.447388,0.4514107756,1.06460633328,16,5,7.646,723.24235483667,2.296588,0.4921268,1.11277234532,0.447388,0.0,-3.35541,23.7,6.3,3.7,0,0,1024,1024,1684,1024,0,0,100,0,0,0,0,78,3.827,3.818,0,0,0,0,4.996,74.48,723.24235483667,2.296588,11,AutoTakeoff,,0.7
327800,2026-01-08 12:33:34,,,723.89852283667,2.952756,0.447388,0.34916011616,1.20350397552,16,5,7.646,723.89852283667,2.952756,0.4921268,1.11277234532,0.447388,0.0,-3.802798,23.8,6.3,3.9,0,0,1024,1024,1684,1024,0,0,100,0,0,0,0,78,3.827,3.818,0,0,0,0,4.996,74.48,723.89852283667,2.952756,6,P-GPS,,0.9
327900,2026-01-08 12:33:34,,,724.55469083667,3.608924,0.223694,0.286196531468,1.3097441364,16,5,7.646,724.55469083667,3.608924,0.4921268,1.11277234532,0.223694,0.0,-4.026492,23.9,6.1,4.2,0,0,1024,1024,1684,1024,0,0,100,0,0,0,0,78,3.827,3.818,0,0,0,0,4.996,74.48,724.55469083667,3.608924,6,P-GPS,,1.1
328000,2026-01-08 12:33:34,,,724.88277483667,4.265092,0.223694,0.267799549252,1.51032157064,16,5,7.646,724.88277483667,3.937008,0.4921268,1.11277234532,0.223694,0.0,-4.250186,23.8,5.9,4.4,0,0,1024,1024,1684,1024,0,0,100,0,0,0,0,78,3.827,3.818,0,0,0,0,4.996,74.48,724.88277483667,3.937008,6,P-GPS,,1.2
328100,2026-01-08 12:33:34,,,725.86702683667,4.92126,0.223694,0.28079725308,1.56712931524,16,5,7.646,725.86702683667,4.92126,0.4921268,1.11277234532,0.223694,0.0,-4.47388,23.9,6.4,4.8,0,0,1024,1024,1684,1024,0,0,100,0,0,0,0,78,3.827,3.818,0,0,0,0,4.996,74.48,725.86702683667,4.92126,6,P-GPS,,1.5
328200,2026-01-08 12:33:34,,,726.52319483667,5.577428,0.223694,0.294931767968,1.606709369,16,5,7.646,726.52319483667,5.577428,0.4921268,1.11277234532,0.223694,0.0,-4.47388,23.7,6.3,4.3,0,0,1024,1024,1684,1024,0,0,100,0,0,0,0,78,3.827,3.818,0,0,0,0,4.996,74.48,726.52319483667,5.577428,6,P-GPS,,1.7
328300,2026-01-08 12:33:34,,,727.17936283667,6.233596,0.0,0.311515758,1.628362913,16,5,7.646,727.17936283667,6.233596,0.4921268,1.11277234532,0.0,0.0,-4.47388,23.6,6.4,3.8,0,0,1024,1024,1684,1024,0,0,100,0,0,0,0,78,3.827,3.818,0,0,0,0,4.996,74.48,727.17936283667,6.233596,6,P-GPS,,1.9
328400,2026-01-08 12:33:34,,,727.83553083667,6.889764,0.223694,0.32997376384,1.6708169826,17,5,7.628,727.83553083667,6.889764,0.4921268,1.11277234532,0.223694,0.0,-4.47388,23.6,6.2,3.6,0,0,1024,1024,1684,1024,0,0,100,0,0,0,0,78,3.817,3.811,0,0,0,0,6.236,74.48,727.83553083667,6.889764,6,P-GPS,,2.1
328500,2026-01-08 12:33:35,,,728.16361483667,7.545932,0.0,0.35537730796,1.78475399412,17,5,7.628,728.16361483667,7.217848,0.4921268,1.11277234532,0.0,0.0,-4.47388,23.6,7.2,3.8,0,0,1024,1024,1684,1024,0,0,100,0,0,0,0,78,3.817,3.811,0,0,0,0,6.236,74.48,728.16361483667,7.217848,6,P-GPS,,2.2
328600,2026-01-08 12:33:35,,,728.81978283667,8.2021,0.0,0.34038058832,1.81329074044,17,5,7.628,728.81978283667,7.874016,0.4921268,1.11277234532,0.0,0.0,-4.47388,23.7,6.8,4.0,0,0,1024,1024,1684,1024,0,0,100,0,0,0,0,78,3.817,3.811,0,0,0,0,6.236,74.48,728.81978283667,7.874016,6,P-GPS,,2.4
328700,2026-01-08 12:33:35,,,729.47595083667,8.858268,0.0,0.32943242524,1.82661423168,17,5,7.628,729.47595083667,8.530184,0.4921268,1.11277234532,0.0,0.0,-4.47388,23.7,5.9,3.6,0,0,1024,1024,1684,1024,0,0,100,0,0,0,0,78,3.817,3.811,0,0,0,0,6.236,74.48,729.47595083667,8.530184,6,P-GPS,,2.6
328800,2026-01-08 12:33:35,,,730.13211883667,9.514436,0.0,0.318002306764,1.83806108244,17,5,7.628,730.13211883667,9.186352,0.4921268,1.11277234532,0.0,0.0,-4.47388,23.8,6.4,3.6,0,0,1024,1024,1684,1024,0,0,100,0,0,0,0,78,3.817,3.811,0,0,0,0,6.236,74.48,730.13211883667,9.186352,6,P-GPS,,2.8
328900,2026-01-08 12:33:35,,,730.78828683667,10.170604,0.0,0.293599746928,1.89836292164,17,5,7.628,730.78828683667,9.84252,0.4921268,1.11277234532,0.0,0.0,-4.47388,23.8,6.3,4.7,0,0,1024,1024,1684,1024,0,0,100,0,0,0,0,78,3.817,3.811,0,0,0,0,6.236,74.48,730.78828683667,9.84252,6,P-GPS,,3.0
329000,2026-01-08 12:33:35,,,731.44445483667,10.826772,0.0,0.303599419164,1.91211620292,17,5,7.628,731.44445483667,10.498688,0.4921268,1.11277234532,0.0,0.0,-4.47388,23.8,6.7,4.5,0,0,1024,1024,1684,1024,0,0,100,0,0,0,0,78,3.817,3.811,0,0,0,0,6.236,74.48,731.44445483667,10.498688,6,P-GPS,,3.2
329100,2026-01-08 12:33:35,,,732.10062283667,11.48294,0.0,0.316323500936,1.93736226672,17,5,7.628,732.10062283667,11.154856,0.4921268,1.11277234532,0.0,0.0,-4.250186,23.9,7.2,3.3,0,0,1024,1024,1684,1024,0,0,100,0,0,0,0,78,3.817,3.811,0,0,0,0,6.236,74.48,732.10062283667,11.154856,6,P-GPS,,3.4
329200,2026-01-08 12:33:35,,,732.75679083667,12.139108,0.0,0.3281824252,1.98388457792,17,5,7.628,732.75679083667,11.811024,0.4921268,1.11277234532,0.0,0.0,-4.250186,23.8,7.3,3.4,0,0,1024,1024,1684,1024,0,0,100,0,0,0,0,78,3.817,3.811,0,0,0,0,6.236,74.48,732.75679083667,11.811024,6,P-GPS,,3.6
329300,2026-01-08 12:33:35,,,733.41295883667,12.795276,0.0,0.46124017224,2.13108930704,17,5,7.628,733.41295883667,12.467192,0.4921268,1.11277234532,0.0,0.0,-4.250186,23.7,7.0,1.9,0,0,1024,1024,1684,1024,0,0,100,0,0,0,0,78,3.817,3.811,0,0,0,0,6.236,74.48,733.41295883667,12.467192,6,P-GPS,,3.8
329400,2026-01-08 12:33:35,,,733.74104283667,13.12336,0.223694,0.4726214062,2.19036424332,17,5,7.628,733.74104283667,12.795276,0.4921268,1.11277234532,-0.223694,0.0,-4.026492,23.6,5.8,1.7,0,0,1024,1024,1684,1024,0,0,100,0,0,0,0,78,3.817,3.811,0,0,0,0,6.236,74.48,733.74104283667,12.795276,6,P-GPS,,3.9
329500,2026-01-08 12:33:36,,,734.39721083667,13.779528,0.223694,0.46698492308,2.2528544028,17,5,7.628,734.39721083667,13.451444,0.4921268,1.11277234532,-0.223694,0.0,-4.250186,23.5,4.4,1.6,0,0,1024,1024,1684,1024,0,0,100,0,0,0,0,78,3.817,3.811,0,0,0,0,6.236,74.48,734.39721083667,13.451444,6,P-GPS,,4.1
329600,2026-01-08 12:33:36,,,735.05337883667,14.107612,0.3131716,0.45390093316,2.31436031028,17,5,7.628,735.05337883667,14.107612,0.4921268,1.11277234532,-0.223694,-0.223694,-4.250186,23.7,4.5,3.7,0,0,1024,1024,1684,1024,0,0,100,0,0,0,0,78,3.804,3.797,0,0,0,0,6.236,74.48,735.05337883667,14.107612,6,P-GPS,,4.3
329700,2026-01-08 12:33:36,,,735.70954683667,14.76378,0.223694,0.35420276724,2.5812500826,17,5,7.628,735.70954683667,14.76378,0.4921268,1.11277234532,0.0,-0.223694,-4.250186,23.8,3.8,4.3,0,0,1024,1024,1684,1024,0,0,100,0,0,0,0,78,3.804,3.797,0,0,0,0,6.236,74.48,735.70954683667,14.76378,6,P-GPS,,4.5
329800,2026-01-08 12:33:36,,,736.36571483667,15.419948,0.223694,0.34901247836,2.66383538708,17,5,7.628,736.36571483667,15.419948,0.4921268,1.11277234532,0.0,-0.223694,-4.47388,23.8,3.5,5.6,0,0,1024,1024,1684,1024,0,0,100,0,0,0,0,78,3.804,3.797,0,0,0,0,6.236,74.48,736.36571483667,15.419948,6,P-GPS,,4.7
329900,2026-01-08 12:33:36,,,737.02188283667,16.076116,0.0,0.326330062936,2.72695546784,17,5,7.628,737.02188283667,16.076116,0.4921268,1.11277234532,0.0,0.0,-4.250186,24.1,5.1,6.0,0,0,1024,1024,1684,1024,0,0,100,0,0,0,0,78,3.804,3.797,0,0,0,0,6.236,74.48,737.02188283667,16.076116,6,P-GPS,,4.9
330000,2026-01-08 12:33:36,,,737.67805083667,17.060368,0.0,0.294677502868,2.78537738572,17,5,7.628,737.67805083667,16.732284,0.4921268,1.11277234532,0.0,0.0,-4.250186,23.9,6.0,5.4,0,0,1024,1024,1684,1024,0,0,100,0,0,0,0,78,3.804,3.797,0,0,0,0,6.236,74.48,737.67805083667,16.732284,6,P-GPS,,5.1
330100,2026-01-08 12:33:36,,,738.33421883667,17.716536,0.0,0.261042003104,2.81901583824,17,5,7.628,738.33421883667,17.388452,0.4921268,1.11277234532,0.223694,0.0,-4.250186,23.9,6.7,4.1,0,0,1024,1024,1684,1024,0,0,100,0,0,0,0,78,3.804,3.797,0,0,0,0,6.236,74.48,738.33421883667,17.388452,6,P-GPS,,5.3
330200,2026-01-08 12:33:36,,,738.99038683667,18.700788,0.0,0.08400918904,3.00776256344,17,5,7.628,738.99038683667,18.04462,0.4921268,1.11277234532,0.0,0.0,-4.250186,24.0,8.5,3.7,0,0,1024,1024,1684,1024,0,0,100,0,0,0,0,78,3.804,3.797,0,0,0,0,6.236,74.48,738.99038683667,18.04462,6,P-GPS,,5.5
330300,2026-01-08 12:33:36,,,739.64655483667,19.68504,0.223694,0.09580544926,3.0566930112,17,5,7.628,739.64655483667,18.700788,0.4921268,1.11277234532,0.0,0.223694,-4.250186,23.7,8.4,3.6,0,0,1024,1024,1684,1024,0,0,100,0,0,0,0,78,3.804,3.797,0,0,0,0,6.236,74.48,739.64655483667,18.700788,6,P-GPS,,5.7
330400,2026-01-08 12:33:36,,,740.30272283667,20.341208,0.3131716,0.135245083068,3.10569563744,17,5,7.628,740.30272283667,19.356956,0.4921268,1.11277234532,0.223694,0.223694,-4.250186,23.8,9.3,3.0,0,0,1024,1024,1684,1024,0,0,100,0,0,0,0,78,3.804,3.797,0,0,0,0,6.236,74.48,740.30272283667,19.356956,6,P-GPS,,5.9
330500,2026-01-08 12:33:37,,,740.95889083667,20.997376,0.223694,0.184349415348,3.1674377654,17,5,7.628,740.95889083667,20.013124,0.4921268,1.11277234532,0.223694,0.0,-4.250186,23.8,9.2,2.5,0,0,1024,1024,1684,1024,0,0,100,0,0,0,0,78,3.804,3.797,0,0,0,0,6.236,74.48,740.95889083667,20.013124,6,P-GPS,,6.1
330600,2026-01-08 12:33:37,,,741.61505883667,21.653544,0.223694,0.36116142888,3.3678478768,18,5,7.628,741.61505883667,20.669292,0.4921268,1.11277234532,0.223694,0.0,-4.250186,24.0,9.9,3.6,0,0,1024,1024,1684,1024,0,0,100,0,0,0,0,78,3.804,3.797,0,0,0,0,6.236,74.48,741.61505883667,20.669292,6,P-GPS,,6.3
330700,2026-01-08 12:33:37,,,742.27122683667,22.309712,0.0,0.39306759788,3.4105644136,18,5,7.591,742.27122683667,21.32546,0.4921268,1.11277234532,0.0,0.0,-4.250186,24.1,9.6,4.7,0,0,1024,1024,1684,1024,0,0,100,0,0,0,0,78,3.801,3.79,0,0,0,0,6.226,74.48,742.27122683667,21.32546,6,P-GPS,,6.5
330800,2026-01-08 12:33:37,,,742.92739483667,22.96588,0.0,0.4044619552,3.436515858,18,5,7.591,742.92739483667,21.981628,0.4921268,1.11277234532,0.0,0.0,-4.250186,24.0,9.4,4.8,0,0,1024,1024,1684,1024,0,0,100,0,0,0,0,78,3.801,3.79,0,0,0,0,6.226,74.48,742.92739483667,21.981628,6,P-GPS,,6.7
330900,2026-01-08 12:33:37,,,743.58356283667,23.622048,0.0,0.40369751948,3.44242137,18,5,7.591,743.58356283667,22.637796,0.4921268,1.11277234532,0.0,0.0,-4.47388,24.0,8.4,4.2,0,0,1024,1024,1684,1024,0,0,100,0,0,0,0,78,3.801,3.79,0,0,0,0,6.226,74.48,743.58356283667,22.637796,6,P-GPS,,6.9
331000,2026-01-08 12:33:37,,,744.23973083667,24.278216,0.0,0.38097770248,3.4720801636,18,5,7.591,744.23973083667,23.293964,0.4921268,1.11277234532,0.0,0.0,-4.47388,24.1,8.5,4.5,0,0,1024,1024,1684,1024,0,0,100,0,0,0,0,78,3.801,3.79,0,0,0,0,6.226,74.48,744.23973083667,23.293964,6,P-GPS,,7.1
331100,2026-01-08 12:33:37,,,744.56781483667,25.262468,0.0,0.38331037972,3.4763452556,18,5,7.591,744.56781483667,23.622048,0.4921268,1.11277234532,0.0,0.0,-4.47388,24.1,8.5,5.2,0,0,1024,1024,1684,1024,0,0,100,0,0,0,0,78,3.801,3.79,0,0,0,0,6.226,74.48,744.56781483667,23.622048,6,P-GPS,,7.2
331200,2026-01-08 12:33:37,,,745.22398283667,25.918636,0.223694,0.38762140348,3.4885827888,18,5,7.591,745.22398283667,24.278216,0.4921268,1.11277234532,-0.223694,0.0,-4.47388,23.9,7.6,4.9,0,0,1024,1024,1684,1024,0,0,100,0,0,0,0,78,3.801,3.79,0,0,0,0,6.226,74.48,745.22398283667,24.278216,6,P-GPS,,7.4
331300,2026-01-08 12:33:37,,,745.88015083667,26.574804,0.0,0.35847770176,3.5242455196,18,5,7.591,745.88015083667,24.934384,0.4921268,1.11277234532,0.0,0.0,-4.47388,23.9,6.1,4.6,0,0,1024,1024,1684,1024,0,0,100,0,0,0,0,78,3.801,3.79,0,0,0,0,6.226,74.48,745.88015083667,24.934384,6,P-GPS,,7.6
331400,2026-01-08 12:33:37,,,746.20823483667,27.230972,0.0,0.254815953036,3.632382006,18,5,7.591,746.20823483667,25.262468,0.4921268,1.11277234532,0.0,0.0,-4.47388,23.9,6.9,4.2,0,0,1024,1024,1684,1024,0,0,100,0,0,0,0,78,3.801,3.79,0,0,0,0,6.226,74.48,746.20823483667,25.262468,6,P-GPS,,7.7
331500,2026-01-08 12:33:37,,,746.86440283667,27.88714,0.0,0.245608931744,3.6809056296,18,5,7.591,746.86440283667,25.918636,0.4921268,1.11277234532,0.0,0.0,-4.47388,23.9,7.5,3.4,0,0,1024,1024,1684,1024,0,0,100,0,0,0,0,78,3.801,3.79,0,0,0,0,6.226,74.48,746.86440283667,25.918636,6,P-GPS,,7.9
331600,2026-01-08 12:33:38,,,747.52057083667,28.543308,0.223694,0.254772645948,3.723589358,18,5,7.591,747.52057083667,26.574804,0.4921268,1.11277234532,0.0,0.223694,-4.250186,24.0,10.3,2.8,0,0,1024,1024,1684,1024,0,0,100,0,0,0,0,78,3.801,3.79,0,0,0,0,6.226,74.48,747.52057083667,26.574804,6,P-GPS,,8.1
331700,2026-01-08 12:33:38,,,748.17673883667,29.199476,0.0,0.28028052078,3.7745736116,18,5,7.591,748.17673883667,27.230972,0.4921268,1.11277234532,0.0,0.0,-4.026492,23.9,9.0,1.6,0,0,1024,1024,1684,1024,0,0,100,0,0,0,0,78,3.801,3.79,0,0,0,0,6.226,74.48,748.17673883667,27.230972,6,P-GPS,,8.3
331800,2026-01-08 12:33:38,,,748.83290683667,29.855644,0.0,0.299826453164,3.82956049,18,5,7.591,748.83290683667,27.88714,0.4921268,1.11277234532,0.0,0.0,-4.026492,23.9,7.0,3.5,0,0,1024,1024,1684,1024,0,0,100,0,0,0,0,78,3.801,3.79,0,0,0,0,6.226,74.48,748.83290683667,27.88714,6,P-GPS,,8.5
331900,2026-01-08 12:33:38,,,749.48907483667,30.511812,0.0,0.39256234852,3.9396654804,18,5,7.591,749.48907483667,28.543308,0.4921268,1.11277234532,0.0,0.0,-4.250186,24.0,6.3,4.3,0,0,1024,1024,1684,1024,0,0,100,0,0,0,0,78,3.801,3.79,0,0,0,0,6.226,74.48,749.48907483667,28.543308,6,P-GPS,,8.7
332000,2026-01-08 12:33:38,,,750.47332683667,31.16798,0.0,0.39886484216,3.975721912,18,5,7.591,750.47332683667,29.52756,0.4921268,1.11277234532,0.0,-0.223694,-4.250186,24.2,7.9,6.4,0,0,1024,1024,1684,1024,0,0,100,0,0,0,0,78,3.801,3.79,0,0,0,0,6.226,74.48,750.47332683667,29.52756,6,P-GPS,,9.0
332100,2026-01-08 12:33:38,,,751.12949483667,32.152232,0.223694,0.39036746656,4.0231956668,18,5,7.591,751.12949483667,30.183728,0.4921268,1.11277234532,0.0,-0.223694,-4.250186,24.3,8.6,7.7,0,0,1024,1024,1684,1024,0,0,100,0,0,0,0,78,3.801,3.79,0,0,0,0,6.226,74.48,751.12949483667,30.183728,6,P-GPS,,9.2
332200,2026-01-08 12:33:38,,,751.78566283667,32.8084,0.223694,0.38416339812,4.0835303144,18,5,7.591,751.78566283667,30.839896,0.4921268,1.11277234532,0.0,-0.223694,-4.250186,24.3,9.0,8.0,0,0,1024,1024,1684,1024,0,0,100,0,0,0,0,78,3.801,3.79,0,0,0,0,6.226,74.48,751.78566283667,30.839896,6,P-GPS,,9.4
332300,2026-01-08 12:33:38,,,752.44183083667,33.464568,0.223694,0.41650919968,4.1479988204,18,5,7.591,752.44183083667,31.496064,0.4921268,1.11277234532,0.0,-0.223694,-4.250186,24.1,8.9,8.4,0,0,1024,1024,1684,1024,0,0,100,0,0,0,0,78,3.801,3.79,0,0,0,0,6.226,74.48,752.44183083667,31.496064,6,P-GPS,,9.6
332400,2026-01-08 12:33:38,,,753.09799883667,34.120736,0.223694,0.35413058876,4.2252626024,18,5,7.591,753.09799883667,32.152232,0.4921268,1.11277234532,0.0,-0.223694,-4.47388,24.3,9.3,8.7,0,0,1024,1024,1684,1024,0,0,100,0,0,0,0,78,3.801,3.79,0,0,0,0,6.226,74.48,753.09799883667,32.152232,6,P-GPS,,9.8
332500,2026-01-08 12:33:39,,,753.75416683667,34.776904,0.0,0.316772976016,4.2795933128,18,5,7.624,753.75416683667,32.8084,0.4921268,1.11277234532,0.0,0.0,-4.47388,24.3,9.6,8.6,0,0,1024,1024,1024,1024,0,0,0,0,0,0,0,78,3.8,3.785,0,0,0,0,5.841,74.66,753.75416683667,32.8084,6,P-GPS,,10.0
332600,2026-01-08 12:33:39,,,754.41033483667,35.433072,0.0,0.30074311986,4.3166339964,18,5,7.624,754.41033483667,33.464568,0.4921268,1.11277234532,0.0,0.0,-4.47388,24.3,9.8,8.3,0,0,1024,1024,1024,1024,0,0,0,0,0,0,0,78,3.8,3.785,0,0,0,0,5.841,74.66,754.41033483667,33.464568,6,P-GPS,,10.2
332700,2026-01-08 12:33:39,,,755.06650283667,36.08924,0.0,0.187338588672,4.4761484372,18,5,7.624,755.06650283667,34.120736,0.4921268,1.11277234532,0.0,0.0,-4.250186,24.2,9.5,7.5,0,0,1024,1024,1024,1024,0,0,0,0,0,0,0,78,3.8,3.785,0,0,0,0,5.841,74.66,755.06650283667,34.120736,6,P-GPS,,10.4
332800,2026-01-08 12:33:39,,,755.72267083667,36.745408,0.0,0.211613851916,4.5093177296,18,5,7.624,755.72267083667,34.776904,0.4921268,1.11277234532,0.0,0.0,-3.802798,24.1,8.8,8.0,0,0,1024,1024,1024,1024,0,0,0,0,0,0,0,78,3.8,3.785,0,0,0,0,5.841,74.66,755.72267083667,34.776904,6,P-GPS,,10.6
332900,2026-01-08 12:33:39,,,756.05075483667,37.073492,0.0,0.220248366628,4.523950276,18,5,7.624,756.05075483667,35.104988,0.4921268,1.11277234532,0.0,0.0,-3.35541,24.1,9.1,7.5,0,0,1024,1024,1024,1024,0,0,0,0,0,0,0,78,3.8,3.785,0,0,0,0,5.841,74.66,756.05075483667,35.104988,6,P-GPS,,10.7
333000,2026-01-08 12:33:39,,,756.37883883667,37.72966,0.0,0.216782487252,4.532972586,18,5,7.624,756.37883883667,35.433072,0.4921268,1.11277234532,0.0,0.0,-2.684328,24.2,9.9,7.3,0,0,1024,1024,1024,1024,0,0,0,0,0,0,0,78,3.8,3.785,0,0,0,0,5.841,74.66,756.37883883667,35.433072,6,P-GPS,,10.8
333100,2026-01-08 12:33:39,,,756.37883883667,38.057744,0.0,0.194065623008,4.645177314,18,5,7.624,756.37883883667,35.433072,0.4921268,1.11277234532,0.0,0.0,-1.789552,24.3,9.9,7.8,0,0,1024,1024,1024,1024,0,0,0,0,0,0,0,78,3.8,3.785,0,0,0,0,5.841,74.66,756.37883883667,35.433072,6,P-GPS,,10.8
333200,2026-01-08 12:33:39,,,756.70692283667,38.057744,0.0,0.206023956724,4.6802494936,18,5,7.624,756.70692283667,35.761156,0.4921268,1.11277234532,0.0,0.0,-1.11847,24.3,10.4,8.0,0,0,1024,1024,1024,1024,0,0,0,0,0,0,0,78,3.8,3.785,0,0,0,0,5.841,74.66,756.70692283667,35.761156,6,P-GPS,,10.9
333300,2026-01-08 12:33:39,,,756.70692283667,38.057744,0.0,0.210768379448,4.7119752164,18,5,7.624,756.70692283667,35.761156,0.4921268,1.11277234532,0.0,0.0,-0.447388,24.2,9.8,7.7,0,0,1024,1024,1024,1024,0,0,0,0,0,0,0,78,3.8,3.785,0,0,0,0,5.841,74.66,756.70692283667,35.761156,6,P-GPS,,10.9
333400,2026-01-08 12:33:39,,,756.37883883667,38.057744,0.0,0.213120413644,4.7412731176,18,5,7.624,756.70692283667,35.761156,0.4921268,1.11277234532,0.0,0.0,-0.223694,24.2,9.9,7.7,0,0,1024,1024,1024,1024,0,0,0,0,0,0,0,78,3.8,3.785,0,0,0,0,5.841,74.66,756.37883883667,35.433072,6,P-GPS,,10.8
333500,2026-01-08 12:33:40,,,756.37883883667,38.057744,0.0,0.222134849628,4.756561832,18,5,7.552,756.70692283667,35.761156,0.4921268,1.11277234532,0.0,0.0,0.0,24.1,9.4,7.9,0,0,1024,1024,1024,1024,0,0,0,0,0,0,0,78,3.783,3.77,0,0,0,0,6.381,74.66,756.37883883667,35.433072,6,P-GPS,,10.8
333600,2026-01-08 12:33:40,,,756.37883883667,38.057744,0.0,0.260523630384,4.8215880808,18,5,7.552,756.70692283667,35.761156,0.4921268,1.11277234532,0.0,0.0,0.0,24.2,9.6,8.0,0,0,1024,1024,1024,1024,0,0,0,0,0,0,0,78,3.783,3.77,0,0,0,0,6.381,74.66,756.37883883667,35.433072,6,P-GPS,,10.8
333700,2026-01-08 12:33:40,,,756.05075483667,38.057744,0.0,0.275020678092,4.8440290264,18,5,7.552,756.70692283667,35.761156,0.4921268,1.11277234532,0.0,0.0,0.0,24.1,9.6,7.7,0,0,1024,1024,1024,1024,0,0,0,0,0,0,0,78,3.783,3.77,0,0,0,0,6.381,74.66,756.05075483667,35.104988,6,P-GPS,,10.7
333800,2026-01-08 12:33:40,,,756.05075483667,38.057744,0.0,0.287813985588,4.858759998,18,5,7.552,756.70692283667,35.761156,0.4921268,1.11277234532,0.0,0.0,0.0,24.1,9.2,7.5,0,0,1024,1024,1024,1024,0,0,0,0,0,0,0,78,3.783,3.77,0,0,0,0,6.381,74.66,756.05075483667,35.104988,6,P-GPS,,10.7
333900,2026-01-08 12:33:40,,,755.72267083667,38.057744,0.0,0.30922573168,4.884186508,18,5,7.552,756.70692283667,35.761156,0.4921268,1.11277234532,0.0,0.0,0.0,24.1,9.0,7.2,0,0,1024,1024,1024,1024,0,0,0,0,0,0,0,78,3.783,3.77,0,0,0,0,6.381,74.66,755.72267083667,34.776904,6,P-GPS,,10.6
334000,2026-01-08 12:33:40,,,755.72267083667,38.057744,0.0,0.312070876128,4.9461615756,18,5,7.552,756.70692283667,35.761156,0.4921268,1.11277234532,-0.223694,0.0,0.0,24.0,8.9,6.7,0,0,1024,1024,1024,1024,0,0,0,0,0,0,0,78,3.783,3.77,0,0,0,0,6.381,74.66,755.72267083667,34.776904,6,P-GPS,,10.6
334100,2026-01-08 12:33:40,,,755.39458683667,38.057744,0.223694,0.3541338696,4.9883203696,18,5,7.552,756.70692283667,35.761156,0.4921268,1.11277234532,-0.223694,0.0,0.0,24.1,8.5,6.3,0,0,1024,1024,1024,1024,0,0,0,0,0,0,0,78,3.783,3.77,0,0,0,0,6.381,74.66,755.39458683667,34.44882,6,P-GPS,,10.5
334200,2026-01-08 12:33:40,,,755.39458683667,38.057744,0.223694,0.40355316252,5.0377626284,18,5,7.552,756.70692283667,35.761156,0.4921268,1.11277234532,-0.223694,0.0,0.0,24.1,8.8,6.2,0,0,1024,1024,1024,1024,0,0,0,0,0,0,0,78,3.783,3.77,0,0,0,0,6.381,74.66,755.39458683667,34.44882,6,P-GPS,,10.5
334300,2026-01-08 12:33:40,,,755.06650283667,38.057744,0.223694,0.45768046084,5.0934384832,18,5,7.552,756.70692283667,35.761156,0.4921268,1.11277234532,-0.223694,0.0,0.0,24.1,8.2,6.3,0,0,1024,1024,1024,1024,0,0,0,0,0,0,0,78,3.783,3.77,0,0,0,0,6.381,74.66,755.06650283667,34.120736,6,P-GPS,,10.4
334400,2026-01-08 12:33:40,,,755.06650283667,38.057744,0.223694,0.56057088408,5.2040027912,18,5,7.552,756.70692283667,35.761156,0.4921268,1.11277234532,-0.223694,0.0,0.0,24.0,7.6,5.6,0,0,1024,1024,1024,1024,0,0,0,0,0,0,0,78,3.783,3.77,0,0,0,0,6.381,74.66,755.06650283667,34.120736,6,P-GPS,,10.4
334500,2026-01-08 12:33:41,,,755.06650283667,38.057744,0.223694,0.60909450768,5.2552823204,18,5,7.647,756.70692283667,35.761156,0.4921268,1.11277234532,-0.223694,0.0,0.0,24.0,7.9,5.5,0,0,1024,1024,1024,1024,0,0,0,0,0,0,0,78,3.829,3.822,0,0,0,0,4.3,74.66,755.06650283667,34.120736,6,P-GPS,,10.4
334600,2026-01-08 12:33:41,,,754.73841883667,38.057744,0.223694,0.65169949592,5.3002954452,18,5,7.647,756.70692283667,35.761156,0.4921268,1.11277234532,-0.223694,0.0,0.0,23.9,7.7,5.6,0,0,1024,1024,1024,1024,0,0,0,0,0,0,0,78,3.829,3.822,0,0,0,0,4.3,74.66,754.73841883667,33.792652,6,P-GPS,,10.3
334700,2026-01-08 12:33:41,,,754.73841883667,38.057744,0.223694,0.68091865696,5.3310697244,18,5,7.647,756.70692283667,35.761156,0.4921268,1.11277234532,-0.223694,0.0,0.0,23.9,7.8,5.5,0,0,1024,1024,1024,1024,0,0,0,0,0,0,0,78,3.829,3.822,0,0,0,0,4.3,74.66,754.73841883667,33.792652,6,P-GPS,,10.3
334800,2026-01-08 12:33:41,,,754.41033483667,38.057744,0.0,0.68473755472,5.3677495156,18,5,7.647,756.70692283667,35.761156,0.4921268,1.11277234532,0.0,0.0,0.0,24.0,8.0,5.6,0,0,1024,1024,1024,1024,0,0,0,0,0,0,0,78,3.829,3.822,0,0,0,0,4.3,74.66,754.41033483667,33.464568,6,P-GPS,,10.2
334900,2026-01-08 12:33:41,,,754.41033483667,38.057744,0.0,0.69924871004,5.38303823,18,5,7.647,756.70692283667,35.761156,0.4921268,1.11277234532,0.0,0.0,0.0,24.0,7.7,5.6,0,0,1024,1024,1024,1024,0,0,0,0,0,0,0,78,3.829,3.822,0,0,0,0,4.3,74.66,754.41033483667,33.464568,6,P-GPS,,10.2
335000,2026-01-08 12:33:41,,,754.08225083667,38.057744,0.0,0.71011813296,5.3945539784,18,5,7.647,756.70692283667,35.761156,0.4921268,1.11277234532,0.0,0.0,0.0,24.0,8.1,5.8,0,0,1024,1024,1024,1024,0,0,0,0,0,0,0,78,3.829,3.822,0,0,0,0,4.3,74.66,754.08225083667,33.136484,6,P-GPS,,10.1
335100,2026-01-08 12:33:41,,,754.08225083667,38.057744,0.0,0.72099411756,5.4058728764,18,5,7.647,756.70692283667,35.761156,0.4921268,1.11277234532,0.0,0.0,0.0,24.0,8.0,5.7,0,0,1024,1024,1024,1024,0,0,0,0,0,0,0,78,3.829,3.822,0,0,0,0,4.3,74.66,754.08225083667,33.136484,6,P-GPS,,10.1
335200,2026-01-08 12:33:41,,,754.08225083667,38.057744,0.0,0.73193243812,5.4172901996,18,5,7.647,756.70692283667,35.761156,0.4921268,1.11277234532,0.0,0.0,0.0,24.0,8.2,5.7,0,0,1024,1024,1024,1024,0,0,0,0,0,0,0,78,3.829,3.822,0,0,0,0,4.3,74.66,754.08225083667,33.136484,6,P-GPS,,10.1
335300,2026-01-08 12:33:41,,,753.75416683667,38.057744,0.0,0.7337270576,5.421424058,18,5,7.647,756.70692283667,35.761156,0.4921268,1.11277234532,0.0,0.0,0.0,24.0,8.0,5.5,0,0,1024,1024,1024,1024,0,0,0,0,0,0,0,78,3.829,3.822,0,0,0,0,4.3,74.66,753.75416683667,32.8084,6,P-GPS,,10.0
335400,2026-01-08 12:33:41,,,753.75416683667,38.057744,0.0,0.75085632324,5.441929308,18,5,7.647,756.70692283667,35.761156,0.4921268,1.11277234532,0.0,0.0,0.0,24.1,8.1,5.8,0,0,1024,1024,1024,1024,0,0,0,0,0,0,0,78,3.829,3.822,0,0,0,0,4.3,74.66,753.75416683667,32.8084,6,P-GPS,,10.0
335500,2026-01-08 12:33:42,,,753.75416683667,38.057744,0.0,0.75310697948,5.4444883632,18,5,7.643,756.70692283667,35.761156,0.4921268,1.11277234532,0.0,0.0,0.0,24.1,8.1,5.8,0,0,1024,1024,1024,1024,0,0,0,0,0,0,0,78,3.823,3.819,0,0,0,0,4.69,74.66,753.75416683667,32.8084,6,P-GPS,,10.0
335600,2026-01-08 12:33:42,,,753.42608283667,38.057744,0.0,0.7470308638,5.4516734028,18,5,7.643,756.70692283667,35.761156,0.4921268,1.11277234532,0.0,0.0,0.0,24.1,8.1,5.9,0,0,1024,1024,1024,1024,0,0,0,0,0,0,0,78,3.823,3.819,0,0,0,0,4.69,74.66,753.42608283667,32.480316,6,P-GPS,,9.9
335700,2026-01-08 12:33:42,,,753.42608283667,38.057744,0.0,0.73781826508,5.4610566052,18,5,7.643,756.70692283667,35.761156,0.4921268,1.11277234532,0.0,0.0,0.0,24.0,7.8,6.0,0,0,1024,1024,1024,1024,0,0,0,0,0,0,0,78,3.823,3.819,0,0,0,0,4.69,74.66,753.42608283667,32.480316,6,P-GPS,,9.9
335800,2026-01-08 12:33:42,,,753.42608283667,38.057744,0.0,0.74549214984,5.470636658,18,5,7.643,756.70692283667,35.761156,0.4921268,1.11277234532,0.0,0.0,0.0,24.0,7.5,5.7,0,0,1024,1024,1024,1024,0,0,0,0,0,0,0,78,3.823,3.819,0,0,0,0,4.69,74.66,753.42608283667,32.480316,6,P-GPS,,9.9
335900,2026-01-08 12:33:42,,,753.09799883667,38.057744,0.0,0.75747049668,5.4833335088,18,5,7.643,756.70692283667,35.761156,0.4921268,1.11277234532,0.0,0.0,0.0,23.9,7.7,5.6,0,0,1024,1024,1024,1024,0,0,0,0,0,0,0,78,3.823,3.819,0,0,0,0,4.69,74.66,753.09799883667,32.152232,6,P-GPS,,9.8
336000,2026-01-08 12:33:42,,,753.09799883667,38.057744,0.0,0.7704888698,5.496555294,18,5,7.643,756.70692283667,35.761156,0.4921268,1.11277234532,0.0,0.0,0.0,23.9,7.9,5.6,0,0,1024,1024,1024,1024,0,0,0,0,0,0,0,78,3.823,3.819,0,0,0,0,4.69,74.66,753.09799883667,32.152232,6,P-GPS,,9.8
336100,2026-01-08 12:33:42,,,753.09799883667,38.057744,0.0,0.79111879172,5.5174214364,18,5,7.643,756.70692283667,35.761156,0.4921268,1.11277234532,0.0,0.0,0.0,24.0,8.2,5.5,0,0,1024,1024,1024,1024,0,0,0,0,0,0,0,78,3.823,3.819,0,0,0,0,4.69,74.66,753.09799883667,32.152232,6,P-GPS,,9.8
336200,2026-01-08 12:33:42,,,753.09799883667,38.057744,0.0,0.78389766288,5.52575477,18,5,7.643,756.70692283667,35.761156,0.4921268,1.11277234532,0.0,0.0,0.0,24.0,8.2,5.6,0,0,1024,1024,1024,1024,0,0,0,0,0,0,0,78,3.823,3.819,0,0,0,0,4.69,74.66,753.09799883667,32.152232,6,P-GPS,,9.8
336300,2026-01-08 12:33:42,,,753.09799883667,38.057744,0.0,0.77227036592,5.5381891536,18,5,7.643,756.70692283667,35.761156,0.4921268,1.11277234532,0.0,0.0,0.0,24.0,8.4,5.8,0,0,1024,1024,1024,1024,0,0,0,0,0,0,0,78,3.823,3.819,0,0,0,0,4.69,74.66,753.09799883667,32.152232,6,P-GPS,,9.8
336400,2026-01-08 12:33:42,,,752.76991483667,38.057744,0.0,0.75748362004,5.5539371856,18,5,7.643,756.70692283667,35.761156,0.4921268,1.11277234532,0.0,0.0,0.0,24.0,8.3,5.8,0,0,1024,1024,1024,1024,0,0,0,0,0,0,0,78,3.823,3.819,0,0,0,0,4.69,74.66,752.76991483667,31.824148,6,P-GPS,,9.7
336500,2026-01-08 12:33:43,,,752.76991483667,38.057744,0.0,0.72580054816,5.5882219636,18,5,7.634,756.70692283667,35.761156,0.4921268,1.11277234532,0.0,0.0,0.0,24.0,8.4,5.8,0,0,1024,1024,1024,1024,0,0,0,0,0,0,0,78,3.82,3.815,0,0,0,0,4.97,74.66,752.76991483667,31.824148,6,P-GPS,,9.7
336600,2026-01-08 12:33:43,,,752.76991483667,38.057744,0.0,0.71318243752,5.60121409,18,5,7.634,756.70692283667,35.761156,0.4921268,1.11277234532,0.0,0.0,0.0,24.0,8.5,5.8,0,0,1024,1024,1024,1024,0,0,0,0,0,0,0,78,3.82,3.815,0,0,0,0,4.97,74.66,752.76991483667,31.824148,6,P-GPS,,9.7
336700,2026-01-08 12:33:43,,,752.76991483667,38.057744,0.0,0.70579398584,5.6089568724,18,5,7.634,756.70692283667,35.761156,0.4921268,1.11277234532,0.0,0.0,0.0,24.0,8.6,5.5,0,0,1024,1024,1024,1024,0,0,0,0,0,0,0,78,3.82,3.815,0,0,0,0,4.97,74.66,752.76991483667,31.824148,6,P-GPS,,9.7
336800,2026-01-08 12:33:43,,,752.44183083667,38.057744,0.0,0.70229332956,5.6124673712,18,5,7.634,756.70692283667,35.761156,0.4921268,1.11277234532,0.0,0.0,0.0,24.1,8.7,5.5,0,0,1024,1024,1024,1024,0,0,0,0,0,0,0,78,3.82,3.815,0,0,0,0,4.97,74.66,752.44183083667,31.496064,6,P-GPS,,9.6
336900,2026-01-08 12:33:43,,,752.44183083667,38.057744,0.0,0.69216865732,5.6226051668,18,5,7.634,756.70692283667,35.761156,0.4921268,1.11277234532,0.0,0.0,0.0,24.1,8.4,5.4,0,0,1024,1024,1024,1024,0,0,0,0,0,0,0,78,3.82,3.815,0,0,0,0,4.97,74.66,752.44183083667,31.496064,6,P-GPS,,9.6
337000,2026-01-08 12:33:43,,,752.44183083667,38.057744,0.0,0.66788387964,5.6471130416,18,5,7.634,756.70692283667,35.761156,0.4921268,1.11277234532,0.0,0.0,0.0,24.0,8.0,5.5,0,0,1024,1024,1024,1024,0,0,0,0,0,0,0,78,3.82,3.815,0,0,0,0,4.97,74.66,752.44183083667,31.496064,6,P-GPS,,9.6
337100,2026-01-08 12:33:43,,,752.44183083667,38.057744,0.0,0.6469488396,5.6707022812,18,5,7.634,756.70692283667,35.761156,0.4921268,1.11277234532,0.0,0.0,0.0,24.1,8.2,5.3,0,0,1024,1024,1024,1024,0,0,0,0,0,0,0,78,3.82,3.815,0,0,0,0,4.97,74.66,752.44183083667,31.496064,6,P-GPS,,9.6
337200,2026-01-08 12:33:43,,,752.44183083667,38.057744,0.0,0.62065618784,5.7041668492,18,5,7.634,756.70692283667,35.761156,0.4921268,1.11277234532,0.0,0.0,0.0,24.1,8.4,5.7,0,0,1024,1024,1024,1024,0,0,0,0,0,0,0,78,3.82,3.815,0,0,0,0,4.97,74.66,752.44183083667,31.496064,6,P-GPS,,9.6
337300,2026-01-08 12:33:43,,,752.44183083667,38.057744,0.0,0.6064304656,5.7301839104,18,5,7.634,756.70692283667,35.761156,0.4921268,1.11277234532,0.0,0.0,0.0,24.1,8.3,6.2,0,0,1024,1024,1024,1024,0,0,0,0,0,0,0,78,3.82,3.815,0,0,0,0,4.97,74.66,752.44183083667,31.496064,6,P-GPS,,9.6
337400,2026-01-08 12:33:43,,,752.44183083667,38.057744,0.0,0.59952757824,5.7781825996,18,5,7.634,756.70692283667,35.761156,0.4921268,1.11277234532,0.0,0.0,0.0,24.0,8.6,6.2,0,0,1024,1024,1024,1024,0,0,0,0,0,0,0,78,3.82,3.815,0,0,0,0,4.97,74.66,752.44183083667,31.496064,6,P-GPS,,9.6
337500,2026-01-08 12:33:44,,,752.44183083667,38.057744,0.0,0.57680776124,5.8125329944,18,5,7.634,756.70692283667,35.761156,0.4921268,1.11277234532,0.0,0.0,0.0,24.1,9.0,6.9,0,0,1024,1024,1024,1024,0,0,0,0,0,0,0,78,3.82,3.815,0,0,0,0,4.97,74.66,752.44183083667,31.496064,6,P-GPS,,9.6
337600,2026-01-08 12:33:44,,,752.44183083667,38.057744,0.0,0.54301510924,5.8573164604,18,5,7.658,756.70692283667,35.761156,0.4921268,1.11277234532,0.0,0.0,0.0,24.1,9.1,7.1,0,0,1024,1024,1024,1024,0,0,0,0,0,0,0,78,3.832,3.826,0,0,0,0,4.664,74.84,752.44183083667,31.496064,6,P-GPS,,9.6
337700,2026-01-08 12:33:44,,,752.44183083667,38.057744,0.0,0.50391733896,5.9030185616,18,5,7.658,756.70692283667,35.761156,0.4921268,1.11277234532,0.0,0.0,0.0,24.2,9.8,7.4,0,0,1024,1024,1024,1024,0,0,0,0,0,0,0,78,3.832,3.826,0,0,0,0,4.664,74.84,752.44183083667,31.496064,6,P-GPS,,9.6
337800,2026-01-08 12:33:44,,,752.44183083667,38.057744,0.0,0.44042980412,5.9709975664,18,5,7.658,756.70692283667,35.761156,0.4921268,1.11277234532,0.0,0.0,0.0,24.2,10.2,7.0,0,0,1024,1024,1024,1024,0,0,0,0,0,0,0,78,3.832,3.826,0,0,0,0,4.664,74.84,752.44183083667,31.496064,6,P-GPS,,9.6
337900,2026-01-08 12:33:44,,,752.11374683667,38.057744,0.0,0.39039699412,6.0220146284,18,5,7.658,756.70692283667,35.761156,0.4921268,1.11277234532,0.0,0.0,0.0,24.2,10.1,6.8,0,0,1024,1024,1024,1024,0,0,0,0,0,0,0,78,3.832,3.826,0,0,0,0,4.664,74.84,752.11374683667,31.16798,6,P-GPS,,9.5
338000,2026-01-08 12:33:44,,,752.11374683667,38.057744,0.0,0.33580053568,6.076607806,18,5,7.658,756.70692283667,35.761156,0.4921268,1.11277234532,0.0,0.0,0.0,24.2,10.6,6.6,0,0,1024,1024,1024,1024,0,0,0,0,0,0,0,78,3.832,3.826,0,0,0,0,4.664,74.84,752.11374683667,31.16798,6,P-GPS,,9.5
338100,2026-01-08 12:33:44,,,752.11374683667,38.057744,0.0,0.292479668152,6.1199805108,18,5,7.658,756.70692283667,35.761156,0.4921268,1.11277234532,0.0,0.0,0.0,24.2,10.3,5.6,0,0,1024,1024,1024,1024,0,0,0,0,0,0,0,78,3.832,3.826,0,0,0,0,4.664,74.84,752.11374683667,31.16798,6,P-GPS,,9.5
338200,2026-01-08 12:33:44,,,752.11374683667,38.057744,0.0,0.214370413684,6.1986878624,18,5,7.658,756.70692283667,35.761156,0.4921268,1.11277234532,0.0,0.0,0.0,24.2,10.4,4.6,0,0,1024,1024,1024,1024,0,0,0,0,0,0,0,78,3.832,3.826,0,0,0,0,4.664,74.84,752.11374683667,31.16798,6,P-GPS,,9.5
338300,2026-01-08 12:33:44,,,751.78566283667,38.057744,0.0,0.18671916608,6.2316603044,18,5,7.658,756.70692283667,35.761156,0.4921268,1.11277234532,0.0,0.0,0.0,24.1,10.2,4.6,0,0,1024,1024,1024,1024,0,0,0,0,0,0,0,78,3.832,3.826,0,0,0,0,4.664,74.84,751.78566283667,30.839896,6,P-GPS,,9.4
338400,2026-01-08 12:33:44,,,751.78566283667,38.057744,0.0,0.165371068284,6.2670277596,18,5,7.658,756.70692283667,35.761156,0.4921268,1.11277234532,0.0,0.0,0.0,24.1,10.5,4.5,0,0,1024,1024,1024,1024,0,0,0,0,0,0,0,78,3.832,3.826,0,0,0,0,4.664,74.84,751.78566283667,30.839896,6,P-GPS,,9.4
338500,2026-01-08 12:33:45,,,751.78566283667,38.057744,0.0,0.164252958012,6.298228548,18,5,7.592,756.70692283667,35.761156,0.4921268,1.11277234532,0.0,0.0,0.0,24.1,10.7,4.3,0,0,1024,1024,1024,1024,0,0,0,0,0,0,0,78,3.801,3.791,0,0,0,0,5.222,74.84,751.78566283667,30.839896,6,P-GPS,,9.4
338600,2026-01-08 12:33:45,,,751.78566283667,38.057744,0.0,0.178096790476,6.3304135884,18,5,7.592,756.70692283667,35.761156,0.4921268,1.11277234532,0.0,0.0,0.0,24.0,10.7,4.1,0,0,1024,1024,1024,1024,0,0,0,0,0,0,0,78,3.801,3.791,0,0,0,0,5.222,74.84,751.78566283667,30.839896,6,P-GPS,,9.4
338700,2026-01-08 12:33:45,,,751.45757883667,38.057744,0.0,0.260298892844,6.4171261896,18,5,7.592,756.70692283667,35.761156,0.4921268,1.11277234532,0.0,0.0,0.0,24.0,10.3,4.4,0,0,1024,1024,1024,1024,0,0,0,0,0,0,0,78,3.801,3.791,0,0,0,0,5.222,74.84,751.45757883667,30.511812,6,P-GPS,,9.3
338800,2026-01-08 12:33:45,,,751.45757883667,38.057744,0.0,0.275358932696,6.4426511248,18,5,7.592,756.70692283667,35.761156,0.4921268,1.11277234532,0.0,0.0,0.0,24.0,10.6,4.0,0,0,1024,1024,1024,1024,0,0,0,0,0,0,0,78,3.801,3.791,0,0,0,0,5.222,74.84,751.45757883667,30.511812,6,P-GPS,,9.3
338900,2026-01-08 12:33:45,,,751.45757883667,38.057744,0.0,0.288329405552,6.4710303908,18,5,7.592,756.70692283667,35.761156,0.4921268,1.11277234532,0.0,0.0,0.0,24.0,10.5,3.9,0,0,1024,1024,1024,1024,0,0,0,0,0,0,0,78,3.801,3.791,0,0,0,0,5.222,74.84,751.45757883667,30.511812,6,P-GPS,,9.3
339000,2026-01-08 12:33:45,,,751.45757883667,38.057744,0.0,0.303508539896,6.5020671372,18,5,7.592,756.70692283667,35.761156,0.4921268,1.11277234532,0.0,0.0,0.0,24.1,10.3,4.0,0,0,1024,1024,1024,1024,0,0,0,0,0,0,0,78,3.801,3.791,0,0,0,0,5.222,74.84,751.45757883667,30.511812,6,P-GPS,,9.3
339100,2026-01-08 12:33:45,,,751.12949483667,38.057744,0.0,0.35431759664,6.5634516536,18,5,7.592,756.70692283667,35.761156,0.4921268,1.11277234532,0.0,0.0,0.0,24.0,10.8,4.0,0,0,1024,1024,1024,1024,0,0,0,0,0,0,0,78,3.801,3.791,0,0,0,0,5.222,74.84,751.12949483667,30.183728,6,P-GPS,,9.2
339200,2026-01-08 12:33:45,,,751.12949483667,38.057744,0.0,0.35291339712,6.572998898,18,5,7.592,756.70692283667,35.761156,0.4921268,1.11277234532,0.0,0.0,0.0,24.0,10.0,3.8,0,0,1024,1024,1024,1024,0,0,0,0,0,0,0,78,3.801,3.791,0,0,0,0,5.222,74.84,751.12949483667,30.183728,6,P-GPS,,9.2
339300,2026-01-08 12:33:45,,,751.12949483667,38.057744,0.0,0.36431431612,6.5846786884,18,5,7.592,756.70692283667,35.761156,0.4921268,1.11277234532,0.0,0.0,0.0,24.0,9.5,3.7,0,0,1024,1024,1024,1024,0,0,0,0,0,0,0,78,3.801,3.791,0,0,0,0,5.222,74.84,751.12949483667,30.183728,6,P-GPS,,9.2
339400,2026-01-08 12:33:45,,,751.12949483667,38.057744,0.0,0.38328741384,6.6039044108,18,5,7.592,756.70692283667,35.761156,0.4921268,1.11277234532,0.0,0.0,0.0,23.9,9.7,3.1,0,0,1024,1024,1024,1024,0,0,0,0,0,0,0,78,3.801,3.791,0,0,0,0,5.222,74.84,751.12949483667,30.183728,6,P-GPS,,9.2
339500,2026-01-08 12:33:46,,,750.80141083667,38.057744,0.0,0.37786746616,6.6679464076,18,5,7.592,756.70692283667,35.761156,0.4921268,1.11277234532,0.0,0.0,0.0,24.0,9.2,3.6,0,0,1024,1024,1024,1024,0,0,0,0,0,0,0,78,3.823,3.813,0,0,0,0,5.222,74.84,750.80141083667,29.855644,6,P-GPS,,9.1
339600,2026-01-08 12:33:46,,,750.80141083667,38.057744,0.0,0.38219489412,6.697506776,17,5,7.592,756.70692283667,35.761156,0.4921268,1.11277234532,0.0,0.0,0.0,23.7,8.1,3.6,0,0,1024,1024,1024,1024,0,0,0,0,0,0,0,78,3.823,3.813,0,0,0,0,5.222,74.84,750.80141083667,29.855644,6,P-GPS,,9.1
339700,2026-01-08 12:33:46,,,750.80141083667,38.057744,0.0,0.3892224534,6.7307744936,17,5,7.592,756.70692283667,35.761156,0.4921268,1.11277234532,0.0,0.0,0.0,24.0,8.5,4.3,0,0,1024,1024,1024,1024,0,0,0,0,0,0,0,78,3.823,3.813,0,0,0,0,5.222,74.84,750.80141083667,29.855644,6,P-GPS,,9.1
339800,2026-01-08 12:33:46,,,750.80141083667,38.057744,0.0,0.39701116756,6.7698821064,17,5,7.592,756.70692283667,35.761156,0.4921268,1.11277234532,0.0,0.0,0.0,24.0,8.2,4.9,0,0,1024,1024,1024,1024,0,0,0,0,0,0,0,77,3.823,3.813,0,0,0,0,5.222,74.84,750.80141083667,29.855644,6,P-GPS,,9.1
339900,2026-01-08 12:33:46,,,750.80141083667,38.057744,0.223694,0.44304135276,6.8337272528,17,5,7.592,756.70692283667,35.761156,0.4921268,1.11277234532,0.0,-0.223694,0.0,24.0,7.5,5.4,0,0,1024,1024,1024,1024,0,0,0,0,0,0,0,77,3.823,3.813,0,0,0,0,5.222,74.84,750.80141083667,29.855644,6,P-GPS,,9.1
340000,2026-01-08 12:33:46,,,750.80141083667,38.057744,0.223694,0.44290027664,6.868602582,17,5,7.592,756.70692283667,35.761156,0.4921268,1.11277234532,0.0,-0.223694,0.0,24.1,7.9,6.1,0,0,1024,1024,1024,1024,0,0,0,0,0,0,0,77,3.823,3.813,0,0,0,0,5.222,74.84,750.80141083667,29.855644,6,P-GPS,,9.1
340100,2026-01-08 12:33:46,,,750.80141083667,38.057744,0.223694,0.43288715296,6.909284998,17,5,7.592,756.70692283667,35.761156,0.4921268,1.11277234532,0.0,-0.223694,0.0,24.1,8.1,6.6,0,0,1024,1024,1024,1024,0,0,0,0,0,0,0,77,3.823,3.813,0,0,0,0,5.222,74.84,750.80141083667,29.855644,6,P-GPS,,9.1
340200,2026-01-08 12:33:46,,,750.80141083667,38.057744,0.223694,0.420849751,6.9565947108,17,5,7.592,756.70692283667,35.761156,0.4921268,1.11277234532,0.0,-0.223694,0.0,24.3,7.7,6.7,0,0,1024,1024,1024,1024,0,0,0,0,0,0,0,77,3.823,3.813,0,0,0,0,5.222,74.84,750.80141083667,29.855644,6,P-GPS,,9.1
340300,2026-01-08 12:33:46,,,750.80141083667,38.057744,0.223694,0.41959975096,7.0006235836,17,5,7.592,756.70692283667,35.761156,0.4921268,1.11277234532,0.0,0.0,0.0,24.3,8.0,6.7,0,0,1024,1024,1024,1024,0,0,0,0,0,0,0,77,3.823,3.813,0,0,0,0,5.222,74.84,750.80141083667,29.855644,6,P-GPS,,9.1
340400,2026-01-08 12:33:46,,,750.80141083667,38.057744,0.0,0.41894030212,7.068405738,17,5,7.592,756.70692283667,35.761156,0.4921268,1.11277234532,0.0,0.0,0.0,24.1,7.5,6.7,0,0,1024,1024,1024,1024,0,0,0,0,0,0,0,77,3.823,3.813,0,0,0,0,5.222,74.84,750.80141083667,29.855644,6,P-GPS,,9.1
340500,2026-01-08 12:33:46,,,750.80141083667,38.057744,0.0,0.42568242832,7.0938650564,17,5,7.592,756.70692283667,35.761156,0.4921268,1.11277234532,0.0,0.0,0.0,24.0,8.1,6.2,0,0,1024,1024,1024,1024,0,0,0,0,0,0,0,77,3.823,3.813,0,0,0,0,5.222,74.84,750.80141083667,29.855644,6,P-GPS,,9.1
340600,2026-01-08 12:33:47,,,750.80141083667,38.057744,0.0,0.42889437068,7.1132876292,17,5,7.656,756.70692283667,35.761156,0.4921268,1.11277234532,0.0,0.0,0.0,23.9,7.8,6.2,0,0,1024,1024,1024,1024,0,0,0,0,0,0,0,77,3.831,3.824,0,0,0,0,4.181,74.84,750.80141083667,29.855644,6,P-GPS,,9.1
340700,2026-01-08 12:33:47,,,750.80141083667,38.057744,0.0,0.43261484324,7.1333335616,17,5,7.656,756.70692283667,35.761156,0.4921268,1.11277234532,0.0,0.0,0.0,23.9,7.7,6.2,0,0,1024,1024,1024,1024,0,0,0,0,0,0,0,77,3.831,3.824,0,0,0,0,4.181,74.84,750.80141083667,29.855644,6,P-GPS,,9.1
340800,2026-01-08 12:33:47,,,750.80141083667,38.057744,0.0,0.42622376692,7.1414700448,17,5,7.656,756.70692283667,35.761156,0.4921268,1.11277234532,0.0,0.0,0.0,23.9,7.7,5.7,0,0,1024,1024,1024,1024,0,0,0,0,0,0,0,77,3.831,3.824,0,0,0,0,4.181,74.84,750.80141083667,29.855644,6,P-GPS,,9.1
340900,2026-01-08 12:33:47,,,750.80141083667,38.057744,0.0,0.44835631356,7.1666997044,17,5,7.656,756.70692283667,35.761156,0.4921268,1.11277234532,0.0,0.0,0.0,24.0,7.7,5.8,0,0,1024,1024,1024,1024,0,0,0,0,0,0,0,77,3.831,3.824,0,0,0,0,4.181,74.84,750.80141083667,29.855644,6,P-GPS,,9.1
341000,2026-01-08 12:33:47,,,750.80141083667,38.057744,0.0,0.4814796742,7.2005251648,17,5,7.656,756.70692283667,35.761156,0.4921268,1.11277234532,0.0,0.0,0.0,24.0,7.7,6.0,0,0,1024,1024,1024,1024,0,0,0,0,0,0,0,77,3.831,3.824,0,0,0,0,4.181,74.84,750.80141083667,29.855644,6,P-GPS,,9.1
341100,2026-01-08 12:33:47,,,751.12949483667,38.057744,0.0,0.50414043608,7.2255251656,17,5,7.656,756.70692283667,35.761156,0.4921268,1.11277234532,0.0,0.0,0.0,23.9,7.2,5.8,0,0,1024,1024,1024,1024,0,0,0,0,0,0,0,77,3.831,3.824,0,0,0,0,4.181,74.84,751.12949483667,30.183728,6,P-GPS,,9.2
341200,2026-01-08 12:33:47,,,751.12949483667,38.057744,0.0,0.57033794476,7.2919293672,18,5,7.656,756.70692283667,35.761156,0.4921268,1.11277234532,0.0,0.0,0.0,24.0,7.3,6.2,0,0,1024,1024,1024,1024,0,0,0,0,0,0,0,77,3.831,3.824,0,0,0,0,4.181,74.84,751.12949483667,30.183728,6,P-GPS,,9.2
341300,2026-01-08 12:33:47,,,751.12949483667,38.057744,0.0,0.57074476892,7.303641966,18,5,7.656,756.70692283667,35.761156,0.4921268,1.11277234532,0.0,0.0,0.0,24.0,8.0,6.1,0,0,1024,1024,1024,1024,0,0,0,0,0,0,0,77,3.831,3.824,0,0,0,0,4.181,74.84,751.12949483667,30.183728,6,P-GPS,,9.2
341400,2026-01-08 12:33:47,,,751.12949483667,38.057744,0.0,0.564468522,7.3156826488,18,5,7.656,756.70692283667,35.761156,0.4921268,1.11277234532,0.0,0.0,0.0,24.0,8.0,6.1,0,0,1024,1024,1024,1024,0,0,0,0,0,0,0,77,3.831,3.824,0,0,0,0,4.181,74.84,751.12949483667,30.183728,6,P-GPS,,9.2
341500,2026-01-08 12:33:47,,,751.12949483667,38.057744,0.0,0.55562993904,7.3290356676,18,5,7.656,756.70692283667,35.761156,0.4921268,1.11277234532,0.0,0.0,0.0,24.0,8.6,6.5,0,0,1024,1024,1024,1024,0,0,0,0,0,0,0,77,3.831,3.824,0,0,0,0,4.181,74.84,751.12949483667,30.183728,6,P-GPS,,9.2
341600,2026-01-08 12:33:48,,,751.12949483667,38.057744,0.0,0.5499836134,7.3399280564,18,5,7.656,756.70692283667,35.761156,0.4921268,1.11277234532,0.0,0.0,0.0,24.1,8.8,6.6,0,0,1024,1024,1024,1024,0,0,0,0,0,0,0,77,3.831,3.824,0,0,0,0,4.181,74.84,751.12949483667,30.183728,6,P-GPS,,9.2
341700,2026-01-08 12:33:48,,,751.12949483667,38.057744,0.0,0.5377952928,7.3578086344,18,5,7.648,756.70692283667,35.761156,0.4921268,1.11277234532,0.0,0.0,0.0,24.1,9.2,6.9,0,0,1024,1024,1024,1024,0,0,0,0,0,0,0,77,3.826,3.816,0,0,0,0,4.531,74.84,751.12949483667,30.183728,6,P-GPS,,9.2
341800,2026-01-08 12:33:48,,,751.12949483667,38.057744,0.0,0.52658466252,7.3746065352,18,5,7.648,756.70692283667,35.761156,0.4921268,1.11277234532,0.0,0.0,0.0,24.1,8.8,6.7,0,0,1024,1024,1024,1024,0,0,0,0,0,0,0,77,3.826,3.816,0,0,0,0,4.531,74.84,751.12949483667,30.183728,6,P-GPS,,9.2
341900,2026-01-08 12:33:48,,,751.12949483667,38.057744,0.0,0.518290699,7.3967850136,18,5,7.648,756.70692283667,35.761156,0.4921268,1.11277234532,0.0,0.0,0.0,24.1,8.5,6.8,0,0,1024,1024,1024,1024,0,0,0,0,0,0,0,77,3.826,3.816,0,0,0,0,4.531,74.84,751.12949483667,30.183728,6,P-GPS,,9.2
342000,2026-01-08 12:33:48,,,751.12949483667,38.057744,0.0,0.51139109248,7.4241472192,18,5,7.648,756.70692283667,35.761156,0.4921268,1.11277234532,0.0,0.0,0.0,24.1,8.6,6.6,0,0,1024,1024,1024,1024,0,0,0,0,0,0,0,77,3.826,3.816,0,0,0,0,4.531,74.84,751.12949483667,30.183728,6,P-GPS,,9.2
342100,2026-01-08 12:33:48,,,751.12949483667,38.057744,0.0,0.50327429432,7.4722443336,18,5,7.648,756.70692283667,35.761156,0.4921268,1.11277234532,0.0,0.0,0.0,24.1,8.5,6.5,0,0,1024,1024,1024,1024,0,0,0,0,0,0,0,77,3.826,3.816,0,0,0,0,4.531,74.84,751.12949483667,30.183728,6,P-GPS,,9.2
342200,2026-01-08 12:33:48,,,751.12949483667,38.057744,0.0,0.49943243068,7.4861879036,18,5,7.648,756.70692283667,35.761156,0.4921268,1.11277234532,0.0,0.0,0.0,24.1,8.7,6.5,0,0,1024,1024,1024,1024,0,0,0,0,0,0,0,77,3.826,3.816,0,0,0,0,4.531,74.84,751.12949483667,30.183728,6,P-GPS,,9.2
342300,2026-01-08 12:33:48,,,751.12949483667,38.057744,0.0,0.50344161716,7.4928808172,18,5,7.648,756.70692283667,35.761156,0.4921268,1.11277234532,0.0,0.0,0.0,24.2,8.8,6.5,0,0,1024,1024,1024,1024,0,0,0,0,0,0,0,77,3.826,3.816,0,0,0,0,4.531,74.84,751.12949483667,30.183728,6,P-GPS,,9.2
342400,2026-01-08 12:33:48,,,751.12949483667,38.057744,0.0,0.51221130248,7.5017390852,18,5,7.648,756.70692283667,35.761156,0.4921268,1.11277234532,0.0,0.0,0.0,24.2,9.0,6.9,0,0,1024,1024,1024,1024,0,0,0,0,0,0,0,77,3.826,3.816,0,0,0,0,4.531,74.84,751.12949483667,30.183728,6,P-GPS,,9.2
342500,2026-01-08 12:33:49,,,751.12949483667,38.057744,0.0,0.52932416392,7.5193243876,18,5,7.648,756.70692283667,35.761156,0.4921268,1.11277234532,0.0,0.0,0.0,24.1,9.3,7.0,0,0,1024,1024,1024,1024,0,0,0,0,0,0,0,77,3.826,3.816,0,0,0,0,4.531,74.84,751.12949483667,30.183728,6,P-GPS,,9.2
342600,2026-01-08 12:33:49,,,751.12949483667,38.057744,0.0,0.52097114528,7.5355645456,18,5,7.648,756.70692283667,35.761156,0.4921268,1.11277234532,0.0,0.0,0.0,24.1,9.0,7.0,0,0,1024,1024,1024,1024,0,0,0,0,0,0,0,77,3.826,3.816,0,0,0,0,4.531,74.84,751.12949483667,30.183728,6,P-GPS,,9.2
342700,2026-01-08 12:33:49,,,751.45757883667,38.057744,0.0,0.5108103838,7.5470146772,18,5,7.648,756.70692283667,35.761156,0.4921268,1.11277234532,0.0,0.0,0.0,24.1,9.2,7.1,0,0,1024,1024,1024,1024,0,0,0,0,0,0,0,77,3.826,3.816,0,0,0,0,4.531,74.84,751.45757883667,30.511812,6,P-GPS,,9.3
342800,2026-01-08 12:33:49,,,751.45757883667,38.057744,0.0,0.49581366416,7.5620409244,18,5,7.612,756.70692283667,35.761156,0.4921268,1.11277234532,0.0,0.0,0.0,24.2,9.5,7.2,0,0,1024,1024,1024,1024,0,0,0,0,0,0,0,77,3.809,3.802,0,0,0,0,4.724,74.84,751.45757883667,30.511812,6,P-GPS,,9.3
342900,2026-01-08 12:33:49,,,751.45757883667,38.057744,0.0,0.49444227304,7.5645015544,18,5,7.612,756.70692283667,35.761156,0.4921268,1.11277234532,0.0,0.0,0.0,24.2,10.0,7.0,0,0,1024,1024,1024,1024,0,0,0,0,0,0,0,77,3.809,3.802,0,0,0,0,4.724,74.84,751.45757883667,30.511812,6,P-GPS,,9.3
343000,2026-01-08 12:33:49,,,751.45757883667,38.057744,0.0,0.48655841452,7.5728020796,18,5,7.612,756.70692283667,35.761156,0.4921268,1.11277234532,0.0,0.0,0.0,24.1,9.9,6.6,0,0,1024,1024,1024,1024,0,0,0,0,0,0,0,77,3.809,3.802,0,0,0,0,4.724,74.84,751.45757883667,30.511812,6,P-GPS,,9.3
343100,2026-01-08 12:33:49,,,751.45757883667,38.057744,0.0,0.47014765284,7.5893047048,18,5,7.612,756.70692283667,35.761156,0.4921268,1.11277234532,0.0,0.0,0.0,24.2,9.9,6.7,0,0,1024,1024,1024,1024,0,0,0,0,0,0,0,77,3.809,3.802,0,0,0,0,4.724,74.84,751.45757883667,30.511812,6,P-GPS,,9.3
343200,2026-01-08 12:33:49,,,751.45757883667,38.057744,0.0,0.44550854444,7.6139766216,18,5,7.612,756.70692283667,35.761156,0.4921268,1.11277234532,0.0,0.0,0.0,24.1,9.8,6.3,0,0,1024,1024,1024,1024,0,0,0,0,0,0,0,77,3.809,3.802,0,0,0,0,4.724,74.84,751.45757883667,30.511812,6,P-GPS,,9.3
343300,2026-01-08 12:33:49,,,751.12949483667,38.057744,0.0,0.39180775532,7.6698493268,18,5,7.612,756.70692283667,35.761156,0.4921268,1.11277234532,0.0,0.0,-0.223694,24.1,10.1,6.1,0,0,1024,1024,1024,1024,0,0,0,0,0,0,0,77,3.809,3.802,0,0,0,0,4.724,74.84,751.12949483667,30.183728,6,P-GPS,,9.2
343400,2026-01-08 12:33:49,,,751.12949483667,38.057744,0.0,0.37198820088,7.6899280676,18,5,7.612,756.70692283667,35.761156,0.4921268,1.11277234532,0.0,0.0,0.0,24.2,10.6,6.0,0,0,1024,1024,1024,1024,0,0,0,0,0,0,0,77,3.809,3.802,0,0,0,0,4.724,74.84,751.12949483667,30.183728,6,P-GPS,,9.2
343500,2026-01-08 12:33:49,,,751.12949483667,38.057744,0.0,0.36434056284,7.6979333172,18,5,7.612,756.70692283667,35.761156,0.4921268,1.11277234532,0.0,0.0,0.0,24.2,10.3,6.5,0,0,1024,1024,1024,1024,0,0,0,0,0,0,0,77,3.809,3.802,0,0,0,0,4.724,74.84,751.12949483667,30.183728,6,P-GPS,,9.2
343600,2026-01-08 12:33:50,,,751.12949483667,38.057744,0.0,0.36405184892,7.7044949972,18,5,7.612,756.70692283667,35.761156,0.4921268,1.11277234532,0.0,0.0,0.0,24.1,10.0,7.0,0,0,1024,1024,1024,1024,0,0,0,0,0,0,0,77,3.809,3.802,0,0,0,0,4.724,74.84,751.12949483667,30.183728,6,P-GPS,,9.2
343700,2026-01-08 12:33:50,,,751.12949483667,38.057744,0.0,0.35749344976,7.7110894856,18,5,7.612,756.70692283667,35.761156,0.4921268,1.11277234532,0.0,0.0,0.0,24.2,10.3,7.1,0,0,1024,1024,1024,1024,0,0,0,0,0,0,0,77,3.809,3.802,0,0,0,0,4.724,74.84,751.12949483667,30.183728,6,P-GPS,,9.2
343800,2026-01-08 12:33:50,,,751.12949483667,38.057744,0.0,0.35606300352,7.7288060216,18,5,7.612,756.70692283667,35.761156,0.4921268,1.11277234532,0.0,0.0,0.0,24.2,10.4,7.1,0,0,1024,1024,1024,1024,0,0,0,0,0,0,0,77,3.809,3.802,0,0,0,0,4.724,74.84,751.12949483667,30.183728,6,P-GPS,,9.2
343900,2026-01-08 12:33:50,,,751.12949483667,38.057744,0.0,0.33997048332,7.7458663896,18,5,7.628,756.70692283667,35.761156,0.4921268,1.11277234532,0.0,0.0,0.0,24.2,10.5,6.9,0,0,1024,1024,1024,1024,0,0,0,0,0,0,0,77,3.817,3.811,0,0,0,0,4.976,75.02,751.12949483667,30.183728,6,P-GPS,,9.2
344000,2026-01-08 12:33:50,,,751.12949483667,38.057744,0.0,0.322732621876,7.763615734,18,5,7.628,756.70692283667,35.761156,0.4921268,1.11277234532,0.0,0.0,0.0,24.2,10.2,6.5,0,0,1024,1024,1024,1024,0,0,0,0,0,0,0,77,3.817,3.811,0,0,0,0,4.976,75.02,751.12949483667,30.183728,6,P-GPS,,9.2
344100,2026-01-08 12:33:50,,,751.12949483667,38.057744,0.0,0.319879931496,7.7684057604,18,5,7.628,756.70692283667,35.761156,0.4921268,1.11277234532,0.0,0.0,0.0,24.1,10.3,6.3,0,0,1024,1024,1024,1024,0,0,0,0,0,0,0,77,3.817,3.811,0,0,0,0,4.976,75.02,751.12949483667,30.183728,6,P-GPS,,9.2
344200,2026-01-08 12:33:50,,,751.12949483667,38.057744,0.0,0.32607940676,7.7749674404,18,5,7.628,756.70692283667,35.761156,0.4921268,1.11277234532,0.0,0.0,0.0,24.2,10.5,6.1,0,0,1024,1024,1024,1024,0,0,0,0,0,0,0,77,3.817,3.811,0,0,0,0,4.976,75.02,751.12949483667,30.183728,6,P-GPS,,9.2
344300,2026-01-08 12:33:50,,,751.12949483667,38.057744,0.0,0.32953741212,7.7789372568,18,5,7.628,756.70692283667,35.761156,0.4921268,1.11277234532,0.0,0.0,0.0,24.1,9.9,6.2,0,0,1024,1024,1024,1024,0,0,0,0,0,0,0,77,3.817,3.811,0,0,0,0,4.976,75.02,751.12949483667,30.183728,6,P-GPS,,9.2
344400,2026-01-08 12:33:50,,,751.12949483667,38.057744,0.0,0.33323819964,7.782808648,18,5,7.628,756.70692283667,35.761156,0.4921268,1.11277234532,0.0,0.0,0.0,24.2,10.0,6.2,0,0,1024,1024,1024,1024,0,0,0,0,0,0,0,77,3.817,3.811,0,0,0,0,4.976,75.02,751.12949483667,30.183728,6,P-GPS,,9.2
344500,2026-01-08 12:33:51,,,751.12949483667,38.057744,0.0,0.34561352812,7.7952102232,18,5,7.628,756.70692283667,35.761156,0.4921268,1.11277234532,0.0,0.0,0.0,24.1,9.3,6.4,0,0,1024,1024,1024,1024,0,0,0,0,0,0,0,77,3.817,3.811,0,0,0,0,4.976,75.02,751.12949483667,30.183728,6,P-GPS,,9.2
344600,2026-01-08 12:33:51,,,750.80141083667,38.057744,0.0,0.3730151038,7.8227364708,18,5,7.628,756.70692283667,35.761156,0.4921268,1.11277234532,0.0,0.0,0.0,24.0,9.3,5.9,0,0,1024,1024,1024,1024,0,0,0,0,0,0,0,77,3.817,3.811,0,0,0,0,4.976,75.02,750.80141083667,29.855644,6,P-GPS,,9.1
344700,2026-01-08 12:33:51,,,750.80141083667,38.057744,0.0,0.39910106264,7.8491472328,18,5,7.628,756.70692283667,35.761156,0.4921268,1.11277234532,0.0,0.0,0.0,24.1,9.4,6.0,0,0,1024,1024,1024,1024,0,0,0,0,0,0,0,77,3.817,3.811,0,0,0,0,4.976,75.02,750.80141083667,29.855644,6,P-GPS,,9.1
344800,2026-01-08 12:33:51,,,751.12949483667,38.057744,0.0,0.43041011876,7.8804464464,18,5,7.628,756.70692283667,35.761156,0.4921268,1.11277234532,0.0,0.0,0.0,24.2,9.5,6.8,0,0,1024,1024,1024,1024,0,0,0,0,0,0,0,77,3.817,3.811,0,0,0,0,4.976,75.02,751.12949483667,30.183728,6,P-GPS,,9.2
344900,2026-01-08 12:33:51,,,751.12949483667,38.057744,0.0,0.45984581524,7.9099083896,18,5,7.628,756.70692283667,35.761156,0.4921268,1.11277234532,0.0,0.0,0.0,24.1,9.1,7.0,0,0,1024,1024,1024,1024,0,0,0,0,0,0,0,77,3.817,3.811,0,0,0,0,4.976,75.02,751.12949483667,30.183728,6,P-GPS,,9.2
345000,2026-01-08 12:33:51,,,750.80141083667,38.057744,0.0,0.52811025312,7.984252224,18,5,7.64,756.70692283667,35.761156,0.4921268,1.11277234532,0.0,0.0,0.0,24.0,8.6,6.6,0,0,1024,1024,1024,1024,0,0,0,0,0,0,0,77,3.814,3.805,0,0,0,0,4.86,75.02,750.80141083667,29.855644,6,P-GPS,,9.1
345100,2026-01-08 12:33:51,,,750.80141083667,38.057744,0.0,0.54642718284,8.0086288652,18,5,7.64,756.70692283667,35.761156,0.4921268,1.11277234532,0.0,0.0,0.0,24.0,8.7,6.0,0,0,1024,1024,1024,1024,0,0,0,0,0,0,0,77,3.814,3.805,0,0,0,0,4.86,75.02,750.80141083667,29.855644,6,P-GPS,,9.1
