time(millisecond),timestamp,altitude_above_seaLevel(feet),height_sonar(feet),speed(mph),distance(feet),mileage(feet),satellites,gpslevel,voltage(v),max_altitude(feet),max_ascent(feet),max_speed(mph),max_distance(feet), xSpeed(mph), ySpeed(mph), zSpeed(mph), compass_heading(degrees), pitch(degrees), roll(degrees),isPhoto,isVideo,rc_elevator,rc_aileron,rc_throttle,rc_rudder,rc_elevator(percent),rc_aileron(percent),rc_throttle(percent),rc_rudder(percent),gimbal_heading(degrees),gimbal_pitch(degrees),gimbal_roll(degrees),battery_percent,voltageCell1,voltageCell2,voltageCell3,voltageCell4,voltageCell5,voltageCell6,current(A),battery_temperature(f),altitude(feet),ascent(feet),flycStateRaw,flycState,message,height_above_takeoff(meters)
418000,2026-01-09 20:13:49,720.7721031172,0.328084,0.0,0.0,0.0,15,5,0.0,720.7721031172,0.0,0.0,0.0,0.0,0.0,0.0,17.3,3.8,0.6,0,0,1024,1024,1024,1024,0,0,0,0,0,0,0,71,3.848,3.851,0,0,0,0,0.0,75.74,720.7721031172,0.0,41,Motors_Started,SD card speed low SD card speed low. Normal use may be affected. Replace SD card (Code: 10028),0.0
418100,2026-01-09 20:13:50,720.7721031172,0.328084,0.0,0.0198849087728,0.0198849087728,15,5,0.0,720.7721031172,0.0,0.0,0.0198849087728,0.0,0.0,0.0,17.3,3.8,0.6,0,0,1024,1024,1024,1024,0,0,0,0,0,0,0,71,3.848,3.851,0,0,0,0,0.0,75.74,720.7721031172,0.0,41,Motors_Started,,0.0
418200,2026-01-09 20:13:50,720.7721031172,0.328084,0.0,0.045817586768,0.048768374264,15,5,0.0,720.7721031172,0.0,0.0,0.045817586768,0.0,0.0,0.0,17.3,3.8,0.6,0,0,1024,1024,1024,1024,0,0,0,0,0,0,0,71,3.848,3.851,0,0,0,0,0.0,75.74,720.7721031172,0.0,41,Motors_Started,,0.0
418300,2026-01-09 20:13:50,720.7721031172,0.328084,0.0,0.051460631568,0.054702101488,15,5,0.0,720.7721031172,0.0,0.0,0.051460631568,0.0,0.0,0.0,17.3,3.8,0.6,0,0,1024,1024,1024,1024,0,0,0,0,0,0,0,71,3.848,3.851,0,0,0,0,0.0,75.74,720.7721031172,0.0,41,Motors_Started,,0.0
418400,2026-01-09 20:13:50,720.7721031172,0.328084,0.0,0.056441602856,0.05999672108,15,5,0.0,720.7721031172,0.0,0.0,0.056441602856,0.0,0.0,0.0,17.2,3.8,0.6,0,0,1024,1024,1024,1024,0,0,0,0,0,0,0,71,3.848,3.851,0,0,0,0,0.0,75.74,720.7721031172,0.0,41,Motors_Started,Setting new Return-To-Home altitude to 90m (295 ft). Data Recorder File Index is 32. Setting new Maximum Flight Altitude to 90m (295 ft),0.0
418500,2026-01-09 20:13:50,720.7721031172,0.328084,0.0,0.78862863416,0.079653545856,15,5,0.0,720.7721031172,0.0,0.0,0.78862863416,0.0,0.0,0.0,17.4,3.8,0.5,0,0,1024,1024,1024,1024,0,0,0,0,0,0,0,71,3.848,3.851,0,0,0,0,0.0,75.74,720.7721031172,0.0,41,Motors_Started,,0.0
418600,2026-01-09 20:13:50,720.7721031172,0.328084,0.0,0.80294293908,0.100946853624,15,5,0.0,720.7721031172,0.0,0.0,0.80294293908,0.0,0.0,0.0,17.5,3.8,0.6,0,0,1024,1024,1024,1024,0,0,0,0,0,0,0,71,3.848,3.851,0,0,0,0,0.0,75.74,720.7721031172,0.0,41,Motors_Started,,0.0
418700,2026-01-09 20:13:50,720.7721031172,0.328084,0.0,0.80383532756,0.123448494764,15,5,0.0,720.7721031172,0.0,0.0,0.80383532756,0.0,0.0,0.0,17.5,3.8,0.6,0,0,1024,1024,1024,1024,0,0,0,0,0,0,0,71,3.848,3.851,0,0,0,0,0.0,75.74,720.7721031172,0.0,41,Motors_Started,,0.0
418800,2026-01-09 20:13:50,720.7721031172,0.328084,0.0,0.80428808348,0.14815781314,15,5,0.0,720.7721031172,0.0,0.0,0.80428808348,0.0,0.0,0.0,17.5,3.9,0.6,0,0,1024,1024,1024,1024,0,0,0,0,0,0,0,71,3.848,3.851,0,0,0,0,0.0,75.74,720.7721031172,0.0,41,Motors_Started,,0.0
418900,2026-01-09 20:13:50,720.7721031172,0.328084,0.0,0.8143537006,0.160605976268,15,5,0.0,720.7721031172,0.0,0.0,0.8143537006,0.0,0.0,0.0,17.5,3.8,0.7,0,0,1024,1024,1024,1024,0,0,0,0,0,0,0,71,3.848,3.851,0,0,0,0,0.0,75.74,720.7721031172,0.0,41,Motors_Started,,0.0
419000,2026-01-09 20:13:51,720.7721031172,0.328084,0.0,0.82296262476,0.171913063244,15,5,0.0,720.7721031172,0.0,0.0,0.82296262476,0.0,0.0,0.0,17.6,3.8,0.6,0,0,1024,1024,1024,1024,0,0,0,0,0,0,0,71,3.848,3.851,0,0,0,0,0.0,75.74,720.7721031172,0.0,41,Motors_Started,,0.0
419100,2026-01-09 20:13:51,720.7721031172,0.328084,0.0,0.8363025202,0.192271331612,15,5,0.0,720.7721031172,0.0,0.0,0.8363025202,0.0,0.0,0.0,17.5,3.8,0.6,0,0,1024,1024,1024,1024,0,0,0,0,0,0,0,71,3.848,3.851,0,0,0,0,0.0,75.74,720.7721031172,0.0,11,AutoTakeoff,,0.0
419200,2026-01-09 20:13:51,720.7721031172,0.328084,0.0,0.85048887236,0.214799219472,15,5,0.0,720.7721031172,0.0,0.0,0.85048887236,0.0,0.0,0.0,17.5,3.8,0.6,0,0,1024,1024,1024,1024,0,0,0,0,0,0,0,71,3.848,3.851,0,0,0,0,0.0,75.74,720.7721031172,0.0,11,AutoTakeoff,,0.0
419300,2026-01-09 20:13:51,720.7721031172,0.328084,0.0,0.85225396428,0.219103353468,15,5,7.674,720.7721031172,0.0,0.0,0.85225396428,0.0,0.0,0.0,17.6,3.8,0.6,0,0,1024,1024,1024,1024,0,0,0,0,0,0,0,71,3.837,3.838,0,0,0,0,1.343,75.74,720.7721031172,0.0,11,AutoTakeoff,,0.0
419400,2026-01-09 20:13:51,720.7721031172,0.328084,0.0,0.85302168084,0.22312336672,15,5,7.674,720.7721031172,0.0,0.0,0.85302168084,0.0,0.0,0.0,17.5,3.8,0.6,0,0,1024,1024,1024,1024,0,0,0,0,0,0,0,71,3.837,3.838,0,0,0,0,1.343,75.74,720.7721031172,0.0,11,AutoTakeoff,,0.0
419500,2026-01-09 20:13:51,720.7721031172,0.328084,0.0,0.8702920226,0.24246555894,15,5,7.674,720.7721031172,0.0,0.0,0.8702920226,0.0,0.0,0.0,17.5,3.8,0.6,0,0,1024,1024,1024,1024,0,0,0,0,0,0,0,71,3.837,3.838,0,0,0,0,1.343,75.74,720.7721031172,0.0,11,AutoTakeoff,,0.0
419600,2026-01-09 20:13:51,720.7721031172,0.328084,0.0,0.88157155052,0.262726714444,15,5,7.674,720.7721031172,0.0,0.0,0.88157155052,0.0,0.0,0.0,17.6,3.8,0.6,0,0,1024,1024,1190,1024,0,0,25,0,0,0,0,71,3.837,3.838,0,0,0,0,1.343,75.74,720.7721031172,0.0,11,AutoTakeoff,,0.0
419700,2026-01-09 20:13:51,720.7721031172,0.328084,0.0,0.89605645912,0.277339903888,15,5,7.674,720.7721031172,0.0,0.0,0.89605645912,0.0,0.0,0.0,18.3,3.8,0.6,0,0,1024,1024,1684,1024,0,0,100,0,0,0,0,71,3.837,3.838,0,0,0,0,1.343,75.74,720.7721031172,0.0,11,AutoTakeoff,,0.0
419800,2026-01-09 20:13:51,720.7721031172,0.328084,0.0,0.90984582964,0.292053487036,15,5,7.674,720.7721031172,0.0,0.0,0.90984582964,0.0,0.0,0.0,19.7,2.8,-0.1,0,0,1024,1024,1684,1024,0,0,100,0,0,0,0,71,3.837,3.838,0,0,0,0,1.343,75.74,720.7721031172,0.0,11,AutoTakeoff,,0.0
419900,2026-01-09 20:13:51,720.7721031172,0.328084,0.0,0.907562365,0.300220482048,15,5,7.674,720.7721031172,0.0,0.0,0.90984582964,0.0,0.0,-0.223694,20.8,1.9,-1.1,0,0,1024,1024,1684,1024,0,0,100,0,0,0,0,71,3.837,3.838,0,0,0,0,1.343,75.74,720.7721031172,0.0,11,AutoTakeoff,,0.0
420000,2026-01-09 20:13:51,720.7721031172,0.328084,0.0,0.91507220776,0.308298566296,15,5,7.674,720.7721031172,0.0,0.0,0.91507220776,0.0,0.0,-0.447388,21.0,2.0,-1.3,0,0,1024,1024,1684,1024,0,0,100,0,0,0,0,71,3.837,3.838,0,0,0,0,1.343,75.74,720.7721031172,0.0,11,AutoTakeoff,,0.0
420100,2026-01-09 20:13:52,721.1001871172,0.328084,0.0,0.93697837644,0.3363353126,15,5,7.674,721.1001871172,0.328084,0.0,0.93697837644,0.0,0.0,-0.671082,20.9,1.1,-0.8,0,0,1024,1024,1684,1024,0,0,100,0,0,0,0,71,3.837,3.838,0,0,0,0,1.343,75.74,721.1001871172,0.328084,11,AutoTakeoff,,0.1
420200,2026-01-09 20:13:52,721.1001871172,0.656168,0.0,0.96720475536,0.37097114048,15,5,7.674,721.1001871172,0.328084,0.0,0.96720475536,0.0,0.0,-1.11847,21.1,0.5,-0.2,0,0,1024,1024,1684,1024,0,0,100,0,0,0,0,71,3.837,3.838,0,0,0,0,1.343,75.74,721.1001871172,0.328084,11,AutoTakeoff,,0.1
420300,2026-01-09 20:13:52,721.1001871172,0.656168,0.0,0.99045606844,0.45850395168,15,5,7.631,721.1001871172,0.328084,0.0,0.99045606844,0.0,0.0,-1.342164,21.2,0.4,0.4,0,0,1024,1024,1684,1024,0,0,100,0,0,0,0,71,3.797,3.795,0,0,0,0,2.266,75.74,721.1001871172,0.328084,11,AutoTakeoff,,0.1
420400,2026-01-09 20:13:52,721.4282711172,0.984252,0.0,1.00517719752,0.48205054036,16,5,7.631,721.4282711172,0.656168,0.0,1.00517719752,0.0,0.0,-2.013246,21.3,0.8,0.6,0,0,1024,1024,1684,1024,0,0,100,0,0,0,0,71,3.797,3.795,0,0,0,0,2.266,75.74,721.4282711172,0.656168,11,AutoTakeoff,,0.2
420500,2026-01-09 20:13:52,721.7563551172,1.312336,0.0,0.98922903428,0.49994424172,16,5,7.631,721.7563551172,0.984252,0.0,1.00517719752,0.0,0.0,-2.460634,21.2,0.9,-0.1,0,0,1024,1024,1684,1024,0,0,100,0,0,0,0,71,3.797,3.795,0,0,0,0,2.266,75.74,721.7563551172,0.984252,11,AutoTakeoff,Home Point updated. RTH altitude adjusted to 90 m (Code: 120852),0.3
420600,2026-01-09 20:13:52,722.0844391172,1.64042,0.0,0.9645177474,0.52466865196,16,5,7.631,722.0844391172,1.312336,0.0,1.00517719752,0.0,0.0,-3.131716,21.2,1.1,-0.2,0,0,1024,1024,1684,1024,0,0,100,0,0,0,0,71,3.797,3.795,0,0,0,0,2.266,75.74,722.0844391172,1.312336,11,AutoTakeoff,,0.4
420700,2026-01-09 20:13:52,722.7406071172,1.968504,0.0,0.95808073932,0.6485236428,16,5,7.631,722.7406071172,1.968504,0.0,1.00517719752,0.0,0.0,-3.802798,21.2,1.7,-0.1,0,0,1024,1024,1684,1024,0,0,100,0,0,0,0,71,3.797,3.795,0,0,0,0,2.266,75.74,722.7406071172,1.968504,11,AutoTakeoff,,0.6
420800,2026-01-09 20:13:52,723.3967751172,2.624672,0.0,0.95609583112,0.67821196396,16,5,7.631,723.3967751172,2.624672,0.0,1.00517719752,0.0,0.0,-4.250186,21.2,2.1,-0.3,0,0,1024,1024,1684,1024,0,0,100,0,0,0,0,71,3.797,3.795,0,0,0,0,2.266,75.74,723.3967751172,2.624672,11,AutoTakeoff,,0.8
420900,2026-01-09 20:13:52,724.0529431172,3.28084,0.223694,0.91664701096,0.71874674216,16,5,7.631,724.0529431172,3.28084,0.223694,1.00517719752,0.223694,0.0,-4.47388,21.2,3.0,0.0,0,0,1024,1024,1684,1024,0,0,100,0,0,0,0,71,3.797,3.795,0,0,0,0,2.266,75.74,724.0529431172,3.28084,6,P-GPS,,1.0
421000,2026-01-09 20:13:52,724.7091111172,3.937008,0.223694,0.86646656316,0.76948165192,16,5,7.631,724.7091111172,3.937008,0.223694,1.00517719752,0.223694,0.0,-4.47388,21.1,3.7,0.3,0,0,1024,1024,1684,1024,0,0,100,0,0,0,0,71,3.797,3.795,0,0,0,0,2.266,75.74,724.7091111172,3.937008,6,P-GPS,,1.2
421100,2026-01-09 20:13:53,725.3652791172,4.265092,0.0,0.83832679848,0.7988353274,16,5,7.631,725.3652791172,4.593176,0.223694,1.00517719752,0.0,0.0,-4.697574,21.1,3.1,-0.3,0,0,1024,1024,1684,1024,0,0,100,0,0,0,0,71,3.797,3.795,0,0,0,0,2.266,75.74,725.3652791172,4.593176,6,P-GPS,,1.4
421200,2026-01-09 20:13:53,726.0214471172,4.92126,0.0,0.79521328004,0.84746721872,16,5,7.631,726.0214471172,5.249344,0.223694,1.00517719752,0.0,0.0,-4.47388,21.1,3.6,0.1,0,0,1024,1024,1684,1024,0,0,100,0,0,0,0,71,3.797,3.795,0,0,0,0,2.266,75.74,726.0214471172,5.249344,6,P-GPS,,1.6
421300,2026-01-09 20:13:53,726.6776151172,5.577428,0.0,0.77826774144,0.86816275744,16,5,7.417,726.6776151172,5.905512,0.223694,1.00517719752,0.0,0.0,-4.47388,21.2,3.2,0.2,0,0,1024,1024,1684,1024,0,0,100,0,0,0,0,71,3.708,3.709,0,0,0,0,7.055,75.92,726.6776151172,5.905512,6,P-GPS,,1.8
421400,2026-01-09 20:13:53,727.3337831172,6.233596,0.0,0.75988519492,0.88791997592,16,5,7.417,727.3337831172,6.56168,0.223694,1.00517719752,0.0,0.0,-4.47388,21.2,2.6,0.0,0,0,1024,1024,1684,1024,0,0,100,0,0,0,0,71,3.708,3.709,0,0,0,0,7.055,75.92,727.3337831172,6.56168,6,P-GPS,,2.0
421500,2026-01-09 20:13:53,727.9899511172,6.889764,0.0,0.71434057404,0.95492457124,16,5,7.417,727.9899511172,7.217848,0.223694,1.00517719752,0.0,0.0,-4.250186,21.1,2.7,-0.1,0,0,1024,1024,1684,1024,0,0,100,0,0,0,0,71,3.708,3.709,0,0,0,0,7.055,75.92,727.9899511172,7.217848,6,P-GPS,,2.2
421600,2026-01-09 20:13:53,728.6461191172,7.545932,0.0,0.66315947004,1.06451118892,16,5,7.417,728.6461191172,7.874016,0.223694,1.00517719752,0.0,0.0,-4.47388,21.1,2.3,0.2,0,0,1024,1024,1684,1024,0,0,100,0,0,0,0,71,3.708,3.709,0,0,0,0,7.055,75.92,728.6461191172,7.874016,6,P-GPS,,2.4
421700,2026-01-09 20:13:53,729.3022871172,8.2021,0.0,0.63598427232,1.0922080402,16,5,7.417,729.3022871172,8.530184,0.223694,1.00517719752,0.0,0.0,-4.250186,21.1,2.6,0.4,0,0,1024,1024,1684,1024,0,0,100,0,0,0,0,71,3.708,3.709,0,0,0,0,7.055,75.92,729.3022871172,8.530184,6,P-GPS,,2.6
421800,2026-01-09 20:13:53,729.9584551172,8.858268,0.0,0.6072506756,1.12290686008,16,5,7.417,729.9584551172,9.186352,0.223694,1.00517719752,0.0,0.0,-4.250186,21.2,2.6,0.4,0,0,1024,1024,1684,1024,0,0,100,0,0,0,0,71,3.708,3.709,0,0,0,0,7.055,75.92,729.9584551172,9.186352,6,P-GPS,,2.8
421900,2026-01-09 20:13:53,730.6146231172,9.186352,0.0,0.56664371892,1.16882877756,16,5,7.417,730.6146231172,9.84252,0.223694,1.00517719752,0.0,0.0,-4.250186,21.1,3.1,0.3,0,0,1024,1024,1684,1024,0,0,100,0,0,0,0,71,3.708,3.709,0,0,0,0,7.055,75.92,730.6146231172,9.84252,6,P-GPS,,3.0
422000,2026-01-09 20:13:54,731.2707911172,9.84252,0.0,0.54529529304,1.33146985888,16,5,7.417,731.2707911172,10.498688,0.223694,1.00517719752,0.0,0.0,-4.250186,21.1,2.7,0.3,0,0,1024,1024,1684,1024,0,0,100,0,0,0,0,71,3.708,3.709,0,0,0,0,7.055,75.92,731.2707911172,10.498688,6,P-GPS,,3.2
422100,2026-01-09 20:13:54,731.9269591172,10.498688,0.0,0.52034778568,1.36979007008,16,5,7.417,731.9269591172,11.154856,0.223694,1.00517719752,0.0,0.0,-4.250186,21.1,2.9,0.4,0,0,1024,1024,1684,1024,0,0,100,0,0,0,0,71,3.708,3.709,0,0,0,0,7.055,75.92,731.9269591172,11.154856,6,P-GPS,,3.4
422200,2026-01-09 20:13:54,732.5831271172,11.154856,0.223694,0.49513124944,1.4083497826,16,5,7.417,732.5831271172,11.811024,0.223694,1.00517719752,0.0,0.223694,-4.250186,21.1,3.2,-0.4,0,0,1024,1024,1684,1024,0,0,100,0,0,0,0,71,3.708,3.709,0,0,0,0,7.055,75.92,732.5831271172,11.811024,6,P-GPS,,3.6
422300,2026-01-09 20:13:54,733.2392951172,11.811024,0.223694,0.42053479036,1.4832513598,16,5,7.465,733.2392951172,12.467192,0.223694,1.00517719752,0.0,0.223694,-4.250186,21.0,3.3,-1.3,0,0,1024,1024,1684,1024,0,0,100,0,0,0,0,71,3.735,3.731,0,0,0,0,6.101,75.74,733.2392951172,12.467192,6,P-GPS,,3.8
422400,2026-01-09 20:13:54,733.8954631172,12.139108,0.0,0.279278880328,1.62518705988,15,5,7.465,733.8954631172,13.12336,0.223694,1.00517719752,0.0,0.0,-4.250186,21.0,2.9,-0.8,0,0,1024,1024,1684,1024,0,0,100,0,0,0,0,71,3.735,3.731,0,0,0,0,6.101,75.74,733.8954631172,13.12336,6,P-GPS,,4.0
422500,2026-01-09 20:13:54,734.5516311172,12.795276,0.0,0.257971136864,1.65729007928,15,5,7.465,734.5516311172,13.779528,0.223694,1.00517719752,0.0,0.0,-4.250186,21.0,2.4,-0.5,0,0,1024,1024,1684,1024,0,0,100,0,0,0,0,71,3.735,3.731,0,0,0,0,6.101,75.74,734.5516311172,13.779528,6,P-GPS,,4.2
422600,2026-01-09 20:13:54,735.2077991172,13.451444,0.223694,0.2485728426,1.68457026388,16,5,7.465,735.2077991172,14.435696,0.223694,1.00517719752,-0.223694,0.0,-4.250186,21.0,2.0,-0.4,0,0,1024,1024,1684,1024,0,0,100,0,0,0,0,71,3.735,3.731,0,0,0,0,6.101,75.74,735.2077991172,14.435696,6,P-GPS,,4.4
422700,2026-01-09 20:13:54,735.8639671172,14.107612,0.0,0.238433734664,1.73335963552,16,5,7.465,735.8639671172,15.091864,0.223694,1.00517719752,0.0,0.0,-4.250186,20.9,1.7,-0.8,0,0,1024,1024,1684,1024,0,0,100,0,0,0,0,71,3.735,3.731,0,0,0,0,6.101,75.74,735.8639671172,15.091864,6,P-GPS,,4.6
422800,2026-01-09 20:13:54,736.5201351172,15.091864,0.0,0.235610899928,1.78227367908,15,5,7.465,736.5201351172,15.748032,0.223694,1.00517719752,0.0,0.0,-4.47388,20.9,2.2,-0.4,0,0,1024,1024,1684,1024,0,0,100,0,0,0,0,71,3.735,3.731,0,0,0,0,6.101,75.74,736.5201351172,15.748032,6,P-GPS,,4.8
422900,2026-01-09 20:13:54,737.1763031172,15.748032,0.0,0.289834983028,1.9084154154,15,5,7.465,737.1763031172,16.4042,0.223694,1.00517719752,0.0,0.0,-4.47388,20.9,2.5,-1.2,0,0,1024,1024,1684,1024,0,0,100,0,0,0,0,71,3.735,3.731,0,0,0,0,6.101,75.74,737.1763031172,16.4042,6,P-GPS,,5.0
423000,2026-01-09 20:13:55,737.8324711172,16.4042,0.0,0.286749353008,1.94806108596,15,5,7.465,737.8324711172,17.060368,0.223694,1.00517719752,0.0,0.0,-4.47388,20.8,2.6,-1.2,0,0,1024,1024,1684,1024,0,0,100,0,0,0,0,71,3.735,3.731,0,0,0,0,6.101,75.74,737.8324711172,17.060368,6,P-GPS,,5.2
423100,2026-01-09 20:13:55,738.4886391172,17.060368,0.0,0.308548566304,1.99259520812,15,5,7.465,738.4886391172,17.716536,0.223694,1.00517719752,0.0,0.0,-4.47388,20.8,2.6,-1.2,0,0,1024,1024,1684,1024,0,0,100,0,0,0,0,71,3.735,3.731,0,0,0,0,6.101,75.74,738.4886391172,17.716536,6,P-GPS,,5.4
423200,2026-01-09 20:13:55,739.1448071172,17.716536,0.0,0.33631234672,2.03449153492,15,5,7.465,739.1448071172,18.372704,0.223694,1.00517719752,0.0,0.0,-4.250186,20.9,2.6,-1.0,0,0,1024,1024,1684,1024,0,0,100,0,0,0,0,71,3.735,3.731,0,0,0,0,6.101,75.74,739.1448071172,18.372704,6,P-GPS,,5.6
423300,2026-01-09 20:13:55,739.8009751172,18.372704,0.0,0.44208662832,2.14110243072,15,5,7.463,739.8009751172,19.028872,0.223694,1.00517719752,0.0,0.0,-4.250186,20.9,2.4,-0.7,0,0,1024,1024,1684,1024,0,0,100,0,0,0,0,71,3.732,3.733,0,0,0,0,6.218,75.92,739.8009751172,19.028872,6,P-GPS,,5.8
423400,2026-01-09 20:13:55,740.4571431172,19.356956,0.0,0.47396983144,2.17392067324,16,5,7.463,740.4571431172,19.68504,0.223694,1.00517719752,0.0,0.0,-4.250186,20.9,2.0,-0.4,0,0,1024,1024,1684,1024,0,0,100,0,0,0,0,71,3.732,3.733,0,0,0,0,6.218,75.92,740.4571431172,19.68504,6,P-GPS,,6.0
423500,2026-01-09 20:13:55,741.1133111172,20.341208,0.0,0.48937993692,2.19730321992,16,5,7.463,741.1133111172,20.341208,0.223694,1.00517719752,0.0,0.0,-4.250186,21.0,1.9,0.0,0,0,1024,1024,1684,1024,0,0,100,0,0,0,0,71,3.732,3.733,0,0,0,0,6.218,75.92,741.1133111172,20.341208,6,P-GPS,SD card speed low. Normal use may be affected. Replace SD card (Code: 10028). Gimbal stuck. Make sure gimbal cover is removed and manually check whether gimbal can rotate freely (Code: 40002),6.2
423600,2026-01-09 20:13:55,741.7694791172,20.997376,0.0,0.50158138088,2.21895676392,15,5,7.463,741.7694791172,20.997376,0.223694,1.00517719752,0.0,0.0,-4.47388,21.0,2.0,-0.1,0,0,1024,1024,1684,1024,0,0,100,0,0,0,0,71,3.732,3.733,0,0,0,0,6.218,75.92,741.7694791172,20.997376,6,P-GPS,,6.4
423700,2026-01-09 20:13:55,742.4256471172,21.981628,0.0,0.46773623544,2.2927494172,15,5,7.463,742.4256471172,21.653544,0.223694,1.00517719752,0.0,0.0,-4.47388,21.0,2.3,-0.6,0,0,1024,1024,1684,1024,0,0,100,0,0,0,0,71,3.732,3.733,0,0,0,0,6.218,75.92,742.4256471172,21.653544,6,P-GPS,,6.6
423800,2026-01-09 20:13:55,743.0818151172,22.637796,0.0,0.46450460804,2.32580059936,16,5,7.463,743.0818151172,22.309712,0.223694,1.00517719752,0.0,0.0,-4.250186,21.0,2.2,-0.7,0,0,1024,1024,1684,1024,0,0,100,0,0,0,0,71,3.732,3.733,0,0,0,0,6.218,75.92,743.0818151172,22.309712,6,P-GPS,,6.8
423900,2026-01-09 20:13:55,743.7379831172,23.622048,0.0,0.46785762652,2.33144036332,16,5,7.463,743.7379831172,22.96588,0.223694,1.00517719752,0.0,0.0,-4.47388,21.0,1.8,-0.5,0,0,1024,1024,1684,1024,0,0,100,0,0,0,0,71,3.732,3.733,0,0,0,0,6.218,75.92,743.7379831172,22.96588,6,P-GPS,,7.0
424000,2026-01-09 20:13:56,744.7222351172,24.6063,0.0,0.46840880764,2.34247382824,17,5,7.463,744.7222351172,23.950132,0.223694,1.00517719752,0.0,0.0,-4.47388,21.0,2.1,-0.3,0,0,1024,1024,1684,1024,0,0,100,0,0,0,0,71,3.732,3.733,0,0,0,0,6.218,75.92,744.7222351172,23.950132,6,P-GPS,,7.3
424100,2026-01-09 20:13:56,745.3784031172,25.262468,0.0,0.40485893684,2.49094824244,17,5,7.463,745.3784031172,24.6063,0.223694,1.00517719752,0.0,0.0,-4.47388,21.0,2.4,-0.1,0,0,1024,1024,1684,1024,0,0,100,0,0,0,0,71,3.732,3.733,0,0,0,0,6.218,75.92,745.3784031172,24.6063,6,P-GPS,,7.5
424200,2026-01-09 20:13:56,746.0345711172,26.24672,0.0,0.38955709908,2.54875008156,16,5,7.469,746.0345711172,25.262468,0.223694,1.00517719752,0.223694,-0.223694,-4.47388,21.1,2.5,0.5,0,0,1024,1024,1684,1024,0,0,100,0,0,0,0,71,3.734,3.735,0,0,0,0,5.849,75.74,746.0345711172,25.262468,6,P-GPS,,7.7
424300,2026-01-09 20:13:56,746.6907391172,27.230972,0.223694,0.36077100892,2.6311188506,16,5,7.469,746.6907391172,25.918636,0.223694,1.00517719752,0.223694,0.0,-4.47388,21.1,2.9,0.7,0,0,1024,1024,1684,1024,0,0,100,0,0,0,0,71,3.734,3.735,0,0,0,0,5.849,75.74,746.6907391172,25.918636,6,P-GPS,,7.9
424400,2026-01-09 20:13:56,747.3469071172,28.215224,0.3131716,0.34610893496,2.71626321028,16,5,7.469,747.3469071172,26.574804,0.3131716,1.00517719752,0.223694,-0.223694,-4.47388,21.1,3.5,1.1,0,0,1024,1024,1684,1024,0,0,100,0,0,0,0,71,3.734,3.735,0,0,0,0,5.849,75.74,747.3469071172,26.574804,6,P-GPS,,8.1
424500,2026-01-09 20:13:56,748.0030751172,28.871392,0.3131716,0.36258859428,2.81715232112,16,5,7.469,748.0030751172,27.230972,0.3131716,1.00517719752,0.223694,-0.223694,-4.47388,21.1,3.7,1.3,0,0,1024,1024,1684,1024,0,0,100,0,0,0,0,71,3.734,3.735,0,0,0,0,5.849,75.74,748.0030751172,27.230972,6,P-GPS,,8.3
424600,2026-01-09 20:13:56,748.6592431172,29.52756,0.0,0.52247705084,3.10294629352,17,5,7.469,748.6592431172,27.88714,0.3131716,1.00517719752,0.0,0.0,-4.47388,21.2,4.3,2.1,0,0,1024,1024,1684,1024,0,0,100,0,0,0,0,71,3.734,3.735,0,0,0,0,5.849,75.74,748.6592431172,27.88714,6,P-GPS,,8.5
424700,2026-01-09 20:13:56,749.3154111172,30.183728,0.0,0.55311025392,3.13543973288,17,5,7.469,749.3154111172,28.543308,0.3131716,1.00517719752,0.0,0.0,-4.47388,21.1,3.8,1.5,0,0,1024,1024,1684,1024,0,0,100,0,0,0,0,71,3.734,3.735,0,0,0,0,5.849,75.74,749.3154111172,28.543308,6,P-GPS,,8.7
424800,2026-01-09 20:13:56,749.9715791172,30.511812,0.0,0.57285434904,3.15518054716,17,5,7.469,749.9715791172,29.199476,0.3131716,1.00517719752,0.0,0.0,-4.47388,21.1,3.1,0.9,0,0,1024,1024,1684,1024,0,0,100,0,0,0,0,71,3.734,3.735,0,0,0,0,5.849,75.74,749.9715791172,29.199476,6,P-GPS,,8.9
424900,2026-01-09 20:13:56,750.6277471172,30.511812,0.0,0.57202757736,3.18671598124,17,5,7.469,750.6277471172,29.855644,0.3131716,1.00517719752,0.0,0.0,-4.47388,21.1,2.8,0.5,0,0,1024,1024,1684,1024,0,0,100,0,0,0,0,71,3.734,3.735,0,0,0,0,5.849,75.74,750.6277471172,29.855644,6,P-GPS,,9.1
425000,2026-01-09 20:13:57,751.2839151172,30.511812,0.0,0.59120408716,3.2963583732,17,5,7.469,751.2839151172,30.511812,0.3131716,1.00517719752,0.0,0.0,-4.250186,21.1,2.2,-0.1,0,0,1024,1024,1684,1024,0,0,100,0,0,0,0,71,3.734,3.735,0,0,0,0,5.849,75.74,751.2839151172,30.511812,6,P-GPS,,9.3
425100,2026-01-09 20:13:57,751.9400831172,30.511812,0.0,0.6022966072,3.3295276656,17,5,7.469,751.9400831172,31.16798,0.3131716,1.00517719752,0.0,0.0,-4.250186,21.1,2.3,0.0,0,0,1024,1024,1684,1024,0,0,100,0,0,0,0,71,3.734,3.735,0,0,0,0,5.849,75.74,751.9400831172,31.16798,6,P-GPS,,9.5
425200,2026-01-09 20:13:57,752.5962511172,30.511812,0.0,0.61484253936,3.3611549632,17,5,7.469,752.5962511172,31.824148,0.3131716,1.00517719752,0.0,0.0,-4.47388,21.1,2.3,-0.2,0,0,1024,1024,1024,1024,0,0,0,0,0,0,0,71,3.734,3.735,0,0,0,0,5.849,75.74,752.5962511172,31.824148,6,P-GPS,,9.7
425300,2026-01-09 20:13:57,753.2524191172,30.511812,0.0,0.584891751,3.4393701888,17,5,7.467,753.2524191172,32.480316,0.3131716,1.00517719752,0.0,0.0,-4.47388,21.1,2.2,-0.4,0,0,1024,1024,1024,1024,0,0,0,0,0,0,0,71,3.732,3.734,0,0,0,0,5.792,75.74,753.2524191172,32.480316,6,P-GPS,,9.9
425400,2026-01-09 20:13:57,753.9085871172,30.511812,0.0,0.55682744564,3.6599082536,17,5,7.467,753.9085871172,33.136484,0.3131716,1.00517719752,0.0,0.0,-4.250186,21.1,1.9,-0.5,0,0,1024,1024,1024,1024,0,0,0,0,0,0,0,71,3.732,3.734,0,0,0,0,5.792,75.74,753.9085871172,33.136484,6,P-GPS,,10.1
425500,2026-01-09 20:13:57,754.5647551172,30.511812,0.0,0.5561515926,3.698819016,17,5,7.467,754.5647551172,33.792652,0.3131716,1.00517719752,0.0,0.0,-4.026492,21.2,2.0,-0.3,0,0,1024,1024,1024,1024,0,0,0,0,0,0,0,71,3.732,3.734,0,0,0,0,5.792,75.74,754.5647551172,33.792652,6,P-GPS,,10.3
425600,2026-01-09 20:13:57,754.8928391172,30.511812,0.0,0.55584647448,3.7325788596,17,5,7.467,754.8928391172,34.120736,0.3131716,1.00517719752,0.0,0.0,-3.579104,21.1,2.3,-0.2,0,0,1024,1024,1024,1024,0,0,0,0,0,0,0,71,3.732,3.734,0,0,0,0,5.792,75.74,754.8928391172,34.120736,6,P-GPS,,10.4
425700,2026-01-09 20:13:57,755.5490071172,30.511812,0.0,0.55648951912,3.7598098316,17,5,7.467,755.5490071172,34.776904,0.3131716,1.00517719752,0.0,0.0,-2.684328,21.1,2.4,-0.3,0,0,1024,1024,1024,1024,0,0,0,0,0,0,0,71,3.732,3.734,0,0,0,0,5.792,75.74,755.5490071172,34.776904,6,P-GPS,,10.6
425800,2026-01-09 20:13:57,755.8770911172,30.511812,0.0,0.54291668404,3.8015749248,17,5,7.467,755.8770911172,35.104988,0.3131716,1.00517719752,0.0,0.0,-2.013246,21.1,2.1,-0.3,0,0,1024,1024,1024,1024,0,0,0,0,0,0,0,71,3.732,3.734,0,0,0,0,5.792,75.74,755.8770911172,35.104988,6,P-GPS,,10.7
425900,2026-01-09 20:13:57,755.8770911172,30.511812,0.0,0.56965881088,3.8417980232,17,5,7.467,755.8770911172,35.104988,0.3131716,1.00517719752,0.0,0.0,-1.11847,21.1,2.1,-0.5,0,0,1024,1024,1024,1024,0,0,0,0,0,0,0,71,3.732,3.734,0,0,0,0,5.792,75.74,755.8770911172,35.104988,6,P-GPS,,10.7
426000,2026-01-09 20:13:57,756.2051751172,30.511812,0.0,0.59952757824,3.8841536676,17,5,7.467,756.2051751172,35.433072,0.3131716,1.00517719752,0.0,0.0,-0.447388,21.1,2.1,-0.7,0,0,1024,1024,1024,1024,0,0,0,0,0,0,0,71,3.732,3.734,0,0,0,0,5.792,75.74,756.2051751172,35.433072,6,P-GPS,,10.8
426100,2026-01-09 20:13:58,756.2051751172,30.511812,0.0,0.60538715848,3.9135171856,17,5,7.467,756.2051751172,35.433072,0.3131716,1.00517719752,0.0,0.0,-0.223694,21.1,2.3,-0.9,0,0,1024,1024,1024,1024,0,0,0,0,0,0,0,71,3.732,3.734,0,0,0,0,5.792,75.74,756.2051751172,35.433072,6,P-GPS,,10.8
426200,2026-01-09 20:13:58,756.2051751172,30.511812,0.0,0.61088256548,3.9521654808,17,5,7.467,756.2051751172,35.433072,0.3131716,1.00517719752,0.0,0.0,0.0,21.2,2.3,-0.9,0,0,1024,1024,1024,1024,0,0,0,0,0,0,0,71,3.732,3.734,0,0,0,0,5.792,75.74,756.2051751172,35.433072,6,P-GPS,,10.8
426300,2026-01-09 20:13:58,756.2051751172,30.511812,0.0,0.7133038286,4.1030513124,17,5,7.467,756.2051751172,35.433072,0.3131716,1.00517719752,0.0,0.0,0.0,21.1,2.4,-0.9,0,0,1024,1024,1024,1024,0,0,0,0,0,0,0,71,3.732,3.734,0,0,0,0,5.792,75.74,756.2051751172,35.433072,6,P-GPS,,10.8
426400,2026-01-09 20:13:58,756.2051751172,30.511812,0.0,0.74777233364,4.1375657492,17,5,7.467,756.2051751172,35.433072,0.3131716,1.00517719752,0.0,0.0,0.0,21.1,2.4,-0.9,0,0,1024,1024,1024,1024,0,0,0,0,0,0,0,71,3.761,3.763,0,0,0,0,5.792,75.74,756.2051751172,35.433072,6,P-GPS,,10.8
426500,2026-01-09 20:13:58,756.2051751172,30.511812,0.0,0.8009186608,4.2398951488,17,5,7.467,756.2051751172,35.433072,0.3131716,1.00517719752,0.0,0.0,0.0,21.1,2.4,-0.8,0,0,1024,1024,1024,1024,0,0,0,0,0,0,0,71,3.761,3.763,0,0,0,0,5.792,75.74,756.2051751172,35.433072,6,P-GPS,,10.8
426600,2026-01-09 20:13:58,756.2051751172,30.511812,0.0,0.86833008028,4.3520670684,16,5,7.467,756.2051751172,35.433072,0.3131716,1.00517719752,0.0,0.0,0.0,21.2,2.3,-0.7,0,0,1024,1024,1024,1024,0,0,0,0,0,0,0,71,3.761,3.763,0,0,0,0,5.792,75.74,756.2051751172,35.433072,6,P-GPS,,10.8
426700,2026-01-09 20:13:58,756.2051751172,30.511812,0.0,1.11732943208,4.7348426712,16,5,7.467,756.2051751172,35.433072,0.3131716,1.11732943208,0.0,0.0,0.0,21.2,2.5,-0.6,0,0,1024,1024,1024,1024,0,0,0,0,0,0,0,71,3.761,3.763,0,0,0,0,5.792,75.74,756.2051751172,35.433072,6,P-GPS,,10.8
426800,2026-01-09 20:13:58,756.2051751172,30.511812,0.0,1.21962930412,4.853674696,16,5,7.467,756.2051751172,35.433072,0.3131716,1.21962930412,0.0,0.0,0.0,21.1,2.4,-0.8,0,0,1024,1024,1024,1024,0,0,0,0,0,0,0,71,3.761,3.763,0,0,0,0,5.792,75.74,756.2051751172,35.433072,6,P-GPS,,10.8
426900,2026-01-09 20:13:58,756.2051751172,30.511812,0.0,1.3242618534,4.9679791616,16,5,7.467,756.2051751172,35.433072,0.3131716,1.3242618534,0.0,0.0,0.0,21.1,2.5,-0.6,0,0,1024,1024,1024,1024,0,0,0,0,0,0,0,71,3.761,3.763,0,0,0,0,5.792,75.74,756.2051751172,35.433072,6,P-GPS,,10.8
427000,2026-01-09 20:13:59,756.2051751172,30.511812,0.0,1.43430450784,5.0854988504,16,5,7.467,756.2051751172,35.433072,0.3131716,1.43430450784,0.0,0.0,0.0,21.1,2.3,-0.5,0,0,1024,1024,1024,1024,0,0,0,0,0,0,0,71,3.761,3.763,0,0,0,0,5.792,75.74,756.2051751172,35.433072,6,P-GPS,,10.8
427100,2026-01-09 20:13:59,756.2051751172,30.511812,0.0,1.61531829316,5.2689306148,16,5,7.467,756.2051751172,35.433072,0.3131716,1.61531829316,0.0,0.0,0.0,21.1,2.3,-0.2,0,0,1024,1024,1024,1024,0,0,0,0,0,0,0,71,3.761,3.763,0,0,0,0,5.792,75.74,756.2051751172,35.433072,6,P-GPS,,10.8
427200,2026-01-09 20:13:59,756.2051751172,30.511812,0.0,1.71311029104,5.367290198,16,5,7.467,756.2051751172,35.433072,0.3131716,1.71311029104,0.0,0.0,0.0,21.1,2.0,-0.2,0,0,1024,1024,1024,1024,0,0,0,0,0,0,0,71,3.761,3.763,0,0,0,0,5.792,75.74,756.2051751172,35.433072,6,P-GPS,,10.8
427300,2026-01-09 20:13:59,756.2051751172,30.511812,0.0,1.78277236676,5.4396655284,16,5,7.467,756.2051751172,35.433072,0.3131716,1.78277236676,0.0,0.0,0.0,21.2,2.0,0.0,0,0,1024,1024,1024,1024,0,0,0,0,0,0,0,71,3.761,3.763,0,0,0,0,5.792,75.74,756.2051751172,35.433072,6,P-GPS,,10.8
427400,2026-01-09 20:13:59,756.2051751172,30.511812,0.0,1.85087932432,5.5107941396,16,5,7.524,756.2051751172,35.433072,0.3131716,1.85087932432,0.0,0.0,0.0,21.2,1.9,-0.1,0,0,1024,1024,1024,1024,0,0,0,0,0,0,0,71,3.755,3.757,0,0,0,0,3.974,75.92,756.2051751172,35.433072,6,P-GPS,,10.8
427500,2026-01-09 20:13:59,756.2051751172,30.511812,0.0,1.77991475512,5.6150592348,16,5,7.524,756.2051751172,35.433072,0.3131716,1.85087932432,0.0,0.0,0.0,21.2,1.8,0.1,0,0,1024,1024,1024,1024,0,0,0,0,0,0,0,71,3.755,3.757,0,0,0,0,3.974,75.92,756.2051751172,35.433072,6,P-GPS,,10.8
427600,2026-01-09 20:13:59,756.2051751172,30.511812,0.223694,1.79831698668,5.6451445376,16,5,7.524,756.2051751172,35.433072,0.3131716,1.85087932432,-0.223694,0.0,0.0,21.2,1.4,0.0,0,0,1024,1024,1024,1024,0,0,0,0,0,0,0,71,3.755,3.757,0,0,0,0,3.974,75.92,756.2051751172,35.433072,6,P-GPS,,10.8
427700,2026-01-09 20:13:59,756.2051751172,30.511812,0.0,1.78756239316,5.696850576,16,5,7.524,756.2051751172,35.433072,0.3131716,1.85087932432,0.0,0.0,0.0,21.2,1.2,0.0,0,0,1024,1024,1024,1024,0,0,0,0,0,0,0,71,3.755,3.757,0,0,0,0,3.974,75.92,756.2051751172,35.433072,6,P-GPS,,10.8
427800,2026-01-09 20:13:59,756.2051751172,30.511812,0.0,1.77317262892,5.7497705252,16,5,7.524,756.2051751172,35.433072,0.3131716,1.85087932432,0.0,0.0,0.0,21.1,1.1,0.0,0,0,1024,1024,1024,1024,0,0,0,0,0,0,0,71,3.755,3.757,0,0,0,0,3.974,75.92,756.2051751172,35.433072,6,P-GPS,,10.8
427900,2026-01-09 20:13:59,756.2051751172,30.511812,0.0,1.757874072,5.801181288,16,5,7.524,756.2051751172,35.433072,0.3131716,1.85087932432,0.0,0.0,0.0,21.1,1.0,0.0,0,0,1024,1024,1024,1024,0,0,0,0,0,0,0,71,3.755,3.757,0,0,0,0,3.974,75.92,756.2051751172,35.433072,6,P-GPS,,10.8
428000,2026-01-09 20:13:59,756.2051751172,30.511812,0.0,1.64565622064,6.0423886448,16,5,7.524,756.2051751172,35.433072,0.3131716,1.85087932432,0.0,0.0,0.0,21.2,0.1,0.0,0,0,1024,1024,1024,1024,0,0,0,0,0,0,0,71,3.755,3.757,0,0,0,0,3.974,75.92,756.2051751172,35.433072,6,P-GPS,,10.8
428100,2026-01-09 20:14:00,756.2051751172,30.511812,0.0,1.65335307128,6.0721130552,16,5,7.524,756.2051751172,35.433072,0.3131716,1.85087932432,0.0,0.0,0.0,21.1,0.8,0.1,0,0,1024,1024,1024,1024,0,0,0,0,0,0,0,71,3.755,3.757,0,0,0,0,3.974,75.92,756.2051751172,35.433072,6,P-GPS,,10.8
428200,2026-01-09 20:14:00,756.2051751172,30.511812,0.0,1.6573327302,6.095964762,16,5,7.524,756.2051751172,35.433072,0.3131716,1.85087932432,0.0,0.0,0.0,21.1,1.1,0.0,0,0,1024,1024,1024,1024,0,0,0,0,0,0,0,71,3.755,3.757,0,0,0,0,3.974,75.92,756.2051751172,35.433072,6,P-GPS,,10.8
428300,2026-01-09 20:14:00,756.2051751172,30.511812,0.0,1.65877958064,6.0987206676,16,5,7.524,756.2051751172,35.433072,0.3131716,1.85087932432,0.0,0.0,0.0,21.1,1.3,0.0,0,0,1024,1024,1024,1024,0,0,0,0,0,0,0,71,3.755,3.757,0,0,0,0,3.974,75.92,756.2051751172,35.433072,6,P-GPS,,10.8
428400,2026-01-09 20:14:00,756.2051751172,30.511812,0.0,1.69734913568,6.137303346,16,5,7.524,756.2051751172,35.433072,0.3131716,1.85087932432,0.0,0.0,0.0,21.1,1.4,0.0,0,0,1024,1024,1024,1024,0,0,0,0,0,0,0,71,3.755,3.757,0,0,0,0,3.974,75.92,756.2051751172,35.433072,6,P-GPS,,10.8
428500,2026-01-09 20:14:00,756.2051751172,30.511812,0.0,1.71209323064,6.1702101712,16,5,7.524,756.2051751172,35.433072,0.3131716,1.85087932432,0.0,0.0,0.0,21.1,1.5,0.1,0,0,1024,1024,1024,1024,0,0,0,0,0,0,0,71,3.755,3.757,0,0,0,0,3.974,75.92,756.2051751172,35.433072,6,P-GPS,,10.8
428600,2026-01-09 20:14:00,756.2051751172,30.511812,0.0,1.72607617072,6.206365028,16,5,7.505,756.2051751172,35.433072,0.3131716,1.85087932432,0.0,0.0,0.0,21.1,1.4,0.0,0,0,1024,1024,1024,1024,0,0,0,0,0,0,0,71,3.752,3.755,0,0,0,0,4.863,75.92,756.2051751172,35.433072,6,P-GPS,,10.8
428700,2026-01-09 20:14:00,756.2051751172,30.511812,0.0,1.73962275908,6.2370736904,16,5,7.505,756.2051751172,35.433072,0.3131716,1.85087932432,0.0,0.0,0.0,21.1,1.3,0.1,0,0,1024,1024,1024,1024,0,0,0,0,0,0,0,71,3.752,3.755,0,0,0,0,4.863,75.92,756.2051751172,35.433072,6,P-GPS,,10.8
428800,2026-01-09 20:14:00,756.2051751172,30.511812,0.0,1.83315622664,6.364173432,16,5,7.505,756.2051751172,35.433072,0.3131716,1.85087932432,0.0,0.0,0.0,21.1,1.2,0.1,0,0,1024,1024,1024,1024,0,0,0,0,0,0,0,71,3.752,3.755,0,0,0,0,4.863,75.92,756.2051751172,35.433072,6,P-GPS,,10.8
428900,2026-01-09 20:14:00,756.2051751172,30.511812,0.0,1.83650268344,6.3683072904,16,5,7.505,756.2051751172,35.433072,0.3131716,1.85087932432,0.0,0.0,0.0,21.1,0.7,0.4,0,0,1024,1024,1024,1024,0,0,0,0,0,0,0,71,3.752,3.755,0,0,0,0,4.863,75.92,756.2051751172,35.433072,6,P-GPS,,10.8
429000,2026-01-09 20:14:01,756.5332591172,30.511812,0.0,1.8325459904,6.3737862932,16,5,7.505,756.5332591172,35.761156,0.3131716,1.85087932432,0.0,0.0,0.0,21.1,1.0,0.1,0,0,1024,1024,1024,1024,0,0,0,0,0,0,0,71,3.752,3.755,0,0,0,0,4.863,75.92,756.5332591172,35.761156,6,P-GPS,,10.9
429100,2026-01-09 20:14:01,756.5332591172,30.511812,0.0,1.82329730244,6.3929463988,16,5,7.505,756.5332591172,35.761156,0.3131716,1.85087932432,0.0,0.0,0.0,21.1,1.3,0.0,0,0,1024,1024,1024,1024,0,0,0,0,0,0,0,71,3.752,3.755,0,0,0,0,4.863,75.92,756.5332591172,35.761156,6,P-GPS,,10.9
429200,2026-01-09 20:14:01,756.5332591172,30.511812,0.0,1.82921265696,6.3989831444,16,5,7.505,756.5332591172,35.761156,0.3131716,1.85087932432,0.0,0.0,0.0,21.1,1.4,0.0,0,0,1024,1024,1024,1024,0,0,0,0,0,0,0,71,3.752,3.755,0,0,0,0,4.863,75.92,756.5332591172,35.761156,6,P-GPS,,10.9
429300,2026-01-09 20:14:01,756.5332591172,30.511812,0.0,1.83516410072,6.4157810452,16,5,7.505,756.5332591172,35.761156,0.3131716,1.85087932432,0.0,0.0,0.0,21.1,1.8,0.1,0,0,1024,1024,1024,1024,0,0,0,0,0,0,0,71,3.752,3.755,0,0,0,0,4.863,75.92,756.5332591172,35.761156,6,P-GPS,,10.9
429400,2026-01-09 20:14:01,756.5332591172,30.511812,0.0,1.84029861532,6.4319555864,16,5,7.505,756.5332591172,35.761156,0.3131716,1.85087932432,0.0,0.0,0.0,21.1,1.7,0.0,0,0,1024,1024,1024,1024,0,0,0,0,0,0,0,71,3.752,3.755,0,0,0,0,4.863,75.92,756.5332591172,35.761156,6,P-GPS,,10.9
429500,2026-01-09 20:14:01,756.5332591172,30.511812,0.0,1.83424546552,6.439796794,16,5,7.505,756.5332591172,35.761156,0.3131716,1.85087932432,0.0,0.0,0.0,21.1,1.8,0.0,0,0,1024,1024,1024,1024,0,0,0,0,0,0,0,71,3.752,3.755,0,0,0,0,4.863,75.92,756.5332591172,35.761156,6,P-GPS,,10.9
429600,2026-01-09 20:14:01,756.5332591172,30.511812,0.0,1.82579402168,6.4493440384,17,5,7.505,756.5332591172,35.761156,0.3131716,1.85087932432,0.0,0.0,0.0,21.2,1.5,0.1,0,0,1024,1024,1024,1024,0,0,0,0,0,0,0,71,3.752,3.755,0,0,0,0,4.863,75.92,756.5332591172,35.761156,6,P-GPS,,10.9
429700,2026-01-09 20:14:01,756.5332591172,30.511812,0.0,1.86227368164,6.4977692368,17,5,7.509,756.5332591172,35.761156,0.3131716,1.86227368164,0.0,0.0,0.0,21.1,2.1,0.2,0,0,1024,1024,1024,1024,0,0,0,0,0,0,0,71,3.754,3.755,0,0,0,0,4.827,75.92,756.5332591172,35.761156,6,P-GPS,,10.9
429800,2026-01-09 20:14:01,756.5332591172,30.511812,0.0,1.8513123952,6.5318571644,17,5,7.509,756.5332591172,35.761156,0.3131716,1.86227368164,0.0,0.0,0.0,21.1,2.1,0.0,0,0,1024,1024,1024,1024,0,0,0,0,0,0,0,71,3.754,3.755,0,0,0,0,4.827,75.92,756.5332591172,35.761156,6,P-GPS,,10.9
429900,2026-01-09 20:14:01,756.5332591172,30.511812,0.0,1.81971462516,6.5800198956,17,5,7.509,756.5332591172,35.761156,0.3131716,1.86227368164,0.0,0.0,0.0,21.1,2.1,0.0,0,0,1024,1024,1024,1024,0,0,0,0,0,0,0,71,3.754,3.755,0,0,0,0,4.827,75.92,756.5332591172,35.761156,6,P-GPS,,10.9
430000,2026-01-09 20:14:02,756.5332591172,30.511812,0.0,1.78641409916,6.6293309208,17,5,7.509,756.5332591172,35.761156,0.3131716,1.86227368164,0.0,0.0,0.0,21.1,2.0,-0.1,0,0,1024,1024,1024,1024,0,0,0,0,0,0,0,71,3.754,3.755,0,0,0,0,4.827,75.92,756.5332591172,35.761156,6,P-GPS,,10.9
430100,2026-01-09 20:14:02,756.5332591172,30.511812,0.0,1.72240162992,6.7058401096,17,5,7.509,756.5332591172,35.761156,0.3131716,1.86227368164,0.0,0.0,0.0,21.2,1.7,0.1,0,0,1024,1024,1024,1024,0,0,0,0,0,0,0,71,3.754,3.755,0,0,0,0,4.827,75.92,756.5332591172,35.761156,6,P-GPS,,10.9
430200,2026-01-09 20:14:02,756.5332591172,30.511812,0.0,1.69819887324,6.7347115016,17,5,7.509,756.5332591172,35.761156,0.3131716,1.86227368164,0.0,0.223694,0.0,21.1,1.9,-0.2,0,0,1024,1024,1024,1024,0,0,0,0,0,0,0,71,3.754,3.755,0,0,0,0,4.827,75.92,756.5332591172,35.761156,6,P-GPS,,10.9
430300,2026-01-09 20:14:02,756.5332591172,30.511812,0.223694,1.67003286184,6.7726052036,17,5,7.509,756.5332591172,35.761156,0.3131716,1.86227368164,0.0,0.223694,0.0,21.1,2.0,-0.2,0,0,1024,1024,1024,1024,0,0,0,0,0,0,0,71,3.754,3.755,0,0,0,0,4.827,75.92,756.5332591172,35.761156,6,P-GPS,,10.9
430400,2026-01-09 20:14:02,756.5332591172,30.511812,0.0,1.64161094492,6.8118768584,17,5,7.509,756.5332591172,35.761156,0.3131716,1.86227368164,0.0,0.0,0.0,21.1,1.6,-0.2,0,0,1024,1024,1024,1024,0,0,0,0,0,0,0,71,3.754,3.755,0,0,0,0,4.827,75.92,756.5332591172,35.761156,6,P-GPS,,10.9
430500,2026-01-09 20:14:02,756.5332591172,30.511812,0.0,1.5903215732,6.8700133432,17,5,7.509,756.5332591172,35.761156,0.3131716,1.86227368164,0.0,0.0,0.0,21.1,1.9,-0.3,0,0,1024,1024,1024,1024,0,0,0,0,0,0,0,71,3.754,3.755,0,0,0,0,4.827,75.92,756.5332591172,35.761156,6,P-GPS,,10.9
430600,2026-01-09 20:14:02,756.5332591172,30.511812,0.0,1.56356304216,6.902723318,17,5,7.509,756.5332591172,35.761156,0.3131716,1.86227368164,0.0,0.0,0.0,21.1,1.8,-0.4,0,0,1024,1024,1024,1024,0,0,0,0,0,0,0,71,3.754,3.755,0,0,0,0,4.827,75.92,756.5332591172,35.761156,6,P-GPS,,10.9
430700,2026-01-09 20:14:02,756.5332591172,30.511812,0.0,1.538221834,6.9280842112,17,5,7.509,756.5332591172,35.761156,0.3131716,1.86227368164,0.0,0.0,0.0,21.0,1.9,-0.3,0,0,1024,1024,1024,1024,0,0,0,0,0,0,0,71,3.754,3.755,0,0,0,0,4.827,75.92,756.5332591172,35.761156,6,P-GPS,,10.9
430800,2026-01-09 20:14:02,756.5332591172,30.511812,0.0,1.51286422164,6.9534451044,17,5,7.512,756.5332591172,35.761156,0.3131716,1.86227368164,0.0,0.0,0.0,21.0,1.9,-0.4,0,0,1024,1024,1024,1024,0,0,0,0,0,0,0,70,3.756,3.755,0,0,0,0,4.805,75.92,756.5332591172,35.761156,6,P-GPS,,10.9
430900,2026-01-09 20:14:02,756.5332591172,30.511812,0.0,1.48161750148,7.027067154,17,5,7.512,756.5332591172,35.761156,0.3131716,1.86227368164,0.0,0.0,0.0,21.0,2.0,-0.2,0,0,1024,1024,1024,1024,0,0,0,0,0,0,0,70,3.756,3.755,0,0,0,0,4.805,75.92,756.5332591172,35.761156,6,P-GPS,,10.9
431000,2026-01-09 20:14:03,756.5332591172,30.511812,0.0,1.45924873436,7.0504595432,17,5,7.512,756.5332591172,35.761156,0.3131716,1.86227368164,0.0,0.0,0.0,21.0,1.8,-0.2,0,0,1024,1024,1024,1024,0,0,0,0,0,0,0,70,3.756,3.755,0,0,0,0,4.805,75.92,756.5332591172,35.761156,6,P-GPS,,10.9
431100,2026-01-09 20:14:03,756.5332591172,30.511812,0.0,1.4237697306,7.0916012768,17,5,7.512,756.5332591172,35.761156,0.3131716,1.86227368164,0.0,0.0,0.0,21.0,1.9,-0.2,0,0,1024,1024,1024,1024,0,0,0,0,0,0,0,70,3.756,3.755,0,0,0,0,4.805,75.92,756.5332591172,35.761156,6,P-GPS,,10.9
431200,2026-01-09 20:14:03,756.5332591172,30.511812,0.0,1.38498035928,7.136975294,17,5,7.512,756.5332591172,35.761156,0.3131716,1.86227368164,0.0,0.0,0.0,21.1,1.9,-0.2,0,0,1024,1024,1024,1024,0,0,0,0,0,0,0,70,3.756,3.755,0,0,0,0,4.805,75.92,756.5332591172,35.761156,6,P-GPS,,10.9
431300,2026-01-09 20:14:03,756.5332591172,30.511812,0.0,1.35420608008,7.1775920932,17,5,7.512,756.5332591172,35.761156,0.3131716,1.86227368164,0.0,0.0,0.0,21.1,2.0,-0.3,0,0,1024,1024,1024,1024,0,0,0,0,0,0,0,70,3.756,3.755,0,0,0,0,4.805,75.92,756.5332591172,35.761156,6,P-GPS,,10.9
431400,2026-01-09 20:14:03,756.5332591172,30.511812,0.0,1.30031500224,7.29412753,17,5,7.512,756.5332591172,35.761156,0.3131716,1.86227368164,0.0,0.0,0.0,21.2,1.8,-0.4,0,0,1024,1024,1024,1024,0,0,0,0,0,0,0,70,3.756,3.755,0,0,0,0,4.805,75.92,756.5332591172,35.761156,6,P-GPS,,10.9
431500,2026-01-09 20:14:03,756.5332591172,30.511812,0.0,1.26396985672,7.3319884236,17,5,7.512,756.5332591172,35.761156,0.3131716,1.86227368164,0.0,0.0,0.0,21.2,2.0,-0.3,0,0,1024,1024,1024,1024,0,0,0,0,0,0,0,70,3.756,3.755,0,0,0,0,4.805,75.92,756.5332591172,35.761156,6,P-GPS,,10.9
431600,2026-01-09 20:14:03,756.5332591172,30.511812,0.0,1.22571854316,7.3711288448,17,5,7.512,756.5332591172,35.761156,0.3131716,1.86227368164,0.0,0.0,0.0,21.2,2.0,-0.2,0,0,1024,1024,1024,1024,0,0,0,0,0,0,0,70,3.756,3.755,0,0,0,0,4.805,75.92,756.5332591172,35.761156,6,P-GPS,,10.9
431700,2026-01-09 20:14:03,756.5332591172,30.511812,0.0,1.19772641628,7.39911441,17,5,7.512,756.5332591172,35.761156,0.3131716,1.86227368164,0.0,0.0,0.0,21.2,2.1,-0.1,0,0,1024,1024,1024,1024,0,0,0,0,0,0,0,70,3.756,3.755,0,0,0,0,4.805,75.92,756.5332591172,35.761156,6,P-GPS,,10.9
431800,2026-01-09 20:14:03,756.5332591172,30.511812,0.0,1.15116801584,7.4540028632,17,5,7.512,756.5332591172,35.761156,0.3131716,1.86227368164,0.0,0.0,0.0,21.2,2.1,0.0,0,0,1024,1024,1024,1024,0,0,0,0,0,0,0,70,3.756,3.755,0,0,0,0,4.805,75.92,756.5332591172,35.761156,6,P-GPS,,10.9
431900,2026-01-09 20:14:03,756.2051751172,30.511812,0.0,1.12799872376,7.4773296356,17,5,7.506,756.5332591172,35.761156,0.3131716,1.86227368164,0.0,0.0,0.0,21.1,2.2,-0.1,0,0,1024,1024,1024,1024,0,0,0,0,0,0,0,70,3.752,3.754,0,0,0,0,4.718,75.92,756.2051751172,35.433072,6,P-GPS,,10.8
432000,2026-01-09 20:14:03,756.2051751172,30.511812,0.0,1.10376972036,7.5016078516,17,5,7.506,756.5332591172,35.761156,0.3131716,1.86227368164,0.0,0.0,0.0,21.1,2.1,-0.2,0,0,1024,1024,1024,1024,0,0,0,0,0,0,0,70,3.752,3.754,0,0,0,0,4.718,75.92,756.2051751172,35.433072,6,P-GPS,,10.8
432100,2026-01-09 20:14:04,756.2051751172,30.511812,0.0,1.09210633416,7.513287642,17,5,7.506,756.5332591172,35.761156,0.3131716,1.86227368164,0.0,0.0,0.0,21.1,2.4,-0.2,0,0,1024,1024,1024,1024,0,0,0,0,0,0,0,70,3.752,3.754,0,0,0,0,4.718,75.92,756.2051751172,35.433072,6,P-GPS,,10.8
432200,2026-01-09 20:14:04,756.2051751172,30.511812,0.0,1.11001643972,7.5424543096,17,5,7.506,756.5332591172,35.761156,0.3131716,1.86227368164,0.0,0.0,0.0,21.2,2.2,-0.2,0,0,1024,1024,1024,1024,0,0,0,0,0,0,0,70,3.752,3.754,0,0,0,0,4.718,75.92,756.2051751172,35.433072,6,P-GPS,,10.8
432300,2026-01-09 20:14:04,756.2051751172,30.511812,0.0,1.104576807,7.5488191392,17,5,7.506,756.5332591172,35.761156,0.3131716,1.86227368164,0.0,0.0,0.0,21.2,2.2,0.0,0,0,1024,1024,1024,1024,0,0,0,0,0,0,0,70,3.752,3.754,0,0,0,0,4.718,75.92,756.2051751172,35.433072,6,P-GPS,,10.8
432400,2026-01-09 20:14:04,756.2051751172,30.511812,0.0,1.09903874908,7.5559713704,17,5,7.506,756.5332591172,35.761156,0.3131716,1.86227368164,0.0,0.0,0.0,21.2,2.0,0.0,0,0,1024,1024,1024,1024,0,0,0,0,0,0,0,70,3.752,3.754,0,0,0,0,4.718,75.92,756.2051751172,35.433072,6,P-GPS,,10.8
432500,2026-01-09 20:14:04,756.2051751172,30.511812,0.0,1.09399937884,7.5631892184,17,5,7.506,756.5332591172,35.761156,0.3131716,1.86227368164,0.0,0.0,0.0,21.2,2.0,0.0,0,0,1024,1024,1024,1024,0,0,0,0,0,0,0,70,3.752,3.754,0,0,0,0,4.718,75.92,756.2051751172,35.433072,6,P-GPS,,10.8
432600,2026-01-09 20:14:04,755.8770911172,30.511812,0.0,1.1178314006,7.5873690092,17,5,7.506,756.5332591172,35.761156,0.3131716,1.86227368164,0.0,0.0,0.0,21.2,1.9,-0.1,0,0,1024,1024,1024,1024,0,0,0,0,0,0,0,70,3.752,3.754,0,0,0,0,4.718,75.92,755.8770911172,35.104988,6,P-GPS,,10.7
432700,2026-01-09 20:14:04,755.8770911172,30.511812,0.0,1.10999347384,7.5963913192,17,5,7.506,756.5332591172,35.761156,0.3131716,1.86227368164,0.0,0.0,0.0,21.2,1.8,-0.2,0,0,1024,1024,1024,1024,0,0,0,0,0,0,0,70,3.752,3.754,0,0,0,0,4.718,75.92,755.8770911172,35.104988,6,P-GPS,,10.7
432800,2026-01-09 20:14:04,755.8770911172,30.511812,0.0,1.1016404552,7.6054464376,17,5,7.506,756.5332591172,35.761156,0.3131716,1.86227368164,0.0,0.0,0.0,21.1,1.6,-0.3,0,0,1024,1024,1024,1024,0,0,0,0,0,0,0,70,3.752,3.754,0,0,0,0,4.718,75.92,755.8770911172,35.104988,6,P-GPS,,10.7
432900,2026-01-09 20:14:04,755.8770911172,30.511812,0.0,1.09253284336,7.6226380392,17,5,7.506,756.5332591172,35.761156,0.3131716,1.86227368164,0.0,0.0,0.0,21.1,1.6,-0.1,0,0,1024,1024,1024,1024,0,0,0,0,0,0,0,70,3.752,3.754,0,0,0,0,4.718,75.92,755.8770911172,35.104988,6,P-GPS,,10.7
433000,2026-01-09 20:14:05,755.8770911172,30.511812,0.0,1.08368113704,7.6400264912,16,5,7.505,756.5332591172,35.761156,0.3131716,1.86227368164,0.0,0.0,0.0,21.2,1.5,0.0,0,0,1024,1024,1024,1024,0,0,0,0,0,0,0,70,3.752,3.752,0,0,0,0,4.755,75.92,755.8770911172,35.104988,6,P-GPS,,10.7
433100,2026-01-09 20:14:05,755.8770911172,30.511812,0.0,1.07323494248,7.7000986716,16,5,7.505,756.5332591172,35.761156,0.3131716,1.86227368164,0.0,0.0,0.0,21.2,1.3,0.0,0,0,1024,1024,1024,1024,0,0,0,0,0,0,0,70,3.752,3.752,0,0,0,0,4.755,75.92,755.8770911172,35.104988,6,P-GPS,,10.7
433200,2026-01-09 20:14:05,755.5490071172,30.511812,0.0,1.06263454844,7.7180448664,16,5,7.505,756.5332591172,35.761156,0.3131716,1.86227368164,0.0,0.0,0.0,21.1,1.5,0.0,0,0,1024,1024,1024,1024,0,0,0,0,0,0,0,70,3.752,3.752,0,0,0,0,4.755,75.92,755.5490071172,34.776904,6,P-GPS,,10.6
433300,2026-01-09 20:14:05,755.5490071172,30.511812,0.0,1.0583333672,7.7408467044,16,5,7.505,756.5332591172,35.761156,0.3131716,1.86227368164,0.0,0.0,0.0,21.1,1.8,0.0,0,0,1024,1024,1024,1024,0,0,0,0,0,0,0,70,3.752,3.752,0,0,0,0,4.755,75.92,755.5490071172,34.776904,6,P-GPS,,10.6
433400,2026-01-09 20:14:05,755.5490071172,30.511812,0.0,1.05548559808,7.7710960492,17,5,7.505,756.5332591172,35.761156,0.3131716,1.86227368164,0.0,0.0,0.0,21.1,1.8,0.1,0,0,1024,1024,1024,1024,0,0,0,0,0,0,0,70,3.752,3.752,0,0,0,0,4.755,75.92,755.5490071172,34.776904,6,P-GPS,,10.6
433500,2026-01-09 20:14:05,755.5490071172,30.511812,0.0,1.0489173564,7.9073493344,17,5,7.505,756.5332591172,35.761156,0.3131716,1.86227368164,0.0,0.0,0.0,21.2,2.2,0.5,0,0,1024,1024,1024,1024,0,0,0,0,0,0,0,70,3.752,3.752,0,0,0,0,4.755,75.92,755.5490071172,34.776904,6,P-GPS,,10.6
433600,2026-01-09 20:14:05,755.5490071172,30.511812,0.0,1.03868769728,7.9517062912,17,5,7.505,756.5332591172,35.761156,0.3131716,1.86227368164,0.0,0.0,0.0,21.2,2.3,0.5,0,0,1024,1024,1024,1024,0,0,0,0,0,0,0,70,3.752,3.752,0,0,0,0,4.755,75.92,755.5490071172,34.776904,6,P-GPS,,10.6
433700,2026-01-09 20:14:05,755.5490071172,30.511812,0.0,1.03502627984,7.9710960556,17,5,7.505,756.5332591172,35.761156,0.3131716,1.86227368164,0.0,0.0,0.0,21.1,2.7,0.3,0,0,1024,1024,1024,1024,0,0,0,0,0,0,0,70,3.752,3.752,0,0,0,0,4.755,75.92,755.5490071172,34.776904,6,P-GPS,,10.6
433800,2026-01-09 20:14:05,755.5490071172,30.511812,0.0,1.03182418,7.9853349012,17,5,7.505,756.5332591172,35.761156,0.3131716,1.86227368164,0.0,0.0,0.0,21.1,2.6,0.2,0,0,1024,1024,1024,1024,0,0,0,0,0,0,0,70,3.752,3.752,0,0,0,0,4.755,75.92,755.5490071172,34.776904,6,P-GPS,,10.6
433900,2026-01-09 20:14:05,755.2209231172,30.511812,0.0,1.0555610574,8.0114503876,17,5,7.505,756.5332591172,35.761156,0.3131716,1.86227368164,0.0,0.0,0.0,21.1,2.5,0.4,0,0,1024,1024,1024,1024,0,0,0,0,0,0,0,70,3.752,3.752,0,0,0,0,4.755,75.92,755.2209231172,34.44882,6,P-GPS,,10.5
434000,2026-01-09 20:14:05,755.2209231172,30.511812,0.0,1.0550853356,8.022145926,17,5,7.505,756.5332591172,35.761156,0.3131716,1.86227368164,0.0,0.0,0.0,21.1,2.0,0.6,0,0,1024,1024,1024,1024,0,0,0,0,0,0,0,70,3.752,3.752,0,0,0,0,4.755,75.92,755.2209231172,34.44882,6,P-GPS,,10.5
434100,2026-01-09 20:14:06,755.2209231172,30.511812,0.0,1.05066932496,8.0303808344,17,5,7.504,756.5332591172,35.761156,0.3131716,1.86227368164,0.0,0.0,0.0,21.1,2.1,0.3,0,0,1024,1024,1024,1024,0,0,0,0,0,0,0,70,3.749,3.75,0,0,0,0,4.82,76.1,755.2209231172,34.44882,6,P-GPS,,10.5
434200,2026-01-09 20:14:06,755.2209231172,30.511812,0.0,1.04304137196,8.043307344,17,5,7.504,756.5332591172,35.761156,0.3131716,1.86227368164,0.0,0.0,0.0,21.1,1.9,0.1,0,0,1024,1024,1024,1024,0,0,0,0,0,0,0,70,3.749,3.75,0,0,0,0,4.82,76.1,755.2209231172,34.44882,6,P-GPS,,10.5
434300,2026-01-09 20:14:06,755.2209231172,30.511812,0.0,1.01534452068,8.0785435656,17,5,7.504,756.5332591172,35.761156,0.3131716,1.86227368164,0.0,0.0,0.0,21.1,1.9,0.1,0,0,1024,1024,1024,1024,0,0,0,0,0,0,0,70,3.749,3.75,0,0,0,0,4.82,76.1,755.2209231172,34.44882,6,P-GPS,,10.5
434400,2026-01-09 20:14:06,755.2209231172,30.511812,0.0,0.99185370628,8.1024608892,17,5,7.504,756.5332591172,35.761156,0.3131716,1.86227368164,0.0,0.0,0.0,21.1,1.9,0.0,0,0,1024,1024,1024,1024,0,0,0,0,0,0,0,70,3.749,3.75,0,0,0,0,4.82,76.1,755.2209231172,34.44882,6,P-GPS,,10.5
434500,2026-01-09 20:14:06,755.2209231172,30.511812,0.0,0.96475068704,8.1296590528,17,5,7.504,756.5332591172,35.761156,0.3131716,1.86227368164,0.0,0.0,0.0,21.1,2.1,-0.1,0,0,1024,1024,1024,1024,0,0,0,0,0,0,0,70,3.749,3.75,0,0,0,0,4.82,76.1,755.2209231172,34.44882,6,P-GPS,,10.5
434600,2026-01-09 20:14:06,755.2209231172,30.511812,0.0,0.93653874388,8.1581695524,17,5,7.504,756.5332591172,35.761156,0.3131716,1.86227368164,0.0,0.0,0.0,21.1,1.9,-0.1,0,0,1024,1024,1024,1024,0,0,0,0,0,0,0,70,3.749,3.75,0,0,0,0,4.82,76.1,755.2209231172,34.44882,6,P-GPS,,10.5
434700,2026-01-09 20:14:06,755.2209231172,30.511812,0.0,0.90255252232,8.192421522,17,5,7.504,756.5332591172,35.761156,0.3131716,1.86227368164,0.0,0.0,0.0,21.2,2.0,-0.1,0,0,1024,1024,1024,1024,0,0,0,0,0,0,0,70,3.749,3.75,0,0,0,0,4.82,76.1,755.2209231172,34.44882,6,P-GPS,,10.5
434800,2026-01-09 20:14:06,754.8928391172,30.511812,0.0,0.8288058008,8.269029136,17,5,7.504,756.5332591172,35.761156,0.3131716,1.86227368164,0.0,0.0,0.0,21.2,1.7,0.0,0,0,1024,1024,1024,1024,0,0,0,0,0,0,0,70,3.749,3.75,0,0,0,0,4.82,76.1,754.8928391172,34.120736,6,P-GPS,,10.4
434900,2026-01-09 20:14:06,754.8928391172,30.511812,0.0,0.79477036664,8.3064635204,17,5,7.504,756.5332591172,35.761156,0.3131716,1.86227368164,0.0,0.0,0.0,21.1,2.0,-0.1,0,0,1024,1024,1024,1024,0,0,0,0,0,0,0,70,3.749,3.75,0,0,0,0,4.82,76.1,754.8928391172,34.120736,6,P-GPS,,10.4
435000,2026-01-09 20:14:07,754.8928391172,30.511812,0.0,0.76001642852,8.3462273012,17,5,7.504,756.5332591172,35.761156,0.3131716,1.86227368164,0.0,0.0,0.0,21.1,2.0,-0.2,0,0,1024,1024,1024,1024,0,0,0,0,0,0,0,70,3.749,3.75,0,0,0,0,4.82,76.1,754.8928391172,34.120736,6,P-GPS,,10.4
435100,2026-01-09 20:14:07,754.8928391172,30.511812,0.0,0.73147640136,8.3767391132,17,5,7.504,756.5332591172,35.761156,0.3131716,1.86227368164,0.0,0.0,0.0,21.1,2.0,-0.3,0,0,1024,1024,1024,1024,0,0,0,0,0,0,0,70,3.749,3.75,0,0,0,0,4.82,76.1,754.8928391172,34.120736,6,P-GPS,,10.4
435200,2026-01-09 20:14:07,754.8928391172,30.511812,0.0,0.6961450354,8.4334320284,17,5,7.5,756.5332591172,35.761156,0.3131716,1.86227368164,0.0,0.0,0.0,21.1,2.1,-0.3,0,0,1024,1024,1024,1024,0,0,0,0,0,0,0,70,3.75,3.751,0,0,0,0,4.865,76.1,754.8928391172,34.120736,6,P-GPS,,10.4
435300,2026-01-09 20:14:07,754.8928391172,30.511812,0.0,0.67093834168,8.4595803232,17,5,7.5,756.5332591172,35.761156,0.3131716,1.86227368164,0.0,0.0,0.0,21.1,2.3,-0.3,0,0,1024,1024,1024,1024,0,0,0,0,0,0,0,70,3.75,3.751,0,0,0,0,4.865,76.1,754.8928391172,34.120736,6,P-GPS,,10.4
435400,2026-01-09 20:14:07,754.8928391172,30.511812,0.0,0.64523952196,8.486056702,17,5,7.5,756.5332591172,35.761156,0.3131716,1.86227368164,0.0,0.0,0.0,21.1,2.2,-0.3,0,0,1024,1024,1024,1024,0,0,0,0,0,0,0,70,3.75,3.751,0,0,0,0,4.865,76.1,754.8928391172,34.120736,6,P-GPS,,10.4
435500,2026-01-09 20:14:07,754.8928391172,30.511812,0.0,0.63169949528,8.5065947604,17,5,7.5,756.5332591172,35.761156,0.3131716,1.86227368164,0.0,0.0,0.0,21.2,2.2,-0.3,0,0,1024,1024,1024,1024,0,0,0,0,0,0,0,70,3.75,3.751,0,0,0,0,4.865,76.1,754.8928391172,34.120736,6,P-GPS,,10.4
435600,2026-01-09 20:14:07,754.8928391172,30.511812,0.0,0.64216209404,8.5720803268,17,5,7.5,756.5332591172,35.761156,0.3131716,1.86227368164,0.0,0.0,0.0,21.3,2.0,-0.3,0,0,1024,1024,1024,1024,0,0,0,0,0,0,0,70,3.75,3.751,0,0,0,0,4.865,76.1,754.8928391172,34.120736,6,P-GPS,,10.4
435700,2026-01-09 20:14:07,754.8928391172,30.511812,0.0,0.62613519064,8.5897640544,17,5,7.5,756.5332591172,35.761156,0.3131716,1.86227368164,0.0,0.0,0.0,21.3,2.0,-0.3,0,0,1024,1024,1024,1024,0,0,0,0,0,0,0,70,3.75,3.751,0,0,0,0,4.865,76.1,754.8928391172,34.120736,6,P-GPS,,10.4
435800,2026-01-09 20:14:07,754.8928391172,30.511812,0.0,0.60845474388,8.612040958,17,5,7.5,756.5332591172,35.761156,0.3131716,1.86227368164,0.0,0.0,0.0,21.2,2.1,-0.4,0,0,1024,1024,1024,1024,0,0,0,0,0,0,0,70,3.75,3.751,0,0,0,0,4.865,76.1,754.8928391172,34.120736,6,P-GPS,,10.4
435900,2026-01-09 20:14:07,754.8928391172,30.511812,0.0,0.58592193476,8.6353021136,17,5,7.5,756.5332591172,35.761156,0.3131716,1.86227368164,0.0,0.0,0.0,21.2,2.4,-0.4,0,0,1024,1024,1024,1024,0,0,0,0,0,0,0,70,3.75,3.751,0,0,0,0,4.865,76.1,754.8928391172,34.120736,6,P-GPS,,10.4
436000,2026-01-09 20:14:07,754.8928391172,30.511812,0.0,0.55473426972,8.6689963404,17,5,7.5,756.5332591172,35.761156,0.3131716,1.86227368164,0.0,0.0,0.0,21.2,2.3,-0.2,0,0,1024,1024,1024,1024,0,0,0,0,0,0,0,70,3.75,3.751,0,0,0,0,4.865,76.1,754.8928391172,34.120736,6,P-GPS,,10.4
436100,2026-01-09 20:14:08,754.8928391172,30.511812,0.0,0.55536747184,8.6701774428,17,5,7.5,756.5332591172,35.761156,0.3131716,1.86227368164,0.0,0.0,0.0,21.2,2.3,-0.2,0,0,1024,1024,1024,1024,0,0,0,0,0,0,0,70,3.75,3.751,0,0,0,0,4.865,76.1,754.8928391172,34.120736,6,P-GPS,,10.4
436200,2026-01-09 20:14:08,754.8928391172,30.511812,0.0,0.56014765572,8.6750658944,17,5,7.5,756.5332591172,35.761156,0.3131716,1.86227368164,0.0,0.0,0.0,21.2,2.3,-0.2,0,0,1024,1024,1024,1024,0,0,0,0,0,0,0,70,3.75,3.751,0,0,0,0,4.865,76.1,754.8928391172,34.120736,6,P-GPS,,10.4
436300,2026-01-09 20:14:08,754.8928391172,30.511812,0.0,0.56124345628,8.6804792804,17,5,7.5,756.5332591172,35.761156,0.3131716,1.86227368164,0.0,0.0,0.0,21.2,2.3,0.0,0,0,1024,1024,1024,1024,0,0,0,0,0,0,0,70,3.745,3.746,0,0,0,0,4.865,76.1,754.8928391172,34.120736,6,P-GPS,,10.4
436400,2026-01-09 20:14:08,754.8928391172,30.511812,0.0,0.56157810196,8.6880252124,17,5,7.5,756.5332591172,35.761156,0.3131716,1.86227368164,0.0,0.0,0.0,21.2,2.3,0.0,0,0,1024,1024,1024,1024,0,0,0,0,0,0,0,70,3.745,3.746,0,0,0,0,4.865,76.1,754.8928391172,34.120736,6,P-GPS,,10.4
436500,2026-01-09 20:14:08,754.8928391172,30.511812,0.0,0.6233596,8.7505580228,17,5,7.5,756.5332591172,35.761156,0.3131716,1.86227368164,0.0,0.0,0.0,21.1,2.9,0.0,0,0,1024,1024,1024,1024,0,0,0,0,0,0,0,70,3.745,3.746,0,0,0,0,4.865,76.1,754.8928391172,34.120736,6,P-GPS,,10.4
436600,2026-01-09 20:14:08,754.8928391172,30.511812,0.0,0.6290518574,8.7591538236,17,5,7.5,756.5332591172,35.761156,0.3131716,1.86227368164,0.0,0.0,0.0,21.2,2.7,0.3,0,0,1024,1024,1024,1024,0,0,0,0,0,0,0,70,3.745,3.746,0,0,0,0,4.865,76.1,754.8928391172,34.120736,6,P-GPS,,10.4
436700,2026-01-09 20:14:08,754.8928391172,30.511812,0.0,0.61951117468,8.7690947688,17,5,7.5,756.5332591172,35.761156,0.3131716,1.86227368164,0.0,0.0,0.0,21.2,2.6,0.2,0,0,1024,1024,1024,1024,0,0,0,0,0,0,0,70,3.745,3.746,0,0,0,0,4.865,76.1,754.8928391172,34.120736,6,P-GPS,,10.4
436800,2026-01-09 20:14:08,754.8928391172,30.511812,0.0,0.60512469128,8.7835304648,17,5,7.5,756.5332591172,35.761156,0.3131716,1.86227368164,0.0,0.0,0.0,21.2,2.9,-0.2,0,0,1024,1024,1024,1024,0,0,0,0,0,0,0,70,3.745,3.746,0,0,0,0,4.865,76.1,754.8928391172,34.120736,6,P-GPS,,10.4
436900,2026-01-09 20:14:08,754.8928391172,30.511812,0.0,0.58586616048,8.8101708856,17,5,7.5,756.5332591172,35.761156,0.3131716,1.86227368164,0.0,0.0,0.0,21.2,2.8,-0.6,0,0,1024,1024,1024,1024,0,0,0,0,0,0,0,70,3.745,3.746,0,0,0,0,4.865,76.1,754.8928391172,34.120736,6,P-GPS,,10.4
437000,2026-01-09 20:14:09,754.8928391172,30.511812,0.0,0.57912075344,8.81807771,17,5,7.5,756.5332591172,35.761156,0.3131716,1.86227368164,0.0,0.0,0.0,21.2,2.3,-0.3,0,0,1024,1024,1024,1024,0,0,0,0,0,0,0,70,3.745,3.746,0,0,0,0,4.865,76.1,754.8928391172,34.120736,6,P-GPS,,10.4
437100,2026-01-09 20:14:09,754.8928391172,30.511812,0.0,0.5770505434,8.8225724608,17,5,7.5,756.5332591172,35.761156,0.3131716,1.86227368164,0.0,0.0,0.0,21.1,2.6,0.0,0,0,1024,1024,1024,1024,0,0,0,0,0,0,0,70,3.745,3.746,0,0,0,0,4.865,76.1,754.8928391172,34.120736,6,P-GPS,,10.4
437200,2026-01-09 20:14:09,754.8928391172,30.511812,0.0,0.5749344016,8.8268703612,17,5,7.5,756.5332591172,35.761156,0.3131716,1.86227368164,0.0,0.0,0.0,21.1,2.7,-0.1,0,0,1024,1024,1024,1024,0,0,0,0,0,0,0,70,3.745,3.746,0,0,0,0,4.865,76.1,754.8928391172,34.120736,6,P-GPS,,10.4
437300,2026-01-09 20:14:09,754.8928391172,30.511812,0.0,0.5962762658,8.8825790244,17,5,7.5,756.5332591172,35.761156,0.3131716,1.86227368164,0.0,0.0,0.0,21.1,2.9,-0.3,0,0,1024,1024,1024,1024,0,0,0,0,0,0,0,70,3.745,3.746,0,0,0,0,4.865,76.1,754.8928391172,34.120736,6,P-GPS,,10.4
437400,2026-01-09 20:14:09,754.8928391172,30.511812,0.0,0.60292652848,8.90419976,17,5,7.494,756.5332591172,35.761156,0.3131716,1.86227368164,0.0,0.0,0.0,21.1,2.5,-0.1,0,0,1024,1024,1024,1024,0,0,0,0,0,0,0,70,3.741,3.742,0,0,0,0,4.907,76.1,754.8928391172,34.120736,6,P-GPS,,10.4
437500,2026-01-09 20:14:09,754.8928391172,30.511812,0.0,0.61142718492,8.9149937236,17,5,7.494,756.5332591172,35.761156,0.3131716,1.86227368164,0.0,0.0,0.0,21.2,2.5,0.1,0,0,1024,1024,1024,1024,0,0,0,0,0,0,0,70,3.741,3.742,0,0,0,0,4.907,76.1,754.8928391172,34.120736,6,P-GPS,,10.4
437600,2026-01-09 20:14:09,755.2209231172,30.511812,0.0,0.61787731636,8.9231958236,17,5,7.494,756.5332591172,35.761156,0.3131716,1.86227368164,0.0,0.0,0.0,21.3,2.4,0.1,0,0,1024,1024,1024,1024,0,0,0,0,0,0,0,70,3.741,3.742,0,0,0,0,4.907,76.1,755.2209231172,34.44882,6,P-GPS,,10.5
437700,2026-01-09 20:14:09,755.2209231172,30.511812,0.0,0.66006563792,8.9679792896,17,5,7.494,756.5332591172,35.761156,0.3131716,1.86227368164,0.0,0.0,0.0,21.2,2.8,-0.3,0,0,1024,1024,1024,1024,0,0,0,0,0,0,0,70,3.741,3.742,0,0,0,0,4.907,76.1,755.2209231172,34.44882,6,P-GPS,,10.5
437800,2026-01-09 20:14:09,755.2209231172,30.511812,0.0,0.67114175376,8.9794294212,17,5,7.494,756.5332591172,35.761156,0.3131716,1.86227368164,0.0,0.0,0.0,21.3,2.4,-0.4,0,0,1024,1024,1024,1024,0,0,0,0,0,0,0,70,3.741,3.742,0,0,0,0,4.907,76.1,755.2209231172,34.44882,6,P-GPS,,10.5
437900,2026-01-09 20:14:09,755.2209231172,30.511812,0.0,0.67044949652,8.9813979252,17,5,7.494,756.5332591172,35.761156,0.3131716,1.86227368164,0.0,0.0,0.0,21.3,2.5,-0.8,0,0,1024,1024,1024,1024,0,0,0,0,0,0,0,70,3.741,3.742,0,0,0,0,4.907,76.1,755.2209231172,34.44882,6,P-GPS,,10.5
438000,2026-01-09 20:14:09,755.2209231172,30.511812,0.0,0.6690945096,8.9829727284,17,5,7.494,756.5332591172,35.761156,0.3131716,1.86227368164,0.0,0.0,0.0,21.2,2.5,-1.1,0,0,1024,1024,1024,1024,0,0,0,0,0,0,0,70,3.741,3.742,0,0,0,0,4.907,76.1,755.2209231172,34.44882,6,P-GPS,,10.5
438100,2026-01-09 20:14:10,755.2209231172,30.511812,0.0,0.6762795492,8.9917325712,17,5,7.494,756.5332591172,35.761156,0.3131716,1.86227368164,0.0,0.0,0.0,21.2,2.6,-0.8,0,0,1024,1024,1024,1024,0,0,0,0,0,0,0,70,3.741,3.742,0,0,0,0,4.907,76.1,755.2209231172,34.44882,6,P-GPS,,10.5
438200,2026-01-09 20:14:10,755.2209231172,30.511812,0.0,0.69137469404,9.026575092,17,5,7.494,756.5332591172,35.761156,0.3131716,1.86227368164,0.0,0.0,0.0,21.3,2.2,-0.4,0,0,1024,1024,1024,1024,0,0,0,0,0,0,0,70,3.741,3.742,0,0,0,0,4.907,76.1,755.2209231172,34.44882,6,P-GPS,,10.5
438300,2026-01-09 20:14:10,755.2209231172,30.511812,0.0,0.69830054728,9.0357942524,17,5,7.494,756.5332591172,35.761156,0.3131716,1.86227368164,0.0,0.0,0.0,21.3,2.5,-0.2,0,0,1024,1024,1024,1024,0,0,0,0,0,0,0,70,3.741,3.742,0,0,0,0,4.907,76.1,755.2209231172,34.44882,6,P-GPS,,10.5
438400,2026-01-09 20:14:10,755.2209231172,30.511812,0.0,0.70470474696,9.0451446464,17,5,7.494,756.5332591172,35.761156,0.3131716,1.86227368164,0.0,0.0,0.0,21.2,2.6,-0.2,0,0,1024,1024,1024,1024,0,0,0,0,0,0,0,70,3.741,3.742,0,0,0,0,4.907,76.1,755.2209231172,34.44882,6,P-GPS,,10.5
438500,2026-01-09 20:14:10,755.5490071172,30.511812,0.0,0.71229332988,9.0752627576,17,5,7.477,756.5332591172,35.761156,0.3131716,1.86227368164,0.0,0.0,0.0,21.2,2.7,-0.1,0,0,1024,1024,1024,1024,0,0,0,0,0,0,0,70,3.738,3.739,0,0,0,0,5.202,76.1,755.5490071172,34.776904,6,P-GPS,,10.6
438600,2026-01-09 20:14:10,755.5490071172,30.511812,0.0,0.73290356676,9.1800199788,17,5,7.477,756.5332591172,35.761156,0.3131716,1.86227368164,0.0,0.0,0.0,21.3,2.5,0.1,0,0,1024,1024,1024,1024,0,0,0,0,0,0,0,70,3.738,3.739,0,0,0,0,5.202,76.1,755.5490071172,34.776904,6,P-GPS,,10.6
438700,2026-01-09 20:14:10,755.5490071172,30.511812,0.0,0.73594490544,9.1877955696,17,5,7.477,756.5332591172,35.761156,0.3131716,1.86227368164,0.0,0.0,0.0,21.2,2.8,-0.3,0,0,1024,1024,1024,1024,0,0,0,0,0,0,0,70,3.738,3.739,0,0,0,0,5.202,76.1,755.5490071172,34.776904,6,P-GPS,,10.6
438800,2026-01-09 20:14:10,755.5490071172,30.511812,0.0,0.73882220212,9.1928808716,17,5,7.477,756.5332591172,35.761156,0.3131716,1.86227368164,0.0,0.0,0.0,21.1,2.6,-0.1,0,0,1024,1024,1024,1024,0,0,0,0,0,0,0,70,3.738,3.739,0,0,0,0,5.202,76.1,755.5490071172,34.776904,6,P-GPS,,10.6
