time(millisecond),timestamp,altitude_above_seaLevel(feet),height_sonar(feet),speed(mph),distance(feet),mileage(feet),satellites,gpslevel,voltage(v),max_altitude(feet),max_ascent(feet),max_speed(mph),max_distance(feet), xSpeed(mph), ySpeed(mph), zSpeed(mph), compass_heading(degrees), pitch(degrees), roll(degrees),isPhoto,isVideo,rc_elevator,rc_aileron,rc_throttle,rc_rudder,rc_elevator(percent),rc_aileron(percent),rc_throttle(percent),rc_rudder(percent),gimbal_heading(degrees),gimbal_pitch(degrees),gimbal_roll(degrees),battery_percent,voltageCell1,voltageCell2,voltageCell3,voltageCell4,voltageCell5,voltageCell6,current(A),battery_temperature(f),altitude(feet),ascent(feet),flycStateRaw,flycState,message,height_above_takeoff(meters)
0,2026-01-09 20:06:30,720.8955548928,0.328084,0.0,0.0,0.0,14,5,0.0,720.8955548928,0.0,0.0,0.0,0.0,0.0,0.0,344.8,2.9,0.7,0,0,1024,1024,1024,1024,0,0,0,0,0,0,0,97,4.04,4.051,0,0,0,0,0.0,61.88,720.8955548928,0.0,41,Motors_Started,SD card speed low SD card speed low. Normal use may be affected. Replace SD card (Code: 10028). Gimbal stuck. Make sure gimbal cover is removed and manually check whether gimbal can rotate freely (Code: 40002),0.0
100,2026-01-09 20:06:31,720.8955548928,0.328084,0.0,0.0017676017626,0.0017676017626,14,5,0.0,720.8955548928,0.0,0.0,0.0017676017626,0.0,0.0,0.0,344.8,2.8,0.7,0,0,1024,1024,1024,1024,0,0,0,0,0,0,0,97,4.04,4.051,0,0,0,0,0.0,61.88,720.8955548928,0.0,41,Motors_Started,,0.0
200,2026-01-09 20:06:31,720.8955548928,0.328084,0.0,0.0042899607672,0.0043094817652,14,5,0.0,720.8955548928,0.0,0.0,0.0042899607672,0.0,0.0,0.0,344.8,2.8,0.7,0,0,1024,1024,1024,1024,0,0,0,0,0,0,0,97,4.04,4.051,0,0,0,0,0.0,61.88,720.8955548928,0.0,41,Motors_Started,Setting new Return-To-Home altitude to 90m (295 ft). Data Recorder File Index is 32. Setting new Maximum Flight Altitude to 90m (295 ft),0.0
300,2026-01-09 20:06:31,720.8955548928,0.328084,0.0,0.0163918312332,0.0164181763784,14,5,0.0,720.8955548928,0.0,0.0,0.0163918312332,0.0,0.0,0.0,344.8,2.8,0.7,0,0,1024,1024,1024,1024,0,0,0,0,0,0,0,97,4.04,4.051,0,0,0,0,0.0,61.88,720.8955548928,0.0,41,Motors_Started,,0.0
400,2026-01-09 20:06:31,720.8955548928,0.328084,0.0,0.042386484296,0.04352526386,14,5,0.0,720.8955548928,0.0,0.0,0.042386484296,0.0,0.0,0.0,344.8,2.8,0.7,0,0,1024,1024,1024,1024,0,0,0,0,0,0,0,97,4.04,4.051,0,0,0,0,0.0,61.88,720.8955548928,0.0,41,Motors_Started,,0.0
500,2026-01-09 20:06:31,720.8955548928,0.328084,0.0,0.0394603031,0.060516078052,14,5,0.0,720.8955548928,0.0,0.0,0.042386484296,0.0,0.0,0.0,344.7,2.9,0.7,0,0,1024,1024,1024,1024,0,0,0,0,0,0,0,97,4.04,4.051,0,0,0,0,0.0,61.88,720.8955548928,0.0,41,Motors_Started,,0.0
600,2026-01-09 20:06:31,720.8955548928,0.328084,0.0,0.043604660188,0.075809713712,14,5,0.0,720.8955548928,0.0,0.0,0.043604660188,0.0,0.0,0.0,345.1,2.8,0.8,0,0,1024,1024,1024,1024,0,0,0,0,0,0,0,97,4.04,4.051,0,0,0,0,0.0,61.88,720.8955548928,0.0,41,Motors_Started,,0.0
700,2026-01-09 20:06:31,720.8955548928,0.328084,0.0,0.055636156636,0.087849084176,14,5,0.0,720.8955548928,0.0,0.0,0.055636156636,0.0,0.0,0.0,345.2,2.8,0.7,0,0,1024,1024,1024,1024,0,0,0,0,0,0,0,97,4.04,4.051,0,0,0,0,0.0,61.88,720.8955548928,0.0,41,Motors_Started,,0.0
800,2026-01-09 20:06:31,720.8955548928,0.328084,0.0,0.0790764461,0.114495410488,14,5,0.0,720.8955548928,0.0,0.0,0.0790764461,0.0,0.0,0.0,345.2,2.8,0.7,0,0,1024,1024,1024,1024,0,0,0,0,0,0,0,97,4.04,4.051,0,0,0,0,0.0,61.88,720.8955548928,0.0,41,Motors_Started,,0.0
900,2026-01-09 20:06:31,720.8955548928,0.328084,0.0,0.093330711648,0.130765424132,14,5,0.0,720.8955548928,0.0,0.0,0.093330711648,0.0,0.0,0.0,345.2,2.9,0.7,0,0,1024,1024,1024,1024,0,0,0,0,0,0,0,97,4.04,4.051,0,0,0,0,0.0,61.88,720.8955548928,0.0,41,Motors_Started,,0.0
1000,2026-01-09 20:06:32,720.8955548928,0.328084,0.0,0.105626315716,0.14439633008,14,5,0.0,720.8955548928,0.0,0.0,0.105626315716,0.0,0.0,0.0,345.2,2.9,0.7,0,0,1024,1024,1024,1024,0,0,0,0,0,0,0,97,4.04,4.051,0,0,0,0,0.0,61.88,720.8955548928,0.0,41,Motors_Started,,0.0
1100,2026-01-09 20:06:32,720.8955548928,0.328084,0.0,0.10653051522,0.147766737012,14,5,0.0,720.8955548928,0.0,0.0,0.10653051522,0.0,0.0,0.0,345.2,2.8,0.7,0,0,1024,1024,1024,1024,0,0,0,0,0,0,0,97,4.04,4.051,0,0,0,0,0.0,61.88,720.8955548928,0.0,11,AutoTakeoff,,0.0
1200,2026-01-09 20:06:32,720.8955548928,0.328084,0.0,0.10726542338,0.14886483416,14,5,8.091,720.8955548928,0.0,0.0,0.10726542338,0.0,0.0,0.0,345.2,2.8,0.7,0,0,1024,1024,1024,1024,0,0,0,0,0,0,0,97,4.04,4.051,0,0,0,0,1.559,61.88,720.8955548928,0.0,11,AutoTakeoff,,0.0
1300,2026-01-09 20:06:32,720.8955548928,0.328084,0.0,0.101960633184,0.179383864008,14,5,8.091,720.8955548928,0.0,0.0,0.10726542338,0.0,0.0,0.0,345.2,2.8,0.7,0,0,1024,1024,1024,1024,0,0,0,0,0,0,0,97,4.04,4.051,0,0,0,0,1.559,61.88,720.8955548928,0.0,11,AutoTakeoff,SD card speed low. Normal use may be affected. Replace SD card (Code: 10028),0.0
1400,2026-01-09 20:06:32,720.8955548928,0.328084,0.0,0.10954232634,0.1963992845,14,5,8.091,720.8955548928,0.0,0.0,0.10954232634,0.0,0.0,0.0,345.2,2.8,0.7,0,0,1024,1024,1024,1024,0,0,0,0,0,0,0,97,4.04,4.051,0,0,0,0,1.559,61.88,720.8955548928,0.0,11,AutoTakeoff,,0.0
1500,2026-01-09 20:06:32,720.8955548928,0.328084,0.0,0.11042159146,0.20342684378,14,5,8.091,720.8955548928,0.0,0.0,0.11042159146,0.0,0.0,0.0,345.2,2.8,0.6,0,0,1024,1024,1024,1024,0,0,0,0,0,0,0,97,4.04,4.051,0,0,0,0,1.559,61.88,720.8955548928,0.0,11,AutoTakeoff,,0.0
1600,2026-01-09 20:06:32,720.8955548928,0.328084,0.0,0.113189308084,0.210177500164,14,5,8.091,720.8955548928,0.0,0.0,0.113189308084,0.0,0.0,0.0,345.6,2.8,0.6,0,0,1024,1024,1024,1024,0,0,0,0,0,0,0,97,4.04,4.051,0,0,0,0,1.559,61.88,720.8955548928,0.0,11,AutoTakeoff,,0.0
1700,2026-01-09 20:06:32,720.8955548928,0.328084,0.0,0.168303483076,0.266852370744,14,5,8.091,720.8955548928,0.0,0.0,0.168303483076,0.0,0.0,0.0,346.3,2.6,-0.1,0,0,1024,1024,1024,1024,0,0,0,0,0,0,0,97,4.04,4.051,0,0,0,0,1.559,61.88,720.8955548928,0.0,11,AutoTakeoff,,0.0
1800,2026-01-09 20:06:32,720.8955548928,0.328084,0.0,0.18982776198,0.289272647052,14,5,8.091,720.8955548928,0.0,0.0,0.18982776198,0.0,0.0,0.0,346.6,1.4,-1.1,0,0,1024,1024,1024,1024,0,0,0,0,0,0,0,97,4.04,4.051,0,0,0,0,1.559,61.88,720.8955548928,0.0,11,AutoTakeoff,,0.0
1900,2026-01-09 20:06:32,720.8955548928,0.328084,0.0,0.195409126988,0.302873697356,14,5,8.091,720.8955548928,0.0,0.0,0.195409126988,0.0,0.0,-0.223694,346.8,1.4,-1.5,0,0,1024,1024,1024,1085,0,0,0,9,0,0,0,97,4.04,4.051,0,0,0,0,1.559,61.88,720.8955548928,0.0,11,AutoTakeoff,,0.0
2000,2026-01-09 20:06:32,720.8955548928,0.328084,0.0,0.205446856968,0.322094498496,14,5,8.091,720.8955548928,0.0,0.0,0.205446856968,0.0,0.0,-0.671082,346.9,1.2,-0.6,0,0,1024,1024,1024,1085,0,0,0,9,0,0,0,97,4.04,4.051,0,0,0,0,1.559,61.88,720.8955548928,0.0,11,AutoTakeoff,,0.0
2100,2026-01-09 20:06:33,720.8955548928,0.656168,0.0,0.184390097764,0.36496392244,14,5,8.091,720.8955548928,0.0,0.0,0.205446856968,0.0,0.0,-0.894776,346.9,1.0,0.2,0,0,1024,1024,1024,1684,0,0,0,100,0,0,0,97,4.04,4.051,0,0,0,0,1.559,61.88,720.8955548928,0.0,11,AutoTakeoff,,0.0
2200,2026-01-09 20:06:33,721.2236388928,0.656168,0.0,0.199367132364,0.38573163964,14,5,8.091,721.2236388928,0.328084,0.0,0.205446856968,0.0,0.0,-1.11847,347.7,1.2,0.4,0,0,1024,1024,1024,1191,0,0,0,25,0,0,0,97,4.04,4.051,0,0,0,0,1.559,61.88,721.2236388928,0.328084,11,AutoTakeoff,,0.1
2300,2026-01-09 20:06:33,721.2236388928,0.656168,0.0,0.231729666208,0.41953413416,14,5,8.091,721.2236388928,0.328084,0.0,0.231729666208,0.0,0.0,-1.342164,357.4,1.9,-0.4,0,0,1024,1024,1024,1024,0,0,0,0,0,0,0,97,4.04,4.051,0,0,0,0,1.559,61.88,721.2236388928,0.328084,11,AutoTakeoff,Home Point updated. RTH altitude adjusted to 90 m (Code: 120852),0.1
2400,2026-01-09 20:06:33,721.5517228928,0.984252,0.0,0.265912410084,0.45517717992,14,5,8.091,721.5517228928,0.656168,0.0,0.265912410084,0.0,0.0,-1.565858,6.2,0.5,1.2,0,0,1024,1024,1024,1024,0,0,0,0,0,0,0,97,3.884,3.879,0,0,0,0,1.559,61.88,721.5517228928,0.656168,11,AutoTakeoff,,0.2
2500,2026-01-09 20:06:33,721.8798068928,1.312336,0.0,0.314528225288,0.5843504124,14,5,8.091,721.8798068928,0.984252,0.0,0.314528225288,0.0,0.0,-1.789552,5.9,0.6,0.9,0,0,1024,1024,1024,1024,0,0,0,0,0,0,0,97,3.884,3.879,0,0,0,0,1.559,61.88,721.8798068928,0.984252,11,AutoTakeoff,,0.3
2600,2026-01-09 20:06:33,722.2078908928,1.64042,0.0,0.33940617884,0.62052823508,15,5,8.091,722.2078908928,1.312336,0.0,0.33940617884,0.0,0.0,-2.013246,5.9,1.0,0.6,0,0,1024,1024,1219,1024,0,0,30,0,0,0,0,97,3.884,3.879,0,0,0,0,1.559,61.88,722.2078908928,1.312336,11,AutoTakeoff,,0.4
2700,2026-01-09 20:06:33,722.5359748928,1.64042,0.0,0.3847112984,0.67143374852,15,5,8.091,722.5359748928,1.64042,0.0,0.3847112984,0.0,0.0,-2.23694,5.9,1.3,0.6,0,0,1024,1024,1684,1024,0,0,100,0,0,0,0,97,3.884,3.879,0,0,0,0,1.559,61.88,722.5359748928,1.64042,11,AutoTakeoff,,0.5
2800,2026-01-09 20:06:33,722.8640588928,1.968504,0.0,0.42065618144,0.709645692,15,5,8.091,722.8640588928,1.968504,0.0,0.42065618144,0.0,0.0,-2.23694,6.0,1.7,0.3,0,0,1024,1024,1684,1024,0,0,100,0,0,0,0,97,3.884,3.879,0,0,0,0,1.559,61.88,722.8640588928,1.968504,11,AutoTakeoff,,0.6
2900,2026-01-09 20:06:33,723.1921428928,2.296588,0.223694,0.42740815016,0.73658795008,15,5,8.091,723.1921428928,2.296588,0.223694,0.42740815016,0.223694,0.0,-2.23694,6.0,2.2,0.3,0,0,1024,1024,1684,1024,0,0,100,0,0,0,0,97,3.884,3.879,0,0,0,0,1.559,61.88,723.1921428928,2.296588,11,AutoTakeoff,,0.7
3000,2026-01-09 20:06:34,723.5202268928,2.952756,0.0,0.49012140676,0.79961944816,14,5,8.091,723.5202268928,2.624672,0.223694,0.49012140676,0.0,0.0,-2.684328,6.0,2.6,0.5,0,0,1024,1024,1684,1024,0,0,100,0,0,0,0,97,3.884,3.879,0,0,0,0,1.559,61.88,723.5202268928,2.624672,6,P-GPS,,0.8
3100,2026-01-09 20:06:34,724.1763948928,3.28084,0.0,0.45369424024,0.84292653616,14,5,8.091,724.1763948928,3.28084,0.223694,0.49012140676,0.0,0.0,-2.908022,5.9,2.2,0.4,0,0,1024,1024,1684,1024,0,0,100,0,0,0,0,97,3.884,3.879,0,0,0,0,1.559,61.88,724.1763948928,3.28084,6,P-GPS,,1.0
3200,2026-01-09 20:06:34,724.5044788928,3.608924,0.0,0.4134514568,0.89037732508,14,5,8.091,724.5044788928,3.608924,0.223694,0.49012140676,0.0,0.0,-3.35541,6.0,2.2,0.1,0,0,1024,1024,1684,1024,0,0,100,0,0,0,0,97,3.884,3.879,0,0,0,0,1.559,61.88,724.5044788928,3.608924,6,P-GPS,,1.1
3300,2026-01-09 20:06:34,725.1606468928,4.265092,0.0,0.359498043,0.94449150004,14,5,8.091,725.1606468928,4.265092,0.223694,0.49012140676,0.0,0.0,-3.802798,6.0,2.0,0.0,0,0,1024,1024,1684,1024,0,0,100,0,0,0,0,97,3.884,3.879,0,0,0,0,1.559,61.88,725.1606468928,4.265092,6,P-GPS,,1.3
3400,2026-01-09 20:06:34,725.8168148928,4.92126,0.0,0.209566279672,1.10849412996,14,5,8.091,725.8168148928,4.92126,0.223694,0.49012140676,0.0,0.0,-4.250186,5.9,1.9,-0.2,0,0,1024,1024,1684,1024,0,0,100,0,0,0,0,97,3.884,3.879,0,0,0,0,1.559,61.88,725.8168148928,4.92126,6,P-GPS,,1.5
3500,2026-01-09 20:06:34,726.4729828928,5.577428,0.0,0.154193902572,1.16563652024,14,5,7.681,726.4729828928,5.577428,0.223694,0.49012140676,0.0,0.0,-4.250186,5.8,1.8,-0.1,0,0,1024,1024,1684,1024,0,0,100,0,0,0,0,97,3.842,3.838,0,0,0,0,6.719,62.06,726.4729828928,5.577428,6,P-GPS,,1.7
3600,2026-01-09 20:06:34,727.1291508928,6.233596,0.0,0.106431105768,1.21782484212,14,5,7.681,727.1291508928,6.233596,0.223694,0.49012140676,0.0,0.0,-4.47388,5.9,1.7,0.0,0,0,1024,1024,1684,1024,0,0,100,0,0,0,0,97,3.842,3.838,0,0,0,0,6.719,62.06,727.1291508928,6.233596,6,P-GPS,,1.9
3700,2026-01-09 20:06:34,727.7853188928,6.889764,0.0,0.109787405088,1.27482287544,14,5,7.681,727.7853188928,6.889764,0.223694,0.49012140676,0.0,0.0,-4.47388,5.9,1.6,0.0,0,0,1024,1024,1684,1024,0,0,100,0,0,0,0,97,3.842,3.838,0,0,0,0,6.719,62.06,727.7853188928,6.889764,6,P-GPS,,2.1
3800,2026-01-09 20:06:34,728.4414868928,7.545932,0.0,0.197525924956,1.394521042,14,5,7.681,728.4414868928,7.545932,0.223694,0.49012140676,0.0,0.0,-4.47388,5.9,1.6,0.0,0,0,1024,1024,1684,1024,0,0,100,0,0,0,0,97,3.842,3.838,0,0,0,0,6.719,62.06,728.4414868928,7.545932,6,P-GPS,,2.3
3900,2026-01-09 20:06:34,729.0976548928,8.2021,0.0,0.185772971824,1.42515424508,14,5,7.681,729.0976548928,8.2021,0.223694,0.49012140676,0.0,0.0,-4.47388,5.9,1.5,0.0,0,0,1024,1024,1684,1024,0,0,100,0,0,0,0,97,3.842,3.838,0,0,0,0,6.719,62.06,729.0976548928,8.2021,6,P-GPS,,2.5
4000,2026-01-09 20:06:34,729.7538228928,8.858268,0.0,0.174457682748,1.46122708088,14,5,7.681,729.7538228928,8.858268,0.223694,0.49012140676,0.0,0.0,-4.47388,5.9,2.1,0.1,0,0,1024,1024,1684,1024,0,0,100,0,0,0,0,97,3.842,3.838,0,0,0,0,6.719,62.06,729.7538228928,8.858268,6,P-GPS,,2.7
4100,2026-01-09 20:06:35,730.7380748928,9.514436,0.0,0.171303483172,1.53324151888,14,5,7.681,730.7380748928,9.84252,0.223694,0.49012140676,0.0,0.0,-4.47388,5.9,1.9,0.0,0,0,1024,1024,1684,1024,0,0,100,0,0,0,0,97,3.842,3.838,0,0,0,0,6.719,62.06,730.7380748928,9.84252,6,P-GPS,,3.0
4200,2026-01-09 20:06:35,731.3942428928,10.170604,0.223694,0.172969493724,1.6787402112,13,5,7.681,731.3942428928,10.498688,0.223694,0.49012140676,0.223694,0.0,-4.250186,5.9,2.9,0.5,0,0,1024,1024,1684,1024,0,0,100,0,0,0,0,97,3.842,3.838,0,0,0,0,6.719,62.06,731.3942428928,10.498688,6,P-GPS,,3.2
4300,2026-01-09 20:06:35,732.0504108928,10.826772,0.223694,0.273836294852,1.81891738104,13,5,7.681,732.0504108928,11.154856,0.223694,0.49012140676,0.223694,0.0,-4.250186,6.0,3.0,0.7,0,0,1024,1024,1684,1024,0,0,100,0,0,0,0,97,3.842,3.838,0,0,0,0,6.719,62.06,732.0504108928,11.154856,6,P-GPS,,3.4
4400,2026-01-09 20:06:35,732.7065788928,11.154856,0.223694,0.39541011764,1.95520675548,14,5,7.681,732.7065788928,11.811024,0.223694,0.49012140676,0.223694,0.0,-4.250186,6.0,3.8,0.9,0,0,1024,1024,1684,1024,0,0,100,0,0,0,0,97,3.842,3.838,0,0,0,0,6.719,62.06,732.7065788928,11.811024,6,P-GPS,,3.6
4500,2026-01-09 20:06:35,733.3627468928,11.811024,0.223694,0.54304791764,2.11279862404,14,5,7.681,733.3627468928,12.467192,0.223694,0.54304791764,0.223694,0.0,-4.250186,6.0,3.7,0.7,0,0,1024,1024,1684,1024,0,0,100,0,0,0,0,97,3.842,3.838,0,0,0,0,6.719,62.06,733.3627468928,12.467192,6,P-GPS,,3.8
4600,2026-01-09 20:06:35,734.0189148928,12.795276,0.223694,0.67123033644,2.2444882608,14,5,7.743,734.0189148928,13.12336,0.223694,0.67123033644,0.223694,0.0,-4.250186,6.0,3.5,0.5,0,0,1024,1024,1684,1024,0,0,100,0,0,0,0,97,3.874,3.867,0,0,0,0,6.166,62.06,734.0189148928,13.12336,6,P-GPS,,4.0
4700,2026-01-09 20:06:35,734.6750828928,13.451444,0.0,0.90986551468,2.50259850528,14,5,7.743,734.6750828928,13.779528,0.223694,0.90986551468,0.0,0.0,-4.250186,5.9,3.5,0.1,0,0,1024,1024,1684,1024,0,0,100,0,0,0,0,97,3.874,3.867,0,0,0,0,6.166,62.06,734.6750828928,13.779528,6,P-GPS,,4.2
4800,2026-01-09 20:06:35,735.6593348928,14.107612,0.223694,0.93417981992,2.5421096614,14,5,7.743,735.6593348928,14.76378,0.223694,0.93417981992,0.0,0.223694,-4.250186,5.9,3.1,-1.1,0,0,1024,1024,1684,1024,0,0,100,0,0,0,0,97,3.874,3.867,0,0,0,0,6.166,62.06,735.6593348928,14.76378,6,P-GPS,,4.5
4900,2026-01-09 20:06:35,736.3155028928,14.76378,0.223694,0.92605317924,2.59709325896,14,5,7.743,736.3155028928,15.419948,0.223694,0.93417981992,0.0,0.223694,-4.250186,5.8,2.9,-1.3,0,0,1024,1024,1684,1024,0,0,100,0,0,0,0,97,3.874,3.867,0,0,0,0,6.166,62.06,736.3155028928,15.419948,6,P-GPS,,4.7
5000,2026-01-09 20:06:36,736.9716708928,15.419948,0.223694,0.9119586906,2.64777895612,13,5,7.743,736.9716708928,16.076116,0.223694,0.93417981992,0.0,0.223694,-4.47388,5.8,2.6,-1.4,0,0,1024,1024,1684,1024,0,0,100,0,0,0,0,97,3.874,3.867,0,0,0,0,6.166,62.06,736.9716708928,16.076116,6,P-GPS,,4.9
5100,2026-01-09 20:06:36,737.6278388928,16.076116,0.0,0.72628939332,2.96064313936,13,5,7.743,737.6278388928,16.732284,0.223694,0.93417981992,0.0,0.0,-4.47388,5.8,1.8,-2.5,0,0,1024,1024,1684,1024,0,0,100,0,0,0,0,97,3.874,3.867,0,0,0,0,6.166,62.06,737.6278388928,16.732284,6,P-GPS,,5.1
5200,2026-01-09 20:06:36,738.2840068928,16.732284,0.0,0.7042651144,3.02671597612,14,5,7.743,738.2840068928,17.388452,0.223694,0.93417981992,0.0,0.0,-4.47388,5.9,1.9,-2.1,0,0,1024,1024,1684,1024,0,0,100,0,0,0,0,97,3.874,3.867,0,0,0,0,6.166,62.06,738.2840068928,17.388452,6,P-GPS,,5.3
5300,2026-01-09 20:06:36,738.9401748928,17.716536,0.0,0.67837272512,3.08269694904,14,5,7.743,738.9401748928,18.04462,0.223694,0.93417981992,0.0,0.0,-4.47388,5.9,2.0,-1.6,0,0,1024,1024,1684,1024,0,0,100,0,0,0,0,97,3.874,3.867,0,0,0,0,6.166,62.06,738.9401748928,18.04462,6,P-GPS,,5.5
5400,2026-01-09 20:06:36,739.5963428928,18.372704,0.0,0.65522311808,3.1246556118,14,5,7.743,739.5963428928,18.700788,0.223694,0.93417981992,0.0,0.0,-4.47388,5.9,2.3,-1.1,0,0,1024,1024,1684,1024,0,0,100,0,0,0,0,97,3.874,3.867,0,0,0,0,6.166,62.06,739.5963428928,18.700788,6,P-GPS,,5.7
5500,2026-01-09 20:06:36,740.5805948928,19.028872,0.0,0.62488847144,3.15541676764,14,5,7.743,740.5805948928,19.68504,0.223694,0.93417981992,0.0,0.0,-4.47388,5.9,2.4,-0.7,0,0,1024,1024,1684,1024,0,0,100,0,0,0,0,97,3.874,3.867,0,0,0,0,6.166,62.06,740.5805948928,19.68504,6,P-GPS,,6.0
5600,2026-01-09 20:06:36,741.2367628928,20.013124,0.223694,0.6161253478,3.18491480008,14,5,7.743,741.2367628928,20.341208,0.223694,0.93417981992,0.0,-0.223694,-4.47388,5.8,2.9,0.0,0,0,1024,1024,1684,1024,0,0,100,0,0,0,0,97,3.874,3.867,0,0,0,0,6.166,62.06,741.2367628928,20.341208,6,P-GPS,,6.2
5700,2026-01-09 20:06:36,741.8929308928,20.669292,0.223694,0.58472114732,3.2539207078,14,5,7.743,741.8929308928,20.997376,0.223694,0.93417981992,0.0,-0.223694,-4.47388,5.8,2.6,0.2,0,0,1024,1024,1684,1024,0,0,100,0,0,0,0,97,3.873,3.871,0,0,0,0,6.117,62.06,741.8929308928,20.997376,6,P-GPS,,6.4
5800,2026-01-09 20:06:36,742.5490988928,21.653544,0.223694,0.5606299392,3.3201772716,14,5,7.743,742.5490988928,21.653544,0.223694,0.93417981992,0.0,-0.223694,-4.47388,5.7,2.8,0.6,0,0,1024,1024,1684,1024,0,0,100,0,0,0,0,97,3.873,3.871,0,0,0,0,6.117,62.06,742.5490988928,21.653544,6,P-GPS,,6.6
5900,2026-01-09 20:06:36,743.2052668928,22.637796,0.0,0.6164534318,3.5133531308,14,5,7.743,743.2052668928,22.309712,0.223694,0.93417981992,0.0,0.0,-4.47388,5.8,2.9,1.0,0,0,1024,1024,1684,1024,0,0,100,0,0,0,0,97,3.873,3.871,0,0,0,0,6.117,62.06,743.2052668928,22.309712,6,P-GPS,,6.8
6000,2026-01-09 20:06:36,743.8614348928,23.293964,0.0,0.62930120124,3.5629266232,14,5,7.743,743.8614348928,22.96588,0.223694,0.93417981992,0.0,0.0,-4.47388,5.9,2.6,0.5,0,0,1024,1024,1684,1024,0,0,100,0,0,0,0,97,3.873,3.871,0,0,0,0,6.117,62.06,743.8614348928,22.96588,6,P-GPS,,7.0
6100,2026-01-09 20:06:37,744.5176028928,24.278216,0.0,0.60101379876,3.5914371228,14,5,7.743,744.5176028928,23.622048,0.223694,0.93417981992,0.0,0.0,-4.47388,5.9,2.5,0.2,0,0,1024,1024,1684,1024,0,0,100,0,0,0,0,97,3.873,3.871,0,0,0,0,6.117,62.06,744.5176028928,23.622048,6,P-GPS,,7.2
6200,2026-01-09 20:06:37,745.5018548928,25.262468,0.0,0.57527232812,3.6175854176,14,5,7.743,745.5018548928,24.6063,0.223694,0.93417981992,0.0,0.0,-4.47388,5.9,2.7,0.0,0,0,1024,1024,1684,1024,0,0,100,0,0,0,0,97,3.873,3.871,0,0,0,0,6.117,62.06,745.5018548928,24.6063,6,P-GPS,,7.5
6300,2026-01-09 20:06:37,746.1580228928,25.918636,0.0,0.565370753,3.6274935544,14,5,7.743,746.1580228928,25.262468,0.223694,0.93417981992,0.0,0.0,-4.47388,5.9,2.7,-0.1,0,0,1024,1024,1684,1024,0,0,100,0,0,0,0,97,3.873,3.871,0,0,0,0,6.117,62.06,746.1580228928,25.262468,6,P-GPS,,7.7
6400,2026-01-09 20:06:37,746.8141908928,26.574804,0.3131716,0.58177167216,3.65649618,14,5,7.743,746.8141908928,25.918636,0.3131716,0.93417981992,0.223694,-0.223694,-4.47388,5.9,3.7,0.3,0,0,1024,1024,1684,1024,0,0,100,0,0,0,0,97,3.873,3.871,0,0,0,0,6.117,62.06,746.8141908928,25.918636,6,P-GPS,,7.9
6500,2026-01-09 20:06:37,747.4703588928,27.230972,0.223694,0.64056432496,3.7379922456,14,5,7.743,747.4703588928,26.574804,0.3131716,0.93417981992,0.223694,0.0,-4.47388,5.9,3.7,0.5,0,0,1024,1024,1684,1024,0,0,100,0,0,0,0,97,3.873,3.871,0,0,0,0,6.117,62.06,747.4703588928,26.574804,6,P-GPS,,8.1
6600,2026-01-09 20:06:37,748.1265268928,27.559056,0.4921268,0.70409122988,3.8204725632,14,5,7.743,748.1265268928,27.230972,0.4921268,0.93417981992,0.447388,-0.223694,-4.47388,6.0,4.5,1.6,0,0,1024,1024,1684,1024,0,0,100,0,0,0,0,97,3.873,3.871,0,0,0,0,6.117,62.06,748.1265268928,27.230972,6,P-GPS,,8.3
6700,2026-01-09 20:06:37,748.7826948928,31.824148,0.3131716,0.834645696,3.9735565576,14,5,7.743,748.7826948928,27.88714,0.4921268,0.93417981992,0.223694,-0.223694,-4.47388,6.1,4.5,2.2,0,0,1024,1024,1684,1024,0,0,100,0,0,0,0,97,3.873,3.871,0,0,0,0,6.117,62.06,748.7826948928,27.88714,6,P-GPS,,8.5
6800,2026-01-09 20:06:37,749.4388628928,32.480316,0.223694,1.23516080068,4.3929463348,14,5,7.743,749.4388628928,28.543308,0.4921268,1.23516080068,-0.223694,0.0,-4.47388,6.1,4.9,2.5,0,0,1024,1024,1684,1024,0,0,100,0,0,0,0,97,3.873,3.871,0,0,0,0,6.117,62.06,749.4388628928,28.543308,6,P-GPS,,8.7
6900,2026-01-09 20:06:37,750.0950308928,33.136484,0.223694,1.13020344824,4.4979004064,14,5,7.739,750.0950308928,29.199476,0.4921268,1.23516080068,-0.223694,0.0,-4.47388,6.0,3.4,1.3,0,0,1024,1024,1684,1024,0,0,100,0,0,0,0,97,3.869,3.86,0,0,0,0,6.033,62.06,750.0950308928,29.199476,6,P-GPS,,8.9
7000,2026-01-09 20:06:38,750.7511988928,33.792652,0.0,1.03469163416,4.5934384672,14,5,7.739,750.7511988928,29.855644,0.4921268,1.23516080068,0.0,0.0,-4.47388,6.0,3.9,1.4,0,0,1024,1024,1684,1024,0,0,100,0,0,0,0,97,3.869,3.86,0,0,0,0,6.033,62.06,750.7511988928,29.855644,6,P-GPS,,9.1
7100,2026-01-09 20:06:38,751.7354508928,34.44882,0.0,1.06845803944,4.6460303324,14,5,7.739,751.7354508928,30.839896,0.4921268,1.23516080068,0.0,0.0,-4.47388,5.8,3.5,1.2,0,0,1024,1024,1684,1024,0,0,100,0,0,0,0,97,3.869,3.86,0,0,0,0,6.033,62.06,751.7354508928,30.839896,6,P-GPS,,9.4
7200,2026-01-09 20:06:38,752.3916188928,35.104988,0.0,1.16666998484,4.8147639336,14,5,7.739,752.3916188928,31.496064,0.4921268,1.23516080068,0.0,0.0,-4.47388,5.7,3.2,2.3,0,0,1024,1024,1684,1024,0,0,100,0,0,0,0,97,3.869,3.86,0,0,0,0,6.033,62.06,752.3916188928,31.496064,6,P-GPS,,9.6
7300,2026-01-09 20:06:38,753.0477868928,35.761156,0.0,1.18605974924,4.8696851952,14,5,7.739,753.0477868928,32.152232,0.4921268,1.23516080068,0.0,0.0,-4.47388,5.6,2.9,2.3,0,0,1024,1024,1684,1024,0,0,100,0,0,0,0,97,3.869,3.86,0,0,0,0,6.033,62.06,753.0477868928,32.152232,6,P-GPS,,9.8
7400,2026-01-09 20:06:38,753.7039548928,36.417324,0.223694,1.18398625836,4.9106956952,14,5,7.739,753.7039548928,32.8084,0.4921268,1.23516080068,-0.223694,0.0,-4.47388,5.6,2.1,1.4,0,0,1024,1024,1684,1024,0,0,100,0,0,0,0,97,3.869,3.86,0,0,0,0,6.033,62.06,753.7039548928,32.8084,6,P-GPS,,10.0
7500,2026-01-09 20:06:38,754.3601228928,37.073492,0.223694,1.06902562476,5.0299542292,14,5,7.739,754.3601228928,33.464568,0.4921268,1.23516080068,-0.223694,0.0,-4.47388,5.5,1.5,1.3,0,0,1024,1024,1684,1024,0,0,100,0,0,0,0,97,3.869,3.86,0,0,0,0,6.033,62.06,754.3601228928,33.464568,6,P-GPS,,10.2
7600,2026-01-09 20:06:38,755.0162908928,37.72966,0.223694,0.83996721848,5.2836943948,14,5,7.739,755.0162908928,34.120736,0.4921268,1.23516080068,-0.447388,0.223694,-4.47388,5.5,0.3,0.1,0,0,1024,1024,1024,1024,0,0,0,0,0,0,0,97,3.869,3.86,0,0,0,0,6.033,62.06,755.0162908928,34.120736,6,P-GPS,,10.4
7700,2026-01-09 20:06:38,755.6724588928,38.385828,0.4921268,0.66471786904,5.4739831148,14,5,7.739,755.6724588928,34.776904,0.4921268,1.23516080068,-0.447388,0.223694,-4.47388,5.5,-1.4,-0.9,0,0,1024,1024,1024,1024,0,0,0,0,0,0,0,97,3.869,3.86,0,0,0,0,6.033,62.06,755.6724588928,34.776904,6,P-GPS,,10.6
7800,2026-01-09 20:06:38,756.3286268928,39.041996,0.4921268,0.52016733948,5.6390749836,15,5,7.739,756.3286268928,35.433072,0.4921268,1.23516080068,-0.447388,0.223694,-4.026492,5.6,-1.5,-0.9,0,0,1024,1024,1024,1024,0,0,0,0,0,0,0,97,3.869,3.86,0,0,0,0,6.033,62.06,756.3286268928,35.433072,6,P-GPS,,10.8
7900,2026-01-09 20:06:38,756.9847948928,39.37008,0.3131716,0.41237862212,5.776082862,15,5,7.739,756.9847948928,36.08924,0.4921268,1.23516080068,-0.223694,0.223694,-3.579104,5.6,-1.1,-1.1,0,0,1024,1024,1024,1024,0,0,0,0,0,0,0,97,3.869,3.86,0,0,0,0,6.033,62.06,756.9847948928,36.08924,6,P-GPS,,11.0
8000,2026-01-09 20:06:38,757.3128788928,39.37008,0.3131716,0.33619751732,5.8929135744,14,5,7.761,757.3128788928,36.417324,0.4921268,1.23516080068,-0.223694,0.223694,-2.684328,5.6,-0.9,-1.2,0,0,1024,1024,1024,1024,0,0,0,0,0,0,0,97,3.854,3.907,0,0,0,0,5.624,62.06,757.3128788928,36.417324,6,P-GPS,,11.1
8100,2026-01-09 20:06:39,757.6409628928,39.37008,0.223694,0.35041667788,6.2575789404,14,5,7.761,757.6409628928,36.745408,0.4921268,1.23516080068,0.0,0.223694,-2.013246,5.7,-1.0,-1.3,0,0,1024,1024,1024,1024,0,0,0,0,0,0,0,97,3.854,3.907,0,0,0,0,5.624,62.06,757.6409628928,36.745408,6,P-GPS,,11.2
8200,2026-01-09 20:06:39,757.9690468928,39.37008,0.223694,0.38076116704,6.3235566328,14,5,7.761,757.9690468928,37.073492,0.4921268,1.23516080068,0.0,0.223694,-1.11847,5.7,-0.6,-1.5,0,0,1024,1024,1024,1024,0,0,0,0,0,0,0,97,3.854,3.907,0,0,0,0,5.624,62.06,757.9690468928,37.073492,6,P-GPS,,11.3
8300,2026-01-09 20:06:39,757.9690468928,39.37008,0.0,0.4227854466,6.3756891804,14,5,7.761,757.9690468928,37.073492,0.4921268,1.23516080068,0.0,0.0,-0.671082,5.7,-0.3,-1.6,0,0,1024,1024,1024,1024,0,0,0,0,0,0,0,97,3.854,3.907,0,0,0,0,5.624,62.06,757.9690468928,37.073492,6,P-GPS,,11.3
8400,2026-01-09 20:06:39,757.9690468928,39.37008,0.223694,0.45490815104,6.4137469244,14,5,7.761,757.9690468928,37.073492,0.4921268,1.23516080068,0.0,0.223694,-0.223694,5.7,0.1,-1.9,0,0,1024,1024,1024,1024,0,0,0,0,0,0,0,97,3.854,3.907,0,0,0,0,5.624,62.06,757.9690468928,37.073492,6,P-GPS,,11.3
8500,2026-01-09 20:06:39,758.2971308928,39.37008,0.0,0.43515093256,6.4502626736,14,5,7.761,758.2971308928,37.401576,0.4921268,1.23516080068,0.0,0.0,-0.223694,5.7,0.1,-2.0,0,0,1024,1024,1024,1024,0,0,0,0,0,0,0,97,3.854,3.907,0,0,0,0,5.624,62.06,758.2971308928,37.401576,6,P-GPS,,11.4
8600,2026-01-09 20:06:39,758.2971308928,39.37008,0.0,0.43124673296,6.472113068,14,5,7.761,758.2971308928,37.401576,0.4921268,1.23516080068,0.0,0.0,0.0,5.7,0.6,-1.8,0,0,1024,1024,1024,1024,0,0,0,0,0,0,0,97,3.854,3.907,0,0,0,0,5.624,62.06,758.2971308928,37.401576,6,P-GPS,,11.4
8700,2026-01-09 20:06:39,758.2971308928,39.37008,0.0,0.4433071008,6.4881563756,14,5,7.761,758.2971308928,37.401576,0.4921268,1.23516080068,0.0,0.0,0.0,5.8,0.5,-1.2,0,0,1024,1024,1024,1024,0,0,0,0,0,0,0,97,3.854,3.907,0,0,0,0,5.624,62.06,758.2971308928,37.401576,6,P-GPS,,11.4
8800,2026-01-09 20:06:39,758.2971308928,39.37008,0.0,0.45274935832,6.5042324916,14,5,7.761,758.2971308928,37.401576,0.4921268,1.23516080068,0.0,0.0,0.0,5.8,1.0,-1.5,0,0,1024,1024,1024,1024,0,0,0,0,0,0,0,97,3.854,3.907,0,0,0,0,5.624,62.06,758.2971308928,37.401576,6,P-GPS,,11.4
8900,2026-01-09 20:06:39,758.2971308928,39.37008,0.0,0.57602692132,6.7638781692,14,5,7.761,758.2971308928,37.401576,0.4921268,1.23516080068,0.0,0.0,0.0,5.8,1.0,-2.1,0,0,1024,1024,1024,1024,0,0,0,0,0,0,0,97,3.854,3.907,0,0,0,0,5.624,62.06,758.2971308928,37.401576,6,P-GPS,,11.4
9000,2026-01-09 20:06:39,758.2971308928,39.37008,0.0,0.63568571588,6.8488847336,14,5,7.761,758.2971308928,37.401576,0.4921268,1.23516080068,0.0,0.0,0.0,5.7,1.5,-2.2,0,0,1024,1024,1024,1024,0,0,0,0,0,0,0,97,3.854,3.907,0,0,0,0,5.624,62.06,758.2971308928,37.401576,6,P-GPS,,11.4
9100,2026-01-09 20:06:40,758.2971308928,39.37008,0.223694,0.69256563896,6.9205054708,14,5,7.803,758.2971308928,37.401576,0.4921268,1.23516080068,0.223694,0.0,0.0,5.8,1.3,-2.0,0,0,1024,1024,1024,1024,0,0,0,0,0,0,0,97,3.902,3.898,0,0,0,0,4.505,62.06,758.2971308928,37.401576,6,P-GPS,,11.4
9200,2026-01-09 20:06:40,758.2971308928,39.37008,0.223694,0.74536747792,6.9820212208,14,5,7.803,758.2971308928,37.401576,0.4921268,1.23516080068,0.0,0.0,0.0,5.8,1.5,-1.9,0,0,1024,1024,1024,1024,0,0,0,0,0,0,0,97,3.902,3.898,0,0,0,0,4.505,62.06,758.2971308928,37.401576,6,P-GPS,,11.4
9300,2026-01-09 20:06:40,758.2971308928,39.37008,0.223694,0.88235895212,7.1453742444,14,5,7.803,758.2971308928,37.401576,0.4921268,1.23516080068,0.223694,0.0,0.0,5.8,1.3,-2.0,0,0,1024,1024,1024,1024,0,0,0,0,0,0,0,97,3.902,3.898,0,0,0,0,4.505,62.06,758.2971308928,37.401576,6,P-GPS,,11.4
9400,2026-01-09 20:06:40,757.9690468928,39.37008,0.0,0.92007220792,7.18339918,14,5,7.803,758.2971308928,37.401576,0.4921268,1.23516080068,0.0,0.0,0.0,5.8,1.5,-2.1,0,0,1024,1024,1024,1024,0,0,0,0,0,0,0,97,3.902,3.898,0,0,0,0,4.505,62.06,757.9690468928,37.073492,6,P-GPS,,11.3
9500,2026-01-09 20:06:40,757.9690468928,39.37008,0.0,0.97289373192,7.237204956,14,5,7.803,758.2971308928,37.401576,0.4921268,1.23516080068,0.0,0.0,0.0,5.8,1.0,-1.8,0,0,1024,1024,1024,1024,0,0,0,0,0,0,0,97,3.902,3.898,0,0,0,0,4.505,62.06,757.9690468928,37.073492,6,P-GPS,,11.3
9600,2026-01-09 20:06:40,757.9690468928,39.37008,0.0,1.01760501944,7.2835960336,14,5,7.803,758.2971308928,37.401576,0.4921268,1.23516080068,0.0,0.0,0.0,5.8,1.3,-1.6,0,0,1024,1024,1024,1024,0,0,0,0,0,0,0,97,3.902,3.898,0,0,0,0,4.505,62.06,757.9690468928,37.073492,6,P-GPS,,11.3
9700,2026-01-09 20:06:40,757.9690468928,39.37008,0.223694,1.042404889,7.3087928848,14,5,7.803,758.2971308928,37.401576,0.4921268,1.23516080068,0.223694,0.0,0.0,5.9,0.8,-1.2,0,0,1024,1024,1024,1024,0,0,0,0,0,0,0,97,3.902,3.898,0,0,0,0,4.505,62.06,757.9690468928,37.073492,6,P-GPS,,11.3
9800,2026-01-09 20:06:40,757.9690468928,39.37008,0.223694,1.12501972104,7.4036747776,13,5,7.803,758.2971308928,37.401576,0.4921268,1.23516080068,0.223694,0.0,0.0,5.9,1.1,-1.8,0,0,1024,1024,1024,1024,0,0,0,0,0,0,0,97,3.902,3.898,0,0,0,0,4.505,62.06,757.9690468928,37.073492,6,P-GPS,,11.3
9900,2026-01-09 20:06:40,757.9690468928,39.37008,0.223694,1.16179137576,7.446030422,13,5,7.803,758.2971308928,37.401576,0.4921268,1.23516080068,0.223694,0.0,0.0,5.9,1.0,-1.6,0,0,1024,1024,1024,1024,0,0,0,0,0,0,0,97,3.902,3.898,0,0,0,0,4.505,62.06,757.9690468928,37.073492,6,P-GPS,,11.3
10000,2026-01-09 20:06:40,757.9690468928,39.37008,0.223694,1.18680449992,7.4797574572,13,5,7.803,758.2971308928,37.401576,0.4921268,1.23516080068,0.223694,0.0,0.0,5.9,1.3,-1.6,0,0,1024,1024,1024,1024,0,0,0,0,0,0,0,97,3.902,3.898,0,0,0,0,4.505,62.06,757.9690468928,37.073492,6,P-GPS,,11.3
10100,2026-01-09 20:06:41,757.9690468928,39.37008,0.223694,1.167568935,7.5112535212,13,5,7.803,758.2971308928,37.401576,0.4921268,1.23516080068,0.223694,0.0,0.0,6.0,1.4,-1.2,0,0,1024,1024,1024,1024,0,0,0,0,0,0,0,97,3.902,3.898,0,0,0,0,4.505,62.06,757.9690468928,37.073492,6,P-GPS,,11.3
10200,2026-01-09 20:06:41,757.9690468928,39.37008,0.223694,1.13060042988,7.5571196644,14,5,7.783,758.2971308928,37.401576,0.4921268,1.23516080068,0.223694,0.0,0.0,5.9,1.6,-1.8,0,0,1024,1024,1024,1024,0,0,0,0,0,0,0,97,3.894,3.889,0,0,0,0,5.16,62.24,757.9690468928,37.073492,6,P-GPS,,11.3
10300,2026-01-09 20:06:41,757.9690468928,39.37008,0.223694,1.06797247512,7.6326117928,14,5,7.783,758.2971308928,37.401576,0.4921268,1.23516080068,0.223694,0.0,0.0,5.9,1.4,-1.3,0,0,1024,1024,1024,1024,0,0,0,0,0,0,0,97,3.894,3.889,0,0,0,0,5.16,62.24,757.9690468928,37.073492,6,P-GPS,,11.3
10400,2026-01-09 20:06:41,757.9690468928,39.37008,0.223694,1.00435370668,7.7115488032,14,5,7.783,758.2971308928,37.401576,0.4921268,1.23516080068,0.223694,0.0,0.0,5.9,1.8,-0.9,0,0,1024,1024,1024,1024,0,0,0,0,0,0,0,97,3.894,3.889,0,0,0,0,5.16,62.24,757.9690468928,37.073492,6,P-GPS,,11.3
10500,2026-01-09 20:06:41,757.6409628928,39.37008,0.223694,0.9240977986,7.8102364704,14,5,7.783,758.2971308928,37.401576,0.4921268,1.23516080068,0.223694,0.0,0.0,5.9,1.4,-0.8,0,0,1024,1024,1024,1024,0,0,0,0,0,0,0,97,3.894,3.889,0,0,0,0,5.16,62.24,757.6409628928,36.745408,6,P-GPS,,11.2
10600,2026-01-09 20:06:41,757.6409628928,39.37008,0.223694,0.67544949668,8.0852036708,14,5,7.783,758.2971308928,37.401576,0.4921268,1.23516080068,0.223694,0.0,0.0,5.9,2.0,-0.4,0,0,1024,1024,1024,1024,0,0,0,0,0,0,0,97,3.894,3.889,0,0,0,0,5.16,62.24,757.6409628928,36.745408,6,P-GPS,,11.2
10700,2026-01-09 20:06:41,757.6409628928,39.37008,0.223694,0.6173884712,8.17093202,14,5,7.783,758.2971308928,37.401576,0.4921268,1.23516080068,0.223694,0.0,0.0,5.9,1.8,-0.4,0,0,1024,1024,1024,1024,0,0,0,0,0,0,0,97,3.894,3.889,0,0,0,0,5.16,62.24,757.6409628928,36.745408,6,P-GPS,,11.2
10800,2026-01-09 20:06:41,757.6409628928,39.37008,0.3131716,0.5728018556,8.2486223112,14,5,7.783,758.2971308928,37.401576,0.4921268,1.23516080068,0.223694,-0.223694,0.0,5.9,1.9,-0.3,0,0,1024,1024,1024,1024,0,0,0,0,0,0,0,97,3.894,3.889,0,0,0,0,5.16,62.24,757.6409628928,36.745408,6,P-GPS,,11.2
10900,2026-01-09 20:06:41,757.6409628928,39.37008,0.223694,0.56189962428,8.3122377988,14,5,7.783,758.2971308928,37.401576,0.4921268,1.23516080068,0.223694,0.0,0.0,5.9,1.6,-0.2,0,0,1024,1024,1024,1024,0,0,0,0,0,0,0,97,3.894,3.889,0,0,0,0,5.16,62.24,757.6409628928,36.745408,6,P-GPS,,11.2
11000,2026-01-09 20:06:41,757.6409628928,39.37008,0.223694,0.54906825904,8.3935042056,14,5,7.783,758.2971308928,37.401576,0.4921268,1.23516080068,0.0,0.0,0.0,5.9,1.6,-0.2,0,0,1024,1024,1024,1024,0,0,0,0,0,0,0,97,3.894,3.889,0,0,0,0,5.16,62.24,757.6409628928,36.745408,6,P-GPS,,11.2
11100,2026-01-09 20:06:42,757.6409628928,39.37008,0.0,0.56347442748,8.4404858344,14,5,7.783,758.2971308928,37.401576,0.4921268,1.23516080068,0.0,0.0,0.0,5.9,1.3,0.1,0,0,1024,1024,1024,1024,0,0,0,0,0,0,0,97,3.894,3.889,0,0,0,0,5.16,62.24,757.6409628928,36.745408,6,P-GPS,,11.2
11200,2026-01-09 20:06:42,757.6409628928,39.37008,0.0,0.57476051708,8.4833007964,14,5,7.783,758.2971308928,37.401576,0.4921268,1.23516080068,0.0,0.0,0.0,5.9,1.4,0.1,0,0,1024,1024,1024,1024,0,0,0,0,0,0,0,97,3.894,3.889,0,0,0,0,5.16,62.24,757.6409628928,36.745408,6,P-GPS,,11.2
11300,2026-01-09 20:06:42,757.6409628928,39.37008,0.0,0.56506891572,8.5494753392,14,5,7.783,758.2971308928,37.401576,0.4921268,1.23516080068,0.0,0.0,0.0,5.9,1.4,0.1,0,0,1024,1024,1024,1024,0,0,0,0,0,0,0,97,3.905,3.902,0,0,0,0,5.16,62.24,757.6409628928,36.745408,6,P-GPS,SD card speed low. Normal use may be affected. Replace SD card (Code: 10028). Gimbal stuck. Make sure gimbal cover is removed and manually check whether gimbal can rotate freely (Code: 40002),11.2
11400,2026-01-09 20:06:42,757.6409628928,39.37008,0.0,0.56088584472,8.6055448948,14,5,7.783,758.2971308928,37.401576,0.4921268,1.23516080068,0.0,0.0,0.0,5.9,1.5,0.1,0,0,1024,1024,1024,1024,0,0,0,0,0,0,0,97,3.905,3.902,0,0,0,0,5.16,62.24,757.6409628928,36.745408,6,P-GPS,,11.2
11500,2026-01-09 20:06:42,757.3128788928,39.37008,0.0,0.52941602744,8.645177442,14,5,7.783,758.2971308928,37.401576,0.4921268,1.23516080068,0.0,0.0,0.0,5.9,1.1,0.0,0,0,1024,1024,1024,1024,0,0,0,0,0,0,0,97,3.905,3.902,0,0,0,0,5.16,62.24,757.3128788928,36.417324,6,P-GPS,,11.1
11600,2026-01-09 20:06:42,757.3128788928,39.37008,0.0,0.5229987044,8.666995028,14,5,7.783,758.2971308928,37.401576,0.4921268,1.23516080068,0.0,0.0,0.0,6.0,1.5,0.0,0,0,1024,1024,1024,1024,0,0,0,0,0,0,0,97,3.905,3.902,0,0,0,0,5.16,62.24,757.3128788928,36.417324,6,P-GPS,,11.1
11700,2026-01-09 20:06:42,757.3128788928,39.37008,0.0,0.51274279856,8.6848427976,14,5,7.783,758.2971308928,37.401576,0.4921268,1.23516080068,0.0,0.0,0.0,5.9,1.1,-0.2,0,0,1024,1024,1024,1024,0,0,0,0,0,0,0,97,3.905,3.902,0,0,0,0,5.16,62.24,757.3128788928,36.417324,6,P-GPS,,11.1
11800,2026-01-09 20:06:42,757.3128788928,39.37008,0.0,0.50143702392,8.7035107772,14,5,7.783,758.2971308928,37.401576,0.4921268,1.23516080068,0.0,0.0,0.0,6.0,1.5,-0.2,0,0,1024,1024,1024,1024,0,0,0,0,0,0,0,97,3.905,3.902,0,0,0,0,5.16,62.24,757.3128788928,36.417324,6,P-GPS,,11.1
11900,2026-01-09 20:06:42,757.3128788928,39.37008,0.0,0.484087942,8.79511183,14,5,7.783,758.2971308928,37.401576,0.4921268,1.23516080068,0.0,0.0,0.0,5.9,1.3,-0.4,0,0,1024,1024,1024,1024,0,0,0,0,0,0,0,97,3.905,3.902,0,0,0,0,5.16,62.24,757.3128788928,36.417324,6,P-GPS,,11.1
12000,2026-01-09 20:06:42,757.3128788928,39.37008,0.0,0.47359581568,8.805610518,14,5,7.783,758.2971308928,37.401576,0.4921268,1.23516080068,0.0,0.0,0.0,5.9,1.5,-0.5,0,0,1024,1024,1024,1024,0,0,0,0,0,0,0,97,3.905,3.902,0,0,0,0,5.16,62.24,757.3128788928,36.417324,6,P-GPS,,11.1
12100,2026-01-09 20:06:43,757.3128788928,39.37008,0.0,0.46553151096,8.8278546132,14,5,7.783,758.2971308928,37.401576,0.4921268,1.23516080068,0.0,0.0,0.0,5.9,1.3,-0.5,0,0,1024,1024,1024,1024,0,0,0,0,0,0,0,97,3.905,3.902,0,0,0,0,5.16,62.24,757.3128788928,36.417324,6,P-GPS,,11.1
12200,2026-01-09 20:06:43,757.3128788928,39.37008,0.0,0.45816274432,8.8505252176,14,5,7.783,758.2971308928,37.401576,0.4921268,1.23516080068,0.0,0.0,0.0,5.9,1.5,-0.4,0,0,1024,1024,1024,1024,0,0,0,0,0,0,0,97,3.905,3.902,0,0,0,0,5.16,62.24,757.3128788928,36.417324,6,P-GPS,,11.1
12300,2026-01-09 20:06:43,757.3128788928,39.37008,0.0,0.4608595948,8.9146656396,14,5,7.783,758.2971308928,37.401576,0.4921268,1.23516080068,0.0,0.0,0.0,5.9,1.3,-0.4,0,0,1024,1024,1024,1024,0,0,0,0,0,0,0,97,3.905,3.902,0,0,0,0,5.16,62.24,757.3128788928,36.417324,6,P-GPS,,11.1
12400,2026-01-09 20:06:43,757.3128788928,39.37008,0.0,0.45566930592,8.9410107848,14,5,7.808,758.2971308928,37.401576,0.4921268,1.23516080068,0.0,0.0,0.0,6.0,1.4,-0.4,0,0,1024,1024,1024,1024,0,0,0,0,0,0,0,97,3.907,3.902,0,0,0,0,4.911,62.24,757.3128788928,36.417324,6,P-GPS,,11.1
12500,2026-01-09 20:06:43,757.3128788928,39.37008,0.0,0.45301182552,8.9704071112,14,5,7.808,758.2971308928,37.401576,0.4921268,1.23516080068,0.0,0.0,0.0,6.0,1.3,-0.3,0,0,1024,1024,1024,1024,0,0,0,0,0,0,0,97,3.907,3.902,0,0,0,0,4.911,62.24,757.3128788928,36.417324,6,P-GPS,,11.1
12600,2026-01-09 20:06:43,757.3128788928,39.37008,0.0,0.45180119556,8.9989832276,14,5,7.808,758.2971308928,37.401576,0.4921268,1.23516080068,0.0,0.0,0.0,6.0,1.5,-0.4,0,0,1024,1024,1024,1024,0,0,0,0,0,0,0,97,3.907,3.902,0,0,0,0,4.911,62.24,757.3128788928,36.417324,6,P-GPS,,11.1
12700,2026-01-09 20:06:43,757.3128788928,39.37008,0.0,0.46827101236,9.0484911032,14,5,7.808,758.2971308928,37.401576,0.4921268,1.23516080068,0.0,0.0,0.0,6.0,1.4,-0.3,0,0,1024,1024,1024,1024,0,0,0,0,0,0,0,97,3.907,3.902,0,0,0,0,4.911,62.24,757.3128788928,36.417324,6,P-GPS,,11.1
12800,2026-01-09 20:06:43,757.3128788928,39.37008,0.0,0.47159122244,9.0724084268,14,5,7.808,758.2971308928,37.401576,0.4921268,1.23516080068,0.0,0.0,0.0,6.0,1.5,-0.4,0,0,1024,1024,1024,1024,0,0,0,0,0,0,0,97,3.907,3.902,0,0,0,0,4.911,62.24,757.3128788928,36.417324,6,P-GPS,,11.1
12900,2026-01-09 20:06:43,757.3128788928,39.37008,0.0,0.47149279724,9.0740160384,14,5,7.808,758.2971308928,37.401576,0.4921268,1.23516080068,0.0,0.0,0.0,5.9,1.4,-0.4,0,0,1024,1024,1024,1024,0,0,0,0,0,0,0,97,3.907,3.902,0,0,0,0,4.911,62.24,757.3128788928,36.417324,6,P-GPS,,11.1
13000,2026-01-09 20:06:44,757.3128788928,39.37008,0.0,0.47161090748,9.0763782432,14,5,7.808,758.2971308928,37.401576,0.4921268,1.23516080068,0.0,0.0,0.0,5.9,1.6,-0.4,0,0,1024,1024,1024,1024,0,0,0,0,0,0,0,97,3.907,3.902,0,0,0,0,4.911,62.24,757.3128788928,36.417324,6,P-GPS,,11.1
13100,2026-01-09 20:06:44,757.3128788928,39.37008,0.0,0.47576773176,9.09202785,14,5,7.808,758.2971308928,37.401576,0.4921268,1.23516080068,0.0,0.0,0.0,5.9,1.4,-0.4,0,0,1024,1024,1024,1024,0,0,0,0,0,0,0,97,3.907,3.902,0,0,0,0,4.911,62.24,757.3128788928,36.417324,6,P-GPS,,11.1
13200,2026-01-09 20:06:44,757.3128788928,39.37008,0.0,0.48140093404,9.1155186644,14,5,7.808,758.2971308928,37.401576,0.4921268,1.23516080068,0.0,0.0,0.0,5.9,1.4,-0.5,0,0,1024,1024,1024,1024,0,0,0,0,0,0,0,97,3.907,3.902,0,0,0,0,4.911,62.24,757.3128788928,36.417324,6,P-GPS,,11.1
13300,2026-01-09 20:06:44,757.3128788928,39.37008,0.0,0.48383203648,9.1182417616,14,5,7.808,758.2971308928,37.401576,0.4921268,1.23516080068,0.0,0.0,0.0,5.9,1.3,-0.4,0,0,1024,1024,1024,1024,0,0,0,0,0,0,0,97,3.907,3.902,0,0,0,0,4.911,62.24,757.3128788928,36.417324,6,P-GPS,,11.1
13400,2026-01-09 20:06:44,757.3128788928,39.37008,0.0,0.48483925436,9.1207680084,14,5,7.808,758.2971308928,37.401576,0.4921268,1.23516080068,0.0,0.0,0.0,5.9,1.5,-0.5,0,0,1024,1024,1024,1024,0,0,0,0,0,0,0,97,3.907,3.902,0,0,0,0,4.911,62.24,757.3128788928,36.417324,6,P-GPS,,11.1
13500,2026-01-09 20:06:44,757.3128788928,39.37008,0.0,0.47434056636,9.1362207648,14,5,7.801,758.2971308928,37.401576,0.4921268,1.23516080068,0.0,0.0,0.0,5.9,1.4,-0.4,0,0,1024,1024,1024,1024,0,0,0,0,0,0,0,97,3.903,3.898,0,0,0,0,4.806,62.42,757.3128788928,36.417324,6,P-GPS,,11.1
13600,2026-01-09 20:06:44,757.3128788928,39.37008,0.0,0.44521654968,9.2082352028,14,5,7.801,758.2971308928,37.401576,0.4921268,1.23516080068,0.0,0.0,0.0,5.9,1.6,-0.5,0,0,1024,1024,1024,1024,0,0,0,0,0,0,0,97,3.903,3.898,0,0,0,0,4.806,62.42,757.3128788928,36.417324,6,P-GPS,,11.1
13700,2026-01-09 20:06:44,757.3128788928,39.37008,0.0,0.4345636622,9.2230645996,14,5,7.801,758.2971308928,37.401576,0.4921268,1.23516080068,0.0,0.0,0.0,5.9,1.5,-0.4,0,0,1024,1024,1024,1024,0,0,0,0,0,0,0,97,3.903,3.898,0,0,0,0,4.806,62.42,757.3128788928,36.417324,6,P-GPS,,11.1
13800,2026-01-09 20:06:44,757.3128788928,39.37008,0.0,0.42524279576,9.237861188,14,5,7.801,758.2971308928,37.401576,0.4921268,1.23516080068,0.0,0.0,0.0,5.9,1.7,-0.4,0,0,1024,1024,1024,1024,0,0,0,0,0,0,0,97,3.903,3.898,0,0,0,0,4.806,62.42,757.3128788928,36.417324,6,P-GPS,,11.1
13900,2026-01-09 20:06:44,757.3128788928,39.37008,0.0,0.41777888476,9.2579071204,14,5,7.801,758.2971308928,37.401576,0.4921268,1.23516080068,0.0,0.0,0.0,5.9,1.6,-0.3,0,0,1024,1024,1024,1024,0,0,0,0,0,0,0,97,3.903,3.898,0,0,0,0,4.806,62.42,757.3128788928,36.417324,6,P-GPS,,11.1
14000,2026-01-09 20:06:44,757.3128788928,39.37008,0.0,0.3886647106,9.3116472796,14,5,7.801,758.2971308928,37.401576,0.4921268,1.23516080068,0.0,0.0,0.0,5.9,1.8,-0.4,0,0,1024,1024,1024,1024,0,0,0,0,0,0,0,97,3.903,3.898,0,0,0,0,4.806,62.42,757.3128788928,36.417324,6,P-GPS,,11.1
14100,2026-01-09 20:06:45,757.3128788928,39.37008,0.0,0.39462599688,9.3176512168,14,5,7.801,758.2971308928,37.401576,0.4921268,1.23516080068,0.0,0.0,0.0,5.9,1.7,-0.4,0,0,1024,1024,1024,1024,0,0,0,0,0,0,0,97,3.903,3.898,0,0,0,0,4.806,62.42,757.3128788928,36.417324,6,P-GPS,,11.1
14200,2026-01-09 20:06:45,757.3128788928,39.37008,0.0,0.40239830684,9.325459616,14,5,7.801,758.2971308928,37.401576,0.4921268,1.23516080068,0.0,0.0,0.0,5.9,1.8,-0.4,0,0,1024,1024,1024,1024,0,0,0,0,0,0,0,97,3.903,3.898,0,0,0,0,4.806,62.42,757.3128788928,36.417324,6,P-GPS,,11.1
14300,2026-01-09 20:06:45,757.3128788928,39.37008,0.0,0.41750001336,9.344980614,14,5,7.801,758.2971308928,37.401576,0.4921268,1.23516080068,0.0,0.0,0.0,5.9,1.7,-0.3,0,0,1024,1024,1024,1024,0,0,0,0,0,0,0,97,3.903,3.898,0,0,0,0,4.806,62.42,757.3128788928,36.417324,6,P-GPS,,11.1
14400,2026-01-09 20:06:45,757.3128788928,39.37008,0.0,0.45409450272,9.385334946,14,5,7.801,758.2971308928,37.401576,0.4921268,1.23516080068,0.0,0.0,0.0,5.9,1.7,-0.4,0,0,1024,1024,1024,1024,0,0,0,0,0,0,0,97,3.903,3.898,0,0,0,0,4.806,62.42,757.3128788928,36.417324,6,P-GPS,,11.1
14500,2026-01-09 20:06:45,757.3128788928,39.37008,0.0,0.46465552668,9.3972115868,14,5,7.801,758.2971308928,37.401576,0.4921268,1.23516080068,0.0,0.0,0.0,5.9,1.7,-0.3,0,0,1024,1024,1024,1024,0,0,0,0,0,0,0,97,3.903,3.898,0,0,0,0,4.806,62.42,757.3128788928,36.417324,6,P-GPS,,11.1
14600,2026-01-09 20:06:45,757.3128788928,39.37008,0.0,0.47516077636,9.409777204,14,5,7.801,758.2971308928,37.401576,0.4921268,1.23516080068,0.0,0.0,0.0,5.9,1.8,-0.3,0,0,1024,1024,1024,1024,0,0,0,0,0,0,0,97,3.903,3.898,0,0,0,0,4.806,62.42,757.3128788928,36.417324,6,P-GPS,,11.1
14700,2026-01-09 20:06:45,757.3128788928,39.37008,0.0,0.48256563224,9.4232614564,14,5,7.797,758.2971308928,37.401576,0.4921268,1.23516080068,0.0,0.0,0.0,5.9,1.7,-0.3,0,0,1024,1024,1024,1024,0,0,0,0,0,0,0,97,3.9,3.898,0,0,0,0,4.812,62.42,757.3128788928,36.417324,6,P-GPS,,11.1
14800,2026-01-09 20:06:45,757.3128788928,39.37008,0.0,0.49134516008,9.4374346852,14,5,7.797,758.2971308928,37.401576,0.4921268,1.23516080068,0.0,0.0,0.0,5.9,1.6,-0.2,0,0,1024,1024,1024,1024,0,0,0,0,0,0,0,97,3.9,3.898,0,0,0,0,4.812,62.42,757.3128788928,36.417324,6,P-GPS,,11.1
14900,2026-01-09 20:06:45,757.3128788928,39.37008,0.0,0.50921261472,9.4685698568,14,5,7.797,758.2971308928,37.401576,0.4921268,1.23516080068,0.0,0.0,0.0,5.9,1.3,-0.2,0,0,1024,1024,1024,1024,0,0,0,0,0,0,0,97,3.9,3.898,0,0,0,0,4.812,62.42,757.3128788928,36.417324,6,P-GPS,,11.1
15000,2026-01-09 20:06:46,757.3128788928,39.37008,0.0,0.52725395388,9.4873362616,14,5,7.797,758.2971308928,37.401576,0.4921268,1.23516080068,0.0,0.0,0.0,5.9,1.4,-0.2,0,0,1024,1024,1024,1024,0,0,0,0,0,0,0,97,3.9,3.898,0,0,0,0,4.812,62.42,757.3128788928,36.417324,6,P-GPS,,11.1
15100,2026-01-09 20:06:46,757.3128788928,39.37008,0.0,0.5539370256,9.5175199896,14,5,7.797,758.2971308928,37.401576,0.4921268,1.23516080068,0.0,0.0,0.0,5.9,1.3,-0.2,0,0,1024,1024,1024,1024,0,0,0,0,0,0,0,97,3.9,3.898,0,0,0,0,4.812,62.42,757.3128788928,36.417324,6,P-GPS,,11.1
15200,2026-01-09 20:06:46,757.3128788928,39.37008,0.0,0.5768044804,9.5427496492,14,5,7.797,758.2971308928,37.401576,0.4921268,1.23516080068,0.0,0.0,0.0,5.9,1.5,-0.2,0,0,1024,1024,1024,1024,0,0,0,0,0,0,0,97,3.9,3.898,0,0,0,0,4.812,62.42,757.3128788928,36.417324,6,P-GPS,,11.1
15300,2026-01-09 20:06:46,757.3128788928,39.37008,0.0,0.55243112004,9.5871394144,14,5,7.797,758.2971308928,37.401576,0.4921268,1.23516080068,0.0,0.0,0.0,5.9,1.8,0.0,0,0,1024,1024,1024,1024,0,0,0,0,0,0,0,97,3.9,3.898,0,0,0,0,4.812,62.42,757.3128788928,36.417324,6,P-GPS,,11.1
15400,2026-01-09 20:06:46,757.3128788928,39.37008,0.0,0.548556448,9.5980646116,14,5,7.797,758.2971308928,37.401576,0.4921268,1.23516080068,0.0,0.0,0.0,5.9,1.7,-0.1,0,0,1024,1024,1024,1024,0,0,0,0,0,0,0,97,3.9,3.898,0,0,0,0,4.812,62.42,757.3128788928,36.417324,6,P-GPS,,11.1
15500,2026-01-09 20:06:46,757.3128788928,39.37008,0.0,0.55337600196,9.607775898,14,5,7.797,758.2971308928,37.401576,0.4921268,1.23516080068,0.0,0.0,0.0,6.0,1.5,-0.1,0,0,1024,1024,1024,1024,0,0,0,0,0,0,0,97,3.9,3.898,0,0,0,0,4.812,62.42,757.3128788928,36.417324,6,P-GPS,,11.1
15600,2026-01-09 20:06:46,757.3128788928,39.37008,0.0,0.55808072652,9.616470124,14,5,7.797,758.2971308928,37.401576,0.4921268,1.23516080068,0.0,0.0,0.0,6.0,1.6,-0.1,0,0,1024,1024,1024,1024,0,0,0,0,0,0,0,97,3.9,3.898,0,0,0,0,4.812,62.42,757.3128788928,36.417324,6,P-GPS,,11.1
15700,2026-01-09 20:06:46,757.6409628928,39.37008,0.0,0.56587600236,9.6493441408,14,5,7.797,758.2971308928,37.401576,0.4921268,1.23516080068,0.0,0.0,0.0,6.0,1.5,0.0,0,0,1024,1024,1024,1024,0,0,0,0,0,0,0,97,3.9,3.898,0,0,0,0,4.812,62.42,757.6409628928,36.745408,6,P-GPS,,11.2
15800,2026-01-09 20:06:46,757.6409628928,39.37008,0.0,0.57333335168,9.6568572644,14,5,7.795,758.2971308928,37.401576,0.4921268,1.23516080068,0.0,0.0,0.0,6.0,1.6,-0.2,0,0,1024,1024,1024,1024,0,0,0,0,0,0,0,97,3.898,3.896,0,0,0,0,4.829,62.6,757.6409628928,36.745408,6,P-GPS,,11.2
15900,2026-01-09 20:06:46,757.6409628928,39.37008,0.0,0.57091865344,9.663550178,14,5,7.795,758.2971308928,37.401576,0.4921268,1.23516080068,0.0,0.0,0.0,6.0,1.6,-0.2,0,0,1024,1024,1024,1024,0,0,0,0,0,0,0,97,3.898,3.896,0,0,0,0,4.829,62.6,757.6409628928,36.745408,6,P-GPS,,11.2
16000,2026-01-09 20:06:47,757.6409628928,39.37008,0.0,0.56796917828,9.6710633016,14,5,7.795,758.2971308928,37.401576,0.4921268,1.23516080068,0.0,0.0,0.0,6.0,1.7,-0.3,0,0,1024,1024,1024,1024,0,0,0,0,0,0,0,97,3.898,3.896,0,0,0,0,4.829,62.6,757.6409628928,36.745408,6,P-GPS,,11.2
16100,2026-01-09 20:06:47,757.6409628928,39.37008,0.0,0.53869424296,9.701607922,14,5,7.795,758.2971308928,37.401576,0.4921268,1.23516080068,0.0,0.0,0.0,6.0,1.5,-0.3,0,0,1024,1024,1024,1024,0,0,0,0,0,0,0,97,3.898,3.896,0,0,0,0,4.829,62.6,757.6409628928,36.745408,6,P-GPS,,11.2
16200,2026-01-09 20:06:47,757.6409628928,39.37008,0.0,0.53392718244,9.7102037228,14,5,7.795,758.2971308928,37.401576,0.4921268,1.23516080068,0.0,0.0,0.0,6.0,1.6,-0.3,0,0,1024,1024,1024,1024,0,0,0,0,0,0,0,97,3.898,3.896,0,0,0,0,4.829,62.6,757.6409628928,36.745408,6,P-GPS,,11.2
16300,2026-01-09 20:06:47,757.6409628928,39.37008,0.0,0.53043308784,9.7168310196,14,5,7.795,758.2971308928,37.401576,0.4921268,1.23516080068,0.0,0.0,0.0,6.0,1.5,-0.3,0,0,1024,1024,1024,1024,0,0,0,0,0,0,0,97,3.898,3.896,0,0,0,0,4.829,62.6,757.6409628928,36.745408,6,P-GPS,,11.2
16400,2026-01-09 20:06:47,757.6409628928,39.37008,0.0,0.52724083052,9.7232286576,14,5,7.795,758.2971308928,37.401576,0.4921268,1.23516080068,0.0,0.0,0.0,6.0,1.6,-0.4,0,0,1024,1024,1024,1024,0,0,0,0,0,0,0,97,3.898,3.896,0,0,0,0,4.829,62.6,757.6409628928,36.745408,6,P-GPS,,11.2
16500,2026-01-09 20:06:47,757.6409628928,39.37008,0.0,0.52681432132,9.7271328572,14,5,7.795,758.2971308928,37.401576,0.4921268,1.23516080068,0.0,0.0,0.0,6.0,1.5,-0.3,0,0,1024,1024,1024,1024,0,0,0,0,0,0,0,97,3.898,3.896,0,0,0,0,4.829,62.6,757.6409628928,36.745408,6,P-GPS,,11.2
16600,2026-01-09 20:06:47,757.6409628928,39.37008,0.0,0.51602035772,9.7400265584,14,5,7.795,758.2971308928,37.401576,0.4921268,1.23516080068,0.0,0.0,0.0,6.0,1.7,-0.3,0,0,1024,1024,1024,1024,0,0,0,0,0,0,0,97,3.898,3.896,0,0,0,0,4.829,62.6,757.6409628928,36.745408,6,P-GPS,,11.2
16700,2026-01-09 20:06:47,757.6409628928,39.37008,0.0,0.50424542296,9.7543966376,14,5,7.795,758.2971308928,37.401576,0.4921268,1.23516080068,0.0,0.0,0.0,6.0,1.5,-0.3,0,0,1024,1024,1024,1024,0,0,0,0,0,0,0,97,3.898,3.896,0,0,0,0,4.829,62.6,757.6409628928,36.745408,6,P-GPS,,11.2
16800,2026-01-09 20:06:47,757.6409628928,39.37008,0.0,0.49331694492,9.7667982128,14,5,7.795,758.2971308928,37.401576,0.4921268,1.23516080068,0.0,0.0,0.0,6.0,1.5,-0.3,0,0,1024,1024,1024,1024,0,0,0,0,0,0,0,97,3.898,3.896,0,0,0,0,4.829,62.6,757.6409628928,36.745408,6,P-GPS,,11.2
16900,2026-01-09 20:06:47,757.6409628928,39.37008,0.0,0.4822998842,9.7850396832,14,5,7.796,758.2971308928,37.401576,0.4921268,1.23516080068,0.0,0.0,0.0,6.0,1.4,-0.2,0,0,1024,1024,1024,1024,0,0,0,0,0,0,0,97,3.899,3.896,0,0,0,0,4.784,62.6,757.6409628928,36.745408,6,P-GPS,,11.2
17000,2026-01-09 20:06:47,757.6409628928,39.37008,0.0,0.445784135,9.8440291864,14,5,7.796,758.2971308928,37.401576,0.4921268,1.23516080068,0.0,0.0,0.0,6.0,1.6,-0.2,0,0,1024,1024,1024,1024,0,0,0,0,0,0,0,97,3.899,3.896,0,0,0,0,4.784,62.6,757.6409628928,36.745408,6,P-GPS,,11.2
17100,2026-01-09 20:06:48,757.6409628928,39.37008,0.0,0.42895998748,9.8609583208,14,5,7.796,758.2971308928,37.401576,0.4921268,1.23516080068,0.0,0.0,0.0,6.0,1.5,-0.2,0,0,1024,1024,1024,1024,0,0,0,0,0,0,0,97,3.899,3.896,0,0,0,0,4.784,62.6,757.6409628928,36.745408,6,P-GPS,,11.2
17200,2026-01-09 20:06:48,757.6409628928,39.37008,0.0,0.41111877956,9.8790685576,14,5,7.796,758.2971308928,37.401576,0.4921268,1.23516080068,0.0,0.0,0.0,6.0,1.7,-0.3,0,0,1024,1024,1024,1024,0,0,0,0,0,0,0,97,3.899,3.896,0,0,0,0,4.784,62.6,757.6409628928,36.745408,6,P-GPS,,11.2
17300,2026-01-09 20:06:48,757.6409628928,39.37008,0.0,0.38547573412,9.9085961176,14,5,7.796,758.2971308928,37.401576,0.4921268,1.23516080068,0.0,0.0,0.0,5.9,1.3,-0.5,0,0,1024,1024,1024,1024,0,0,0,0,0,0,0,97,3.899,3.896,0,0,0,0,4.784,62.6,757.6409628928,36.745408,6,P-GPS,,11.2
17400,2026-01-09 20:06:48,757.6409628928,39.37008,0.0,0.33509515508,9.9736879832,14,5,7.796,758.2971308928,37.401576,0.4921268,1.23516080068,0.0,0.0,0.0,6.0,1.8,-0.4,0,0,1024,1024,1024,1024,0,0,0,0,0,0,0,97,3.899,3.896,0,0,0,0,4.784,62.6,757.6409628928,36.745408,6,P-GPS,,11.2
17500,2026-01-09 20:06:48,757.6409628928,39.37008,0.0,0.328010509184,9.9828743352,14,5,7.796,758.2971308928,37.401576,0.4921268,1.23516080068,0.0,0.0,0.0,6.0,1.8,-0.6,0,0,1024,1024,1024,1024,0,0,0,0,0,0,0,97,3.899,3.896,0,0,0,0,4.784,62.6,757.6409628928,36.745408,6,P-GPS,,11.2
17600,2026-01-09 20:06:48,757.6409628928,39.37008,0.0,0.32143045648,9.9919294536,15,5,7.796,758.2971308928,37.401576,0.4921268,1.23516080068,0.0,0.0,0.0,6.0,1.9,-0.6,0,0,1024,1024,1024,1024,0,0,0,0,0,0,0,97,3.899,3.896,0,0,0,0,4.784,62.6,757.6409628928,36.745408,6,P-GPS,,11.2
17700,2026-01-09 20:06:48,757.6409628928,39.37008,0.0,0.308427175224,10.011975386,15,5,7.796,758.2971308928,37.401576,0.4921268,1.23516080068,0.0,0.0,0.0,6.0,1.9,-0.6,0,0,1024,1024,1024,1024,0,0,0,0,0,0,0,97,3.899,3.896,0,0,0,0,4.784,62.6,757.6409628928,36.745408,6,P-GPS,,11.2
17800,2026-01-09 20:06:48,757.6409628928,39.37008,0.0,0.306936033444,10.0344819484,15,5,7.796,758.2971308928,37.401576,0.4921268,1.23516080068,0.0,0.0,0.0,6.0,1.9,-0.7,0,0,1024,1024,1024,1024,0,0,0,0,0,0,0,97,3.899,3.896,0,0,0,0,4.784,62.6,757.6409628928,36.745408,6,P-GPS,,11.2
17900,2026-01-09 20:06:48,757.6409628928,39.37008,0.0,0.285280192856,10.080052816,15,5,7.796,758.2971308928,37.401576,0.4921268,1.23516080068,0.0,0.0,0.0,6.0,1.8,-0.8,0,0,1024,1024,1024,1024,0,0,0,0,0,0,0,97,3.899,3.896,0,0,0,0,4.784,62.6,757.6409628928,36.745408,6,P-GPS,,11.2
18000,2026-01-09 20:06:49,757.6409628928,39.37008,0.0,0.273400271216,10.1219819512,14,5,7.795,758.2971308928,37.401576,0.4921268,1.23516080068,0.0,0.0,0.0,6.0,2.1,-0.7,0,0,1024,1024,1024,1024,0,0,0,0,0,0,0,97,3.898,3.897,0,0,0,0,4.802,62.6,757.6409628928,36.745408,6,P-GPS,,11.2
18100,2026-01-09 20:06:49,757.6409628928,39.37008,0.0,0.273955389344,10.1500003248,14,5,7.795,758.2971308928,37.401576,0.4921268,1.23516080068,0.0,0.0,0.0,6.0,2.1,-0.5,0,0,1024,1024,1024,1024,0,0,0,0,0,0,0,97,3.898,3.897,0,0,0,0,4.802,62.6,757.6409628928,36.745408,6,P-GPS,,11.2
18200,2026-01-09 20:06:49,757.6409628928,39.37008,0.0,0.278517725448,10.1751643676,14,5,7.795,758.2971308928,37.401576,0.4921268,1.23516080068,0.0,0.0,0.0,6.0,2.3,-0.4,0,0,1024,1024,1024,1024,0,0,0,0,0,0,0,97,3.898,3.897,0,0,0,0,4.802,62.6,757.6409628928,36.745408,6,P-GPS,,11.2
18300,2026-01-09 20:06:49,757.6409628928,39.37008,0.0,0.2976952195,10.2406171256,14,5,7.795,758.2971308928,37.401576,0.4921268,1.23516080068,0.0,0.0,0.0,6.0,2.4,-0.1,0,0,1024,1024,1024,1024,0,0,0,0,0,0,0,97,3.898,3.897,0,0,0,0,4.802,62.6,757.6409628928,36.745408,6,P-GPS,,11.2
18400,2026-01-09 20:06:49,757.6409628928,39.37008,0.0,0.30823983926,10.257218176,15,5,7.795,758.2971308928,37.401576,0.4921268,1.23516080068,0.0,0.0,0.0,6.0,2.5,-0.1,0,0,1024,1024,1024,1024,0,0,0,0,0,0,0,97,3.898,3.897,0,0,0,0,4.802,62.6,757.6409628928,36.745408,6,P-GPS,,11.2
18500,2026-01-09 20:06:49,757.6409628928,39.37008,0.0,0.33450132304,10.2884517728,15,5,7.795,758.2971308928,37.401576,0.4921268,1.23516080068,0.0,0.0,0.0,6.0,2.3,0.0,0,0,1024,1024,1024,1024,0,0,0,0,0,0,0,97,3.898,3.897,0,0,0,0,4.802,62.6,757.6409628928,36.745408,6,P-GPS,,11.2
18600,2026-01-09 20:06:49,757.6409628928,39.37008,0.0,0.35618111376,10.3143704088,15,5,7.795,758.2971308928,37.401576,0.4921268,1.23516080068,0.0,0.0,0.0,6.0,2.3,0.0,0,0,1024,1024,1024,1024,0,0,0,0,0,0,0,97,3.898,3.897,0,0,0,0,4.802,62.6,757.6409628928,36.745408,6,P-GPS,,11.2
18700,2026-01-09 20:06:49,757.6409628928,39.37008,0.0,0.37117455256,10.343996394,15,5,7.795,758.2971308928,37.401576,0.4921268,1.23516080068,0.0,0.0,0.0,6.0,2.4,-0.3,0,0,1024,1024,1024,1024,0,0,0,0,0,0,0,97,3.898,3.897,0,0,0,0,4.802,62.6,757.6409628928,36.745408,6,P-GPS,,11.2
18800,2026-01-09 20:06:49,757.9690468928,39.37008,0.0,0.3708661536,10.3571853708,15,5,7.795,758.2971308928,37.401576,0.4921268,1.23516080068,0.0,0.0,0.0,6.0,2.5,-0.7,0,0,1024,1024,1024,1024,0,0,0,0,0,0,0,97,3.898,3.897,0,0,0,0,4.802,62.6,757.9690468928,37.073492,6,P-GPS,,11.3
18900,2026-01-09 20:06:49,757.9690468928,39.37008,0.0,0.37674213804,10.3647641112,15,5,7.795,758.2971308928,37.401576,0.4921268,1.23516080068,0.0,0.0,0.0,6.0,2.0,-0.5,0,0,1024,1024,1024,1024,0,0,0,0,0,0,0,97,3.898,3.897,0,0,0,0,4.802,62.6,757.9690468928,37.073492,6,P-GPS,,11.3
19000,2026-01-09 20:06:49,757.9690468928,39.37008,0.0,0.3798884636,10.3735567624,15,5,7.795,758.2971308928,37.401576,0.4921268,1.23516080068,0.0,0.0,0.0,6.0,1.7,-0.5,0,0,1024,1024,1024,1024,0,0,0,0,0,0,0,97,3.898,3.897,0,0,0,0,4.802,62.6,757.9690468928,37.073492,6,P-GPS,,11.3
19100,2026-01-09 20:06:50,757.9690468928,39.37008,0.0,0.3681266522,10.4369097828,15,5,7.794,758.2971308928,37.401576,0.4921268,1.23516080068,0.0,0.0,0.0,5.9,1.7,0.0,0,0,1024,1024,1024,1024,0,0,0,0,0,0,0,96,3.897,3.894,0,0,0,0,4.828,62.78,757.9690468928,37.073492,6,P-GPS,,11.3
19200,2026-01-09 20:06:50,757.9690468928,39.37008,0.0,0.36584974924,10.4489504656,15,5,7.794,758.2971308928,37.401576,0.4921268,1.23516080068,0.0,0.0,0.0,5.9,1.8,0.1,0,0,1024,1024,1024,1024,0,0,0,0,0,0,0,96,3.897,3.894,0,0,0,0,4.828,62.78,757.9690468928,37.073492,6,P-GPS,,11.3
19300,2026-01-09 20:06:50,757.9690468928,39.37008,0.0,0.37393045816,10.4577759252,15,5,7.794,758.2971308928,37.401576,0.4921268,1.23516080068,0.0,0.0,0.0,5.9,2.0,0.2,0,0,1024,1024,1024,1024,0,0,0,0,0,0,0,96,3.897,3.894,0,0,0,0,4.828,62.78,757.9690468928,37.073492,6,P-GPS,,11.3
19400,2026-01-09 20:06:50,757.9690468928,39.37008,0.0,0.3814960752,10.4661748756,15,5,7.794,758.2971308928,37.401576,0.4921268,1.23516080068,0.0,0.0,0.0,5.9,2.2,0.2,0,0,1024,1024,1024,1024,0,0,0,0,0,0,0,96,3.897,3.894,0,0,0,0,4.828,62.78,757.9690468928,37.073492,6,P-GPS,,11.3
19500,2026-01-09 20:06:50,757.9690468928,39.37008,0.0,0.41748360916,10.5033139844,15,5,7.794,758.2971308928,37.401576,0.4921268,1.23516080068,0.0,0.0,0.0,5.9,2.1,0.3,0,0,1024,1024,1024,1024,0,0,0,0,0,0,0,96,3.897,3.894,0,0,0,0,4.828,62.78,757.9690468928,37.073492,6,P-GPS,,11.3
19600,2026-01-09 20:06:50,757.9690468928,39.37008,0.0,0.42684384568,10.5138126724,15,5,7.794,758.2971308928,37.401576,0.4921268,1.23516080068,0.0,0.0,0.0,5.9,2.2,0.3,0,0,1024,1024,1024,1024,0,0,0,0,0,0,0,96,3.897,3.894,0,0,0,0,4.828,62.78,757.9690468928,37.073492,6,P-GPS,,11.3
19700,2026-01-09 20:06:50,757.9690468928,39.37008,0.0,0.43389437084,10.522310048,15,5,7.794,758.2971308928,37.401576,0.4921268,1.23516080068,0.0,0.0,0.0,5.9,2.2,0.2,0,0,1024,1024,1024,1024,0,0,0,0,0,0,0,96,3.897,3.894,0,0,0,0,4.828,62.78,757.9690468928,37.073492,6,P-GPS,,11.3
19800,2026-01-09 20:06:50,758.2971308928,39.37008,0.0,0.4403543448,10.5293310456,15,5,7.794,758.2971308928,37.401576,0.4921268,1.23516080068,0.0,0.0,0.0,5.9,2.4,0.1,0,0,1024,1024,1024,1024,0,0,0,0,0,0,0,96,3.897,3.894,0,0,0,0,4.828,62.78,758.2971308928,37.401576,6,P-GPS,,11.4
19900,2026-01-09 20:06:50,758.2971308928,39.37008,0.0,0.45446523764,10.5459649044,15,5,7.794,758.2971308928,37.401576,0.4921268,1.23516080068,0.0,0.0,0.0,5.8,2.6,0.0,0,0,1024,1024,1024,1024,0,0,0,0,0,0,0,96,3.897,3.894,0,0,0,0,4.828,62.78,758.2971308928,37.401576,6,P-GPS,,11.4
20000,2026-01-09 20:06:50,758.2971308928,39.37008,0.0,0.49732941224,10.5895344596,15,5,7.794,758.2971308928,37.401576,0.4921268,1.23516080068,0.0,0.0,0.0,5.9,2.4,0.1,0,0,1024,1024,1024,1024,0,0,0,0,0,0,0,96,3.897,3.894,0,0,0,0,4.828,62.78,758.2971308928,37.401576,6,P-GPS,,11.4
20100,2026-01-09 20:06:51,758.2971308928,39.37008,0.0,0.4914534278,10.596128948,15,5,7.794,758.2971308928,37.401576,0.4921268,1.23516080068,0.0,0.0,0.0,5.9,2.1,0.2,0,0,1024,1024,1024,1024,0,0,0,0,0,0,0,96,3.897,3.894,0,0,0,0,4.828,62.78,758.2971308928,37.401576,6,P-GPS,,11.4
20200,2026-01-09 20:06:51,758.2971308928,39.37008,0.0,0.48638453,10.602362544,15,5,7.794,758.2971308928,37.401576,0.4921268,1.23516080068,0.0,0.0,0.0,5.9,2.2,0.2,0,0,1024,1024,1024,1024,0,0,0,0,0,0,0,96,3.897,3.894,0,0,0,0,4.828,62.78,758.2971308928,37.401576,6,P-GPS,,11.4
20300,2026-01-09 20:06:51,758.2971308928,39.37008,0.0,0.49741143324,10.6147969276,15,5,7.793,758.2971308928,37.401576,0.4921268,1.23516080068,0.0,0.0,0.0,5.9,2.1,0.1,0,0,1024,1024,1024,1024,0,0,0,0,0,0,0,96,3.897,3.896,0,0,0,0,4.714,62.78,758.2971308928,37.401576,6,P-GPS,,11.4
20400,2026-01-09 20:06:51,758.2971308928,39.37008,0.0,0.51842849428,10.6377299992,15,5,7.793,758.2971308928,37.401576,0.4921268,1.23516080068,0.0,0.0,0.0,5.9,1.9,0.2,0,0,1024,1024,1024,1024,0,0,0,0,0,0,0,96,3.897,3.896,0,0,0,0,4.714,62.78,758.2971308928,37.401576,6,P-GPS,,11.4
20500,2026-01-09 20:06:51,758.2971308928,39.37008,0.0,0.51255907152,10.6604006036,15,5,7.793,758.2971308928,37.401576,0.4921268,1.23516080068,0.0,0.0,0.0,6.0,1.7,0.2,0,0,1024,1024,1024,1024,0,0,0,0,0,0,0,96,3.897,3.896,0,0,0,0,4.714,62.78,758.2971308928,37.401576,6,P-GPS,,11.4
20600,2026-01-09 20:06:51,758.6252148928,39.37008,0.0,0.50758531808,10.6806433864,15,5,7.793,758.6252148928,37.72966,0.4921268,1.23516080068,0.0,0.0,0.0,6.0,1.8,0.0,0,0,1024,1024,1024,1024,0,0,0,0,0,0,0,96,3.897,3.896,0,0,0,0,4.714,62.78,758.6252148928,37.72966,6,P-GPS,,11.5
20700,2026-01-09 20:06:51,758.6252148928,39.37008,0.0,0.50974739164,10.692749686,15,5,7.793,758.6252148928,37.72966,0.4921268,1.23516080068,0.0,0.0,0.0,5.9,1.8,0.0,0,0,1024,1024,1024,1024,0,0,0,0,0,0,0,96,3.897,3.896,0,0,0,0,4.714,62.78,758.6252148928,37.72966,6,P-GPS,,11.5
20800,2026-01-09 20:06:51,758.6252148928,39.37008,0.0,0.52272639468,10.7521985068,15,5,7.793,758.6252148928,37.72966,0.4921268,1.23516080068,0.0,0.0,0.0,5.9,2.0,-0.2,0,0,1024,1024,1024,1024,0,0,0,0,0,0,0,96,3.897,3.896,0,0,0,0,4.714,62.78,758.6252148928,37.72966,6,P-GPS,,11.5
