time(millisecond),timestamp,altitude_above_seaLevel(feet),height_sonar(feet),speed(mph),distance(feet),mileage(feet),satellites,gpslevel,voltage(v),max_altitude(feet),max_ascent(feet),max_speed(mph),max_distance(feet), xSpeed(mph), ySpeed(mph), zSpeed(mph), compass_heading(degrees), pitch(degrees), roll(degrees),isPhoto,isVideo,rc_elevator,rc_aileron,rc_throttle,rc_rudder,rc_elevator(percent),rc_aileron(percent),rc_throttle(percent),rc_rudder(percent),gimbal_heading(degrees),gimbal_pitch(degrees),gimbal_roll(degrees),battery_percent,voltageCell1,voltageCell2,voltageCell3,voltageCell4,voltageCell5,voltageCell6,current(A),battery_temperature(f),altitude(feet),ascent(feet),flycStateRaw,flycState,message,height_above_takeoff(meters)
281000,2026-01-09 20:11:28,720.72734786642,0.328084,0.0,0.0,0.0,14,5,0.0,720.72734786642,0.0,0.0,0.0,0.0,0.0,0.0,4.3,0.8,0.6,0,0,1024,1024,1024,1024,0,0,0,0,0,0,0,80,3.946,3.949,0,0,0,0,0.0,72.5,720.72734786642,0.0,41,Motors_Started,SD card speed low SD card speed low. Normal use may be affected. Replace SD card (Code: 10028). Gimbal stuck. Make sure gimbal cover is removed and manually check whether gimbal can rotate freely (Code: 40002),0.0
281100,2026-01-09 20:11:29,720.72734786642,0.328084,0.0,0.018027231548,0.018027231548,14,5,0.0,720.72734786642,0.0,0.0,0.018027231548,0.0,0.0,0.0,4.3,0.8,0.5,0,0,1024,1024,1024,1024,0,0,0,0,0,0,0,80,3.946,3.949,0,0,0,0,0.0,72.5,720.72734786642,0.0,41,Motors_Started,,0.0
281200,2026-01-09 20:11:29,720.72734786642,0.328084,0.0,0.034826772768,0.03506725834,14,5,7.896,720.72734786642,0.0,0.0,0.034826772768,0.0,0.0,0.0,4.3,0.8,0.5,0,0,1024,1024,1024,1024,0,0,0,0,0,0,0,80,3.946,3.949,0,0,0,0,0.642,72.5,720.72734786642,0.0,41,Motors_Started,,0.0
281300,2026-01-09 20:11:29,720.72734786642,0.328084,0.0,0.052452101416,0.054472114604,14,5,7.896,720.72734786642,0.0,0.0,0.052452101416,0.0,0.0,0.0,4.3,0.8,0.6,0,0,1024,1024,1024,1024,0,0,0,0,0,0,0,80,3.946,3.949,0,0,0,0,0.642,72.5,720.72734786642,0.0,41,Motors_Started,Setting new Return-To-Home altitude to 90m (295 ft). Data Recorder File Index is 32. Setting new Maximum Flight Altitude to 90m (295 ft),0.0
281400,2026-01-09 20:11:29,720.72734786642,0.328084,0.0,1.38027563472,0.06633366354,14,5,7.896,720.72734786642,0.0,0.0,1.38027563472,0.0,0.0,0.0,4.3,0.8,0.6,0,0,1024,1024,1024,1024,0,0,0,0,0,0,0,80,3.946,3.949,0,0,0,0,0.642,72.5,720.72734786642,0.0,41,Motors_Started,,0.0
281500,2026-01-09 20:11:29,720.72734786642,0.328084,0.0,1.38098429616,0.080354661364,14,5,7.896,720.72734786642,0.0,0.0,1.38098429616,0.0,0.0,0.0,4.3,0.8,0.5,0,0,1024,1024,1024,1024,0,0,0,0,0,0,0,80,3.946,3.949,0,0,0,0,0.642,72.5,720.72734786642,0.0,41,Motors_Started,,0.0
281600,2026-01-09 20:11:29,720.72734786642,0.328084,0.0,1.38539046428,0.091812010812,14,5,7.896,720.72734786642,0.0,0.0,1.38539046428,0.0,0.0,0.0,4.8,0.8,0.5,0,0,1024,1024,1024,1024,0,0,0,0,0,0,0,80,3.946,3.949,0,0,0,0,0.642,72.5,720.72734786642,0.0,41,Motors_Started,,0.0
281700,2026-01-09 20:11:29,720.72734786642,0.328084,0.0,1.39868442796,0.106575134644,14,5,7.896,720.72734786642,0.0,0.0,1.39868442796,0.0,0.0,0.0,5.2,0.8,0.6,0,0,1024,1024,1024,1024,0,0,0,0,0,0,0,80,3.946,3.949,0,0,0,0,0.642,72.5,720.72734786642,0.0,41,Motors_Started,,0.0
281800,2026-01-09 20:11:29,720.72734786642,0.328084,0.0,1.40442589796,0.133003941264,14,5,7.896,720.72734786642,0.0,0.0,1.40442589796,0.0,0.0,0.0,5.2,0.8,0.6,0,0,1024,1024,1024,1024,0,0,0,0,0,0,0,80,3.946,3.949,0,0,0,0,0.642,72.5,720.72734786642,0.0,41,Motors_Started,,0.0
281900,2026-01-09 20:11:29,720.72734786642,0.328084,0.0,1.40515752528,0.133927497724,14,5,7.896,720.72734786642,0.0,0.0,1.40515752528,0.0,0.0,0.0,5.2,0.8,0.6,0,0,1024,1024,1024,1024,0,0,0,0,0,0,0,80,3.946,3.949,0,0,0,0,0.642,72.5,720.72734786642,0.0,41,Motors_Started,,0.0
282000,2026-01-09 20:11:30,720.72734786642,0.328084,0.0,1.40976710548,0.138549217032,14,5,7.896,720.72734786642,0.0,0.0,1.40976710548,0.0,0.0,0.0,5.2,0.8,0.6,0,0,1024,1024,1024,1024,0,0,0,0,0,0,0,80,3.946,3.949,0,0,0,0,0.642,72.5,720.72734786642,0.0,41,Motors_Started,,0.0
282100,2026-01-09 20:11:30,720.72734786642,0.328084,0.0,1.42469164664,0.153474086276,14,5,7.896,720.72734786642,0.0,0.0,1.42469164664,0.0,0.0,0.0,5.2,0.8,0.6,0,0,1024,1024,1024,1024,0,0,0,0,0,0,0,80,3.946,3.949,0,0,0,0,0.642,72.5,720.72734786642,0.0,11,AutoTakeoff,,0.0
282200,2026-01-09 20:11:30,720.72734786642,0.328084,0.0,1.44133206712,0.17011647526,14,5,7.896,720.72734786642,0.0,0.0,1.44133206712,0.0,0.0,0.0,5.2,0.8,0.6,0,0,1024,1024,1024,1024,0,0,0,0,0,0,0,80,3.946,3.949,0,0,0,0,0.642,72.5,720.72734786642,0.0,11,AutoTakeoff,,0.0
282300,2026-01-09 20:11:30,720.72734786642,0.328084,0.0,1.49154860416,0.224620414012,14,5,7.896,720.72734786642,0.0,0.0,1.49154860416,0.0,0.0,0.0,5.2,0.8,0.6,0,0,1024,1024,1024,1024,0,0,0,0,0,0,0,80,3.917,3.915,0,0,0,0,0.642,72.5,720.72734786642,0.0,11,AutoTakeoff,,0.0
282400,2026-01-09 20:11:30,720.72734786642,0.328084,0.0,1.50714899836,0.240494430268,14,5,7.896,720.72734786642,0.0,0.0,1.50714899836,0.0,0.0,0.0,5.2,0.8,0.5,0,0,1024,1024,1024,1024,0,0,0,0,0,0,0,80,3.917,3.915,0,0,0,0,0.642,72.5,720.72734786642,0.0,11,AutoTakeoff,,0.0
282500,2026-01-09 20:11:30,720.72734786642,0.328084,0.0,1.51069886724,0.253987540936,14,5,7.896,720.72734786642,0.0,0.0,1.51069886724,0.0,0.0,0.0,5.2,0.8,0.5,0,0,1024,1024,1024,1024,0,0,0,0,0,0,0,80,3.917,3.915,0,0,0,0,0.642,72.5,720.72734786642,0.0,11,AutoTakeoff,SD card speed low. Normal use may be affected. Replace SD card (Code: 10028),0.0
282600,2026-01-09 20:11:30,720.72734786642,0.328084,0.0,1.52336619048,0.270482620204,14,5,7.896,720.72734786642,0.0,0.0,1.52336619048,0.0,0.0,0.0,5.2,0.9,0.4,0,0,1024,1024,1024,1024,0,0,0,0,0,0,0,80,3.917,3.915,0,0,0,0,0.642,72.5,720.72734786642,0.0,11,AutoTakeoff,,0.0
282700,2026-01-09 20:11:30,720.72734786642,0.328084,0.0,1.57720477488,0.327617136468,14,5,7.896,720.72734786642,0.0,0.0,1.57720477488,0.0,0.0,0.0,5.6,0.9,0.3,0,0,1024,1024,1024,1024,0,0,0,0,0,0,0,80,3.917,3.915,0,0,0,0,0.642,72.5,720.72734786642,0.0,11,AutoTakeoff,,0.0
282800,2026-01-09 20:11:30,720.72734786642,0.328084,0.0,1.6048064818,0.35666995892,14,5,7.896,720.72734786642,0.0,0.0,1.6048064818,0.0,0.0,0.0,6.6,0.6,-0.3,0,0,1024,1024,1024,1024,0,0,0,0,0,0,0,80,3.917,3.915,0,0,0,0,0.642,72.5,720.72734786642,0.0,11,AutoTakeoff,,0.0
282900,2026-01-09 20:11:30,720.72734786642,0.328084,0.0,1.62234913328,0.37625657372,14,5,7.896,720.72734786642,0.0,0.0,1.62234913328,0.0,0.0,-0.223694,7.1,0.4,-1.2,0,0,1024,1024,1024,1024,0,0,0,0,0,0,0,80,3.917,3.915,0,0,0,0,0.642,72.5,720.72734786642,0.0,11,AutoTakeoff,,0.0
283000,2026-01-09 20:11:30,720.72734786642,0.328084,0.0,1.64869755932,0.40292324124,14,5,7.896,720.72734786642,0.0,0.0,1.64869755932,0.0,0.0,-0.447388,7.0,1.5,-1.5,0,0,1024,1024,1024,1024,0,0,0,0,0,0,0,80,3.917,3.915,0,0,0,0,0.642,72.5,720.72734786642,0.0,11,AutoTakeoff,,0.0
283100,2026-01-09 20:11:31,720.72734786642,0.328084,0.0,1.67124677264,0.43363846532,14,5,7.896,720.72734786642,0.0,0.0,1.67124677264,0.0,0.0,-0.671082,7.0,2.0,-0.6,0,0,1024,1024,1228,1024,0,0,31,0,0,0,0,80,3.917,3.915,0,0,0,0,0.642,72.5,720.72734786642,0.0,11,AutoTakeoff,,0.0
283200,2026-01-09 20:11:31,720.72734786642,0.656168,0.0,1.70808076332,0.47069555312,14,5,7.896,720.72734786642,0.0,0.0,1.70808076332,0.0,0.0,-0.894776,7.1,1.9,0.2,0,0,1024,1024,1684,1171,0,0,100,22,0,0,0,80,3.917,3.915,0,0,0,0,0.642,72.5,720.72734786642,0.0,11,AutoTakeoff,,0.0
283300,2026-01-09 20:11:31,721.05543186642,0.656168,0.0,1.74827433416,0.51113190612,14,5,7.896,721.05543186642,0.328084,0.0,1.74827433416,0.0,0.0,-1.342164,7.1,1.9,-0.1,0,0,1024,1024,1684,1684,0,0,100,100,0,0,0,80,3.917,3.915,0,0,0,0,0.642,72.5,721.05543186642,0.328084,11,AutoTakeoff,Home Point updated. RTH altitude adjusted to 90 m (Code: 120852),0.1
283400,2026-01-09 20:11:31,721.05543186642,0.984252,0.0,1.79093509668,0.55500001776,15,5,7.896,721.05543186642,0.328084,0.0,1.79093509668,0.0,0.0,-1.789552,7.7,2.4,0.0,0,0,1024,1024,1684,1684,0,0,100,100,0,0,0,80,3.917,3.915,0,0,0,0,0.642,72.5,721.05543186642,0.328084,11,AutoTakeoff,,0.1
283500,2026-01-09 20:11:31,721.38351586642,0.984252,0.0,1.86426515152,0.64401904948,15,5,7.639,721.38351586642,0.656168,0.0,1.86426515152,0.0,0.0,-2.23694,19.0,2.9,-0.5,0,0,1024,1024,1684,1684,0,0,100,100,0,0,0,80,3.821,3.818,0,0,0,0,5.14,72.68,721.38351586642,0.656168,11,AutoTakeoff,,0.2
283600,2026-01-09 20:11:31,721.71159986642,1.312336,0.0,1.89966213428,0.67942259392,15,5,7.639,721.71159986642,0.984252,0.0,1.89966213428,0.0,0.0,-2.684328,32.3,1.6,0.4,0,0,1024,1024,1684,1684,0,0,100,100,0,0,0,80,3.821,3.818,0,0,0,0,5.14,72.68,721.71159986642,0.984252,11,AutoTakeoff,,0.3
283700,2026-01-09 20:11:31,722.36776786642,1.968504,0.0,1.91731961516,0.69979989116,15,5,7.639,722.36776786642,1.64042,0.0,1.91731961516,0.0,0.0,-3.35541,45.4,1.1,0.8,0,0,1024,1024,1684,1684,0,0,100,100,0,0,0,80,3.821,3.818,0,0,0,0,5.14,72.68,722.36776786642,1.64042,11,AutoTakeoff,,0.5
283800,2026-01-09 20:11:31,722.69585186642,2.296588,0.0,1.939386545,0.72225067928,16,5,7.639,722.69585186642,1.968504,0.0,1.939386545,0.0,0.0,-3.802798,58.4,1.1,1.1,0,0,1024,1024,1684,1684,0,0,100,100,0,0,0,80,3.821,3.818,0,0,0,0,5.14,72.68,722.69585186642,1.968504,11,AutoTakeoff,,0.6
283900,2026-01-09 20:11:31,723.35201986642,2.952756,0.0,1.97052827828,0.75352036532,16,5,7.639,723.35201986642,2.624672,0.0,1.97052827828,0.0,0.0,-4.250186,71.2,1.2,1.7,0,0,1024,1024,1684,1269,0,0,100,37,0,0,0,80,3.821,3.818,0,0,0,0,5.14,72.68,723.35201986642,2.624672,6,P-GPS,,0.8
284000,2026-01-09 20:11:31,724.00818786642,3.608924,0.0,1.97404533876,0.77120409292,16,5,7.639,724.00818786642,3.28084,0.0,1.97404533876,0.0,0.0,-4.47388,83.7,0.6,2.6,0,0,1024,1024,1684,1024,0,0,100,0,0,0,0,80,3.821,3.818,0,0,0,0,5.14,72.68,724.00818786642,3.28084,6,P-GPS,,1.0
284100,2026-01-09 20:11:32,724.66435586642,4.265092,0.0,2.03554140372,0.835465906,16,5,7.639,724.66435586642,3.937008,0.0,2.03554140372,0.0,0.0,-4.47388,85.4,0.8,3.0,0,0,1024,1024,1684,1024,0,0,100,0,0,0,0,80,3.821,3.818,0,0,0,0,5.14,72.68,724.66435586642,3.937008,6,P-GPS,,1.2
284200,2026-01-09 20:11:32,725.32052386642,4.92126,0.0,2.0762467856,0.87643047424,15,5,7.639,725.32052386642,4.593176,0.0,2.0762467856,0.0,0.0,-4.47388,85.2,1.3,1.9,0,0,1024,1024,1684,873,0,0,100,-23,0,0,0,80,3.821,3.818,0,0,0,0,5.14,72.68,725.32052386642,4.593176,6,P-GPS,,1.4
284300,2026-01-09 20:11:32,725.97669186642,5.577428,0.0,2.0995079412,0.9076771944,15,5,7.639,725.97669186642,5.249344,0.0,2.0995079412,0.0,0.0,-4.47388,85.1,1.4,1.4,0,0,1024,1024,1684,854,0,0,100,-26,0,0,0,80,3.821,3.818,0,0,0,0,5.14,72.68,725.97669186642,5.249344,6,P-GPS,,1.6
284400,2026-01-09 20:11:32,726.63285986642,6.233596,0.0,2.2072179184,1.02042654184,14,5,7.639,726.63285986642,5.905512,0.0,2.2072179184,0.0,0.0,-4.47388,84.5,0.8,1.7,0,0,1024,1024,1684,717,0,0,100,-47,0,0,0,80,3.821,3.818,0,0,0,0,5.14,72.68,726.63285986642,5.905512,6,P-GPS,,1.8
284500,2026-01-09 20:11:32,727.28902786642,6.56168,0.0,2.23489508464,1.05015751392,14,5,7.639,727.28902786642,6.56168,0.0,2.23489508464,0.0,0.0,-4.47388,83.4,1.1,1.7,0,0,1024,1024,1684,717,0,0,100,-47,0,0,0,80,3.821,3.818,0,0,0,0,5.14,72.68,727.28902786642,6.56168,6,P-GPS,,2.0
284600,2026-01-09 20:11:32,728.27327986642,7.217848,0.0,2.2441437726,1.05952759296,14,5,7.598,728.27327986642,7.545932,0.0,2.2441437726,0.0,0.0,-4.250186,81.9,1.2,1.0,0,0,1024,1024,1684,366,0,0,100,-100,0,0,0,80,3.8,3.803,0,0,0,0,7.11,72.68,728.27327986642,7.545932,6,P-GPS,,2.3
284700,2026-01-09 20:11:32,728.92944786642,7.874016,0.0,2.22027238076,1.09649281724,14,5,7.598,728.92944786642,8.2021,0.0,2.2441437726,0.0,0.0,-4.250186,75.9,0.8,1.9,0,0,1024,1024,1684,376,0,0,100,-98,0,0,0,80,3.8,3.803,0,0,0,0,7.11,72.68,728.92944786642,8.2021,6,P-GPS,,2.5
284800,2026-01-09 20:11:32,729.58561586642,8.530184,0.0,2.21049219672,1.10631893304,15,5,7.598,729.58561586642,8.858268,0.0,2.2441437726,0.0,0.0,-4.47388,62.9,1.4,1.5,0,0,1024,1024,1684,423,0,0,100,-91,0,0,0,80,3.8,3.803,0,0,0,0,7.11,72.68,729.58561586642,8.858268,6,P-GPS,,2.7
284900,2026-01-09 20:11:32,730.24178386642,9.186352,0.0,2.21252303668,1.12625331688,15,5,7.598,730.24178386642,9.514436,0.0,2.2441437726,0.0,0.0,-4.47388,50.5,1.8,0.6,0,0,1024,1024,1684,423,0,0,100,-91,0,0,0,80,3.8,3.803,0,0,0,0,7.11,72.68,730.24178386642,9.514436,6,P-GPS,,2.9
285000,2026-01-09 20:11:32,730.89795186642,9.84252,0.0,2.1940945584,1.15938652004,15,5,7.598,730.89795186642,10.170604,0.0,2.2441437726,0.0,0.0,-4.250186,39.3,1.6,-0.3,0,0,1024,1024,1684,426,0,0,100,-91,0,0,0,80,3.8,3.803,0,0,0,0,7.11,72.68,730.89795186642,10.170604,6,P-GPS,,3.1
285100,2026-01-09 20:11:33,731.55411986642,10.498688,0.0,2.13076122304,1.2357611944,15,5,7.598,731.55411986642,10.826772,0.0,2.2441437726,0.0,0.0,-4.47388,28.5,1.9,-0.6,0,0,1024,1024,1684,825,0,0,100,-30,0,0,0,80,3.8,3.803,0,0,0,0,7.11,72.68,731.55411986642,10.826772,6,P-GPS,,3.3
285200,2026-01-09 20:11:33,732.21028786642,10.826772,0.0,1.95482945888,1.4473097576,14,5,7.598,732.21028786642,11.48294,0.0,2.2441437726,0.0,0.0,-4.47388,17.9,1.6,-0.9,0,0,1024,1024,1684,827,0,0,100,-30,0,0,0,80,3.8,3.803,0,0,0,0,7.11,72.68,732.21028786642,11.48294,6,P-GPS,,3.5
285300,2026-01-09 20:11:33,732.86645586642,11.48294,0.0,1.91823168868,1.50987865724,14,5,7.598,732.86645586642,12.139108,0.0,2.2441437726,0.0,0.0,-4.47388,14.0,1.9,-1.6,0,0,1024,1024,1684,1024,0,0,100,0,0,0,0,80,3.8,3.803,0,0,0,0,7.11,72.68,732.86645586642,12.139108,6,P-GPS,,3.7
285400,2026-01-09 20:11:33,733.52262386642,12.139108,0.223694,1.87138785516,1.57376317372,14,5,7.598,733.52262386642,12.795276,0.223694,2.2441437726,-0.223694,0.0,-4.250186,12.7,0.2,-1.0,0,0,1024,1024,1684,1024,0,0,100,0,0,0,0,80,3.8,3.803,0,0,0,0,7.11,72.68,733.52262386642,12.795276,6,P-GPS,,3.9
285500,2026-01-09 20:11:33,734.17879186642,12.795276,0.223694,1.80548890292,1.65250333372,14,5,7.598,734.17879186642,13.451444,0.223694,2.2441437726,-0.223694,0.0,-4.47388,11.6,0.2,-0.6,0,0,1024,1024,1684,1024,0,0,100,0,0,0,0,80,3.8,3.803,0,0,0,0,7.11,72.68,734.17879186642,13.451444,6,P-GPS,,4.1
285600,2026-01-09 20:11:33,734.83495986642,13.451444,0.0,1.77949152676,1.68680779676,15,5,7.598,734.83495986642,14.107612,0.223694,2.2441437726,0.0,0.0,-4.250186,11.8,1.2,-0.4,0,0,1024,1024,1684,1024,0,0,100,0,0,0,0,80,3.8,3.803,0,0,0,0,7.11,72.68,734.83495986642,14.107612,6,P-GPS,,4.3
285700,2026-01-09 20:11:33,735.49112786642,14.107612,0.0,1.79461619916,1.70289703612,15,5,7.595,735.49112786642,14.76378,0.223694,2.2441437726,0.0,0.0,-4.47388,11.7,1.0,-0.7,0,0,1024,1024,1684,1024,0,0,100,0,0,0,0,80,3.799,3.797,0,0,0,0,6.305,72.68,735.49112786642,14.76378,6,P-GPS,,4.5
285800,2026-01-09 20:11:33,736.14729586642,14.76378,0.0,1.8341207936,1.75049874368,15,5,7.595,736.14729586642,15.419948,0.223694,2.2441437726,0.0,0.0,-4.47388,11.8,1.7,-0.1,0,0,1024,1024,1684,1024,0,0,100,0,0,0,0,80,3.799,3.797,0,0,0,0,6.305,72.68,736.14729586642,15.419948,6,P-GPS,,4.7
285900,2026-01-09 20:11:33,736.80346386642,15.419948,0.0,1.8855643648,1.82428155444,15,5,7.595,736.80346386642,16.076116,0.223694,2.2441437726,0.0,0.0,-4.47388,11.6,2.0,0.3,0,0,1024,1024,1684,1024,0,0,100,0,0,0,0,80,3.799,3.797,0,0,0,0,6.305,72.68,736.80346386642,16.076116,6,P-GPS,,4.9
286000,2026-01-09 20:11:34,737.45963186642,16.076116,0.0,1.94035767364,1.89224743588,16,5,7.595,737.45963186642,16.732284,0.223694,2.2441437726,0.0,0.0,-4.47388,11.5,2.1,0.2,0,0,1024,1024,1684,1024,0,0,100,0,0,0,0,80,3.799,3.797,0,0,0,0,6.305,72.68,737.45963186642,16.732284,6,P-GPS,,5.1
286100,2026-01-09 20:11:34,738.11579986642,16.732284,0.0,2.10909127484,2.07093510564,16,5,7.595,738.11579986642,17.388452,0.223694,2.2441437726,0.0,0.0,-4.47388,11.5,2.2,0.0,0,0,1024,1024,1684,1024,0,0,100,0,0,0,0,80,3.799,3.797,0,0,0,0,6.305,72.68,738.11579986642,17.388452,6,P-GPS,,5.3
286200,2026-01-09 20:11:34,738.77196786642,17.388452,0.0,2.15122710296,2.1132546608,15,5,7.595,738.77196786642,18.04462,0.223694,2.2441437726,0.0,0.0,-4.47388,11.5,2.1,-0.6,0,0,1024,1024,1684,1024,0,0,100,0,0,0,0,80,3.799,3.797,0,0,0,0,6.305,72.68,738.77196786642,18.04462,6,P-GPS,,5.5
286300,2026-01-09 20:11:34,739.42813586642,18.372704,0.0,2.15622054144,2.14158143336,15,5,7.595,739.42813586642,18.700788,0.223694,2.2441437726,0.0,0.0,-4.47388,11.4,2.5,-0.7,0,0,1024,1024,1684,1024,0,0,100,0,0,0,0,80,3.799,3.797,0,0,0,0,6.305,72.68,739.42813586642,18.700788,6,P-GPS,,5.7
286400,2026-01-09 20:11:34,740.08430386642,19.028872,0.0,2.15038392708,2.17425859976,16,5,7.595,740.08430386642,19.356956,0.223694,2.2441437726,0.0,0.0,-4.47388,11.5,1.9,-1.0,0,0,1024,1024,1684,1024,0,0,100,0,0,0,0,80,3.799,3.797,0,0,0,0,6.305,72.68,740.08430386642,19.356956,6,P-GPS,,5.9
286500,2026-01-09 20:11:34,740.74047186642,20.013124,0.0,2.00155190132,2.428149684,16,5,7.595,740.74047186642,20.013124,0.223694,2.2441437726,0.0,0.0,-4.47388,11.5,1.7,-1.2,0,0,1024,1024,1684,1024,0,0,100,0,0,0,0,80,3.799,3.797,0,0,0,0,6.305,72.68,740.74047186642,20.013124,6,P-GPS,,6.1
286600,2026-01-09 20:11:34,741.39663986642,20.669292,0.0,1.97837276672,2.48285112932,16,5,7.595,741.39663986642,20.669292,0.223694,2.2441437726,0.0,0.0,-4.47388,11.5,1.1,-1.7,0,0,1024,1024,1684,1024,0,0,100,0,0,0,0,80,3.799,3.797,0,0,0,0,6.305,72.68,741.39663986642,20.669292,6,P-GPS,,6.3
286700,2026-01-09 20:11:34,742.05280786642,21.653544,0.0,1.94889113848,2.54500992396,16,5,7.595,742.05280786642,21.32546,0.223694,2.2441437726,0.0,0.0,-4.47388,11.4,1.4,-1.6,0,0,1024,1024,1684,1024,0,0,100,0,0,0,0,80,3.799,3.797,0,0,0,0,6.305,72.68,742.05280786642,21.32546,6,P-GPS,,6.5
286800,2026-01-09 20:11:34,742.70897586642,22.309712,0.0,1.93283798836,2.5650099246,16,5,7.605,742.70897586642,21.981628,0.223694,2.2441437726,0.0,0.0,-4.47388,11.4,2.1,-0.8,0,0,1024,1024,1684,1024,0,0,100,0,0,0,0,80,3.802,3.803,0,0,0,0,6.126,72.68,742.70897586642,21.981628,6,P-GPS,,6.7
286900,2026-01-09 20:11:34,743.36514386642,23.293964,0.223694,1.88539376112,2.68121399656,16,5,7.605,743.36514386642,22.637796,0.223694,2.2441437726,0.0,-0.223694,-4.250186,11.5,2.6,0.0,0,0,1024,1024,1684,1024,0,0,100,0,0,0,0,80,3.802,3.803,0,0,0,0,6.126,72.68,743.36514386642,22.637796,6,P-GPS,,6.9
287000,2026-01-09 20:11:35,744.02131186642,23.950132,0.223694,1.89992460148,2.76111885476,16,5,7.605,744.02131186642,23.293964,0.223694,2.2441437726,0.0,-0.223694,-4.47388,11.5,2.8,0.8,0,0,1024,1024,1684,1024,0,0,100,0,0,0,0,80,3.802,3.803,0,0,0,0,6.126,72.68,744.02131186642,23.293964,6,P-GPS,,7.1
287100,2026-01-09 20:11:35,744.67747986642,24.934384,0.223694,1.92665360496,2.85039707284,16,5,7.605,744.67747986642,23.950132,0.223694,2.2441437726,0.0,-0.223694,-4.47388,11.5,2.5,1.1,0,0,1024,1024,1684,1024,0,0,100,0,0,0,0,80,3.802,3.803,0,0,0,0,6.126,72.68,744.67747986642,23.950132,6,P-GPS,,7.3
287200,2026-01-09 20:11:35,745.33364786642,25.590552,0.223694,1.95422906516,2.92792660288,15,5,7.605,745.33364786642,24.6063,0.223694,2.2441437726,0.0,-0.223694,-4.47388,11.6,2.5,1.0,0,0,1024,1024,1684,1024,0,0,100,0,0,0,0,80,3.802,3.803,0,0,0,0,6.126,72.68,745.33364786642,24.6063,6,P-GPS,,7.5
287300,2026-01-09 20:11:35,745.98981586642,26.574804,0.0,1.98576449924,2.99691938724,15,5,7.605,745.98981586642,25.262468,0.223694,2.2441437726,0.0,0.0,-4.47388,11.6,2.5,0.7,0,0,1024,1024,1684,1024,0,0,100,0,0,0,0,80,3.802,3.803,0,0,0,0,6.126,72.68,745.98981586642,25.262468,6,P-GPS,,7.7
287400,2026-01-09 20:11:35,746.64598386642,27.559056,0.0,2.11685374228,3.21807096912,16,5,7.605,746.64598386642,25.918636,0.223694,2.2441437726,0.0,0.0,-4.47388,11.7,3.6,1.1,0,0,1024,1024,1684,1024,0,0,100,0,0,0,0,80,3.802,3.803,0,0,0,0,6.126,72.68,746.64598386642,25.918636,6,P-GPS,,7.9
287500,2026-01-09 20:11:35,747.30215186642,28.215224,0.0,2.1689305156,3.2896654596,16,5,7.605,747.30215186642,26.574804,0.223694,2.2441437726,0.0,0.0,-4.47388,11.7,3.3,0.7,0,0,1024,1024,1684,1024,0,0,100,0,0,0,0,80,3.802,3.803,0,0,0,0,6.126,72.68,747.30215186642,26.574804,6,P-GPS,,8.1
287600,2026-01-09 20:11:35,747.95831986642,28.871392,0.0,2.21670610768,3.3527560128,16,5,7.605,747.95831986642,27.230972,0.223694,2.2441437726,0.0,0.0,-4.47388,11.7,3.9,1.0,0,0,1024,1024,1684,1024,0,0,100,0,0,0,0,80,3.802,3.803,0,0,0,0,6.126,72.68,747.95831986642,27.230972,6,P-GPS,,8.3
287700,2026-01-09 20:11:35,748.61448786642,29.52756,0.0,2.26257881256,3.4114502404,16,5,7.605,748.61448786642,27.88714,0.223694,2.26257881256,0.0,0.0,-4.250186,11.6,3.8,1.1,0,0,1024,1024,1684,1024,0,0,100,0,0,0,0,80,3.802,3.803,0,0,0,0,6.126,72.68,748.61448786642,27.88714,6,P-GPS,,8.5
287800,2026-01-09 20:11:35,749.27065586642,32.152232,0.0,2.4049213368,3.5689961772,16,5,7.605,749.27065586642,28.543308,0.223694,2.4049213368,0.0,0.0,-4.250186,11.5,2.7,0.8,0,0,1024,1024,1684,1024,0,0,100,0,0,0,0,80,3.802,3.803,0,0,0,0,6.126,72.68,749.27065586642,28.543308,6,P-GPS,,8.7
287900,2026-01-09 20:11:35,749.92682386642,32.480316,0.223694,2.36423563996,3.6096785932,16,5,7.588,749.92682386642,29.199476,0.223694,2.4049213368,-0.223694,0.0,-4.250186,11.6,2.4,0.4,0,0,1024,1024,1684,1024,0,0,100,0,0,0,0,80,3.794,3.795,0,0,0,0,6.14,72.68,749.92682386642,29.199476,6,P-GPS,,8.9
288000,2026-01-09 20:11:35,750.58299186642,33.136484,0.223694,2.3314633292,3.6433072032,16,5,7.588,750.58299186642,29.855644,0.223694,2.4049213368,0.0,0.0,-4.250186,11.6,2.7,0.3,0,0,1024,1024,1684,1024,0,0,100,0,0,0,0,80,3.794,3.795,0,0,0,0,6.14,72.68,750.58299186642,29.855644,6,P-GPS,,9.1
288100,2026-01-09 20:11:36,751.23915986642,33.792652,0.0,2.315534851,3.6666011672,16,5,7.588,751.23915986642,30.511812,0.223694,2.4049213368,0.0,0.0,-4.250186,11.8,2.5,0.4,0,0,1024,1024,1684,1024,0,0,100,0,0,0,0,80,3.794,3.795,0,0,0,0,6.14,72.68,751.23915986642,30.511812,6,P-GPS,,9.3
288200,2026-01-09 20:11:36,751.89532786642,34.44882,0.223694,2.49564640532,3.8687337196,16,5,7.588,751.89532786642,31.16798,0.223694,2.49564640532,0.223694,0.0,-4.250186,12.0,4.3,0.5,0,0,1024,1024,1684,1024,0,0,100,0,0,0,0,80,3.794,3.795,0,0,0,0,6.14,72.68,751.89532786642,31.16798,6,P-GPS,,9.5
288300,2026-01-09 20:11:36,752.55149586642,35.104988,0.0,2.59093840312,3.9641077384,16,5,7.588,752.55149586642,31.824148,0.223694,2.59093840312,0.0,0.0,-4.250186,12.2,6.3,0.6,0,0,1024,1024,1684,1024,0,0,100,0,0,0,0,80,3.794,3.795,0,0,0,0,6.14,72.68,752.55149586642,31.824148,6,P-GPS,,9.7
288400,2026-01-09 20:11:36,753.20766386642,35.761156,0.0,2.64576123952,4.0194883176,16,5,7.588,753.20766386642,32.480316,0.223694,2.64576123952,0.0,0.0,-4.250186,12.2,5.4,0.6,0,0,1024,1024,1684,1024,0,0,100,0,0,0,0,80,3.794,3.795,0,0,0,0,6.14,72.68,753.20766386642,32.480316,6,P-GPS,,9.9
288500,2026-01-09 20:11:36,753.86383186642,36.417324,0.223694,2.63265428372,4.0561681088,16,5,7.588,753.86383186642,33.136484,0.223694,2.64576123952,-0.223694,0.0,-4.250186,12.1,4.4,0.3,0,0,1024,1024,1684,1024,0,0,100,0,0,0,0,80,3.794,3.795,0,0,0,0,6.14,72.68,753.86383186642,33.136484,6,P-GPS,,10.1
288600,2026-01-09 20:11:36,754.51999986642,37.073492,0.447388,2.46709653564,4.283792788,16,5,7.588,754.51999986642,33.792652,0.447388,2.64576123952,-0.447388,0.0,-4.250186,12.0,2.9,0.0,0,0,1024,1024,1206,1024,0,0,28,0,0,0,0,80,3.794,3.795,0,0,0,0,6.14,72.68,754.51999986642,33.792652,6,P-GPS,,10.3
288700,2026-01-09 20:11:36,755.17616786642,37.72966,0.447388,2.37883537796,4.3842849172,16,5,7.588,755.17616786642,34.44882,0.447388,2.64576123952,-0.447388,0.0,-4.250186,12.0,0.1,0.0,0,0,1024,1024,1024,1024,0,0,0,0,0,0,0,80,3.794,3.795,0,0,0,0,6.14,72.68,755.17616786642,34.44882,6,P-GPS,,10.5
288800,2026-01-09 20:11:36,755.83233586642,38.385828,0.671082,2.27977697584,4.4948164168,16,5,7.588,755.83233586642,35.104988,0.671082,2.64576123952,-0.671082,0.0,-4.250186,12.0,-0.7,0.1,0,0,1024,1024,1024,1024,0,0,0,0,0,0,0,80,3.794,3.795,0,0,0,0,6.14,72.68,755.83233586642,35.104988,6,P-GPS,,10.7
288900,2026-01-09 20:11:36,756.48850386642,38.713912,0.447388,2.14049875616,4.644685188,16,5,7.588,756.48850386642,35.761156,0.671082,2.64576123952,-0.447388,0.0,-3.802798,12.0,-0.4,0.1,0,0,1024,1024,1024,1024,0,0,0,0,0,0,0,80,3.794,3.795,0,0,0,0,6.14,72.68,756.48850386642,35.761156,6,P-GPS,,10.9
289000,2026-01-09 20:11:37,756.81658786642,38.713912,0.223694,2.0319554456,4.7581366352,16,5,7.577,756.81658786642,36.08924,0.671082,2.64576123952,-0.223694,0.0,-3.131716,12.2,0.0,0.0,0,0,1024,1024,1024,1024,0,0,0,0,0,0,0,79,3.79,3.787,0,0,0,0,6.016,72.68,756.81658786642,36.08924,6,P-GPS,,11.0
289100,2026-01-09 20:11:37,757.14467186642,38.713912,0.223694,1.79357945372,4.9966208948,16,5,7.577,757.14467186642,36.417324,0.671082,2.64576123952,-0.223694,0.0,-2.23694,12.1,0.0,-0.5,0,0,1024,1024,1024,1024,0,0,0,0,0,0,0,79,3.79,3.787,0,0,0,0,6.016,72.68,757.14467186642,36.417324,6,P-GPS,,11.1
289200,2026-01-09 20:11:37,757.47275586642,38.713912,0.223694,1.73918312652,5.054790188,16,5,7.577,757.47275586642,36.745408,0.671082,2.64576123952,-0.223694,0.0,-1.565858,12.2,0.4,-0.5,0,0,1024,1024,1024,1024,0,0,0,0,0,0,0,79,3.79,3.787,0,0,0,0,6.016,72.68,757.47275586642,36.745408,6,P-GPS,,11.2
289300,2026-01-09 20:11:37,757.80083986642,38.713912,0.0,1.68381895152,5.1198820536,16,5,7.577,757.80083986642,37.073492,0.671082,2.64576123952,0.0,0.0,-0.671082,12.2,0.8,-0.6,0,0,1024,1024,1024,1024,0,0,0,0,0,0,0,79,3.79,3.787,0,0,0,0,6.016,72.68,757.80083986642,37.073492,6,P-GPS,,11.3
289400,2026-01-09 20:11:37,757.80083986642,38.713912,0.0,1.6390748556,5.1729660448,16,5,7.577,757.80083986642,37.073492,0.671082,2.64576123952,0.0,0.0,-0.223694,12.2,1.2,-1.0,0,0,1024,1024,1024,1024,0,0,0,0,0,0,0,79,3.79,3.787,0,0,0,0,6.016,72.68,757.80083986642,37.073492,6,P-GPS,,11.3
289500,2026-01-09 20:11:37,758.12892386642,38.713912,0.0,1.56009191344,5.265584158,16,5,7.577,758.12892386642,37.401576,0.671082,2.64576123952,0.0,0.0,0.0,12.1,1.5,-1.3,0,0,1024,1024,1024,1024,0,0,0,0,0,0,0,79,3.79,3.787,0,0,0,0,6.016,72.68,758.12892386642,37.401576,6,P-GPS,,11.4
289600,2026-01-09 20:11:37,758.12892386642,38.713912,0.0,1.51997380192,5.3113190676,16,5,7.577,758.12892386642,37.401576,0.671082,2.64576123952,0.0,0.0,0.0,12.1,1.8,-1.3,0,0,1024,1024,1024,1024,0,0,0,0,0,0,0,79,3.79,3.787,0,0,0,0,6.016,72.68,758.12892386642,37.401576,6,P-GPS,,11.4
289700,2026-01-09 20:11:37,758.12892386642,38.713912,0.0,1.46226710716,5.3890093588,16,5,7.577,758.12892386642,37.401576,0.671082,2.64576123952,0.0,0.0,0.0,12.0,2.0,-1.2,0,0,1024,1024,1024,1024,0,0,0,0,0,0,0,79,3.79,3.787,0,0,0,0,6.016,72.68,758.12892386642,37.401576,6,P-GPS,,11.4
289800,2026-01-09 20:11:37,758.12892386642,38.713912,0.0,1.39185699992,5.4656169728,16,5,7.577,758.12892386642,37.401576,0.671082,2.64576123952,0.0,0.0,0.0,12.0,1.9,-1.1,0,0,1024,1024,1024,1024,0,0,0,0,0,0,0,79,3.79,3.787,0,0,0,0,6.016,72.68,758.12892386642,37.401576,6,P-GPS,,11.4
289900,2026-01-09 20:11:37,758.12892386642,38.713912,0.0,1.10256237124,5.7551839112,16,5,7.577,758.12892386642,37.401576,0.671082,2.64576123952,0.0,0.0,0.0,12.0,1.9,-1.0,0,0,1024,1024,1024,1024,0,0,0,0,0,0,0,79,3.79,3.787,0,0,0,0,6.016,72.68,758.12892386642,37.401576,6,P-GPS,,11.4
290000,2026-01-09 20:11:37,758.12892386642,38.713912,0.0,1.0012631554,5.8573820772,16,5,7.577,758.12892386642,37.401576,0.671082,2.64576123952,0.0,0.0,0.0,11.9,1.8,-1.0,0,0,1024,1024,1024,1024,0,0,0,0,0,0,0,79,3.79,3.787,0,0,0,0,6.016,72.68,758.12892386642,37.401576,6,P-GPS,,11.4
290100,2026-01-09 20:11:38,758.12892386642,38.713912,0.0,0.9149114466,5.9437994028,16,5,7.643,758.12892386642,37.401576,0.671082,2.64576123952,0.0,0.0,0.0,11.9,1.8,-1.0,0,0,1024,1024,1024,1024,0,0,0,0,0,0,0,79,3.818,3.818,0,0,0,0,4.494,72.68,758.12892386642,37.401576,6,P-GPS,,11.4
290200,2026-01-09 20:11:38,758.12892386642,38.713912,0.0,0.84162404268,6.018536938,16,5,7.643,758.12892386642,37.401576,0.671082,2.64576123952,0.0,0.0,0.0,11.9,1.6,-0.8,0,0,1024,1024,1024,1024,0,0,0,0,0,0,0,79,3.818,3.818,0,0,0,0,4.494,72.68,758.12892386642,37.401576,6,P-GPS,,11.4
290300,2026-01-09 20:11:38,758.12892386642,38.713912,0.0,0.76324149424,6.1467521652,16,5,7.643,758.12892386642,37.401576,0.671082,2.64576123952,0.0,0.0,0.0,11.9,1.6,-0.7,0,0,1024,1024,1024,1024,0,0,0,0,0,0,0,79,3.818,3.818,0,0,0,0,4.494,72.68,758.12892386642,37.401576,6,P-GPS,,11.4
290400,2026-01-09 20:11:38,758.12892386642,38.713912,0.0,0.72092193908,6.2038715896,16,5,7.643,758.12892386642,37.401576,0.671082,2.64576123952,0.0,0.0,0.0,11.9,1.5,-0.4,0,0,1024,1024,1024,1024,0,0,0,0,0,0,0,79,3.818,3.818,0,0,0,0,4.494,72.68,758.12892386642,37.401576,6,P-GPS,,11.4
290500,2026-01-09 20:11:38,758.12892386642,38.713912,0.0,0.68257548116,6.253445082,16,5,7.643,758.12892386642,37.401576,0.671082,2.64576123952,0.0,0.0,0.0,11.9,1.5,-0.4,0,0,1024,1024,1024,1024,0,0,0,0,0,0,0,79,3.818,3.818,0,0,0,0,4.494,72.68,758.12892386642,37.401576,6,P-GPS,,11.4
290600,2026-01-09 20:11:38,758.12892386642,38.713912,0.0,0.64602364272,6.2960631936,16,5,7.643,758.12892386642,37.401576,0.671082,2.64576123952,0.0,0.0,0.0,11.8,1.4,-0.5,0,0,1024,1024,1024,1024,0,0,0,0,0,0,0,79,3.818,3.818,0,0,0,0,4.494,72.68,758.12892386642,37.401576,6,P-GPS,,11.4
290700,2026-01-09 20:11:38,758.12892386642,38.713912,0.0,0.60208991428,6.340551384,16,5,7.643,758.12892386642,37.401576,0.671082,2.64576123952,0.0,0.0,0.0,11.7,1.5,-0.5,0,0,1024,1024,1024,1024,0,0,0,0,0,0,0,79,3.818,3.818,0,0,0,0,4.494,72.68,758.12892386642,37.401576,6,P-GPS,,11.4
290800,2026-01-09 20:11:38,758.12892386642,38.713912,0.0,0.59587272248,6.35170624,16,5,7.643,758.12892386642,37.401576,0.671082,2.64576123952,0.0,0.0,0.0,11.7,1.3,-0.5,0,0,1024,1024,1024,1024,0,0,0,0,0,0,0,79,3.818,3.818,0,0,0,0,4.494,72.68,758.12892386642,37.401576,6,P-GPS,,11.4
290900,2026-01-09 20:11:38,757.80083986642,38.713912,0.0,0.60614175168,6.3831694956,16,5,7.643,758.12892386642,37.401576,0.671082,2.64576123952,0.0,0.0,0.0,11.7,1.2,-0.5,0,0,1024,1024,1024,1024,0,0,0,0,0,0,0,79,3.818,3.818,0,0,0,0,4.494,72.68,757.80083986642,37.073492,6,P-GPS,,11.3
291000,2026-01-09 20:11:39,757.80083986642,38.713912,0.0,0.63347442972,6.4274608356,16,5,7.643,758.12892386642,37.401576,0.671082,2.64576123952,0.0,0.0,0.0,11.8,1.5,-0.7,0,0,1024,1024,1024,1024,0,0,0,0,0,0,0,79,3.818,3.818,0,0,0,0,4.494,72.68,757.80083986642,37.073492,6,P-GPS,,11.3
291100,2026-01-09 20:11:39,757.80083986642,38.713912,0.0,0.69495737132,6.5077429904,16,5,7.643,758.12892386642,37.401576,0.671082,2.64576123952,0.0,0.0,0.0,11.8,1.6,-0.4,0,0,1024,1024,1024,1024,0,0,0,0,0,0,0,79,3.818,3.818,0,0,0,0,4.494,72.68,757.80083986642,37.073492,6,P-GPS,,11.3
291200,2026-01-09 20:11:39,757.80083986642,38.713912,0.0,0.96125003076,6.7889109784,16,5,7.632,758.12892386642,37.401576,0.671082,2.64576123952,0.0,0.0,0.0,11.8,1.0,-0.4,0,0,1024,1024,1024,1024,0,0,0,0,0,0,0,79,3.816,3.816,0,0,0,0,5.1,72.68,757.80083986642,37.073492,6,P-GPS,,11.3
291300,2026-01-09 20:11:39,757.80083986642,38.713912,0.0,1.08837929992,6.9242784368,16,5,7.632,758.12892386642,37.401576,0.671082,2.64576123952,0.0,0.0,0.0,11.8,1.2,-0.3,0,0,1024,1024,1024,1024,0,0,0,0,0,0,0,79,3.816,3.816,0,0,0,0,5.1,72.68,757.80083986642,37.073492,6,P-GPS,,11.3
291400,2026-01-09 20:11:39,757.80083986642,38.713912,0.0,1.21874347732,7.0601052128,16,5,7.632,758.12892386642,37.401576,0.671082,2.64576123952,0.0,0.0,0.0,11.8,1.4,0.0,0,0,1024,1024,1024,1024,0,0,0,0,0,0,0,79,3.816,3.816,0,0,0,0,5.1,72.68,757.80083986642,37.073492,6,P-GPS,,11.3
291500,2026-01-09 20:11:39,757.80083986642,38.713912,0.0,1.35919951856,7.2049871072,16,5,7.632,758.12892386642,37.401576,0.671082,2.64576123952,0.0,0.0,0.0,11.8,1.5,0.0,0,0,1024,1024,1024,1024,0,0,0,0,0,0,0,79,3.816,3.816,0,0,0,0,5.1,72.68,757.80083986642,37.073492,6,P-GPS,,11.3
291600,2026-01-09 20:11:39,757.80083986642,38.713912,0.0,1.81683732848,7.6693900092,16,5,7.632,758.12892386642,37.401576,0.671082,2.64576123952,0.0,0.0,0.0,11.8,1.4,-0.1,0,0,1024,1024,1024,1024,0,0,0,0,0,0,0,79,3.816,3.816,0,0,0,0,5.1,72.68,757.80083986642,37.073492,6,P-GPS,,11.3
291700,2026-01-09 20:11:39,757.80083986642,38.713912,0.0,1.94739507544,7.802329646,16,5,7.632,758.12892386642,37.401576,0.671082,2.64576123952,0.0,0.0,0.0,11.9,0.9,0.0,0,0,1024,1024,1024,1024,0,0,0,0,0,0,0,79,3.816,3.816,0,0,0,0,5.1,72.68,757.80083986642,37.073492,6,P-GPS,,11.3
291800,2026-01-09 20:11:39,757.80083986642,38.713912,0.0,2.06273628648,7.9185698072,16,5,7.632,758.12892386642,37.401576,0.671082,2.64576123952,0.0,0.0,0.0,11.9,1.0,0.2,0,0,1024,1024,1024,1024,0,0,0,0,0,0,0,79,3.816,3.816,0,0,0,0,5.1,72.68,757.80083986642,37.073492,6,P-GPS,,11.3
291900,2026-01-09 20:11:39,757.80083986642,38.713912,0.0,2.15760833676,8.0134517,16,5,7.632,758.12892386642,37.401576,0.671082,2.64576123952,0.0,0.0,0.0,11.9,1.4,0.2,0,0,1024,1024,1024,1024,0,0,0,0,0,0,0,79,3.816,3.816,0,0,0,0,5.1,72.68,757.80083986642,37.073492,6,P-GPS,,11.3
292000,2026-01-09 20:11:39,757.47275586642,38.713912,0.0,2.11595479212,8.062172174,16,5,7.632,758.12892386642,37.401576,0.671082,2.64576123952,0.0,0.0,0.0,11.9,1.5,0.4,0,0,1024,1024,1024,1024,0,0,0,0,0,0,0,79,3.816,3.816,0,0,0,0,5.1,72.68,757.47275586642,36.745408,6,P-GPS,,11.2
292100,2026-01-09 20:11:40,757.47275586642,38.713912,0.0,2.1574639798,8.1046918604,16,5,7.632,758.12892386642,37.401576,0.671082,2.64576123952,0.0,0.0,0.0,11.8,1.5,0.6,0,0,1024,1024,1024,1024,0,0,0,0,0,0,0,79,3.816,3.816,0,0,0,0,5.1,72.68,757.47275586642,36.745408,6,P-GPS,,11.2
292200,2026-01-09 20:11:40,757.47275586642,38.713912,0.0,2.18735571304,8.1348099716,16,5,7.632,758.12892386642,37.401576,0.671082,2.64576123952,0.0,0.0,0.0,11.8,1.8,0.7,0,0,1024,1024,1024,1024,0,0,0,0,0,0,0,79,3.816,3.816,0,0,0,0,5.1,72.68,757.47275586642,36.745408,6,P-GPS,,11.2
292300,2026-01-09 20:11:40,757.47275586642,38.713912,0.0,2.20402566108,8.155676114,16,5,7.632,758.12892386642,37.401576,0.671082,2.64576123952,0.0,0.0,0.0,11.8,2.2,0.5,0,0,1024,1024,1024,1024,0,0,0,0,0,0,0,79,3.818,3.819,0,0,0,0,5.1,72.68,757.47275586642,36.745408,6,P-GPS,,11.2
292400,2026-01-09 20:11:40,757.47275586642,38.713912,0.0,2.20510833828,8.1634188964,16,5,7.632,758.12892386642,37.401576,0.671082,2.64576123952,0.0,0.0,0.0,11.8,2.3,0.4,0,0,1024,1024,1024,1024,0,0,0,0,0,0,0,79,3.818,3.819,0,0,0,0,5.1,72.68,757.47275586642,36.745408,6,P-GPS,,11.2
292500,2026-01-09 20:11:40,757.47275586642,38.713912,0.0,1.99213589052,8.38172599,16,5,7.632,758.12892386642,37.401576,0.671082,2.64576123952,0.0,0.0,0.0,11.8,2.0,0.6,0,0,1024,1024,1024,1024,0,0,0,0,0,0,0,79,3.818,3.819,0,0,0,0,5.1,72.68,757.47275586642,36.745408,6,P-GPS,SD card speed low. Normal use may be affected. Replace SD card (Code: 10028). Gimbal stuck. Make sure gimbal cover is removed and manually check whether gimbal can rotate freely (Code: 40002),11.2
292600,2026-01-09 20:11:40,757.47275586642,38.713912,0.0,1.96234258248,8.4116800592,16,5,7.632,758.12892386642,37.401576,0.671082,2.64576123952,0.0,0.0,0.0,11.8,1.9,0.5,0,0,1024,1024,1024,1024,0,0,0,0,0,0,0,79,3.818,3.819,0,0,0,0,5.1,72.68,757.47275586642,36.745408,6,P-GPS,,11.2
292700,2026-01-09 20:11:40,757.47275586642,38.713912,0.0,1.922244156,8.4532154936,16,5,7.632,758.12892386642,37.401576,0.671082,2.64576123952,0.0,0.0,0.0,11.8,2.0,0.5,0,0,1024,1024,1024,1024,0,0,0,0,0,0,0,79,3.818,3.819,0,0,0,0,5.1,72.68,757.47275586642,36.745408,6,P-GPS,,11.2
292800,2026-01-09 20:11:40,757.80083986642,38.713912,0.0,1.87651908892,8.500000272,16,5,7.632,758.12892386642,37.401576,0.671082,2.64576123952,0.0,0.0,0.0,11.7,2.1,0.5,0,0,1024,1024,1024,1024,0,0,0,0,0,0,0,79,3.818,3.819,0,0,0,0,5.1,72.68,757.80083986642,37.073492,6,P-GPS,,11.3
292900,2026-01-09 20:11:40,757.80083986642,38.713912,0.0,1.65568902936,8.7208992292,16,5,7.632,758.12892386642,37.401576,0.671082,2.64576123952,0.0,0.0,0.0,11.8,1.9,0.4,0,0,1024,1024,1024,1024,0,0,0,0,0,0,0,79,3.818,3.819,0,0,0,0,5.1,72.68,757.80083986642,37.073492,6,P-GPS,,11.3
293000,2026-01-09 20:11:41,757.80083986642,38.713912,0.0,1.60146658668,8.7754924068,16,5,7.632,758.12892386642,37.401576,0.671082,2.64576123952,0.0,0.0,0.0,11.7,2.2,0.2,0,0,1024,1024,1024,1024,0,0,0,0,0,0,0,79,3.818,3.819,0,0,0,0,5.1,72.68,757.80083986642,37.073492,6,P-GPS,,11.3
293100,2026-01-09 20:11:41,757.80083986642,38.713912,0.0,1.55220477408,8.8249018572,16,5,7.632,758.12892386642,37.401576,0.671082,2.64576123952,0.0,0.0,0.0,11.8,2.4,0.2,0,0,1024,1024,1024,1024,0,0,0,0,0,0,0,79,3.818,3.819,0,0,0,0,5.1,72.68,757.80083986642,37.073492,6,P-GPS,,11.3
293200,2026-01-09 20:11:41,757.80083986642,38.713912,0.0,1.51935044232,8.8585632756,16,5,7.632,758.12892386642,37.401576,0.671082,2.64576123952,0.0,0.0,0.0,11.8,2.4,0.4,0,0,1024,1024,1024,1024,0,0,0,0,0,0,0,79,3.818,3.819,0,0,0,0,5.1,72.68,757.80083986642,37.073492,6,P-GPS,,11.3
293300,2026-01-09 20:11:41,757.80083986642,38.713912,0.0,1.53099742432,8.87795304,16,5,7.632,758.12892386642,37.401576,0.671082,2.64576123952,0.0,0.0,0.0,11.8,2.3,0.3,0,0,1024,1024,1024,1024,0,0,0,0,0,0,0,79,3.818,3.819,0,0,0,0,5.1,72.68,757.80083986642,37.073492,6,P-GPS,,11.3
293400,2026-01-09 20:11:41,757.80083986642,38.713912,0.0,1.53726710956,8.8954399172,16,5,7.638,758.12892386642,37.401576,0.671082,2.64576123952,0.0,0.0,0.0,11.7,2.3,0.4,0,0,1024,1024,1024,1024,0,0,0,0,0,0,0,79,3.821,3.821,0,0,0,0,5.031,72.68,757.80083986642,37.073492,6,P-GPS,,11.3
293500,2026-01-09 20:11:41,757.80083986642,38.713912,0.0,1.5576772152,8.9222115716,16,5,7.638,758.12892386642,37.401576,0.671082,2.64576123952,0.0,0.0,0.0,11.7,2.4,0.4,0,0,1024,1024,1024,1024,0,0,0,0,0,0,0,79,3.821,3.821,0,0,0,0,5.031,72.68,757.80083986642,37.073492,6,P-GPS,,11.3
293600,2026-01-09 20:11:41,757.80083986642,38.713912,0.0,1.57635175648,8.9485895252,16,5,7.638,758.12892386642,37.401576,0.671082,2.64576123952,0.0,0.0,0.0,11.7,2.2,0.5,0,0,1024,1024,1024,1024,0,0,0,0,0,0,0,79,3.821,3.821,0,0,0,0,5.031,72.68,757.80083986642,37.073492,6,P-GPS,,11.3
293700,2026-01-09 20:11:41,757.80083986642,38.713912,0.0,1.69257551348,9.072998978,16,5,7.638,758.12892386642,37.401576,0.671082,2.64576123952,0.0,0.0,0.0,11.6,2.2,0.3,0,0,1024,1024,1024,1024,0,0,0,0,0,0,0,79,3.821,3.821,0,0,0,0,5.031,72.68,757.80083986642,37.073492,6,P-GPS,,11.3
293800,2026-01-09 20:11:41,757.80083986642,38.713912,0.0,1.7178314198,9.1131236512,16,5,7.638,758.12892386642,37.401576,0.671082,2.64576123952,0.0,0.0,0.0,11.6,2.3,0.4,0,0,1024,1024,1024,1024,0,0,0,0,0,0,0,79,3.821,3.821,0,0,0,0,5.031,72.68,757.80083986642,37.073492,6,P-GPS,,11.3
293900,2026-01-09 20:11:41,757.80083986642,38.713912,0.0,1.7666831274,9.1793966192,16,5,7.638,758.12892386642,37.401576,0.671082,2.64576123952,0.0,0.0,0.0,11.6,2.6,0.3,0,0,1024,1024,1024,1024,0,0,0,0,0,0,0,79,3.821,3.821,0,0,0,0,5.031,72.68,757.80083986642,37.073492,6,P-GPS,,11.3
294000,2026-01-09 20:11:42,757.80083986642,38.713912,0.0,1.82071200052,9.2469819232,16,5,7.638,758.12892386642,37.401576,0.671082,2.64576123952,0.0,0.0,0.0,11.6,2.8,0.3,0,0,1024,1024,1024,1024,0,0,0,0,0,0,0,79,3.821,3.821,0,0,0,0,5.031,72.68,757.80083986642,37.073492,6,P-GPS,,11.3
294100,2026-01-09 20:11:42,757.80083986642,38.713912,0.0,1.88745740948,9.3224412432,16,5,7.638,758.12892386642,37.401576,0.671082,2.64576123952,0.0,0.0,0.0,11.6,2.9,0.3,0,0,1024,1024,1024,1024,0,0,0,0,0,0,0,79,3.821,3.821,0,0,0,0,5.031,72.68,757.80083986642,37.073492,6,P-GPS,,11.3
294200,2026-01-09 20:11:42,757.80083986642,38.713912,0.0,2.09172250788,9.5363848196,16,5,7.638,758.12892386642,37.401576,0.671082,2.64576123952,0.0,0.0,0.0,11.6,2.8,0.2,0,0,1024,1024,1024,1024,0,0,0,0,0,0,0,79,3.821,3.821,0,0,0,0,5.031,72.68,757.80083986642,37.073492,6,P-GPS,,11.3
294300,2026-01-09 20:11:42,757.80083986642,38.713912,0.0,2.14888130236,9.6025593624,16,5,7.638,758.12892386642,37.401576,0.671082,2.64576123952,0.0,0.0,0.0,11.6,2.7,0.0,0,0,1024,1024,1024,1024,0,0,0,0,0,0,0,79,3.821,3.821,0,0,0,0,5.031,72.68,757.80083986642,37.073492,6,P-GPS,,11.3
294400,2026-01-09 20:11:42,757.80083986642,38.713912,0.0,2.2023130626,9.6634845612,16,5,7.638,758.12892386642,37.401576,0.671082,2.64576123952,0.0,0.0,0.0,11.6,2.7,0.0,0,0,1024,1024,1024,1024,0,0,0,0,0,0,0,79,3.821,3.821,0,0,0,0,5.031,72.68,757.80083986642,37.073492,6,P-GPS,,11.3
294500,2026-01-09 20:11:42,757.80083986642,38.713912,0.0,2.2530840616,9.7210961116,16,5,7.637,758.12892386642,37.401576,0.671082,2.64576123952,0.0,0.0,0.0,11.7,2.9,0.3,0,0,1024,1024,1024,1024,0,0,0,0,0,0,0,79,3.819,3.818,0,0,0,0,4.923,72.86,757.80083986642,37.073492,6,P-GPS,,11.3
294600,2026-01-09 20:11:42,757.80083986642,38.713912,0.0,2.34857947148,9.8208336476,15,5,7.637,758.12892386642,37.401576,0.671082,2.64576123952,0.0,0.0,0.0,11.7,2.8,0.4,0,0,1024,1024,1024,1024,0,0,0,0,0,0,0,79,3.819,3.818,0,0,0,0,4.923,72.86,757.80083986642,37.073492,6,P-GPS,,11.3
294700,2026-01-09 20:11:42,757.80083986642,38.713912,0.0,2.3874344596,9.8598100268,15,5,7.637,758.12892386642,37.401576,0.671082,2.64576123952,0.0,0.0,0.0,11.8,2.9,0.3,0,0,1024,1024,1024,1024,0,0,0,0,0,0,0,79,3.819,3.818,0,0,0,0,4.923,72.86,757.80083986642,37.073492,6,P-GPS,,11.3
294800,2026-01-09 20:11:42,757.80083986642,38.713912,0.0,2.42131569428,9.894029188,15,5,7.637,758.12892386642,37.401576,0.671082,2.64576123952,0.0,0.0,0.0,11.7,3.2,0.2,0,0,1024,1024,1024,1024,0,0,0,0,0,0,0,79,3.819,3.818,0,0,0,0,4.923,72.86,757.80083986642,37.073492,6,P-GPS,,11.3
294900,2026-01-09 20:11:42,757.80083986642,38.713912,0.0,2.44975073456,9.9242785328,15,5,7.637,758.12892386642,37.401576,0.671082,2.64576123952,0.0,0.0,0.0,11.7,3.1,0.2,0,0,1024,1024,1024,1024,0,0,0,0,0,0,0,79,3.819,3.818,0,0,0,0,4.923,72.86,757.80083986642,37.073492,6,P-GPS,,11.3
295000,2026-01-09 20:11:42,757.80083986642,38.713912,0.0,2.39649613968,9.9919294536,15,5,7.637,758.12892386642,37.401576,0.671082,2.64576123952,0.0,0.0,0.0,11.7,3.0,0.3,0,0,1024,1024,1024,1024,0,0,0,0,0,0,0,79,3.819,3.818,0,0,0,0,4.923,72.86,757.80083986642,37.073492,6,P-GPS,,11.3
295100,2026-01-09 20:11:43,757.80083986642,38.713912,0.0,2.40256897452,10.0025265668,15,5,7.637,758.12892386642,37.401576,0.671082,2.64576123952,0.0,0.0,0.0,11.7,3.0,0.1,0,0,1024,1024,1024,1024,0,0,0,0,0,0,0,79,3.819,3.818,0,0,0,0,4.923,72.86,757.80083986642,37.073492,6,P-GPS,,11.3
295200,2026-01-09 20:11:43,757.80083986642,38.713912,0.0,2.40339246536,10.011319218,15,5,7.637,758.12892386642,37.401576,0.671082,2.64576123952,0.0,0.0,0.0,11.7,2.9,0.1,0,0,1024,1024,1024,1024,0,0,0,0,0,0,0,79,3.819,3.818,0,0,0,0,4.923,72.86,757.80083986642,37.073492,6,P-GPS,,11.3
295300,2026-01-09 20:11:43,757.80083986642,38.713912,0.0,2.39945217652,10.022310032,15,5,7.637,758.12892386642,37.401576,0.671082,2.64576123952,0.0,0.0,0.0,11.6,3.0,-0.4,0,0,1024,1024,1024,1024,0,0,0,0,0,0,0,79,3.819,3.818,0,0,0,0,4.923,72.86,757.80083986642,37.073492,6,P-GPS,,11.3
295400,2026-01-09 20:11:43,757.80083986642,38.713912,0.0,2.34274613796,10.0790357556,15,5,7.637,758.12892386642,37.401576,0.671082,2.64576123952,0.0,0.0,0.0,11.6,3.1,-0.7,0,0,1024,1024,1024,1024,0,0,0,0,0,0,0,79,3.819,3.818,0,0,0,0,4.923,72.86,757.80083986642,37.073492,6,P-GPS,,11.3
295500,2026-01-09 20:11:43,757.80083986642,38.713912,0.0,2.33934718772,10.0872050472,15,5,7.637,758.12892386642,37.401576,0.671082,2.64576123952,0.0,0.0,0.0,11.6,2.9,-0.4,0,0,1024,1024,1024,1024,0,0,0,0,0,0,0,79,3.819,3.818,0,0,0,0,4.923,72.86,757.80083986642,37.073492,6,P-GPS,,11.3
295600,2026-01-09 20:11:43,757.80083986642,38.713912,0.0,2.33071857852,10.0974740764,15,5,7.635,758.12892386642,37.401576,0.671082,2.64576123952,0.0,0.0,0.0,11.6,3.1,-0.5,0,0,1024,1024,1024,1024,0,0,0,0,0,0,0,79,3.816,3.818,0,0,0,0,4.912,72.86,757.80083986642,37.073492,6,P-GPS,,11.3
295700,2026-01-09 20:11:43,757.80083986642,38.713912,0.0,2.31071857788,10.1182089852,15,5,7.635,758.12892386642,37.401576,0.671082,2.64576123952,0.0,0.0,0.0,11.6,3.0,-0.6,0,0,1024,1024,1024,1024,0,0,0,0,0,0,0,79,3.816,3.818,0,0,0,0,4.912,72.86,757.80083986642,37.073492,6,P-GPS,,11.3
295800,2026-01-09 20:11:43,757.80083986642,38.713912,0.0,2.28366805208,10.1456368076,15,5,7.635,758.12892386642,37.401576,0.671082,2.64576123952,0.0,0.0,0.0,11.6,2.5,-0.5,0,0,1024,1024,1024,1024,0,0,0,0,0,0,0,79,3.816,3.818,0,0,0,0,4.912,72.86,757.80083986642,37.073492,6,P-GPS,,11.3
295900,2026-01-09 20:11:43,757.80083986642,38.713912,0.0,2.15964245756,10.2701446856,15,5,7.635,758.12892386642,37.401576,0.671082,2.64576123952,0.0,0.0,0.0,11.6,2.6,-0.4,0,0,1024,1024,1024,1024,0,0,0,0,0,0,0,79,3.816,3.818,0,0,0,0,4.912,72.86,757.80083986642,37.073492,6,P-GPS,,11.3
296000,2026-01-09 20:11:44,757.80083986642,38.713912,0.0,2.12416017296,10.3070541356,15,5,7.635,758.12892386642,37.401576,0.671082,2.64576123952,0.0,0.0,0.0,11.6,2.9,-0.4,0,0,1024,1024,1024,1024,0,0,0,0,0,0,0,79,3.816,3.818,0,0,0,0,4.912,72.86,757.80083986642,37.073492,6,P-GPS,,11.3
296100,2026-01-09 20:11:44,757.80083986642,38.713912,0.0,2.08242788816,10.3535764468,15,5,7.635,758.12892386642,37.401576,0.671082,2.64576123952,0.0,0.0,0.0,11.6,2.7,-0.5,0,0,1024,1024,1024,1024,0,0,0,0,0,0,0,79,3.816,3.818,0,0,0,0,4.912,72.86,757.80083986642,37.073492,6,P-GPS,,11.3
296200,2026-01-09 20:11:44,757.80083986642,38.713912,0.0,2.04387801816,10.394193246,15,5,7.635,758.12892386642,37.401576,0.671082,2.64576123952,0.0,0.0,0.0,11.5,3.0,-0.5,0,0,1024,1024,1024,1024,0,0,0,0,0,0,0,79,3.816,3.818,0,0,0,0,4.912,72.86,757.80083986642,37.073492,6,P-GPS,,11.3
296300,2026-01-09 20:11:44,757.80083986642,38.713912,0.0,1.9267717152,10.5112864256,15,5,7.635,758.12892386642,37.401576,0.671082,2.64576123952,0.0,0.0,0.0,11.6,3.0,-0.3,0,0,1024,1024,1024,1024,0,0,0,0,0,0,0,79,3.816,3.818,0,0,0,0,4.912,72.86,757.80083986642,37.073492,6,P-GPS,,11.3
296400,2026-01-09 20:11:44,757.80083986642,38.713912,0.0,1.89285111044,10.5453743532,15,5,7.635,758.12892386642,37.401576,0.671082,2.64576123952,0.0,0.0,0.0,11.6,3.1,-0.2,0,0,1024,1024,1024,1024,0,0,0,0,0,0,0,79,3.816,3.818,0,0,0,0,4.912,72.86,757.80083986642,37.073492,6,P-GPS,,11.3
296500,2026-01-09 20:11:44,757.80083986642,38.713912,0.0,1.86351383916,10.5750331468,15,5,7.635,758.12892386642,37.401576,0.671082,2.64576123952,0.0,0.0,0.0,11.6,3.1,-0.2,0,0,1024,1024,1024,1024,0,0,0,0,0,0,0,79,3.816,3.818,0,0,0,0,4.912,72.86,757.80083986642,37.073492,6,P-GPS,,11.3
296600,2026-01-09 20:11:44,757.80083986642,38.713912,0.0,1.83770675172,10.6008533576,15,5,7.635,758.12892386642,37.401576,0.671082,2.64576123952,0.0,0.0,0.0,11.6,3.1,0.0,0,0,1024,1024,1024,1024,0,0,0,0,0,0,0,79,3.816,3.818,0,0,0,0,4.912,72.86,757.80083986642,37.073492,6,P-GPS,,11.3
296700,2026-01-09 20:11:44,757.80083986642,38.713912,0.0,1.81767394268,10.62089929,15,5,7.636,758.12892386642,37.401576,0.671082,2.64576123952,0.0,0.0,0.0,11.6,3.0,-0.1,0,0,1024,1024,1024,1024,0,0,0,0,0,0,0,79,3.819,3.818,0,0,0,0,4.832,72.86,757.80083986642,37.073492,6,P-GPS,,11.3
296800,2026-01-09 20:11:44,757.80083986642,38.713912,0.0,1.79833995256,10.641732624,15,5,7.636,758.12892386642,37.401576,0.671082,2.64576123952,0.0,0.0,0.0,11.6,3.0,-0.1,0,0,1024,1024,1024,1024,0,0,0,0,0,0,0,79,3.819,3.818,0,0,0,0,4.832,72.86,757.80083986642,37.073492,6,P-GPS,,11.3
296900,2026-01-09 20:11:44,757.47275586642,38.713912,0.0,1.78250989956,10.6654202888,15,5,7.636,758.12892386642,37.401576,0.671082,2.64576123952,0.0,0.0,0.0,11.7,3.0,-0.1,0,0,1024,1024,1024,1024,0,0,0,0,0,0,0,79,3.819,3.818,0,0,0,0,4.832,72.86,757.47275586642,36.745408,6,P-GPS,,11.2
297000,2026-01-09 20:11:44,757.47275586642,38.713912,0.0,1.76198168368,10.6922903684,15,5,7.636,758.12892386642,37.401576,0.671082,2.64576123952,0.0,0.0,0.0,11.7,3.1,-0.1,0,0,1024,1024,1024,1024,0,0,0,0,0,0,0,79,3.819,3.818,0,0,0,0,4.832,72.86,757.47275586642,36.745408,6,P-GPS,,11.2
297100,2026-01-09 20:11:45,757.47275586642,38.713912,0.0,1.71887472692,10.758530528,15,5,7.636,758.12892386642,37.401576,0.671082,2.64576123952,0.0,0.0,0.0,11.7,3.3,-0.2,0,0,1024,1024,1024,1024,0,0,0,0,0,0,0,79,3.819,3.818,0,0,0,0,4.832,72.86,757.47275586642,36.745408,6,P-GPS,,11.2
297200,2026-01-09 20:11:45,757.47275586642,38.713912,0.0,1.6813320748,10.8001643876,15,5,7.636,758.12892386642,37.401576,0.671082,2.64576123952,0.0,0.0,0.0,11.7,3.3,-0.1,0,0,1024,1024,1024,1024,0,0,0,0,0,0,0,79,3.819,3.818,0,0,0,0,4.832,72.86,757.47275586642,36.745408,6,P-GPS,,11.2
297300,2026-01-09 20:11:45,757.47275586642,38.713912,0.0,1.63597118096,10.8488848616,15,5,7.636,758.12892386642,37.401576,0.671082,2.64576123952,0.0,0.0,0.0,11.7,3.0,0.0,0,0,1024,1024,1024,1024,0,0,0,0,0,0,0,79,3.819,3.818,0,0,0,0,4.832,72.86,757.47275586642,36.745408,6,P-GPS,,11.2
297400,2026-01-09 20:11:45,757.47275586642,38.713912,0.0,1.59326448668,10.8961945744,15,5,7.636,758.12892386642,37.401576,0.671082,2.64576123952,0.0,0.0,0.0,11.7,2.9,-0.1,0,0,1024,1024,1024,1024,0,0,0,0,0,0,0,79,3.819,3.818,0,0,0,0,4.832,72.86,757.47275586642,36.745408,6,P-GPS,,11.2
297500,2026-01-09 20:11:45,757.47275586642,38.713912,0.0,1.55389112584,10.944390114,15,5,7.636,758.12892386642,37.401576,0.671082,2.64576123952,0.0,0.0,0.0,11.7,2.7,-0.2,0,0,1024,1024,1024,1024,0,0,0,0,0,0,0,79,3.819,3.818,0,0,0,0,4.832,72.86,757.47275586642,36.745408,6,P-GPS,,11.2
297600,2026-01-09 20:11:45,757.47275586642,38.713912,0.0,1.49442918168,11.0169951032,15,5,7.636,758.12892386642,37.401576,0.671082,2.64576123952,0.0,0.0,0.0,11.7,2.5,-0.1,0,0,1024,1024,1024,1024,0,0,0,0,0,0,0,79,3.819,3.818,0,0,0,0,4.832,72.86,757.47275586642,36.745408,6,P-GPS,,11.2
297700,2026-01-09 20:11:45,757.47275586642,38.713912,0.0,1.47406828864,11.0434386736,15,5,7.636,758.12892386642,37.401576,0.671082,2.64576123952,0.0,0.0,0.0,11.8,2.4,-0.1,0,0,1024,1024,1024,1024,0,0,0,0,0,0,0,79,3.819,3.818,0,0,0,0,4.832,72.86,757.47275586642,36.745408,6,P-GPS,,11.2
297800,2026-01-09 20:11:45,757.47275586642,38.713912,0.0,1.45042327476,11.0698494356,15,5,7.632,758.12892386642,37.401576,0.671082,2.64576123952,0.0,0.0,0.0,11.7,2.5,-0.3,0,0,1024,1024,1024,1024,0,0,0,0,0,0,0,79,3.816,3.817,0,0,0,0,4.828,72.86,757.47275586642,36.745408,6,P-GPS,,11.2
297900,2026-01-09 20:11:45,757.47275586642,38.713912,0.0,1.41481631824,11.1058730588,15,5,7.632,758.12892386642,37.401576,0.671082,2.64576123952,0.0,0.0,0.0,11.7,2.5,-0.5,0,0,1024,1024,1024,1024,0,0,0,0,0,0,0,79,3.816,3.817,0,0,0,0,4.828,72.86,757.47275586642,36.745408,6,P-GPS,,11.2
298000,2026-01-09 20:11:45,757.47275586642,38.713912,0.0,1.40110568788,11.1262470752,15,5,7.632,758.12892386642,37.401576,0.671082,2.64576123952,0.0,0.0,0.0,11.6,2.6,-0.6,0,0,1024,1024,1024,1024,0,0,0,0,0,0,0,79,3.816,3.817,0,0,0,0,4.828,72.86,757.47275586642,36.745408,6,P-GPS,,11.2
298100,2026-01-09 20:11:46,757.47275586642,38.713912,0.0,1.38229007048,11.1557090184,15,5,7.632,758.12892386642,37.401576,0.671082,2.64576123952,0.0,0.0,0.0,11.7,2.5,-0.4,0,0,1024,1024,1024,1024,0,0,0,0,0,0,0,79,3.816,3.817,0,0,0,0,4.828,72.86,757.47275586642,36.745408,6,P-GPS,,11.2
298200,2026-01-09 20:11:46,757.47275586642,38.713912,0.0,1.36761487316,11.1764439272,15,5,7.632,758.12892386642,37.401576,0.671082,2.64576123952,0.0,0.0,0.0,11.7,2.5,-0.3,0,0,1024,1024,1024,1024,0,0,0,0,0,0,0,79,3.816,3.817,0,0,0,0,4.828,72.86,757.47275586642,36.745408,6,P-GPS,,11.2
298300,2026-01-09 20:11:46,757.47275586642,38.713912,0.0,1.35502957092,11.1892063948,15,5,7.632,758.12892386642,37.401576,0.671082,2.64576123952,0.0,0.0,0.0,11.7,2.2,-0.2,0,0,1024,1024,1024,1024,0,0,0,0,0,0,0,79,3.816,3.817,0,0,0,0,4.828,72.86,757.47275586642,36.745408,6,P-GPS,,11.2
298400,2026-01-09 20:11:46,757.47275586642,38.713912,0.0,1.40705713164,11.2665357936,15,5,7.632,758.12892386642,37.401576,0.671082,2.64576123952,0.0,0.0,0.0,11.7,2.3,-0.2,0,0,1024,1024,1024,1024,0,0,0,0,0,0,0,79,3.816,3.817,0,0,0,0,4.828,72.86,757.47275586642,36.745408,6,P-GPS,,11.2
298500,2026-01-09 20:11:46,757.47275586642,38.713912,0.0,1.4112697302,11.2872707024,15,5,7.632,758.12892386642,37.401576,0.671082,2.64576123952,0.0,0.0,0.0,11.7,2.8,-0.3,0,0,1024,1024,1024,1024,0,0,0,0,0,0,0,79,3.816,3.817,0,0,0,0,4.828,72.86,757.47275586642,36.745408,6,P-GPS,,11.2
298600,2026-01-09 20:11:46,757.47275586642,38.713912,0.0,1.41203416592,11.3023953748,15,5,7.632,758.12892386642,37.401576,0.671082,2.64576123952,0.0,0.0,0.0,11.7,2.7,-0.2,0,0,1024,1024,1024,1024,0,0,0,0,0,0,0,79,3.816,3.817,0,0,0,0,4.828,72.86,757.47275586642,36.745408,6,P-GPS,,11.2
298700,2026-01-09 20:11:46,757.47275586642,38.713912,0.0,1.40362865384,11.3138783148,15,5,7.632,758.12892386642,37.401576,0.671082,2.64576123952,0.0,0.0,0.0,11.8,2.3,-0.2,0,0,1024,1024,1024,1024,0,0,0,0,0,0,0,79,3.816,3.817,0,0,0,0,4.828,72.86,757.47275586642,36.745408,6,P-GPS,,11.2
298800,2026-01-09 20:11:46,757.47275586642,38.713912,0.0,1.37291014892,11.34596493,15,5,7.632,758.12892386642,37.401576,0.671082,2.64576123952,0.0,0.0,0.0,11.7,2.3,0.0,0,0,1024,1024,1024,1024,0,0,0,0,0,0,0,79,3.816,3.817,0,0,0,0,4.828,72.86,757.47275586642,36.745408,6,P-GPS,,11.2
298900,2026-01-09 20:11:46,757.47275586642,38.713912,0.0,1.3557907258,11.3632549568,15,5,7.631,758.12892386642,37.401576,0.671082,2.64576123952,0.0,0.0,0.0,11.8,2.1,0.0,0,0,1024,1024,1024,1024,0,0,0,0,0,0,0,79,3.816,3.815,0,0,0,0,4.939,72.86,757.47275586642,36.745408,6,P-GPS,,11.2
299000,2026-01-09 20:11:46,757.47275586642,38.713912,0.0,1.34388783828,11.3769360596,15,5,7.631,758.12892386642,37.401576,0.671082,2.64576123952,0.0,0.0,0.0,11.7,2.4,-0.2,0,0,1024,1024,1024,1024,0,0,0,0,0,0,0,79,3.816,3.815,0,0,0,0,4.939,72.86,757.47275586642,36.745408,6,P-GPS,,11.2
299100,2026-01-09 20:11:47,757.47275586642,38.713912,0.0,1.34024938672,11.3913389472,15,5,7.631,758.12892386642,37.401576,0.671082,2.64576123952,0.0,0.0,0.0,11.7,2.5,-0.1,0,0,1024,1024,1024,1024,0,0,0,0,0,0,0,79,3.816,3.815,0,0,0,0,4.939,72.86,757.47275586642,36.745408,6,P-GPS,,11.2
299200,2026-01-09 20:11:47,757.47275586642,38.713912,0.0,1.34126972796,11.403051546,15,5,7.631,758.12892386642,37.401576,0.671082,2.64576123952,0.0,0.0,0.0,11.8,2.7,0.0,0,0,1024,1024,1024,1024,0,0,0,0,0,0,0,79,3.816,3.815,0,0,0,0,4.939,72.86,757.47275586642,36.745408,6,P-GPS,,11.2
299300,2026-01-09 20:11:47,757.47275586642,38.713912,0.0,1.37408468964,11.4387142768,15,5,7.631,758.12892386642,37.401576,0.671082,2.64576123952,0.0,0.0,0.0,11.8,3.0,0.1,0,0,1024,1024,1024,1024,0,0,0,0,0,0,0,79,3.816,3.815,0,0,0,0,4.939,72.86,757.47275586642,36.745408,6,P-GPS,,11.2
299400,2026-01-09 20:11:47,757.47275586642,38.713912,0.0,1.3786417764,11.4488520724,15,5,7.631,758.12892386642,37.401576,0.671082,2.64576123952,0.0,0.0,0.0,11.8,2.8,0.0,0,0,1024,1024,1024,1024,0,0,0,0,0,0,0,79,3.816,3.815,0,0,0,0,4.939,72.86,757.47275586642,36.745408,6,P-GPS,,11.2
299500,2026-01-09 20:11:47,757.47275586642,38.713912,0.0,1.37569886292,11.4631893432,15,5,7.631,758.12892386642,37.401576,0.671082,2.64576123952,0.0,0.0,0.0,11.7,3.2,-0.2,0,0,1024,1024,1024,1024,0,0,0,0,0,0,0,79,3.816,3.815,0,0,0,0,4.939,72.86,757.47275586642,36.745408,6,P-GPS,,11.2
299600,2026-01-09 20:11:47,757.47275586642,38.713912,0.0,1.36349741896,11.4776250392,15,5,7.631,758.12892386642,37.401576,0.671082,2.64576123952,0.0,0.0,0.0,11.8,2.7,0.0,0,0,1024,1024,1024,1024,0,0,0,0,0,0,0,79,3.816,3.815,0,0,0,0,4.939,72.86,757.47275586642,36.745408,6,P-GPS,,11.2
299700,2026-01-09 20:11:47,757.47275586642,38.713912,0.0,1.29790358484,11.5433730728,15,5,7.631,758.12892386642,37.401576,0.671082,2.64576123952,0.0,0.0,0.0,11.8,2.4,0.0,0,0,1024,1024,1024,1024,0,0,0,0,0,0,0,79,3.816,3.815,0,0,0,0,4.939,72.86,757.47275586642,36.745408,6,P-GPS,,11.2
299800,2026-01-09 20:11:47,757.47275586642,38.713912,0.0,1.270833374,11.5705712364,15,5,7.631,758.12892386642,37.401576,0.671082,2.64576123952,0.0,0.0,0.0,11.7,2.4,0.0,0,0,1024,1024,1024,1024,0,0,0,0,0,0,0,79,3.816,3.815,0,0,0,0,4.939,72.86,757.47275586642,36.745408,6,P-GPS,,11.2
299900,2026-01-09 20:11:47,757.47275586642,38.713912,0.0,1.24855318956,11.594324518,15,5,7.631,758.12892386642,37.401576,0.671082,2.64576123952,0.0,0.0,0.0,11.7,2.5,0.0,0,0,1024,1024,1024,1024,0,0,0,0,0,0,0,79,3.816,3.815,0,0,0,0,4.939,72.86,757.47275586642,36.745408,6,P-GPS,,11.2
300000,2026-01-09 20:11:48,757.47275586642,38.713912,0.0,1.22421919928,11.619751028,15,5,7.623,758.12892386642,37.401576,0.671082,2.64576123952,0.0,0.0,0.0,11.7,2.5,0.2,0,0,1024,1024,1024,1024,0,0,0,0,0,0,0,79,3.811,3.812,0,0,0,0,5.001,72.86,757.47275586642,36.745408,6,P-GPS,,11.2
300100,2026-01-09 20:11:48,757.47275586642,38.713912,0.0,1.16310371176,11.6808730772,15,5,7.623,758.12892386642,37.401576,0.671082,2.64576123952,0.0,0.0,0.0,11.6,2.4,-0.2,0,0,1024,1024,1024,1024,0,0,0,0,0,0,0,79,3.811,3.812,0,0,0,0,5.001,72.86,757.47275586642,36.745408,6,P-GPS,,11.2
300200,2026-01-09 20:11:48,757.80083986642,38.713912,0.0,1.13002956372,11.7146329208,16,5,7.623,758.12892386642,37.401576,0.671082,2.64576123952,0.0,0.0,0.0,11.6,2.4,-0.8,0,0,1024,1024,1024,1024,0,0,0,0,0,0,0,79,3.811,3.812,0,0,0,0,5.001,72.86,757.80083986642,37.073492,6,P-GPS,,11.3
300300,2026-01-09 20:11:48,757.80083986642,38.713912,0.0,1.09646985136,11.7490817408,16,5,7.623,758.12892386642,37.401576,0.671082,2.64576123952,0.0,0.0,0.0,11.6,2.4,-1.2,0,0,1024,1024,1024,1024,0,0,0,0,0,0,0,79,3.811,3.812,0,0,0,0,5.001,72.86,757.80083986642,37.073492,6,P-GPS,,11.3
300400,2026-01-09 20:11:48,757.80083986642,38.713912,0.0,1.07044622848,11.7763127128,16,5,7.623,758.12892386642,37.401576,0.671082,2.64576123952,0.0,0.0,0.0,11.6,2.6,-1.2,0,0,1024,1024,1024,1024,0,0,0,0,0,0,0,79,3.811,3.812,0,0,0,0,5.001,72.86,757.80083986642,37.073492,6,P-GPS,,11.3
300500,2026-01-09 20:11:48,757.80083986642,38.713912,0.0,1.06884189772,11.7907484088,16,5,7.623,758.12892386642,37.401576,0.671082,2.64576123952,0.0,0.0,0.0,11.6,2.5,-0.9,0,0,1024,1024,1024,1024,0,0,0,0,0,0,0,79,3.811,3.812,0,0,0,0,5.001,72.86,757.80083986642,37.073492,6,P-GPS,,11.3
300600,2026-01-09 20:11:48,757.80083986642,38.713912,0.0,1.04610239568,11.814632924,16,5,7.623,758.12892386642,37.401576,0.671082,2.64576123952,0.0,0.0,0.0,11.7,2.2,-1.0,0,0,1024,1024,1024,1024,0,0,0,0,0,0,0,79,3.811,3.812,0,0,0,0,5.001,72.86,757.80083986642,37.073492,6,P-GPS,,11.3
300700,2026-01-09 20:11:48,757.80083986642,38.713912,0.0,1.00185698744,11.8589898808,16,5,7.623,758.12892386642,37.401576,0.671082,2.64576123952,0.0,0.0,0.0,11.7,2.3,-1.1,0,0,1024,1024,1024,1024,0,0,0,0,0,0,0,79,3.811,3.812,0,0,0,0,5.001,72.86,757.80083986642,37.073492,6,P-GPS,,11.3
300800,2026-01-09 20:11:48,757.80083986642,38.713912,0.0,0.97016407304,11.8908796456,16,5,7.623,758.12892386642,37.401576,0.671082,2.64576123952,0.0,0.0,0.0,11.6,2.2,-1.0,0,0,1024,1024,1024,1024,0,0,0,0,0,0,0,79,3.811,3.812,0,0,0,0,5.001,72.86,757.80083986642,37.073492,6,P-GPS,,11.3
300900,2026-01-09 20:11:48,757.80083986642,38.713912,0.0,0.96055121184,11.9018704596,16,5,7.623,758.12892386642,37.401576,0.671082,2.64576123952,0.0,0.0,0.0,11.7,2.4,-1.3,0,0,1024,1024,1024,1024,0,0,0,0,0,0,0,79,3.811,3.812,0,0,0,0,5.001,72.86,757.80083986642,37.073492,6,P-GPS,,11.3
301000,2026-01-09 20:11:49,757.80083986642,38.713912,0.0,0.9490977994,11.9134518248,16,5,7.623,758.12892386642,37.401576,0.671082,2.64576123952,0.0,0.0,0.0,11.7,2.2,-1.3,0,0,1024,1024,1024,1024,0,0,0,0,0,0,0,79,3.811,3.812,0,0,0,0,5.001,72.86,757.80083986642,37.073492,6,P-GPS,,11.3
301100,2026-01-09 20:11:49,757.80083986642,38.713912,0.0,0.93251971488,11.93487571,16,5,7.628,758.12892386642,37.401576,0.671082,2.64576123952,0.0,0.0,0.0,11.7,2.2,-1.0,0,0,1024,1024,1024,1024,0,0,0,0,0,0,0,79,3.813,3.814,0,0,0,0,4.832,72.86,757.80083986642,37.073492,6,P-GPS,,11.3
301200,2026-01-09 20:11:49,757.80083986642,38.713912,0.0,0.92362535764,11.9524610124,16,5,7.628,758.12892386642,37.401576,0.671082,2.64576123952,0.0,0.0,0.0,11.8,2.5,-1.1,0,0,1024,1024,1024,1024,0,0,0,0,0,0,0,79,3.813,3.814,0,0,0,0,4.832,72.86,757.80083986642,37.073492,6,P-GPS,,11.3
301300,2026-01-09 20:11:49,758.12892386642,38.713912,0.0,0.92978021348,11.9724741364,16,5,7.628,758.12892386642,37.401576,0.671082,2.64576123952,0.0,0.0,0.0,11.8,2.6,-1.0,0,0,1024,1024,1024,1024,0,0,0,0,0,0,0,79,3.813,3.814,0,0,0,0,4.832,72.86,758.12892386642,37.401576,6,P-GPS,,11.4
301400,2026-01-09 20:11:49,758.12892386642,38.713912,0.0,0.9553970122,12.0202759752,15,5,7.628,758.12892386642,37.401576,0.671082,2.64576123952,0.0,0.0,0.0,11.7,2.1,-1.9,0,0,1024,1024,1024,1024,0,0,0,0,0,0,0,79,3.813,3.814,0,0,0,0,4.832,72.86,758.12892386642,37.401576,6,P-GPS,,11.4
301500,2026-01-09 20:11:49,758.12892386642,38.713912,0.0,0.94424543704,12.049212984,15,5,7.628,758.12892386642,37.401576,0.671082,2.64576123952,0.0,0.0,0.0,11.8,2.6,-1.9,0,0,1024,1024,1024,1024,0,0,0,0,0,0,0,79,3.813,3.814,0,0,0,0,4.832,72.86,758.12892386642,37.401576,6,P-GPS,,11.4
301600,2026-01-09 20:11:49,758.12892386642,38.713912,0.0,0.94145016136,12.0728022236,15,5,7.628,758.12892386642,37.401576,0.671082,2.64576123952,0.0,0.0,0.0,11.8,3.1,-1.6,0,0,1024,1024,1024,1024,0,0,0,0,0,0,0,79,3.813,3.814,0,0,0,0,4.832,72.86,758.12892386642,37.401576,6,P-GPS,,11.4
